~Version Information Section
VERS.                                         2.0:CWLS log ASCII Standart – VERSION 2.0
WRAP.                                          NO:One line per depth step
~Well Information Section
STRT.M                                        7.7:Начальная глубина
STOP.M                                      168.6:Конечная глубина
STEP.M                                          0:Шаг квантования по глубине
NULL.                                    -9999.25:Признак "Нет данных"
WELL.                                       137Мх:Скважина
~Parameter Information Section
~Curve Information Section
DEPTH.M                                          :Глубина
ГК.мкР/ч                                         :GK
U1.                                              :U1
U12.                                             :U12
U2.                                              :U2
W.усл.ед                                         :W
ЗОНД.                                            :Зонд N0
НГК.                                             :НГК
ННКМ.усл.ед                                      :ННКм
ПЛОТНОСТЬ.г/см3                                  :плотность
РЕЗИСТИВИМЕТР.Ом                                 :Резистивиметр
~ASCII LOG DATA
# ...
68.7        5.481       460.585     410.877     366.586     26.152      81.912      1.37        1.514       2.337       0.515       
68.8        6.248       505.439     439.052     381.726     25.633      80.819      1.361       1.507       2.335       0.536       
68.9        6.738       569.018     447.26      360.756     25.616      79.502      1.343       1.5         2.316       0.54        
69.0        6.411       651.321     435.502     303.678     25.88       77.714      1.319       1.521       2.305       0.526       
69.1        6.043       699.691     435.267     279.944     26.403      75.477      1.309       1.534       2.291       0.517       
69.2        6.046       679.151     445.074     300.9       27.085      72.72       1.319       1.525       2.296       0.515       
69.3        6.141       687.973     524.228     406.599     27.761      69.631      1.34        1.522       2.303       0.515       
69.4        6.339       677.957     549.984     446.694     28.178      65.165      1.347       1.501       2.312       0.519       
69.5        6.334       649.104     522.343     421.186     27.984      57.561      1.345       1.507       2.312       0.518       
69.6        6.354       563.276     440.227     344.587     27.329      48.125      1.339       1.52        2.293       0.51        
69.7        6.426       537.584     416.342     322.555     26.952      39.994      1.321       1.516       2.272       0.505       
69.8        6.736       485.261     414.639     362.657     26.947      35.341      1.296       1.51        2.26        0.505       
69.9        7.101       465.299     432.803     410.79      27.198      34.099      1.274       1.446       2.263       0.506       
70.0        7.198       477.698     470.834     466.954     27.35       34.859      1.255       1.415       2.269       0.501       
70.1        7.272       467.446     454.727     444.266     27.38       38.886      1.267       1.406       2.263       0.493       
70.2        7.324       492.718     448.898     416.028     27.297      50.955      1.297       1.405       2.242       0.489       
70.3        7.331       553.515     453.348     382.241     27.052      70.689      1.308       1.393       2.227       0.489       
70.4        7.45        766.359     569.124     427.89      26.718      90.437      1.294       1.397       2.226       0.491       
70.5        7.908       953.95      675.896     479.209     26.607      106.707     1.317       1.413       2.263       0.5         
70.6        8.39        1126.44     786.008     548.62      26.505      116.069     1.395       1.428       2.308       0.513       
70.7        8.508       1309.084    908.468     630.453     26.371      114.74      1.48        1.491       2.335       0.52        
70.8        8.088       1474.948    1036.589    728.696     26.544      108.546     1.477       1.508       2.322       0.52        
70.9        6.81        1546.14     1123.722    819.626     26.9        103.314     1.41        1.52        2.281       0.52        
71.0        5.339       1522.658    1169.868    903.242     26.769      99.118      1.379       1.671       2.241       0.52        
71.1        4.147       1536.8      1199.885    941.931     26.633      95.884      1.388       1.709       2.219       0.525       
71.2        3.162       1656.303    1248.074    946.997     26.271      93.601      1.414       1.701       2.234       0.54        
71.3        2.494       1812.394    1373.866    1048.326    25.395      91.445      1.444       1.702       2.279       0.558       
71.4        2.254       1836.342    1441.334    1138.712    24.627      87.948      1.5         1.712       2.344       0.57        
71.5        2.253       1728.145    1450.478    1218.157    24.603      82.235      1.572       1.745       2.398       0.577       
71.6        2.278       1572.635    1320.623    1110.969    24.656      74.756      1.611       1.793       2.429       0.58        
71.7        2.397       1433.184    1169.525    957.98      24.66       65.909      1.636       1.817       2.436       0.58        
71.8        2.619       1224.253    924.332     704.17      24.49       56.037      1.624       1.84        2.432       0.577       
71.9        2.824       977.419     702.157     509.184     23.71       46.435      1.552       1.939       2.425       0.57        
72.0        2.901       692.679     503.0       373.024     22.573      38.052      1.498       1.989       2.412       0.563       
72.1        3.283       551.387     408.926     318.184     21.522      32.689      1.458       2.09        2.392       0.559       
72.2        4.061       505.91      324.061     230.82      21.167      31.212      1.376       2.141       2.365       0.558       
72.3        5.144       516.501     273.441     155.936     22.113      34.153      1.274       1.853       2.342       0.557       
72.4        6.545       521.398     289.36      173.971     23.579      42.631      1.193       1.795       2.338       0.557       
72.5        8.248       520.6       371.818     284.924     25.899      53.145      1.173       1.498       2.334       0.56        
72.6        9.447       465.123     380.668     321.119     27.895      62.049      1.211       1.418       2.329       0.571       
72.7        9.755       405.501     356.814     314.138     29.738      67.289      1.299       1.299       2.305       0.563       
72.8        9.523       341.732     300.257     263.982     30.411      67.962      1.349       1.325       2.286       0.533       
72.9        8.514       391.834     345.854     305.447     30.936      67.323      1.349       1.364       2.271       0.518       
73.0        7.472       471.223     411.201     359.037     30.187      67.901      1.333       1.433       2.274       0.518       
73.1        6.919       570.207     474.472     396.726     29.302      69.85       1.341       1.478       2.284       0.525       
73.2        6.435       659.503     515.916     406.391     28.266      72.548      1.373       1.586       2.294       0.554       
73.3        6.297       569.47      454.385     369.348     27.902      73.981      1.414       1.608       2.315       0.601       
73.4        6.475       495.09      399.508     331.387     27.459      72.751      1.396       1.576       2.336       0.612       
73.5        6.943       436.363     351.285     292.509     27.271      68.517      1.377       1.58        2.36        0.587       
73.6        7.09        529.115     398.089     304.834     27.127      62.451      1.362       1.6         2.37        0.558       
73.7        7.153       588.052     452.114     350.595     26.719      57.618      1.342       1.609       2.363       0.528       
73.8        7.144       624.19      488.522     384.304     26.07       55.389      1.331       1.644       2.349       0.514       
73.9        7.038       639.136     523.247     434.708     25.796      54.822      1.31        1.605       2.332       0.511       
74.0        6.841       632.889     556.291     501.809     25.779      55.172      1.296       1.528       2.324       0.511       
74.1        6.963       652.876     568.865     509.473     26.025      58.158      1.285       1.486       2.322       0.514       
74.2        7.418       711.531     592.981     505.452     26.558      64.861      1.286       1.465       2.322       0.524       
74.3        7.865       808.853     628.641     489.745     27.585      72.825      1.293       1.383       2.322       0.537       
74.4        7.795       786.09      640.494     524.446     28.747      83.725      1.291       1.367       2.321       0.551       
74.5        6.911       663.015     573.371     499.621     30.197      104.744     1.242       1.337       2.328       0.559       
74.6        5.492       570.179     512.758     464.336     31.691      136.696     1.201       1.337       2.345       0.561       
74.7        4.617       607.896     537.629     478.12      32.534      171.883     1.2         1.435       2.375       0.571       
