~Version Information Section
VERS.                                         2.0:CWLS log ASCII Standart – VERSION 2.0
WRAP.                                          NO:One line per depth step
~Well Information Section
STRT.M                                        0.1:Начальная глубина
STOP.M                                      202.9:Конечная глубина
STEP.M                                          0:Шаг квантования по глубине
NULL.                                    -9999.25:Признак "Нет данных"
WELL.                                       155Мх:Скважина
~Parameter Information Section
~Curve Information Section
DEPTH.M                                          :Глубина
BK.Ohm*M                                         :BK     (БК)
DS.mm                                            :DS  (ДС)
GGK.g/cm3                                        :GGKp
ГК.mcr/h                                         :GK          (ГК)
GZ1.Ohm*M                                        :GZ1   ГЗ1(A0.4M0.1N)
GZ2.Ohm*M                                        :GZ2   ГЗ2(A1.0M0.1N)
GZ3.Ohm*M                                        :GZ3   ГЗ3(A2.0M0.5N)
GZ4.Ohm*M                                        :GZ4   ГЗ4(A4.0M0.5N)
GZ5.Ohm*M                                        :GZ5   ГЗ5(A8.0M0.5N)
GZR.                                             :GZR   ГЗK(N0.5M2.0A)
ИК.Ohm*M                                         :IK
НГК.ue                                           :NGK     (НГК)
NNKM.                                            :NNKm  (ННКм)
PS.mv                                            :PS       (ПС)
PZ.Ohm*M                                         :PZ    (КС)
RS.Ohm*M                                         :RS (Резистивиметр)
W.%                                              :W
~ASCII LOG DATA
# ...
7.5         -9999.25    188.845     2.259       3.425       -9999.25    -9999.25    -9999.25    25.257      -9999.25    38.085      -9999.25    0.894       0.988       -9999.25    -9999.25    1.206       33.498      
7.6         -9999.25    187.974     2.28        3.341       -9999.25    -9999.25    -9999.25    40.417      -9999.25    54.166      -9999.25    0.93        1.051       -9999.25    -9999.25    1.206       32.135      
7.7         -9999.25    188.81      2.293       3.241       -9999.25    -9999.25    -9999.25    56.363      -9999.25    68.602      -9999.25    0.953       1.11        -9999.25    -9999.25    1.206       30.273      
7.8         -9999.25    196.262     2.293       3.155       -9999.25    -9999.25    -9999.25    63.795      -9999.25    72.607      -9999.25    0.96        1.228       23.308      -9999.25    1.206       28.464      
7.9         -9999.25    197.285     2.28        3.14        -9999.25    -9999.25    -9999.25    63.028      -9999.25    68.096      -9999.25    0.967       1.301       23.094      -9999.25    1.206       27.173      
8.0         -9999.25    196.533     2.258       3.214       -9999.25    -9999.25    -9999.25    55.981      -9999.25    58.805      -9999.25    0.983       1.33        23.322      -9999.25    1.206       27.431      
8.1         -9999.25    198.618     2.233       3.345       -9999.25    -9999.25    -9999.25    41.338      -9999.25    45.123      -9999.25    0.999       1.292       24.059      -9999.25    1.206       27.746      
8.2         -9999.25    203.536     2.208       3.51        -9999.25    -9999.25    -9999.25    25.66       -9999.25    32.379      -9999.25    1.004       1.227       25.213      -9999.25    1.207       27.698      
8.3         -9999.25    199.648     2.189       3.706       -9999.25    -9999.25    -9999.25    17.554      -9999.25    26.995      -9999.25    0.996       1.189       26.515      -9999.25    1.208       27.764      
8.4         -9999.25    195.342     2.176       3.918       -9999.25    -9999.25    -9999.25    14.52       -9999.25    25.832      -9999.25    0.975       1.154       27.713      -9999.25    1.206       27.519      
8.5         -9999.25    193.074     2.171       4.119       -9999.25    -9999.25    -9999.25    13.005      -9999.25    25.61       -9999.25    0.948       1.14        28.677      -9999.25    1.206       27.173      
8.6         -9999.25    193.699     2.172       4.277       -9999.25    -9999.25    -9999.25    12.049      -9999.25    25.928      -9999.25    0.931       1.118       29.529      -9999.25    1.206       27.634      
8.7         -9999.25    195.674     2.179       4.355       -9999.25    -9999.25    -9999.25    11.143      -9999.25    26.064      -9999.25    0.938       1.09        30.377      -9999.25    1.206       29.176      
8.8         -9999.25    196.314     2.188       4.342       -9999.25    -9999.25    -9999.25    10.581      -9999.25    26.335      -9999.25    0.951       1.067       30.999      -9999.25    1.206       31.418      
8.9         -9999.25    196.708     2.195       4.254       -9999.25    -9999.25    -9999.25    11.151      -9999.25    28.509      -9999.25    0.938       1.065       31.101      -9999.25    1.206       32.785      
9.0         -9999.25    196.452     2.195       4.132       -9999.25    -9999.25    -9999.25    12.7        -9999.25    32.519      -9999.25    0.901       1.064       30.738      -9999.25    1.206       32.94       
9.1         -9999.25    197.658     2.185       4.02        -9999.25    -9999.25    -9999.25    14.909      -9999.25    36.588      -9999.25    0.882       1.05        30.5        -9999.25    1.206       32.667      
9.2         -9999.25    200.123     2.166       3.959       -9999.25    -9999.25    -9999.25    17.497      -9999.25    39.829      -9999.25    0.903       1.055       30.651      -9999.25    1.206       31.858      
9.3         -9999.25    201.522     2.144       3.961       -9999.25    -9999.25    -9999.25    18.73       -9999.25    40.909      -9999.25    0.947       1.093       30.737      -9999.25    1.206       30.469      
9.4         -9999.25    202.906     2.125       4.012       -9999.25    -9999.25    -9999.25    17.52       -9999.25    38.633      -9999.25    0.989       1.134       30.122      -9999.25    1.206       29.991      
9.5         -9999.25    202.709     2.114       4.114       -9999.25    -9999.25    -9999.25    15.23       -9999.25    33.883      -9999.25    1.025       1.146       28.862      -9999.25    1.206       30.556      
9.6         -9999.25    203.646     2.11        4.277       61.383      -9999.25    -9999.25    13.311      -9999.25    28.62       -9999.25    1.042       1.125       27.832      -9999.25    1.206       31.257      
9.7         -9999.25    205.572     2.111       4.494       51.803      -9999.25    -9999.25    10.698      -9999.25    22.2        -9999.25    1.013       1.104       27.457      -9999.25    1.208       32.35       
9.8         -9999.25    205.579     2.113       4.738       43.357      -9999.25    -9999.25    8.852       -9999.25    18.161      -9999.25    0.949       1.076       27.181      -9999.25    1.211       33.806      
9.9         -9999.25    208.194     2.113       4.954       38.626      -9999.25    -9999.25    8.933       -9999.25    18.173      -9999.25    0.887       1.05        25.861      42.209      1.211       34.556      
10.0        -9999.25    213.161     2.109       5.086       34.231      -9999.25    -9999.25    9.182       -9999.25    18.872      -9999.25    0.865       1.032       22.944      42.444      1.207       34.662      
10.1        -9999.25    213.381     2.102       5.09        30.389      -9999.25    -9999.25    9.293       -9999.25    19.715      -9999.25    0.889       1.028       19.265      42.899      1.206       34.85       
10.2        -9999.25    217.229     2.093       4.988       28.696      25.566      -9999.25    9.582       -9999.25    20.61       -9999.25    0.922       1.026       16.095      42.658      1.206       34.785      
10.3        -9999.25    219.698     2.084       4.844       28.361      27.177      -9999.25    10.204      -9999.25    21.552      -9999.25    0.929       1.018       14.514      41.594      1.206       33.96       
10.4        -9999.25    212.805     2.073       4.725       27.16       27.278      -9999.25    10.778      -9999.25    22.66       -9999.25    0.905       0.996       14.72       40.093      1.206       33.306      
10.5        -9999.25    212.517     2.062       4.663       26.352      28.006      -9999.25    11.316      -9999.25    23.94       -9999.25    0.88        0.973       16.321      38.938      1.206       33.557      
10.6        -9999.25    213.372     2.051       4.649       27.468      29.794      -9999.25    12.25       -9999.25    25.007      -9999.25    0.877       0.958       18.67       38.389      1.206       34.772      
10.7        -9999.25    215.521     2.041       4.627       29.032      30.554      -9999.25    13.586      -9999.25    26.176      -9999.25    0.889       0.959       20.694      38.348      1.206       35.921      
10.8        -9999.25    216.447     2.033       4.555       29.953      30.331      -9999.25    14.958      -9999.25    27.204      -9999.25    0.897       0.964       21.787      38.79       1.206       37.066      
10.9        -9999.25    217.405     2.027       4.458       30.618      30.867      -9999.25    16.156      -9999.25    27.881      -9999.25    0.892       0.958       21.714      39.255      1.206       38.263      
11.0        -9999.25    222.553     2.022       4.381       32.559      33.338      -9999.25    17.22       -9999.25    28.226      -9999.25    0.884       0.946       20.779      39.537      1.206       38.185      
11.1        -9999.25    222.152     2.017       4.356       36.044      36.518      -9999.25    17.93       9.531       28.084      -9999.25    0.895       0.936       19.332      39.699      1.206       36.93       
