~Version Information Section
VERS.                                         2.0:CWLS log ASCII Standart – VERSION 2.0
WRAP.                                          NO:One line per depth step
~Well Information Section
STRT.M                                        0.1:Начальная глубина
STOP.M                                      202.9:Конечная глубина
STEP.M                                          0:Шаг квантования по глубине
NULL.                                    -9999.25:Признак "Нет данных"
WELL.                                       155Мх:Скважина
~Parameter Information Section
~Curve Information Section
DEPTH.M                                          :Глубина
BK.Ohm*M                                         :BK     (БК)
DS.mm                                            :DS  (ДС)
GGK.g/cm3                                        :GGKp
ГК.mcr/h                                         :GK          (ГК)
GZ1.Ohm*M                                        :GZ1   ГЗ1(A0.4M0.1N)
GZ2.Ohm*M                                        :GZ2   ГЗ2(A1.0M0.1N)
GZ3.Ohm*M                                        :GZ3   ГЗ3(A2.0M0.5N)
GZ4.Ohm*M                                        :GZ4   ГЗ4(A4.0M0.5N)
GZ5.Ohm*M                                        :GZ5   ГЗ5(A8.0M0.5N)
GZR.                                             :GZR   ГЗK(N0.5M2.0A)
ИК.Ohm*M                                         :IK
НГК.ue                                           :NGK     (НГК)
NNKM.                                            :NNKm  (ННКм)
PS.mv                                            :PS       (ПС)
PZ.Ohm*M                                         :PZ    (КС)
RS.Ohm*M                                         :RS (Резистивиметр)
W.%                                              :W
~ASCII LOG DATA
# ...
33.4        32.651      162.301     2.148       5.429       62.223      49.63       23.312      32.036      8.242       31.736      29.652      1.072       1.244       77.046      55.678      1.215       29.375      
33.5        31.663      162.169     2.169       5.619       57.905      51.181      22.111      30.619      7.997       30.268      29.033      0.996       1.225       75.836      52.28       1.213       29.249      
33.6        31.226      161.987     2.194       5.804       52.875      51.999      21.839      29.101      7.741       29.043      28.167      0.938       1.228       74.125      49.627      1.211       28.66       
33.7        29.606      162.336     2.217       5.947       49.001      51.34       21.46       27.545      7.474       28.088      27.364      0.912       1.22        72.744      47.43       1.208       28.415      
33.8        28.435      163.009     2.234       6.049       46.673      48.534      21.093      25.806      7.078       26.992      26.882      0.895       1.194       72.141      45.07       1.206       27.994      
33.9        27.585      163.348     2.242       6.159       44.327      45.36       20.988      24.297      6.725       25.624      26.188      0.886       1.153       72.047      42.702      1.206       27.363      
34.0        26.111      163.89      2.238       6.277       41.159      41.931      20.916      22.778      6.49        24.052      25.729      0.886       1.119       72.307      40.244      1.206       27.669      
34.1        24.244      164.05      2.223       6.389       38.047      37.941      20.575      21.042      6.395       22.583      25.547      0.891       1.082       73.226      38.312      1.206       29.084      
34.2        23.04       164.196     2.199       6.477       35.184      33.461      20.013      19.866      6.417       21.803      25.506      0.891       1.043       75.042      36.946      1.206       30.23       
34.3        20.94       164.318     2.171       6.501       31.828      28.654      20.003      19.231      6.87        21.54       25.456      0.887       1.005       77.412      35.41       1.206       31.342      
34.4        18.76       164.391     2.143       6.414       27.976      26.384      21.073      19.238      7.654       22.363      25.261      0.887       0.959       79.434      33.825      1.206       32.775      
34.5        18.427      164.594     2.119       6.216       25.403      26.055      23.689      20.549      9.447       25.553      25.162      0.903       0.935       80.775      33.084      1.206       33.087      
34.6        18.58       165.187     2.102       5.975       24.701      28.294      27.733      22.798      11.323      28.896      24.996      0.94        0.934       81.632      32.894      1.206       32.067      
34.7        20.605      169.536     2.09        5.722       26.483      32.896      33.751      24.994      13.033      31.512      24.804      0.982       0.968       82.521      33.004      1.206       31.148      
34.8        28.518      172.038     2.083       5.498       30.689      35.214      40.655      26.764      16.505      33.736      25.09       1.005       1.026       83.61       33.282      1.206       30.468      
34.9        37.751      176.253     2.078       5.334       36.238      35.888      44.626      27.894      21.263      35.099      25.441      1.002       1.079       84.671      33.932      1.206       29.852      
35.0        39.855      188.58      2.075       5.246       42.366      36.372      45.594      27.97       26.811      35.314      25.916      0.989       1.141       85.788      34.783      1.206       29.89       
35.1        39.613      200.07      2.07        5.172       48.292      36.042      45.494      27.335      31.497      34.413      26.57       0.98        1.173       86.977      35.443      1.206       30.584      
35.2        38.304      197.468     2.065       5.116       53.208      34.585      44.753      26.669      33.311      33.344      27.593      0.973       1.198       87.664      36.151      1.206       31.108      
35.3        35.75       191.905     2.06        5.091       54.13       32.466      44.035      26.212      33.344      33.077      28.282      0.966       1.197       86.966      37.843      1.207       31.339      
35.4        32.862      178.925     2.056       5.075       52.983      32.251      43.646      26.062      33.567      33.745      28.36       0.966       1.189       84.681      40.351      1.207       31.646      
35.5        33.058      171.176     2.054       4.994       54.092      34.197      43.711      26.427      33.823      34.78       28.769      0.976       1.18        81.798      42.586      1.209       31.461      
35.6        36.474      168.917     2.055       4.839       55.814      37.924      44.433      27.278      34.094      35.539      28.789      0.992       1.169       79.38       44.934      1.209       30.576      
35.7        41.363      167.285     2.059       4.656       57.673      41.632      45.326      28.382      34.346      35.375      28.311      1.008       1.165       77.715      46.933      1.208       30.549      
35.8        47.449      165.66      2.063       4.485       60.64       45.744      46.144      29.42       34.513      33.734      27.676      1.014       1.156       76.817      48.023      1.207       31.047      
35.9        46.0        164.346     2.065       4.347       64.66       50.338      46.654      30.372      34.65       32.416      27.492      1.01        1.148       76.336      48.679      1.207       32.078      
36.0        46.486      164.385     2.066       4.298       68.779      53.38       46.796      31.348      34.429      32.591      27.056      1.001       1.121       75.673      49.093      1.208       33.735      
36.1        46.789      164.353     2.066       4.381       72.844      55.446      46.507      32.212      33.867      32.89       26.441      0.993       1.099       74.434      49.41       1.211       34.162      
36.2        46.03       164.383     2.07        4.582       76.634      56.743      45.522      32.501      31.843      32.963      26.151      0.986       1.099       72.739      49.885      1.213       32.977      
36.3        43.202      164.463     2.082       4.853       77.414      56.693      44.452      32.033      29.63       32.323      25.388      0.972       1.119       71.202      50.375      1.215       31.837      
36.4        38.692      164.46      2.103       5.168       77.008      56.85       40.913      31.226      27.319      30.079      24.583      0.943       1.161       69.887      50.515      1.215       30.547      
36.5        33.901      164.471     2.131       5.511       76.182      55.393      36.575      30.129      25.083      27.549      24.036      0.904       1.186       68.53       49.224      1.215       29.315      
36.6        24.865      164.531     2.16        5.872       60.616      48.794      32.718      28.547      23.29       26.117      23.436      0.894       1.179       67.192      46.44       1.215       29.528      
36.7        18.351      164.646     2.183       6.227       43.822      39.466      28.175      26.386      21.095      24.641      22.849      0.927       1.141       65.922      42.972      1.213       30.521      
36.8        16.577      164.989     2.196       6.569       35.712      32.79       23.928      23.552      19.666      23.093      21.973      0.961       1.075       64.854      38.844      1.21        31.303      
36.9        16.42       165.248     2.196       6.832       30.043      30.287      21.342      21.442      18.083      22.311      21.183      0.942       1.033       63.942      34.178      1.209       31.993      
37.0        16.321      165.386     2.187       6.955       28.137      27.236      21.758      21.056      16.942      23.028      20.539      0.888       1.0         63.528      30.795      1.207       32.564      
