~Version Information Section
VERS.                                         2.0:CWLS log ASCII Standart – VERSION 2.0
WRAP.                                          NO:One line per depth step
~Well Information Section
STRT.M                                        1.2:Начальная глубина
STOP.M                                      169.4:Конечная глубина
STEP.M                                          0:Шаг квантования по глубине
NULL.                                    -9999.25:Признак "Нет данных"
WELL.                                       114Мх:Скважина
~Parameter Information Section
~Curve Information Section
DEPTH.M                                          :Глубина
BK.Ohm*M                                         :BK     (БК)
DS.mm                                            :DS  (ДС)
GGK.g/cm3                                        :GGKp
ГК.mcr/h                                         :GK          (ГК)
GZ1.Ohm*M                                        :GZ1   ГЗ1(A0.4M0.1N)
GZ2.Ohm*M                                        :GZ2   ГЗ2(A1.0M0.1N)
GZ3.Ohm*M                                        :GZ3   ГЗ3(A2.0M0.5N)
GZ4.Ohm*M                                        :GZ4   ГЗ4(A4.0M0.5N)
GZ5.Ohm*M                                        :GZ5   ГЗ5(A8.0M0.5N)
GZR.Ohm*M                                        :GZK   ГЗK(N0.5M2.0A)
ИК.Ohm*M                                         :IK
НГК.ue                                           :NGK     (НГК)
NNKM.                                            :NNKm  (ННКм)
PS.mv                                            :PS       (ПС)
PZ.Ohm*M                                         :PZ    (КС)
U1.mV                                            :U1
U2.mV                                            :U2
U3.mV                                            :U3
КП.%                                             :Кп
~ASCII LOG DATA
# ...
72.6        29.174      132.988     2.488       3.371       1.563       6.793       5.177       6.725       4.271       5.119       17.765      1.258       1.571       1054.726    13.078      670.859     442.139     255.989     41.04       
72.7        35.237      132.202     2.443       2.757       1.593       6.769       5.177       6.725       4.271       5.119       17.904      1.248       1.674       1055.537    14.787      730.927     461.789     315.08      33.957      
72.8        44.361      132.272     2.404       2.644       1.579       6.721       5.177       6.725       4.271       5.019       17.975      1.216       1.613       1055.964    15.984      834.843     521.241     415.545     29.279      
72.9        59.704      130.564     2.369       3.168       1.622       6.745       5.277       6.725       4.371       4.919       19.07       1.135       1.527       1056.451    16.838      912.469     609.65      512.415     23.89       
73.0        61.235      130.743     2.335       3.959       1.602       6.697       5.277       6.725       4.371       4.919       20.557      1.078       1.398       1057.178    17.693      915.048     691.489     573.501     23.624      
73.1        54.828      131.997     2.301       4.551       1.646       6.672       5.277       6.725       4.371       4.919       21.872      1.055       1.298       1058.46     18.206      850.086     770.277     658.174     27.481      
73.2        51.88       133.082     2.273       4.801       1.714       6.648       5.277       6.725       4.471       4.919       22.703      1.043       1.317       1060.681    18.206      780.128     844.09      792.688     31.867      
73.3        53.088      132.668     2.249       4.913       1.738       6.648       5.277       6.725       4.471       4.919       23.546      1.047       1.331       1063.136    18.035      704.737     875.049     905.712     34.951      
73.4        45.709      133.333     2.246       5.012       1.752       6.648       5.277       6.625       4.471       4.919       24.252      1.083       1.319       1065.018    17.522      622.947     860.605     944.135     33.985      
73.5        35.4        132.668     2.253       4.996       1.733       6.624       5.377       6.625       4.571       4.919       24.509      1.139       1.317       1065.889    17.009      546.569     791.738     893.622     32.881      
73.6        42.756      130.431     2.259       4.94        1.853       6.673       5.377       6.625       4.571       4.919       24.666      1.16        1.356       1066.123    16.326      517.42      640.274     709.771     32.384      
73.7        64.417      131.198     2.252       5.029       1.893       6.769       5.377       6.625       4.571       4.919       24.679      1.13        1.373       1065.885    15.642      559.925     436.416     430.978     31.779      
73.8        63.973      131.901     2.245       5.24        1.834       6.721       5.377       6.625       4.571       5.219       24.509      1.108       1.331       1065.344    14.958      721.641     300.733     216.377     32.037      
73.9        55.208      132.805     2.236       5.454       1.853       6.793       5.377       6.625       4.571       5.419       24.38       1.128       1.313       1064.972    14.446      962.079     307.692     176.616     33.548      
74.0        36.058      133.958     2.231       5.452       1.771       6.842       5.377       6.625       4.571       5.419       24.162      1.17        1.341       1064.509    14.104      1220.098    454.449     288.108     33.787      
74.1        33.729      133.303     2.236       5.319       1.54        6.818       5.377       6.625       4.571       5.419       23.666      1.2         1.382       1063.873    13.762      1326.358    637.498     419.256     32.313      
74.2        46.774      132.439     2.271       5.229       1.457       6.745       5.477       6.725       4.571       5.419       23.308      1.21        1.428       1062.591    13.591      1318.803    835.552     572.659     29.275      
74.3        47.863      131.417     2.317       5.301       1.409       6.673       5.477       6.725       4.571       5.419       22.953      1.187       1.422       1060.393    13.591      1329.698    988.657     752.957     27.075      
74.4        31.189      131.667     2.345       5.54        1.525       6.672       5.477       6.725       4.571       5.419       22.537      1.191       1.351       1057.897    13.591      1419.962    1102.761    943.222     26.955      
74.5        21.827      133.892     2.35        5.743       1.694       6.745       5.477       6.825       4.571       5.419       22.265      1.241       1.323       1056.086    13.591      1445.223    1204.38     1095.617    28.23       
74.6        19.187      133.484     2.343       5.718       1.752       6.793       5.477       7.025       4.571       5.419       22.029      1.333       1.353       1055.234    13.591      1295.943    1287.485    1161.721    29.584      
74.7        17.66       132.756     2.359       5.375       1.767       6.745       5.477       7.125       4.671       5.419       21.867      1.414       1.446       1054.772    13.591      983.262     1262.329    1095.635    29.736      
74.8        15.596      131.356     2.397       4.792       1.853       6.769       5.477       7.125       4.671       5.419       21.717      1.5         1.577       1054.731    13.591      697.668     1099.486    926.377     28.458      
74.9        15.171      130.254     2.429       4.279       2.125       6.842       5.477       7.125       4.771       5.519       21.193      1.617       1.733       1054.911    13.591      611.003     807.186     660.223     27.55       
75.0        24.946      129.645     2.446       4.179       2.159       6.866       5.477       7.125       4.771       5.519       20.603      1.708       1.888       1055.229    13.591      707.179     547.504     430.276     24.942      
75.1        55.335      128.943     2.459       4.576       2.056       6.745       5.477       7.125       4.971       5.519       19.957      1.703       1.912       1055.475    13.591      812.083     477.997     375.677     21.937      
75.2        43.752      130.839     2.473       5.1         1.892       6.334       5.477       7.125       4.971       5.619       19.33       1.617       1.869       1055.626    13.591      772.966     585.725     487.713     18.62       
75.3        46.666      130.88      2.453       5.297       2.565       5.996       5.577       7.125       5.171       5.619       19.049      1.517       1.751       1055.782    13.591      666.233     720.15      643.748     17.187      
75.4        88.716      129.569     2.388       5.064       2.603       6.31        5.577       7.125       5.171       5.619       19.072      1.475       1.627       1055.41     13.591      615.011     739.02      716.067     18.363      
75.5        112.72      129.84      2.316       4.713       2.68        6.455       5.577       7.125       5.171       5.719       19.35       1.459       1.623       1054.975    13.591      617.403     695.459     732.954     20.443      
75.6        94.189      128.931     2.27        4.429       3.029       6.721       5.577       7.125       5.171       5.719       19.85       1.444       1.642       1053.387    13.591      648.384     676.21      742.23      23.951      
75.7        30.061      129.359     2.255       4.265       3.076       7.011       5.577       7.125       5.271       5.719       20.466      1.436       1.675       1050.535    13.591      674.893     657.505     713.15      25.687      
75.8        20.23       130.027     2.249       4.258       3.279       7.156       5.577       7.125       5.271       5.719       20.813      1.448       1.706       1046.042    13.933      671.854     597.252     607.074     26.578      
75.9        23.988      130.238     2.245       4.224       3.081       7.229       5.577       7.125       5.271       5.719       20.882      1.469       1.687       1041.377    14.275      609.396     480.97      428.531     25.862      
