~Version Information Section
VERS.                                         2.0:CWLS log ASCII Standart – VERSION 2.0
WRAP.                                          NO:One line per depth step
~Well Information Section
STRT.M                                        0.0:Начальная глубина
STOP.M                                      208.6:Конечная глубина
STEP.M                                          0:Шаг квантования по глубине
NULL.                                    -9999.25:Признак "Нет данных"
WELL.                                       140Мх:Скважина
~Parameter Information Section
~Curve Information Section
DEPTH.M                                          :Глубина
GZ1.ohmm                                         :Подошвенный градиент-зонд А0.4М0.1N
GZ2.ohmm                                         :Подошвенный градиент-зонд А1.0М0.1N
GZ3.ohmm                                         :Подошвенный градиент-зонд А2.0М0.5N
GZ5.ohmm                                         :Подошвенный градиент-зонд А8.0М1.0N
GZ3R.GZ3R                                        :GZ3R
GZ4.ohmm                                         :Подошвенный градиент-зонд А4.0М0.5N
GGK.g/cc                                         :Плотностной гамма-гамма каротаж
ГК.ur/h                                          :Гамма каротаж
ИК.ohmm                                          :Индукционный каротаж (сопротивление),
BK.ohmm                                          :Боковой каротаж
NKTS.ue                                          :Нейтронный каротаж по тепловым нейтронам (малый зонд)
WNK.De                                           :Водородосодержание по НК
НГК.ue                                           :Нейтронный каротаж по тепловым нейтронам (большой зонд)
PZ.ohmm                                          :Потенциал-зонд ИММ 0,5А; В4 0,25М
-.                                               :-      SP mv)
DS1.m                                            :Профиль 1 сечения ствола скважины по профилеметрии
DS.m                                             :Кавернометрия
DS2.m                                            :Профиль 2 сечения ствола скважины по профилеметрии
~ASCII LOG DATA
# ...
107.0       -9999.25    -9999.25    -9999.25    -9999.25    -9999.25    -9999.25    2.435       6.39        16.044      82.547      1.877       34.413      2.775       93.814      3770.613    0.154       0.151       0.148       
107.1       72.573      48.46       22.193      23.352      51.594      22.643      -9999.25    -9999.25    -9999.25    -9999.25    -9999.25    -9999.25    -9999.25    -9999.25    -9999.25    -9999.25    -9999.25    -9999.25    
107.2       -9999.25    -9999.25    -9999.25    -9999.25    -9999.25    -9999.25    2.547       5.569       16.192      101.717     1.896       32.392      2.935       89.977      3768.451    0.155       0.152       0.149       
107.3       87.606      77.784      27.827      26.436      44.631      27.568      -9999.25    -9999.25    -9999.25    -9999.25    -9999.25    -9999.25    -9999.25    -9999.25    -9999.25    -9999.25    -9999.25    -9999.25    
107.4       -9999.25    -9999.25    -9999.25    -9999.25    -9999.25    -9999.25    2.566       5.227       15.96       110.008     1.864       28.687      3.088       85.254      3770.812    0.156       0.153       0.15        
107.5       83.843      85.83       41.952      29.539      42.32       37.69       -9999.25    -9999.25    -9999.25    -9999.25    -9999.25    -9999.25    -9999.25    -9999.25    -9999.25    -9999.25    -9999.25    -9999.25    
107.6       -9999.25    -9999.25    -9999.25    -9999.25    -9999.25    -9999.25    2.455       6.197       15.302      54.963      1.74        26.274      2.758       69.531      3768.761    0.156       0.153       0.15        
107.7       119.209     132.222     51.285      36.191      33.408      41.469      -9999.25    -9999.25    -9999.25    -9999.25    -9999.25    -9999.25    -9999.25    -9999.25    -9999.25    -9999.25    -9999.25    -9999.25    
107.8       -9999.25    -9999.25    -9999.25    -9999.25    -9999.25    -9999.25    2.34        6.377       14.693      28.511      1.624       32.775      2.423       82.032      3768.231    0.156       0.152       0.148       
107.9       116.312     123.781     48.092      37.867      26.442      39.229      -9999.25    -9999.25    -9999.25    -9999.25    -9999.25    -9999.25    -9999.25    -9999.25    -9999.25    -9999.25    -9999.25    -9999.25    
108.0       -9999.25    -9999.25    -9999.25    -9999.25    -9999.25    -9999.25    2.272       5.022       14.738      149.022     1.712       34.453      2.788       86.983      3762.503    0.156       0.151       0.147       
108.1       88.711      91.972      45.753      44.032      27.435      33.147      -9999.25    -9999.25    -9999.25    -9999.25    -9999.25    -9999.25    -9999.25    -9999.25    -9999.25    -9999.25    -9999.25    -9999.25    
108.2       -9999.25    -9999.25    -9999.25    -9999.25    -9999.25    -9999.25    2.301       6.285       14.926      191.531     1.814       29.35       2.977       79.71       3747.346    0.155       0.151       0.147       
108.3       66.482      84.597      54.402      59.969      35.904      35.203      -9999.25    -9999.25    -9999.25    -9999.25    -9999.25    -9999.25    -9999.25    -9999.25    -9999.25    -9999.25    -9999.25    -9999.25    
108.4       -9999.25    -9999.25    -9999.25    -9999.25    -9999.25    -9999.25    2.356       8.186       14.533      127.605     1.702       27.407      2.542       56.998      3740.377    0.156       0.152       0.148       
108.5       98.204      113.009     72.622      56.116      38.88       42.894      -9999.25    -9999.25    -9999.25    -9999.25    -9999.25    -9999.25    -9999.25    -9999.25    -9999.25    -9999.25    -9999.25    -9999.25    
108.6       -9999.25    -9999.25    -9999.25    -9999.25    -9999.25    -9999.25    2.368       9.937       13.73       21.665      1.491       32.043      2.161       49.93       3736.27     0.156       0.152       0.149       
108.7       143.615     127.271     73.807      56.142      28.376      40.87       -9999.25    -9999.25    -9999.25    -9999.25    -9999.25    -9999.25    -9999.25    -9999.25    -9999.25    -9999.25    -9999.25    -9999.25    
108.8       -9999.25    -9999.25    -9999.25    -9999.25    -9999.25    -9999.25    2.351       10.379      13.201      21.642      1.52        37.262      2.54        54.257      3737.804    0.155       0.152       0.148       
108.9       109.236     85.476      56.167      59.069      22.256      28.633      -9999.25    -9999.25    -9999.25    -9999.25    -9999.25    -9999.25    -9999.25    -9999.25    -9999.25    -9999.25    -9999.25    -9999.25    
109.0       -9999.25    -9999.25    -9999.25    -9999.25    -9999.25    -9999.25    2.428       7.365       13.417      58.151      2.035       35.883      3.603       47.905      3760.191    0.153       0.15        0.147       
109.1       60.798      52.687      45.935      65.755      38.252      24.597      -9999.25    -9999.25    -9999.25    -9999.25    -9999.25    -9999.25    -9999.25    -9999.25    -9999.25    -9999.25    -9999.25    -9999.25    
109.2       -9999.25    -9999.25    -9999.25    -9999.25    -9999.25    -9999.25    2.563       4.741       13.817      75.406      2.073       22.751      3.807       50.662      3778.385    0.153       0.149       0.146       
109.3       60.661      71.12       54.535      71.617      79.771      37.285      -9999.25    -9999.25    -9999.25    -9999.25    -9999.25    -9999.25    -9999.25    -9999.25    -9999.25    -9999.25    -9999.25    -9999.25    
109.4       -9999.25    -9999.25    -9999.25    -9999.25    -9999.25    -9999.25    2.508       5.219       13.924      73.659      1.891       24.137      3.143       54.436      3800.702    0.154       0.151       0.147       
109.5       55.353      69.319      70.088      74.715      102.879     52.249      -9999.25    -9999.25    -9999.25    -9999.25    -9999.25    -9999.25    -9999.25    -9999.25    -9999.25    -9999.25    -9999.25    -9999.25    
109.6       -9999.25    -9999.25    -9999.25    -9999.25    -9999.25    -9999.25    2.417       6.343       13.478      32.579      1.667       27.065      2.711       50.968      3809.139    0.157       0.153       0.15        
109.7       78.551      73.175      70.642      70.956      83.322      55.334      -9999.25    -9999.25    -9999.25    -9999.25    -9999.25    -9999.25    -9999.25    -9999.25    -9999.25    -9999.25    -9999.25    -9999.25    
109.8       -9999.25    -9999.25    -9999.25    -9999.25    -9999.25    -9999.25    2.482       5.516       13.001      37.217      1.685       31.835      2.639       55.359      3793.167    0.155       0.152       0.149       
109.9       117.082     64.745      50.607      56.719      55.691      38.651      -9999.25    -9999.25    -9999.25    -9999.25    -9999.25    -9999.25    -9999.25    -9999.25    -9999.25    -9999.25    -9999.25    -9999.25    
110.0       -9999.25    -9999.25    -9999.25    -9999.25    -9999.25    -9999.25    2.485       6.208       12.782      29.332      1.651       29.319      2.589       49.094      3770.915    0.155       0.151       0.148       
110.1       76.343      30.033      33.877      37.078      32.707      21.52       -9999.25    -9999.25    -9999.25    -9999.25    -9999.25    -9999.25    -9999.25    -9999.25    -9999.25    -9999.25    -9999.25    -9999.25    
110.2       -9999.25    -9999.25    -9999.25    -9999.25    -9999.25    -9999.25    2.397       7.611       12.419      28.37       1.63        33.37       2.585       49.55       3724.345    0.154       0.15        0.146       
110.3       67.811      36.397      23.181      22.228      23.973      13.258      -9999.25    -9999.25    -9999.25    -9999.25    -9999.25    -9999.25    -9999.25    -9999.25    -9999.25    -9999.25    -9999.25    -9999.25    
110.4       -9999.25    -9999.25    -9999.25    -9999.25    -9999.25    -9999.25    2.419       7.276       12.622      60.031      1.798       32.021      2.876       48.341      3696.101    0.155       0.151       0.147       
