~Version Information Section
VERS.                                         2.0:CWLS log ASCII Standart – VERSION 2.0
WRAP.                                          NO:One line per depth step
~Well Information Section
STRT.M                                        1.2:Начальная глубина
STOP.M                                      169.7:Конечная глубина
STEP.M                                          0:Шаг квантования по глубине
NULL.                                    -9999.25:Признак "Нет данных"
WELL.                                       115Мх:Скважина
~Parameter Information Section
~Curve Information Section
DEPTH.M                                          :Глубина
BK.Ohm*M                                         :BK     (БК)
DS.mm                                            :DS  (ДС)
GGK.g/cm3                                        :GGKp
ГК.mcr/h                                         :GK          (ГК)
GZ1.Ohm*M                                        :GZ1   ГЗ1(A0.4M0.1N)
GZ2.Ohm*M                                        :GZ2   ГЗ2(A1.0M0.1N)
GZ3.Ohm*M                                        :GZ3   ГЗ3(A2.0M0.5N)
GZ4.Ohm*M                                        :GZ4   ГЗ4(A4.0M0.5N)
GZ5.Ohm*M                                        :GZ5   ГЗ5(A8.0M0.5N)
GZR.Ohm*M                                        :GZK   ГЗK(N0.5M2.0A)
ИК.Ohm*M                                         :IK
НГК.ue                                           :NGK     (НГК)
NNKM.                                            :NNKm  (ННКм)
PS.mv                                            :PS       (ПС)
PZ.Ohm*M                                         :PZ    (КС)
RS.Ohm*M                                         :RS (Резистивиметр)
U1.mV                                            :U1
U2.mV                                            :U2
U3.mV                                            :U3
КП.%                                             :Кп
~ASCII LOG DATA
# ...
68.4        24.044      136.077     2.371       7.054       1.351       6.165       5.177       6.425       4.071       5.219       14.266      0.96        1.907       1071.679    15.279      1.008       580.457     380.8       248.915     36.53       
68.5        20.989      136.907     2.42        6.817       1.486       6.286       5.177       6.425       4.071       5.219       13.958      0.981       1.844       1071.523    14.797      1.008       540.762     371.964     255.215     38.05       
68.6        16.331      137.407     2.457       6.91        1.569       6.31        5.277       6.425       4.071       5.219       13.573      1.015       1.746       1071.221    14.362      1.008       475.826     346.8       252.809     37.68       
68.7        14.355      138.243     2.485       6.994       1.641       6.358       5.277       6.425       4.071       5.219       13.186      1.001       1.821       1070.292    13.973      1.008       420.926     322.628     247.699     35.647      
68.8        11.967      135.834     2.487       6.809       1.728       6.431       5.277       6.425       4.071       5.219       12.883      0.968       1.912       1068.417    13.632      1.008       442.804     333.805     253.028     33.606      
68.9        10.74       135.26      2.47        6.689       1.791       6.503       5.177       6.425       4.171       5.319       12.717      0.923       1.878       1065.687    13.321      1.008       534.533     366.699     257.307     32.653      
69.0        11.94       136.397     2.42        6.321       1.883       6.576       5.177       6.525       4.271       5.319       12.675      0.926       1.841       1062.212    13.01       1.008       622.477     363.18      225.403     33.149      
69.1        24.774      137.111     2.37        6.322       1.936       6.648       5.177       6.625       4.271       5.319       12.727      0.946       1.822       1060.315    12.684      1.008       634.924     306.202     162.731     32.784      
69.2        25.41       135.749     2.288       6.324       1.932       6.697       5.177       6.725       4.271       5.319       12.833      0.936       1.806       1060.24     12.358      1.008       564.865     239.568     114.665     32.394      
69.3        27.227      134.769     2.207       6.59        1.858       6.673       5.177       6.725       4.271       5.319       12.909      0.878       1.857       1062.459    12.016      1.008       450.655     204.087     110.335     35.08       
69.4        27.227      135.387     2.154       6.692       1.791       6.648       5.177       6.725       4.271       5.319       12.931      0.868       1.894       1065.264    11.643      1.008       319.513     192.569     140.076     38.062      
69.5        27.99       136.401     2.168       6.728       1.714       6.6         5.177       6.725       4.271       5.319       12.955      0.906       1.819       1067.248    11.239      1.008       226.735     192.278     186.954     38.447      
69.6        22.131      135.925     2.185       6.604       1.791       6.697       5.177       6.725       4.271       5.319       12.955      1.016       1.798       1068.027    10.835      1.008       183.955     204.021     239.293     34.462      
69.7        21.528      136.438     2.266       6.053       1.863       6.818       5.177       6.725       4.271       5.219       12.923      1.116       1.998       1067.948    10.431      1.008       207.178     226.233     263.582     28.497      
69.8        25.061      134.019     2.36        5.208       1.786       6.818       5.177       6.725       4.271       5.219       12.931      1.179       2.204       1068.404    10.027      1.008       261.32      244.467     246.513     24.903      
69.9        25.41       133.387     2.424       4.489       1.689       6.842       5.177       6.725       4.271       5.219       13.051      1.205       2.475       1068.735    9.623       1.008       311.446     239.962     195.655     25.264      
70.0        25.763      133.404     2.421       4.276       1.563       6.793       5.177       6.725       4.271       5.119       13.162      1.192       2.627       1068.638    9.219       1.008       335.119     217.618     145.846     28.408      
70.1        24.378      133.525     2.409       4.357       1.593       6.769       5.177       6.725       4.271       5.119       13.396      1.199       2.402       1067.725    8.846       1.008       357.61      204.424     118.437     31.425      
70.2        23.067      133.795     2.353       4.773       1.579       6.721       5.177       6.725       4.271       5.019       13.643      1.176       2.247       1065.0      8.52        1.008       402.213     218.327     117.537     31.357      
70.3        22.961      134.754     2.328       5.168       1.622       6.745       5.277       6.725       4.371       4.919       13.765      1.124       2.228       1061.27     8.225       1.008       444.813     251.185     156.993     30.182      
70.4        22.961      132.915     2.308       5.423       1.602       6.697       5.277       6.725       4.371       4.919       13.75       1.128       2.263       1056.439    7.961       1.008       404.098     278.211     288.814     28.548      
70.5        22.961      132.789     2.311       5.525       1.646       6.672       5.277       6.725       4.371       4.919       13.514      1.135       2.389       1051.737    7.774       1.008       300.435     303.588     488.593     27.419      
70.6        20.324      133.332     2.3         5.712       1.714       6.648       5.277       6.725       4.471       4.919       14.166      1.269       2.452       1048.588    7.665       1.008       232.694     345.096     639.483     28.359      
70.7        13.366      132.476     2.316       5.874       1.738       6.648       5.277       6.725       4.471       4.919       14.436      1.301       2.421       1046.893    7.634       1.008       263.019     397.35      662.957     29.465      
70.8        10.765      133.274     2.293       5.713       1.752       6.648       5.277       6.625       4.471       4.919       14.528      1.328       2.348       1046.746    7.712       1.008       359.239     411.609     553.265     30.211      
70.9        11.117      133.184     2.3         5.259       1.733       6.624       5.377       6.625       4.571       4.919       14.528      1.248       2.24        1046.489    7.914       1.008       441.002     371.381     406.721     29.04       
71.0        13.646      133.009     2.311       4.362       1.853       6.673       5.377       6.625       4.571       4.919       14.575      1.217       2.281       1046.264    8.24        1.008       500.409     291.233     241.436     27.469      
71.1        15.922      133.383     2.332       3.656       1.893       6.769       5.377       6.625       4.571       4.919       15.158      1.236       2.469       1046.248    8.706       1.008       490.332     241.737     151.4       26.937      
71.2        14.06       134.493     2.335       3.34        1.834       6.721       5.377       6.625       4.571       5.219       15.209      1.251       2.58        1046.712    9.328       1.008       431.536     236.801     147.976     27.48       
71.3        12.618      137.331     2.374       3.726       1.853       6.793       5.377       6.625       4.571       5.419       15.26       1.257       2.548       1047.852    10.089      1.008       471.758     363.699     294.854     27.046      
71.4        12.735      137.31      2.401       4.099       1.771       6.842       5.377       6.625       4.571       5.419       16.417      1.242       2.466       1049.164    11.021      1.008       661.225     579.476     507.956     25.815      
71.5        14.223      134.067     2.423       4.122       1.54        6.818       5.377       6.625       4.571       5.419       16.477      1.249       2.507       1050.498    12.125      1.008       909.529     734.89      614.33      24.923      
