~Version Information Section
VERS.                                         2.0:CWLS log ASCII Standart – VERSION 2.0
WRAP.                                          NO:One line per depth step
~Well Information Section
STRT.M                                        7.7:Начальная глубина
STOP.M                                      168.6:Конечная глубина
STEP.M                                          0:Шаг квантования по глубине
NULL.                                    -9999.25:Признак "Нет данных"
WELL.                                       137Мх:Скважина
~Parameter Information Section
~Curve Information Section
DEPTH.M                                          :Глубина
ГК.мкР/ч                                         :GK
U1.                                              :U1
U12.                                             :U12
U2.                                              :U2
W.усл.ед                                         :W
ЗОНД.                                            :Зонд N0
НГК.                                             :НГК
ННКМ.усл.ед                                      :ННКм
ПЛОТНОСТЬ.г/см3                                  :плотность
РЕЗИСТИВИМЕТР.Ом                                 :Резистивиметр
~ASCII LOG DATA
# ...
99.2        8.177       121.333     162.622     228.459     26.972      24.076      1.227       1.566       2.472       0.53        
99.3        7.316       132.593     145.147     166.136     26.651      23.658      1.222       1.53        2.461       0.53        
99.4        7.056       138.794     145.364     161.295     26.508      23.972      1.222       1.524       2.439       0.531       
99.5        7.338       136.43      160.434     202.162     27.078      24.684      1.237       1.438       2.419       0.534       
99.6        8.327       121.063     169.552     245.671     27.867      25.41       1.264       1.42        2.394       0.543       
99.7        9.343       136.296     172.956     240.625     28.165      25.892      1.292       1.328       2.376       0.554       
99.8        9.923       182.129     170.646     187.023     27.739      26.077      1.315       1.39        2.355       0.563       
99.9        9.745       214.575     168.857     144.018     27.459      26.175      1.336       1.452       2.349       0.565       
100.0       9.247       210.093     165.145     134.495     26.867      26.503      1.343       1.446       2.353       0.568       
100.1       9.152       168.686     159.508     158.454     26.046      27.444      1.351       1.443       2.363       0.577       
100.2       9.055       145.403     156.425     172.93      25.185      29.023      1.366       1.468       2.364       0.595       
100.3       9.021       128.747     143.248     160.529     24.847      30.481      1.378       1.481       2.355       0.617       
100.4       9.14        120.575     131.739     145.612     24.602      31.219      1.379       1.402       2.343       0.621       
100.5       9.558       114.259     131.991     155.057     24.318      31.62       1.364       1.382       2.341       0.614       
100.6       9.855       166.489     157.235     160.997     24.335      32.311      1.353       1.453       2.351       0.614       
100.7       9.472       223.776     176.093     150.972     24.927      33.349      1.348       1.476       2.36        0.612       
100.8       8.451       286.118     188.565     124.979     25.813      34.51       1.328       1.5         2.37        0.606       
100.9       7.83        280.44      187.951     129.36      26.814      35.308      1.293       1.466       2.37        0.598       
101.0       8.038       258.374     193.868     152.217     28.011      35.119      1.28        1.42        2.386       0.593       
101.1       8.599       199.029     192.546     203.617     29.001      34.119      1.279       1.421       2.411       0.581       
101.2       8.711       152.275     178.472     219.533     29.361      33.247      1.272       1.421       2.432       0.551       
101.3       8.56        118.111     151.646     199.965     29.543      32.976      1.263       1.397       2.438       0.523       
101.4       8.456       139.518     153.132     171.877     29.521      33.447      1.256       1.385       2.408       0.515       
101.5       8.142       179.821     164.738     155.97      29.456      35.114      1.229       1.339       2.388       0.515       
101.6       7.974       239.018     186.462     152.244     29.479      37.58       1.202       1.311       2.37        0.524       
101.7       8.069       241.537     175.523     134.816     29.619      39.298      1.21        1.267       2.368       0.551       
101.8       8.308       190.568     149.096     128.535     29.425      39.391      1.244       1.27        2.374       0.582       
101.9       8.455       130.769     144.017     176.383     29.066      38.461      1.285       1.281       2.367       0.602       
102.0       8.77        131.56      150.86      194.554     28.773      37.42       1.262       1.272       2.358       0.613       
102.1       9.063       192.941     169.625     183.049     28.896      36.702      1.187       1.259       2.331       0.616       
102.2       9.225       225.272     168.604     146.062     28.786      36.332      1.138       1.249       2.312       0.614       
102.3       8.794       212.616     172.712     156.251     28.37       36.198      1.137       1.238       2.303       0.614       
102.4       8.826       193.2       183.918     184.364     27.908      36.181      1.142       1.284       2.302       0.613       
102.5       9.097       169.915     183.214     209.902     27.6        36.265      1.157       1.307       2.311       0.612       
102.6       9.495       142.762     170.601     232.865     27.386      36.522      1.161       1.207       2.318       0.612       
102.7       9.26        142.944     171.536     249.862     27.235      37.007      1.149       1.216       2.31        0.613       
102.8       9.041       212.559     199.897     234.218     27.705      37.7        1.158       1.26        2.301       0.619       
102.9       9.184       278.589     224.221     198.749     28.139      38.337      1.187       1.257       2.283       0.631       
103.0       9.667       271.602     217.084     176.099     27.672      38.778      1.26        1.24        2.277       0.642       
103.1       10.05       206.834     179.516     157.443     26.966      38.885      1.291       1.279       2.266       0.644       
103.2       10.001      166.191     160.463     157.108     27.516      38.303      1.256       1.331       2.264       0.638       
103.3       9.483       149.673     159.924     175.095     27.965      37.42       1.224       1.405       2.271       0.633       
103.4       9.003       152.805     171.057     195.425     28.13       36.976      1.23        1.442       2.287       0.633       
103.5       8.847       166.696     176.378     190.953     28.969      36.903      1.251       1.384       2.311       0.633       
103.6       8.38        140.124     159.041     200.913     29.583      36.901      1.278       1.361       2.327       0.635       
103.7       8.109       134.28      147.521     196.75      28.945      37.018      1.298       1.399       2.331       0.641       
103.8       8.056       149.165     141.817     178.465     28.345      37.201      1.303       1.406       2.325       0.648       
103.9       8.226       180.278     148.153     149.684     28.566      37.06       1.271       1.412       2.308       0.656       
104.0       8.709       155.669     143.863     163.764     28.962      36.523      1.249       1.417       2.305       0.654       
104.1       9.109       111.259     133.994     182.275     29.125      35.64       1.247       1.431       2.319       0.638       
104.2       8.979       92.784      129.375     183.946     29.33       34.333      1.255       1.445       2.341       0.621       
104.3       8.59        100.243     130.006     168.776     29.374      33.092      1.276       1.466       2.367       0.609       
104.4       8.189       104.708     139.678     186.461     28.666      32.509      1.269       1.45        2.366       0.604       
104.5       7.958       118.02      149.785     192.896     27.253      32.42       1.246       1.44        2.365       0.602       
104.6       8.041       140.179     160.326     188.084     26.581      32.636      1.214       1.435       2.349       0.602       
104.7       8.398       153.188     163.08      176.188     26.849      33.261      1.215       1.434       2.34        0.603       
104.8       8.737       155.193     166.449     179.723     27.926      34.244      1.223       1.336       2.339       0.606       
104.9       8.635       176.428     176.794     184.501     29.355      35.359      1.243       1.308       2.342       0.61        
105.0       8.603       227.896     193.501     175.092     30.591      36.378      1.26        1.287       2.351       0.617       
105.1       8.431       238.871     190.745     157.799     30.905      37.471      1.267       1.293       2.365       0.633       
105.2       8.201       208.874     172.163     146.052     30.196      38.889      1.261       1.328       2.38        0.656       
