~Version Information Section
VERS.                                         2.0:CWLS log ASCII Standart – VERSION 2.0
WRAP.                                          NO:One line per depth step
~Well Information Section
STRT.M                                        2.0:Начальная глубина
STOP.M                                      201.2:Конечная глубина
STEP.M                                          0:Шаг квантования по глубине
NULL.                                    -9999.25:Признак "Нет данных"
WELL.                                       126Мх:Скважина
~Parameter Information Section
~Curve Information Section
DEPTH.M                                          :Глубина
BK.ohmm                                          :BK
ПРОФ_СР.мм                                       :DS  (ДС)
W.g/cm3                                          :GGKp
ГК.мкР/час                                       :GK          (ГК)
ГЗ1.Омм                                          :GZ1   ГЗ1(A0.4M0.1N)
ГЗ2.Омм                                          :GZ2   ГЗ2(A1.0M0.1N)
ГЗ3.Омм                                          :GZ3   ГЗ3(A2.0M0.5N)
ГЗ4.Oмм                                          :GZ4   ГЗ4(A4.0M0.5N)
ГЗ5.Oмм                                          :GZ5   ГЗ5(A8.0M0.5N)
ГЗК.Омм                                          :GZK   ГЗK(N0.5M2.0A)
ИК.ohmm                                          :IK
НГК.усл.ед.                                      :NGK
ННКМ.усл.ед                                      :NNKm  (ННКм)
PS.мВ                                            :PS       (ПС)
PZ.Омм                                           :PZ    (КС)
RIS.Омм                                          :RS (Резистивиметр)
U1.мВ                                            :U1
U2.мВ                                            :U2
U3.mv                                            :U3
~ASCII LOG DATA
# ...
195.8       8.892       122.222     2.29        7.425       -9999.25    -9999.25    -9999.25    -9999.25    -9999.25    -9999.25    6.391       1.154       2.106       228.406     294.839     -9999.25    692.035     604.853     586.546     
195.9       8.831       122.369     2.295       7.403       -9999.25    -9999.25    -9999.25    -9999.25    -9999.25    -9999.25    6.474       1.131       2.074       228.406     295.967     -9999.25    720.532     607.346     563.636     
196.0       8.492       122.343     2.309       7.614       -9999.25    -9999.25    -9999.25    -9999.25    -9999.25    -9999.25    6.563       1.104       2.035       228.406     297.471     -9999.25    724.575     614.799     579.729     
196.1       8.337       122.098     2.338       7.419       -9999.25    -9999.25    -9999.25    -9999.25    -9999.25    -9999.25    6.687       1.093       2.026       228.406     298.975     -9999.25    715.551     656.793     682.882     
196.2       8.414       122.278     2.346       6.687       -9999.25    -9999.25    -9999.25    -9999.25    -9999.25    -9999.25    6.783       1.124       2.027       228.406     300.479     -9999.25    772.564     749.057     823.776     
196.3       8.71        122.493     2.355       5.714       -9999.25    -9999.25    -9999.25    -9999.25    -9999.25    -9999.25    6.926       1.196       2.05        228.406     301.231     -9999.25    972.728     888.817     915.868     
196.4       8.71        122.07      2.363       4.648       -9999.25    -9999.25    -9999.25    -9999.25    -9999.25    -9999.25    7.077       1.214       2.139       228.934     301.231     -9999.25    1207.576    1008.782    923.682     
196.5       8.75        122.303     2.351       4.189       -9999.25    -9999.25    -9999.25    -9999.25    -9999.25    -9999.25    7.235       1.238       2.279       229.462     301.231     -9999.25    1310.132    1055.34     903.423     
196.6       9.141       121.869     2.343       4.303       -9999.25    -9999.25    -9999.25    -9999.25    -9999.25    -9999.25    7.426       1.207       2.388       229.99      301.231     -9999.25    1238.597    1020.281    887.94      
196.7       10.139      121.892     2.343       4.572       -9999.25    -9999.25    -9999.25    -9999.25    -9999.25    -9999.25    7.632       1.271       2.452       229.99      300.855     -9999.25    1126.885    957.033     860.915     
196.8       10.186      121.952     2.342       4.658       -9999.25    -9999.25    -9999.25    -9999.25    -9999.25    -9999.25    7.863       1.346       2.602       229.462     300.479     -9999.25    1053.267    897.314     812.242     
196.9       11.35       122.034     2.373       4.212       -9999.25    -9999.25    -9999.25    -9999.25    -9999.25    -9999.25    8.057       1.454       2.75        226.294     299.727     -9999.25    983.634     831.929     751.375     
197.0       16.52       122.18      2.399       3.813       -9999.25    -9999.25    -9999.25    -9999.25    -9999.25    -9999.25    8.272       1.508       2.767       221.542     298.975     -9999.25    919.432     746.954     662.794     
197.1       17.62       122.929     2.405       3.842       -9999.25    -9999.25    -9999.25    -9999.25    -9999.25    -9999.25    8.47        1.494       2.773       216.262     298.223     -9999.25    879.454     643.811     539.166     
197.2       18.967      122.611     2.437       3.979       -9999.25    -9999.25    -9999.25    -9999.25    -9999.25    -9999.25    8.683       1.5         2.858       210.982     297.847     -9999.25    868.946     525.894     382.289     
197.3       21.727      122.512     2.45        4.18        -9999.25    -9999.25    -9999.25    -9999.25    -9999.25    -9999.25    8.867       1.539       2.898       205.174     297.471     -9999.25    832.985     407.698     241.321     
197.4       26.977      122.521     2.463       4.126       -9999.25    -9999.25    -9999.25    -9999.25    -9999.25    -9999.25    9.063       1.587       2.806       200.95      297.471     -9999.25    750.326     295.419     135.869     
197.5       30.2        122.653     2.455       4.058       -9999.25    -9999.25    -9999.25    -9999.25    -9999.25    -9999.25    9.245       1.541       2.768       196.198     297.471     -9999.25    683.232     245.164     101.922     
197.6       32.359      122.625     2.425       3.936       -9999.25    -9999.25    -9999.25    -9999.25    -9999.25    -9999.25    9.523       1.455       2.813       191.446     297.471     -9999.25    683.648     268.05      123.02      
197.7       43.251      122.594     2.384       3.922       -9999.25    -9999.25    -9999.25    -9999.25    -9999.25    -9999.25    9.746       1.418       2.867       186.694     297.471     -9999.25    670.883     318.863     187.82      
197.8       77.804      122.564     2.377       3.955       -9999.25    -9999.25    -9999.25    -9999.25    -9999.25    -9999.25    9.951       1.393       2.915       181.942     297.471     -9999.25    562.692     332.09      259.871     
197.9       -9999.25    122.63      2.352       4.036       -9999.25    -9999.25    -9999.25    -9999.25    -9999.25    -9999.25    10.132      1.372       2.774       177.19      297.128     -9999.25    409.443     305.175     308.876     
198.0       -9999.25    122.646     2.344       4.08        -9999.25    -9999.25    -9999.25    -9999.25    -9999.25    -9999.25    10.276      1.328       2.588       174.022     296.422     -9999.25    314.663     283.905     333.813     
198.1       -9999.25    122.639     2.324       4.174       -9999.25    -9999.25    -9999.25    -9999.25    -9999.25    -9999.25    10.381      1.327       2.517       170.854     295.715     -9999.25    298.335     277.709     335.169     
198.2       -9999.25    122.263     2.317       -9999.25    -9999.25    -9999.25    -9999.25    -9999.25    -9999.25    -9999.25    10.41       1.322       2.465       168.214     295.373     -9999.25    328.989     282.769     318.499     
198.3       -9999.25    122.273     2.32        -9999.25    -9999.25    -9999.25    -9999.25    -9999.25    -9999.25    -9999.25    10.425      1.324       2.428       166.63      295.394     -9999.25    398.894     297.792     285.787     
198.4       -9999.25    122.104     2.358       -9999.25    -9999.25    -9999.25    -9999.25    -9999.25    -9999.25    -9999.25    10.435      1.34        2.415       165.574     296.486     -9999.25    520.315     387.867     345.84      
198.5       -9999.25    122.357     2.374       -9999.25    -9999.25    -9999.25    -9999.25    -9999.25    -9999.25    -9999.25    10.425      1.359       2.441       164.922     298.306     -9999.25    657.613     546.523     517.95      
198.6       -9999.25    122.631     2.412       -9999.25    -9999.25    -9999.25    -9999.25    -9999.25    -9999.25    -9999.25    10.431      1.325       2.428       165.146     299.398     -9999.25    742.386     669.179     667.417     
198.7       -9999.25    122.64      2.414       -9999.25    -9999.25    -9999.25    -9999.25    -9999.25    -9999.25    -9999.25    10.416      1.296       2.387       165.718     299.762     -9999.25    761.998     688.956     683.528     
198.8       -9999.25    122.916     2.409       -9999.25    -9999.25    -9999.25    -9999.25    -9999.25    -9999.25    -9999.25    10.456      1.266       2.393       166.638     299.762     -9999.25    709.123     561.696     518.294     
198.9       -9999.25    125.754     2.397       -9999.25    -9999.25    -9999.25    -9999.25    -9999.25    -9999.25    -9999.25    10.466      1.293       2.418       168.486     299.034     -9999.25    651.059     396.981     314.489     
199.0       -9999.25    121.071     2.363       -9999.25    -9999.25    -9999.25    -9999.25    -9999.25    -9999.25    -9999.25    10.447      1.258       2.426       170.574     297.942     -9999.25    611.551     264.869     154.114     
199.1       -9999.25    120.817     2.313       -9999.25    -9999.25    -9999.25    -9999.25    -9999.25    -9999.25    -9999.25    10.413      1.244       2.435       172.198     297.578     -9999.25    597.407     206.753     80.555      
