~Version Information Section
VERS.                                         2.0:CWLS log ASCII Standart – VERSION 2.0
WRAP.                                          NO:One line per depth step
~Well Information Section
STRT.M                                       -0.5:Начальная глубина
STOP.M                                      184.3:Конечная глубина
STEP.M                                          0:Шаг квантования по глубине
NULL.                                    -9999.25:Признак "Нет данных"
WELL.                                       133Мх:Скважина
~Parameter Information Section
~Curve Information Section
DEPTH.M                                          :Глубина
DS.mm                                            :DS  (ДС)
GGK.g/cm3                                        :GGKp
ГК.mcr/h                                         :GK          (ГК)
GZ1.Ohm*M                                        :GZ1   ГЗ1(A0.4M0.1N)
GZ2.Ohm*M                                        :GZ2   ГЗ2(A1.0M0.1N)
GZ3.Ohm*M                                        :GZ3   ГЗ3(A2.0M0.5N)
GZ4.Ohm*M                                        :GZ4   ГЗ4(A4.0M0.5N)
GZ5.Ohm*M                                        :GZ5   ГЗ5(A8.0M0.5N)
GZR.Ohm*M                                        :GZK   ГЗK(N0.5M2.0A)
ИК.Ohm*M                                         :IK
НГК.ue                                           :NGK     (НГК)
NNKM.                                            :NNKm  (ННКм)
PS.mv                                            :PS       (ПС)
PZ.Ohm*M                                         :PZ    (КС)
RS.Ohm*M                                         :RS (Резистивиметр)
U1.mV                                            :U1
U2.mV                                            :U2
U3.mV                                            :U3
BK.Ohm*M                                         :БК
ПОРИСТОСТЬ.                                      :Пористость ННК
~ASCII LOG DATA
# ...
133.9       133.589     2.25        7.837       42.795      33.306      32.21       30.826      26.281      30.829      22.253      1.559       2.374       147.73      9.491       1.19        502.167     1286.757    2040.415    25.486      32.496      
134.0       133.617     2.25        8.146       42.098      32.357      32.165      30.27       25.652      30.22       22.213      1.55        2.341       147.235     9.423       1.19        503.145     1286.129    2036.927    26.453      31.701      
134.1       133.663     2.25        8.608       40.905      31.062      31.929      29.408      24.994      29.446      22.193      1.555       2.294       146.872     9.386       1.19        502.276     1282.06     2039.223    26.986      31.307      
134.2       133.775     2.259       9.114       39.479      29.662      31.47       28.401      24.357      28.715      22.155      1.537       2.232       146.66      9.372       1.19        502.982     1278.597    2042.578    25.42       31.317      
134.3       133.955     2.271       9.658       38.195      28.574      30.97       27.615      23.751      28.308      22.076      1.471       2.163       146.596     9.37        1.19        506.082     1279.129    2037.104    24.011      31.693      
134.4       134.118     2.272       9.641       37.291      28.007      30.692      27.249      23.279      28.117      21.959      1.459       2.11        146.658     9.37        1.19        507.758     1279.373    2025.574    23.592      32.159      
134.5       134.227     2.269       9.163       36.933      27.84       30.641      27.175      23.019      27.954      21.8        1.483       2.072       146.811     9.37        1.19        503.301     1273.993    2020.598    23.115      32.331      
134.6       134.359     2.262       8.479       36.933      27.84       30.633      27.175      22.905      27.795      21.646      1.522       2.065       147.019     9.38        1.19        493.812     1266.495    2028.265    22.695      32.487      
134.7       134.532     2.267       8.541       36.933      27.805      30.633      27.175      22.905      27.654      21.544      1.496       2.094       147.249     9.405       1.19        484.303     1263.75     2038.378    22.861      32.607      
134.8       134.687     2.273       9.053       36.964      27.797      30.697      27.205      22.905      27.552      21.52       1.466       2.136       147.481     9.434       1.19        478.876     1269.405    2040.565    23.883      32.819      
134.9       134.802     2.279       9.054       37.301      27.945      30.841      27.306      22.905      27.484      21.52       1.458       2.151       147.694     9.463       1.19        475.574     1277.705    2038.995    24.591      33.705      
135.0       134.89      2.277       8.727       37.945      28.188      31.035      27.454      22.91       27.398      21.529      1.463       2.164       147.878     9.485       1.194       471.889     1281.282    2044.248    24.39       34.305      
135.1       135.007     2.248       8.208       38.603      28.423      31.322      27.673      23.011      27.272      21.565      1.457       2.174       148.02      9.499       1.194       469.832     1279.852    2056.768    24.268      34.556      
135.2       135.202     2.217       8.284       39.142      28.685      31.588      27.977      23.121      27.172      21.609      1.432       2.165       148.118     9.505       1.194       471.115     1278.684    2064.291    24.876      34.073      
135.3       135.383     2.203       8.738       39.36       28.834      31.682      28.203      23.206      27.101      21.64       1.439       2.18        148.169     9.507       1.194       475.197     1282.527    2061.718    25.137      33.512      
135.4       135.453     2.192       9.271       39.36       28.8        31.689      28.266      23.284      26.995      21.668      1.493       2.189       148.186     9.51        1.194       478.877     1287.89     2056.846    24.464      32.634      
135.5       135.478     2.207       9.148       39.284      28.666      31.829      28.266      23.392      26.85       21.691      1.555       2.195       148.189     9.517       1.194       480.196     1289.794    2058.685    24.206      32.215      
135.6       135.55      2.224       8.656       39.024      28.513      32.156      28.461      23.621      26.78       21.707      1.562       2.202       148.193     9.525       1.194       479.9       1288.456    2063.434    24.415      32.158      
135.7       135.633     2.234       8.143       38.94       28.669      32.485      28.833      23.899      26.827      21.707      1.549       2.194       148.216     9.534       1.194       479.614     1287.439    2062.34     24.623      32.792      
135.8       135.668     2.235       7.855       39.128      29.062      32.695      29.138      24.154      26.878      21.707      1.553       2.177       148.265     9.544       1.198       479.482     1289.349    2057.069    24.387      33.298      
135.9       135.636     2.236       8.076       39.215      29.317      32.9        29.35       24.439      26.832      21.701      1.524       2.16        148.346     9.561       1.198       478.888     1292.334    2055.44     24.279      34.119      
136.0       135.563     2.239       8.504       39.215      29.362      33.068      29.929      24.67       26.614      21.672      1.466       2.159       148.453     9.57        1.198       478.511     1293.024    2061.001    23.478      34.118      
136.1       135.531     2.241       8.971       39.495      29.163      32.946      30.722      24.788      26.321      21.624      1.45        2.178       148.58      9.568       1.198       479.384     1290.947    2063.942    23.434      33.642      
136.2       135.547     2.249       8.97        40.01       28.778      32.707      31.212      24.869      26.022      21.59       1.514       2.217       148.713     9.561       1.198       479.197     1288.774    2058.268    24.038      32.244      
136.3       135.552     2.262       9.058       40.461      28.498      32.628      31.703      24.869      25.617      21.582      1.606       2.272       148.833     9.553       1.198       475.228     1287.607    2050.759    25.175      31.382      
136.4       135.53      2.277       8.963       40.887      28.61       32.697      32.233      24.788      25.021      21.56       1.639       2.307       148.919     9.525       1.198       469.022     1284.088    2051.078    26.544      30.642      
136.5       135.524     2.284       8.532       41.253      29.271      32.77       32.685      24.686      24.25       21.527      1.595       2.315       148.954     9.46        1.198       464.245     1277.654    2057.887    27.02       30.937      
136.6       135.55      2.279       8.192       41.81       30.157      32.638      33.156      24.502      23.373      21.503      1.556       2.305       148.92      9.348       1.198       463.794     1272.835    2058.036    25.615      31.541      
136.7       135.582     2.271       8.098       42.23       30.46       32.489      33.383      24.316      22.592      21.499      1.538       2.26        148.812     9.193       1.198       466.284     1272.645    2050.045    24.142      32.802      
136.8       135.606     2.26        8.185       41.851      30.239      32.375      33.351      24.101      22.107      21.461      1.54        2.22        148.64      9.015       1.198       468.188     1275.171    2045.019    23.1        33.77       
136.9       135.633     2.257       8.197       41.396      30.124      32.053      33.209      23.839      21.856      21.285      1.477       2.216       148.416     8.822       1.198       467.722     1276.64     2051.098    22.733      33.897      
137.0       135.686     2.267       8.331       41.225      30.202      31.643      32.858      23.638      21.624      20.988      1.39        2.228       148.151     8.617       1.198       466.979     1276.557    2060.902    23.42       33.131      
