~Version Information Section
VERS.                                         2.0:CWLS log ASCII Standart – VERSION 2.0
WRAP.                                          NO:One line per depth step
~Well Information Section
STRT.M                                       -0.1:Начальная глубина
STOP.M                                      197.8:Конечная глубина
STEP.M                                          0:Шаг квантования по глубине
NULL.                                    -9999.25:Признак "Нет данных"
WELL.                                       134Мх:Скважина
~Parameter Information Section
~Curve Information Section
DEPTH.M                                          :Глубина
BK.Ohm*M                                         :BK     (БК)
DS.mm                                            :DS  (ДС)
GGK.g/cm3                                        :GGKp
ГК.mcr/h                                         :GK          (ГК)
GZ1.Ohm*M                                        :GZ1   ГЗ1(A0.4M0.1N)
GZ2.Ohm*M                                        :GZ2   ГЗ2(A1.0M0.1N)
GZ3.Ohm*M                                        :GZ3   ГЗ3(A2.0M0.5N)
GZ4.Ohm*M                                        :GZ4   ГЗ4(A4.0M0.5N)
GZ5.Ohm*M                                        :GZ5   ГЗ5(A8.0M0.5N)
GZR.Ohm*M                                        :GZK   ГЗK(N0.5M2.0A)
ИК.Ohm*M                                         :IK
КП.%                                             :Кп
НГК.ue                                           :NGK     (НГК)
NNKM.                                            :NNKm  (ННКм)
PS.mv                                            :PS       (ПС)
PZ.Ohm*M                                         :PZ    (КС)
RS.Ohm*M                                         :RS (Резистивиметр)
U1.mV                                            :U1
U2.mV                                            :U2
U3.mV                                            :U3
~ASCII LOG DATA
# ...
175.9       19.993      130.043     2.316       5.849       16.457      15.058      15.028      10.571      14.907      13.649      12.062      34.631      1.052       2.057       312.2       37.536      1.06        748.423     452.07      326.607     
176.0       19.917      130.06      2.308       5.767       16.416      15.036      15.062      10.514      14.921      13.613      12.049      33.485      1.04        2.064       309.2       37.072      1.06        917.195     505.107     283.084     
176.1       19.632      130.096     2.294       5.587       16.382      15.015      15.099      10.465      14.878      13.585      12.021      32.729      1.095       2.082       307.0       36.6        1.06        1108.08     593.379     280.916     
176.2       19.448      130.12      2.284       5.862       16.36       14.994      15.132      10.407      14.736      13.542      12.01       32.953      1.12        2.094       303.0       36.136      1.06        1209.239    669.173     356.113     
176.3       19.42       130.12      2.286       6.156       16.347      14.976      15.159      10.319      14.521      13.464      11.992      33.823      1.135       2.088       297.8       35.704      1.06        1166.783    722.022     513.52      
176.4       19.499      130.121     2.298       6.142       16.343      14.962      15.18       10.189      14.293      13.336      11.978      34.472      1.094       2.081       291.4       35.304      1.06        1039.266    752.7       694.554     
176.5       19.464      130.15      2.324       5.938       16.343      14.953      15.198      10.018      14.063      13.153      11.948      34.615      1.09        2.081       286.6       34.772      1.06        889.241     735.436     782.592     
176.6       19.309      130.182     2.339       5.791       16.335      14.947      15.214      9.813       13.82       12.931      11.954      33.811      1.079       2.081       281.2       34.304      1.06        740.067     691.479     734.789     
176.7       19.495      130.181     2.34        6.151       16.319      14.94       15.225      9.587       13.56       12.711      11.96       33.269      1.09        2.076       276.8       34.0        1.06        668.569     674.225     635.89      
176.8       19.775      130.183     2.33        6.341       16.305      14.926      15.233      9.373       13.301      12.538      11.977      33.226      1.053       2.065       273.6       33.704      1.065       668.563     661.888     621.717     
176.9       19.747      130.193     2.322       6.497       16.289      14.903      15.236      9.201       13.063      12.463      12.005      32.977      1.091       2.058       271.2       33.424      1.075       659.593     636.969     667.371     
177.0       19.733      130.198     2.319       6.283       16.261      14.878      15.236      9.08        12.856      12.459      12.023      32.278      1.149       2.06        269.0       33.144      1.08        637.068     602.042     653.508     
177.1       19.744      130.195     2.316       6.102       16.215      14.849      15.234      9.018       12.694      12.459      12.028      32.679      1.199       2.065       266.4       32.856      1.08        602.757     528.102     528.556     
177.2       19.633      130.197     2.309       6.158       16.139      14.811      15.226      9.004       12.576      12.459      12.016      34.024      1.172       2.066       264.8       32.576      1.08        525.738     415.501     351.983     
177.3       19.509      130.21      2.304       6.447       16.047      14.757      15.204      9.004       12.489      12.545      12.001      35.07       1.092       2.063       263.4       32.296      1.08        424.416     310.189     212.898     
177.4       19.277      130.225     2.305       6.801       15.963      14.697      15.172      9.004       12.42       12.802      11.969      34.408      1.023       2.062       263.0       32.0        1.08        353.717     238.837     156.356     
177.5       18.794      130.224     2.315       6.687       15.903      14.642      15.139      9.021       12.363      13.212      11.936      32.858      1.02        2.066       262.8       31.696      1.08        316.032     204.562     170.635     
177.6       18.405      130.217     2.325       6.313       15.869      14.607      15.111      9.082       12.316      13.73       11.931      32.163      1.062       2.056       262.8       31.392      1.08        281.404     206.851     188.455     
177.7       18.531      130.199     2.329       6.02        15.857      14.596      15.089      9.188       12.278      14.28       11.932      31.761      1.07        2.032       262.8       31.064      1.08        263.126     231.589     202.704     
177.8       19.056      130.119     2.325       5.896       15.855      14.596      15.075      9.331       12.238      14.756      11.975      32.244      1.075       2.023       262.8       30.696      1.08        273.829     261.26      250.617     
177.9       19.537      130.018     2.318       6.273       15.847      14.596      15.07       9.505       12.19       15.093      12.022      32.68       1.034       2.03        263.6       30.272      1.08        273.699     281.487     329.422     
178.0       19.49       129.964     2.314       6.298       15.833      14.601      15.069      9.696       12.134      15.277      12.047      33.438      1.021       2.035       264.6       29.776      1.08        243.406     282.827     400.975     
178.1       19.143      129.948     2.315       6.387       15.825      14.623      15.069      9.889       12.068      15.331      12.057      33.355      1.016       2.047       265.8       29.184      1.08        205.005     261.017     409.148     
178.2       19.101      129.943     2.325       6.207       15.82       14.657      15.068      10.072      11.993      15.331      12.068      32.242      1.035       2.07        266.6       28.504      1.08        180.402     231.77      337.467     
178.3       19.257      129.953     2.338       6.216       15.795      14.674      15.066      10.234      11.916      15.326      12.069      31.495      1.06        2.077       269.0       27.736      1.08        181.289     218.48      242.317     
178.4       19.348      129.982     2.351       6.442       15.743      14.674      15.062      10.366      11.839      15.283      12.081      32.092      1.052       2.064       271.8       26.928      1.08        219.097     219.222     201.652     
178.5       19.427      130.008     2.356       6.425       15.663      14.664      15.055      10.462      11.761      15.202      12.072      32.641      1.047       2.057       275.6       26.104      1.08        286.047     237.194     213.816     
178.6       19.432      130.043     2.36        6.527       15.56       14.614      15.043      10.525      11.686      15.126      12.054      32.254      1.087       2.053       279.6       25.304      1.08        365.962     283.671     231.446     
178.7       19.122      130.071     2.351       6.378       15.444      14.509      15.031      10.561      11.616      15.069      12.022      31.302      1.061       2.038       284.8       24.544      1.08        423.059     322.353     244.443     
178.8       18.783      130.086     2.335       6.691       15.319      14.367      15.021      10.578      11.554      15.033      11.986      31.425      1.092       2.019       288.6       23.848      1.08        419.344     316.035     262.91      
178.9       18.582      130.09      2.318       6.616       15.17       14.216      15.019      10.587      11.497      15.014      11.955      31.859      1.081       2.004       292.6       23.176      1.08        384.993     292.149     264.001     
179.0       18.256      130.073     2.307       6.309       14.971      14.087      15.019      10.59       11.442      15.007      11.944      32.183      1.092       2.01        296.0       22.52       1.08        369.526     274.475     224.863     
