~Version Information Section
VERS.                                         2.0:CWLS log ASCII Standart – VERSION 2.0
WRAP.                                          NO:One line per depth step
~Well Information Section
STRT.M                                        1.6:Начальная глубина
STOP.M                                      212.2:Конечная глубина
STEP.M                                          0:Шаг квантования по глубине
NULL.                                    -9999.25:Признак "Нет данных"
WELL.                                       139Мх:Скважина
~Parameter Information Section
~Curve Information Section
DEPTH.M                                          :Глубина
BK.Ohm*M                                         :BK     (БК)
DS.mm                                            :DS  (ДС)
GGK.g/cm3                                        :GGKp
ГК.mcr/h                                         :GK          (ГК)
GZ1.Ohm*M                                        :GZ1   ГЗ1(A0.4M0.1N)
GZ2.Ohm*M                                        :GZ2   ГЗ2(A1.0M0.1N)
GZ3.Ohm*M                                        :GZ3   ГЗ3(A2.0M0.5N)
GZ4.Ohm*M                                        :GZ4   ГЗ4(A4.0M0.5N)
GZ5.Ohm*M                                        :GZ5   ГЗ5(A8.0M0.5N)
GZR.Ohm*M                                        :GZK   ГЗK(N0.5M2.0A)
ИК.Ohm*M                                         :IK
НГК.ue                                           :NGK     (НГК)
NNKM.                                            :NNKm  (ННКм)
PS.mv                                            :PS       (ПС)
PZ.Ohm*M                                         :PZ    (КС)
U1.mV                                            :U1
U2.mV                                            :U2
U3.mV                                            :U3
КП.%                                             :Кп
~ASCII LOG DATA
# ...
164.8       113.81      133.846     2.277       4.08        63.836      19.209      33.171      15.261      21.503      15.554      27.188      1.158       2.615       205.616     78.202      87.254      147.045     227.938     35.611      
164.9       108.126     131.729     2.289       4.116       71.084      21.304      33.201      16.821      25.525      16.298      27.373      1.209       2.659       206.277     78.988      74.773      113.604     172.69      33.534      
165.0       98.42       131.714     2.305       4.102       77.341      24.523      33.389      18.734      30.66       18.116      27.566      1.245       2.708       207.036     78.988      73.473      109.711     163.822     30.89       
165.1       71.432      131.766     2.316       4.122       82.706      29.372      34.047      21.245      37.033      20.726      27.733      1.274       2.795       207.87      78.988      86.71       119.77      170.14      27.659      
165.2       69.521      131.967     2.344       4.029       87.737      36.252      35.632      24.573      44.611      23.909      27.836      1.268       2.903       208.744     78.515      95.644      114.235     145.26      26.085      
165.3       104.078     132.17      2.356       3.927       93.913      45.271      38.702      28.923      53.216      27.393      27.744      1.319       2.969       209.625     76.992      95.806      95.867      101.617     25.178      
165.4       167.358     132.318     2.368       3.627       103.003     56.072      43.83       34.593      62.576      31.034      27.446      1.333       2.976       210.478     74.677      131.799     96.505      73.052      25.59       
165.5       222.639     131.805     2.377       3.927       116.015     68.233      51.373      41.8        72.231      34.825      26.812      1.403       2.915       211.278     72.031      198.428     124.043     80.059      26.314      
165.6       243.761     129.052     2.361       4.011       133.022     81.665      61.241      50.634      81.46       38.908      26.104      1.425       2.839       212.002     69.271      246.452     156.67      91.438      27.708      
165.7       269.111     128.69      2.36        4.029       153.278     96.701      72.902      60.829      89.338      43.183      25.272      1.503       2.807       212.639     66.591      209.268     166.861     124.826     28.349      
165.8       289.88      128.478     2.353       3.955       172.757     113.269     85.259      70.843      94.623      46.685      24.303      1.527       2.838       213.179     64.12       145.759     165.751     164.901     28.114      
165.9       270.769     128.97      2.347       3.967       185.071     128.911     96.502      77.922      96.821      48.311      23.171      1.522       2.91        213.62      61.913      109.975     160.135     187.013     26.438      
166.0       248.014     129.709     2.351       4.236       188.985     138.538     104.474     80.628      97.199      48.445      22.075      1.452       2.995       213.963     59.915      122.049     157.226     183.0       24.243      
166.1       249.246     130.104     2.36        4.507       188.644     141.701     107.946     80.546      96.683      48.263      21.043      1.416       3.083       214.215     58.008      127.94      150.232     166.448     22.222      
166.2       249.247     131.09      2.372       4.442       185.359     141.45      108.26      79.533      93.86       46.735      20.047      1.473       3.143       214.386     56.03       124.704     142.649     159.0       21.324      
166.3       361.658     130.788     2.381       4.126       173.25      138.891     107.99      74.79       87.291      42.16       18.99       1.582       3.185       214.494     53.84       125.332     139.928     148.56      21.793      
166.4       383.106     129.336     2.401       4.002       149.43      128.897     105.781     63.93       77.158      35.024      17.883      1.704       3.205       214.554     51.343      138.948     137.747     128.199     23.265      
166.5       136.452     129.815     2.4         4.209       118.82      108.824     99.485      49.348      64.74       26.911      16.709      1.719       3.088       214.583     48.545      160.39      130.652     100.9       25.827      
166.6       63.04       133.263     2.418       4.702       88.808      84.175      90.449      34.583      51.471      19.566      15.64       1.71        2.911       214.596     45.544      169.238     120.337     78.084      28.415      
166.7       47.98       135.524     2.428       4.949       63.465      61.751      80.892      22.329      38.673      14.018      14.809      1.674       2.661       214.599     42.535      157.673     111.708     70.619      30.966      
166.8       39.727      134.237     2.402       5.138       45.013      44.421      72.564      13.766      27.45       10.585      14.09       1.642       2.434       214.6       39.719      138.286     107.992     78.51       33.1        
166.9       34.118      133.464     2.368       5.5         33.253      33.528      66.16       8.729       18.537      8.837       13.536      1.578       2.355       214.6       37.278      129.884     121.844     114.277     34.281      
167.0       32.84       131.63      2.319       5.54        26.472      28.431      61.675      6.142       12.173      8.189       13.092      1.453       2.291       214.6       35.314      140.288     147.732     157.284     33.262      
167.1       32.92       134.489     2.275       5.475       22.441      25.941      58.742      4.94        8.095       8.075       12.744      1.369       2.271       214.6       33.845      154.298     168.075     179.634     31.949      
167.2       34.054      138.974     2.258       5.499       19.953      24.448      56.863      4.339       5.751       8.075       12.452      1.3         2.261       214.6       32.799      166.718     172.708     171.909     32.436      
167.3       34.461      139.829     2.255       5.304       18.204      23.144      55.624      3.967       4.524       8.081       12.194      1.2         2.256       214.6       32.067      188.695     171.958     150.811     34.255      
167.4       33.298      140.035     2.256       5.315       16.827      21.719      54.779      3.68        3.897       8.131       12.001      1.114       2.223       214.599     31.532      220.784     178.865     143.133     35.067      
167.5       32.828      140.302     2.251       4.954       15.643      20.122      54.225      3.439       3.553       8.275       11.833      1.105       2.195       214.597     31.098      248.239     183.104     134.363     35.733      
167.6       31.558      140.388     2.251       5.19        14.654      18.5        53.882      3.238       3.347       8.493       11.684      1.181       2.195       214.59      30.704      217.745     182.363     127.792     36.781      
167.7       29.108      140.123     2.272       5.478       13.844      16.939      53.653      3.086       3.218       8.746       11.552      1.175       2.163       214.578     30.319      166.118     168.931     150.17      37.219      
167.8       28.521      139.741     2.281       5.752       13.188      15.514      53.468      2.992       3.139       9.009       11.467      1.135       2.098       214.555     29.934      108.124     147.596     160.767     36.822      
167.9       28.646      139.621     2.286       5.758       12.719      14.352      53.387      2.956       3.093       9.279       11.395      1.091       2.08        214.522     29.555      93.324      126.457     171.365     37.485      
168.0       27.315      139.766     2.286       5.914       12.442      13.474      53.387      2.956       3.069       9.557       11.349      1.107       2.091       214.478     29.188      93.341      127.029     172.921     37.576      
168.1       26.765      139.488     2.274       5.99        12.304      12.807      53.391      2.956       3.059       9.831       11.34       1.094       2.065       214.427     28.835      108.175     134.081     170.666     36.145      
