~Version Information Section
VERS.                                         2.0:CWLS log ASCII Standart – VERSION 2.0
WRAP.                                          NO:One line per depth step
~Well Information Section
STRT.M                                        0.4:Начальная глубина
STOP.M                                      170.2:Конечная глубина
STEP.M                                          0:Шаг квантования по глубине
NULL.                                    -9999.25:Признак "Нет данных"
WELL.                                       121Мх:Скважина
~Parameter Information Section
~Curve Information Section
DEPTH.M                                          :Глубина
BK.Ohm*M                                         :BK     (БК)
DS.mm                                            :DS  (ДС)
GGK.g/cm3                                        :GGKp
ГК.mcr/h                                         :GK          (ГК)
GZ1.Ohm*M                                        :GZ1   ГЗ1(A0.4M0.1N)
GZ2.Ohm*M                                        :GZ2   ГЗ2(A1.0M0.1N)
GZ3.Ohm*M                                        :GZ3   ГЗ3(A2.0M0.5N)
GZ4.Ohm*M                                        :GZ4   ГЗ4(A4.0M0.5N)
GZ5.Ohm*M                                        :GZ5   ГЗ5(A8.0M0.5N)
GZR.Ohm*M                                        :GZK   ГЗK(N0.5M2.0A)
ИК.Ohm*M                                         :IK
НГК.u.e.                                         :NGK
NNKM.                                            :NNKm  (ННКм)
PS.mv                                            :PS       (ПС)
PZ.Ohm*M                                         :PZ    (КС)
RS.Ohm*M                                         :RS (Резистивиметр)
U1.mV                                            :U1
U2.mV                                            :U2
U3.mV                                            :U3
КП.%                                             :Кп
~ASCII LOG DATA
# ...
115.6       46.774      134.509     2.559       6.286       52.83       39.508      34.37       58.361      43.471      38.854      11.855      1.21        2.133       516.288     59.044      1.06        165.299     166.7       154.724     34.888      
115.8       52.0        134.533     2.543       5.802       52.606      38.855      34.407      59.755      44.5        38.715      11.781      1.16        2.221       514.528     58.504      1.06        162.802     162.625     145.351     31.444      
116.0       39.084      134.315     2.481       6.129       52.408      38.147      34.504      60.22       45.233      37.96       11.693      1.208       2.172       512.192     57.104      1.06        178.187     161.519     166.946     33.007      
116.2       45.604      134.263     2.471       6.388       52.329      37.886      34.347      59.784      45.797      36.727      11.664      1.248       2.124       509.92      55.296      1.06        188.861     174.546     167.913     33.773      
116.4       46.666      134.29      2.489       6.725       51.425      36.624      33.781      58.79       46.688      35.365      11.697      1.153       2.196       507.984     53.669      1.06        213.21      193.475     153.228     33.081      
116.6       44.055      134.232     2.478       6.574       50.276      35.244      33.269      58.058      47.531      34.809      11.623      1.22        2.17        506.416     52.311      1.06        213.529     190.716     151.439     32.87       
116.8       41.4        134.21      2.482       6.511       49.73       34.772      33.113      57.812      48.194      34.765      11.593      1.161       2.13        505.168     50.96       1.06        192.035     166.466     172.204     35.137      
117.0       39.628      134.196     2.479       7.161       49.777      34.773      33.374      57.754      48.976      34.645      11.516      1.13        2.122       504.4       49.789      1.06        157.938     160.481     189.123     37.678      
117.2       36.983      134.227     2.468       7.233       50.524      34.696      33.772      58.053      49.922      34.577      11.512      1.114       2.065       504.16      49.138      1.06        161.653     171.812     175.032     38.673      
117.4       36.559      134.253     2.487       6.688       52.117      35.157      34.34       58.508      50.097      34.392      11.476      1.148       2.034       504.16      48.986      1.06        169.722     187.637     169.639     38.277      
117.6       44.259      134.178     2.507       6.208       53.575      35.909      34.233      58.308      49.92       33.318      11.488      1.203       2.125       504.256     48.986      1.06        184.126     196.973     166.592     33.953      
117.8       63.533      134.183     2.582       5.903       53.825      35.959      33.619      57.56       49.299      31.826      11.42       1.237       2.26        504.944     49.018      1.06        205.764     202.362     194.402     32.12       
118.0       43.251      134.187     2.561       6.149       53.047      35.136      32.386      56.509      48.419      30.33       11.307      1.198       2.29        506.384     49.112      1.06        210.947     197.12      202.005     33.448      
118.2       45.394      134.2       2.592       6.676       51.81       34.653      31.073      55.465      47.173      29.192      11.143      1.145       2.203       508.352     49.155      1.06        184.563     183.263     200.106     35.515      
118.4       47.973      134.217     2.532       6.775       49.634      34.439      29.775      54.433      46.241      28.353      10.971      1.163       2.185       510.384     49.152      1.06        159.323     179.946     186.489     34.705      
118.6       37.584      134.249     2.481       6.214       47.291      33.849      29.011      53.724      45.773      28.071      10.808      1.077       2.137       512.112     49.056      1.06        179.087     182.513     203.984     37.026      
118.8       49.204      134.216     2.479       6.253       45.398      32.556      28.69       52.71       45.473      27.625      10.651      1.036       2.127       513.296     48.734      1.06        192.201     173.539     210.882     34.613      
119.0       38.905      134.061     2.505       6.773       44.092      31.758      28.462      52.55       44.787      28.262      10.405      1.026       2.142       514.144     48.029      1.06        177.144     170.915     196.736     34.461      
119.2       36.392      134.062     2.463       6.523       42.435      30.343      27.882      52.345      44.673      28.962      10.251      1.043       2.064       515.072     46.747      1.06        155.909     177.417     167.704     36.417      
119.4       34.834      134.027     2.431       6.9         41.178      28.529      27.729      51.858      45.13       29.431      10.161      1.044       2.008       515.904     44.757      1.06        176.01      171.5       173.416     39.46       
119.6       35.645      134.066     2.454       6.932       40.239      26.266      27.833      51.282      45.462      29.765      10.065      1.018       2.011       515.984     42.261      1.06        187.587     159.783     199.495     39.403      
119.8       35.481      134.02      2.445       6.54        39.603      24.891      27.478      50.655      45.177      29.994      9.986       1.055       2.021       515.728     39.837      1.06        182.004     165.539     187.69      37.423      
120.0       35.645      134.04      2.443       7.11        38.921      23.324      26.212      49.46       45.677      29.627      9.9         1.046       1.968       514.192     37.995      1.06        178.233     201.361     152.774     35.738      
120.2       31.623      134.03      2.514       6.868       38.39       22.264      25.467      47.737      45.526      28.871      9.796       1.082       1.989       511.904     36.909      1.06        203.198     226.795     141.09      36.079      
120.4       35.645      134.024     2.529       6.088       37.75       21.483      24.119      46.797      44.494      28.936      9.803       1.104       2.026       509.536     36.359      1.06        219.263     224.235     192.97      36.594      
120.6       36.308      134.036     2.487       5.89        36.946      21.077      22.132      46.195      42.515      29.304      9.789       1.146       2.131       507.632     36.091      1.06        214.019     212.357     228.645     33.164      
120.8       35.318      133.991     2.487       6.336       36.312      20.542      19.516      45.207      41.556      29.367      9.7         1.097       2.107       506.496     35.913      1.06        210.717     200.916     241.011     32.504      
121.0       29.648      134.016     2.529       5.835       35.87       19.997      18.252      43.577      40.36       28.78       9.633       1.051       2.008       506.112     35.704      1.06        197.264     191.739     222.339     35.194      
121.2       27.733      134.027     2.496       6.482       35.836      19.957      17.125      42.91       39.58       28.789      9.593       1.102       2.031       506.112     35.41       1.06        183.163     181.266     203.849     39.079      
121.4       28.249      134.0       2.514       6.805       36.17       20.017      16.659      42.306      38.919      28.505      9.646       1.045       2.067       506.16      35.025      1.06        182.422     166.183     206.093     36.505      
121.6       33.189      134.078     2.527       6.429       36.604      20.408      16.489      41.486      38.767      27.999      9.68        1.004       2.108       506.816     34.576      1.06        191.603     160.044     203.918     35.081      
121.8       30.761      133.866     2.515       6.495       36.703      20.741      16.968      41.409      38.348      28.308      9.666       1.028       2.068       508.432     34.136      1.06        211.229     173.84      176.565     36.532      
