~Version Information Section
VERS.                                         2.0:CWLS log ASCII Standart – VERSION 2.0
WRAP.                                          NO:One line per depth step
~Well Information Section
STRT.M                                        0.2:Начальная глубина
STOP.M                                      176.0:Конечная глубина
STEP.M                                          0:Шаг квантования по глубине
NULL.                                    -9999.25:Признак "Нет данных"
WELL.                                       112Мх:Скважина
~Parameter Information Section
~Curve Information Section
DEPTH.M                                          :Глубина
BK.Ohm*M                                         :BK     (БК)
DS.mm                                            :DS  (ДС)
GGK.g/cm3                                        :GGKp
ГК.mcr/h                                         :GK          (ГК)
GZ1.Ohm*M                                        :GZ1   ГЗ1(A0.4M0.1N)
GZ2.Ohm*M                                        :GZ2   ГЗ2(A1.0M0.1N)
GZ3.Ohm*M                                        :GZ3   ГЗ3(A2.0M0.5N)
GZ4.Ohm*M                                        :GZ4   ГЗ4(A4.0M0.5N)
GZ5.Ohm*M                                        :GZ5   ГЗ5(A8.0M0.5N)
GZR.Ohm*M                                        :GZK   ГЗK(N0.5M2.0A)
ИК.Ohm*M                                         :IK
НГК.ue                                           :NGK     (НГК)
NNKM.                                            :NNKm  (ННКм)
PS.mv                                            :PS       (ПС)
PZ.Ohm*M                                         :PZ    (КС)
U1.mV                                            :U1
U2.mV                                            :U2
U3.mV                                            :U3
КП.%                                             :Кп
~ASCII LOG DATA
# ...
119.2       37.834      139.46      2.418       5.744       33.273      28.624      27.293      23.237      10.282      26.458      21.175      1.124       2.055       329.32      69.24       690.0       2920.0      800.0       38.81       
119.3       38.676      139.867     2.418       6.067       33.399      28.927      27.278      23.242      10.429      26.029      21.144      1.17        2.063       329.28      68.48       690.0       2930.0      800.0       38.982      
119.4       38.471      139.694     2.414       5.953       33.498      29.237      27.278      23.25       10.679      25.635      21.092      1.194       2.074       329.28      67.88       710.0       2960.0      800.0       39.685      
119.5       38.277      140.216     2.404       5.647       33.584      29.534      27.279      23.267      11.014      25.299      21.036      1.194       2.101       329.28      67.44       690.0       2960.0      800.0       40.777      
119.6       39.174      139.971     2.391       5.482       33.659      29.797      27.288      23.296      11.398      25.041      21.002      1.119       2.13        329.4       67.12       690.0       2960.0      607.876     41.427      
119.7       39.877      140.225     2.38        5.576       33.721      30.014      27.318      23.338      11.785      24.878      21.031      1.109       2.144       329.78      66.92       690.0       2960.0      607.876     41.451      
119.8       39.885      140.324     2.376       5.884       33.764      30.191      27.377      23.393      12.132      24.818      20.982      1.108       2.123       330.38      66.76       710.0       2970.0      688.166     41.139      
119.9       39.724      140.083     2.375       5.804       33.779      30.325      27.475      23.464      12.406      24.818      20.756      1.134       2.078       331.12      66.6        720.0       2990.0      716.522     40.508      
120.0       39.696      140.709     2.376       5.796       33.775      30.398      27.634      23.56       12.601      24.822      20.461      1.158       2.076       331.88      66.4        607.917     2868.921    664.587     40.429      
120.1       39.354      140.574     2.37        5.585       33.739      30.414      27.879      23.684      12.733      24.861      20.284      1.219       2.096       332.52      66.24       362.177     2722.101    612.653     41.046      
120.2       38.74       141.492     2.364       5.756       33.622      30.409      28.228      23.835      12.82       25.036      20.276      1.248       2.091       333.02      66.16       362.177     2722.101    585.005     41.091      
120.3       38.83       141.22      2.358       5.782       33.403      30.363      28.677      24.013      12.882      25.461      20.317      1.241       2.084       333.4       66.16       383.609     2724.489    557.358     40.057      
120.4       39.063      140.378     2.357       5.645       33.088      30.206      29.182      24.203      12.932      26.179      20.345      1.156       2.098       333.68      66.16       357.955     2683.548    521.717     38.603      
120.5       38.679      140.111     2.359       5.56        32.713      29.894      29.664      24.386      12.978      27.199      20.237      1.115       2.121       333.9       66.16       310.869     2640.219    486.076     37.988      
120.6       37.913      140.322     2.363       5.551       32.358      29.437      30.035      24.543      13.017      28.454      20.012      1.122       2.151       334.1       66.16       310.869     2640.219    475.507     39.412      
120.7       34.227      139.682     2.365       5.678       32.11       28.895      30.239      24.658      13.048      29.799      19.752      1.165       2.157       334.3       66.28       444.106     2696.199    464.938     40.669      
120.8       26.618      140.387     2.369       5.696       32.008      28.34       30.295      24.717      13.075      31.039      19.458      1.17        2.127       334.52      66.52       577.343     2752.18     454.369     39.469      
120.9       27.33       140.639     2.383       5.82        32.008      27.851      30.29       24.732      13.107      31.951      19.302      1.161       2.107       334.78      66.84       551.779     2773.846    454.369     37.161      
121.0       33.409      139.955     2.406       5.958       32.012      27.486      30.239      24.73       13.177      32.412      19.337      1.216       2.099       335.08      67.16       392.978     2739.531    530.132     35.584      
121.1       33.458      139.937     2.432       5.784       32.055      27.259      30.063      24.707      13.338      32.52       19.457      1.177       2.098       335.42      67.48       392.978     2739.531    517.569     36.302      
121.2       34.444      139.374     2.452       5.344       32.253      27.151      29.734      24.626      13.64       32.504      19.687      1.243       2.099       335.8       67.84       517.328     2751.731    427.103     36.717      
121.3       37.391      139.746     2.464       5.211       32.702      27.126      29.276      24.46       14.115      32.365      19.966      1.179       2.171       336.18      68.24       619.773     2762.097    427.103     36.664      
121.4       39.283      139.424     2.457       5.129       33.34       27.126      28.709      24.194      14.775      31.934      20.158      1.208       2.248       336.5       68.8        587.946     2759.303    436.605     36.96       
121.5       40.207      139.15      2.437       5.34        34.059      27.128      28.044      23.822      15.582      31.252      20.378      1.153       2.276       336.72      69.6        587.946     2759.303    450.641     37.994      
121.6       42.225      139.19      2.41        5.596       34.698      27.146      27.306      23.357      16.443      30.504      20.678      1.178       2.28        336.82      70.64       609.666     2780.432    470.462     39.079      
121.7       43.876      139.964     2.381       6.051       35.122      27.199      26.545      22.832      17.262      29.819      20.809      1.222       2.241       336.84      71.72       634.992     2803.172    490.673     40.356      
121.8       42.566      139.822     2.36        6.216       35.317      27.285      25.827      22.297      17.966      29.249      20.825      1.275       2.176       336.84      72.84       660.319     2815.103    510.885     41.101      
121.9       39.873      139.805     2.343       5.98        35.355      27.398      25.209      21.81       18.506      28.817      20.826      1.253       2.1         336.8       73.76       700.83      2800.864    580.0       41.011      
122.0       37.72       139.99      2.341       5.682       35.347      27.539      24.727      21.41       18.868      28.51       20.819      1.236       2.049       336.66      74.4        527.294     2764.97     580.0       40.696      
122.1       35.572      140.234     2.337       5.853       35.281      27.712      24.391      21.108      19.085      28.307      20.81       1.195       2.017       336.42      74.76       279.06      2726.333    580.0       41.154      
122.2       36.255      141.09      2.336       6.118       35.093      27.921      24.186      20.893      19.207      28.19       20.754      1.19        2.019       336.14      74.92       279.06      2716.476    590.0       42.5        
122.3       36.871      141.139     2.334       6.344       34.836      28.168      24.087      20.744      19.274      28.139      20.677      1.172       2.033       335.88      74.92       291.05      2711.001    560.0       44.452      
122.4       37.083      141.567     2.334       6.082       34.587      28.441      24.06       20.641      19.316      28.127      20.652      1.155       2.021       335.68      74.92       342.666     2705.527    540.0       45.0        
122.5       37.695      139.84      2.335       6.014       34.36       28.719      24.06       20.571      19.367      28.127      20.761      1.169       2.012       335.6       74.88       394.282     2677.191    420.55      44.649      
