~Version Information Section
VERS.                                         2.0:CWLS log ASCII Standart – VERSION 2.0
WRAP.                                          NO:One line per depth step
~Well Information Section
STRT.M                                        1.0:Начальная глубина
STOP.M                                      192.9:Конечная глубина
STEP.M                                          0:Шаг квантования по глубине
NULL.                                    -9999.25:Признак "Нет данных"
WELL.                                       123Мх:Скважина
~Parameter Information Section
~Curve Information Section
DEPTH.M                                          :Глубина
BK.lgОмм                                         :BK     (БК)
ПРОФ_СР.мм                                       :DS  (ДС)
ГК.мкР/час                                       :GK          (ГК)
ГЗ1.Омм                                          :GZ1   ГЗ1(A0.4M0.1N)
ГЗ2.Омм                                          :GZ2   ГЗ2(A1.0M0.1N)
ГЗ3.Омм                                          :GZ3   ГЗ3(A2.0M0.5N)
ГЗ4.Oмм                                          :GZ4   ГЗ4(A4.0M0.5N)
ГЗ5.Oмм                                          :GZ5   ГЗ5(A8.0M0.5N)
ГЗК.Омм                                          :GZK   ГЗK(N0.5M2.0A)
ИК.мСм/м                                         :IK
НГК.усл.ед.                                      :NGK     (НГК)
PS.мВ                                            :PS       (ПС)
PZ.Омм                                           :PZ    (КС)
RIS.Омм                                          :RS (Резистивиметр)
U1.мВ                                            :U1
U2.мВ                                            :U2
U3.mv                                            :U3
W.                                               :W
П.%                                              :п
ННКМ.усл.ед                                      :ННКм
~ASCII LOG DATA
# ...
138.6       22.646      130.137     7.415       52.92       18.7        42.801      32.203      15.334      14.453      9.467       1.042       279.612     13.615      1.48        404.193     365.423     396.851     2.321       31.335      0.178       
138.7       21.33       130.825     7.546       52.92       18.7        42.801      31.203      14.667      14.119      9.376       1.023       280.366     13.533      1.48        330.245     274.558     288.121     2.328       32.218      0.175       
138.8       20.893      130.66      7.232       52.92       18.7        42.801      30.536      14.334      13.786      9.363       1.068       281.12      13.53       1.48        407.32      345.083     350.578     2.34        32.422      0.182       
138.9       20.749      130.798     6.621       52.92       18.7        42.801      30.536      14.334      13.786      9.313       1.07        282.629     13.58       1.48        502.311     437.329     438.851     2.353       32.02       0.183       
139.0       22.491      130.273     6.287       52.92       19.04       42.801      30.536      14.334      13.786      9.324       1.114       283.76      13.598      1.48        615.196     551.276     552.919     2.369       31.138      0.18        
139.1       23.988      130.47      6.304       52.92       19.38       42.801      30.536      14.334      13.786      9.3         1.061       285.269     13.609      1.48        678.451     624.016     635.471     2.388       30.477      0.179       
139.2       24.044      130.603     6.594       52.92       19.72       42.801      30.536      14.334      13.786      9.29        1.026       286.4       13.598      1.48        692.047     655.519     686.473     2.392       30.007      0.187       
139.3       22.131      130.087     6.807       52.92       20.06       43.468      30.536      14.334      13.786      9.2         1.028       286.777     13.535      1.48        683.347     637.734     663.246     2.4         29.449      0.195       
139.4       20.464      130.487     7.135       52.92       20.74       42.134      30.869      14.334      13.786      9.189       1.017       287.155     13.441      1.48        702.007     611.885     597.315     2.38        29.052      0.194       
139.5       19.861      129.997     7.407       52.56       21.08       40.801      31.536      14.667      13.786      9.153       1.043       287.532     13.447      1.48        721.364     548.571     473.633     2.371       29.007      0.193       
139.6       19.498      130.61      7.408       52.2        21.08       37.468      32.203      15.001      13.786      9.178       0.993       287.909     13.458      1.48        714.067     455.829     334.855     2.375       29.141      0.185       
139.7       19.231      130.056     7.2         51.84       20.74       36.134      32.536      15.334      13.786      9.139       1.004       288.286     13.627      1.48        660.955     398.948     291.64      2.368       28.999      0.183       
139.8       20.277      130.129     6.663       51.48       20.06       34.134      32.536      15.667      13.786      9.178       1.009       288.663     14.163      1.48        588.669     407.309     359.03      2.356       28.789      0.185       
139.9       21.135      129.689     6.715       51.12       19.04       33.468      32.536      16.334      13.786      9.189       1.043       289.04      14.905      1.48        559.49      405.27      396.312     2.347       29.02       0.185       
140.0       22.387      130.183     6.935       50.76       17.68       32.801      32.536      17.001      13.786      9.175       1.062       289.417     15.855      1.48        592.577     327.59      292.894     2.344       29.194      0.182       
140.1       22.336      130.435     7.272       50.76       17.0        32.801      32.536      17.001      13.786      9.188       1.044       289.795     16.878      1.48        698.503     255.408     145.822     2.34        29.23       0.186       
140.2       19.953      130.175     7.347       50.76       16.32       32.801      32.203      16.667      13.786      9.215       1.019       290.172     17.102      1.48        814.96      264.401     95.865      2.337       29.719      0.195       
140.3       19.187      130.051     7.288       50.76       15.64       32.801      31.536      16.334      13.786      9.175       1.054       290.549     16.638      1.48        820.123     316.923     169.211     2.338       30.31       0.189       
140.4       19.815      129.808     7.23        50.76       14.96       32.801      30.536      16.001      13.453      9.166       1.109       290.926     15.203      1.48        703.403     331.791     268.77      2.357       30.895      0.182       
140.5       20.749      130.01      7.12        50.76       14.62       32.801      29.536      15.667      13.119      9.189       1.06        290.926     13.486      1.48        464.855     309.015     394.518     2.361       30.553      0.183       
140.6       20.989      129.484     7.056       50.76       14.62       32.801      28.869      15.334      12.786      9.177       1.025       290.926     11.335      1.48        449.501     324.996     427.999     2.367       30.648      0.185       
140.7       21.577      129.908     7.062       50.76       14.62       33.468      28.203      15.001      12.786      9.189       0.957       290.926     9.831       1.48        657.352     379.729     369.196     2.361       30.335      0.186       
140.8       21.184      130.611     6.768       50.76       14.62       34.134      27.869      14.667      12.453      9.203       1.003       290.926     8.703       1.48        812.885     398.477     264.734     2.373       30.363      0.188       
140.9       20.845      130.6       7.161       50.76       14.62       34.801      27.203      14.001      11.786      9.189       1.03        290.926     8.327       1.48        692.786     342.457     206.924     2.375       29.791      0.187       
141.0       20.606      129.996     7.271       50.76       14.96       34.801      26.869      13.334      10.786      9.151       1.039       290.926     7.951       1.48        448.293     286.995     244.801     2.378       29.898      0.189       
141.1       20.845      130.409     7.583       50.76       15.64       34.801      26.536      12.667      10.119      9.138       1.074       290.926     7.951       1.48        354.915     306.827     331.736     2.389       30.027      0.189       
141.2       21.184      130.248     7.162       50.76       17.0        34.801      25.869      12.334      9.453       9.14        1.025       290.926     7.951       1.482       403.021     380.397     432.943     2.385       30.47       0.19        
141.3       21.528      130.45      6.92        50.76       18.02       34.801      25.203      12.334      9.119       9.128       1.047       290.926     7.951       1.485       441.471     432.431     499.415     2.376       30.498      0.192       
141.4       21.086      129.801     7.153       50.76       17.68       34.801      24.536      12.334      8.786       9.08        1.025       290.926     7.951       1.49        470.256     462.915     531.134     2.364       30.125      0.19        
141.5       20.893      130.349     7.562       50.76       16.66       34.801      24.536      12.334      8.786       9.045       1.017       290.926     7.951       1.496       549.682     484.644     511.14      2.366       29.932      0.189       
141.6       20.749      130.256     7.575       50.76       15.64       34.801      24.536      12.334      8.786       9.058       0.99        290.926     7.951       1.501       679.779     497.624     439.423     2.391       29.472      0.185       
141.7       21.038      130.74      7.533       50.76       15.64       34.801      24.869      12.334      8.786       9.02        0.993       290.926     7.951       1.504       851.298     487.637     331.71      2.397       29.479      0.182       
