~Version Information Section
VERS.                                         2.0:CWLS log ASCII Standart – VERSION 2.0
WRAP.                                          NO:One line per depth step
~Well Information Section
STRT.M                                        0.5:Начальная глубина
STOP.M                                      201.9:Конечная глубина
STEP.M                                          0:Шаг квантования по глубине
NULL.                                    -9999.25:Признак "Нет данных"
WELL.                                       138Мх:Скважина
~Parameter Information Section
~Curve Information Section
DEPTH.M                                          :Глубина
БК.Омм                                           :BK     (БК)
DСР.мм                                           :DS  (ДС)
W.g/cm3                                          :GGKp
ГК.гамма                                         :GK          (ГК)
А0.4М0.1N.Омм.ohmm                               :GZ1   ГЗ1(A0.4M0.1N)
А1.0М0.1N.Омм.ohmm                               :GZ2   ГЗ2(A1.0M0.1N)
А2.0М0.5N.Омм.ohmm                               :GZ3   ГЗ3(A2.0M0.5N)
А4.0М0.5N.Oмм.ohmm                               :GZ4   ГЗ4(A4.0M0.5N)
А8.0М1.0N.Омм.ohmm                               :GZ5   ГЗ5(A8.0M0.5N)
N0.5M2.0A.Омм.ohmm                               :GZK   ГЗK(N0.5M2.0A)
ИК.мСм/м                                         :IK
ННКМ.усл.ед                                      :NNKm  (ННКм)
ПС.мВ                                            :PS       (ПС)
КС.Омм                                           :PZ    (КС)
R.Омм                                            :RS (Резистивиметр)
U1.мВ                                            :U1
U2.mV                                            :U2
U3.мВ                                            :U3
КП.%                                             :Кп
НГК.усл.ед                                       :NGK
~ASCII LOG DATA
# ...
96.5        46.794      142.154     2.093       5.751       19.489      17.606      20.226      14.837      11.326      18.612      15.263      1.409       276.008     59.632      1.08        1502.518    894.456     609.399     39.11       0.933       
96.6        44.581      142.252     2.086       5.828       18.544      17.002      19.528      14.381      10.994      18.612      15.132      1.372       275.864     59.576      1.08        1409.188    1064.313    766.697     39.285      0.924       
96.7        42.909      142.081     2.079       5.884       17.77       16.509      18.954      14.105      10.717      18.612      14.999      1.353       275.736     59.342      1.08        1276.291    1114.475    814.25      38.897      0.942       
96.8        39.382      142.018     2.073       6.011       17.317      16.191      18.539      14.013      10.504      18.622      14.843      1.353       275.56      58.933      1.08        1233.646    1084.473    738.084     39.636      0.949       
96.9        33.879      142.172     2.067       6.131       17.186      16.037      18.287      14.011      10.357      18.726      14.696      1.371       275.272     58.39       1.08        1269.922    1060.474    789.547     40.994      0.968       
97.0        31.277      142.224     2.065       6.193       17.186      15.964      18.183      14.011      10.265      18.998      14.563      1.404       274.904     57.774      1.08        1306.198    1054.474    841.011     41.595      0.977       
97.1        30.956      141.998     2.071       6.091       17.186      15.941      18.165      14.011      10.214      19.426      14.447      1.496       274.424     57.133      1.08        1342.474    1072.474    994.474     39.961      1.001       
97.2        29.469      142.091     2.081       5.547       17.186      15.941      18.165      14.011      10.189      19.944      14.397      1.572       273.848     56.494      1.08        1342.474    1108.473    1078.471    37.112      1.055       
97.3        28.708      142.127     2.094       5.231       17.228      15.941      18.165      14.078      10.179      20.48       14.381      1.571       273.256     55.878      1.08        1342.474    1144.475    1144.473    34.698      1.081       
97.4        28.901      142.11      2.112       4.993       17.39       15.941      18.165      14.24       10.173      20.968      14.423      1.58        272.728     55.29       1.08        1402.474    1162.474    1102.474    33.016      1.076       
97.5        29.951      142.054     2.122       4.953       17.728      15.962      18.182      14.441      10.164      21.357      14.489      1.612       272.216     54.725      1.08        1462.474    1162.474    1078.474    33.378      1.057       
97.6        33.255      141.883     2.125       4.864       18.223      16.026      18.222      14.641      10.136      21.623      14.6        1.615       271.736     54.178      1.08        1522.474    1162.474    1072.474    34.162      1.065       
97.7        32.944      141.863     2.125       4.931       18.76       16.13       18.251      14.795      10.077      21.777      14.697      1.588       271.288     53.651      1.08        1516.474    1186.473    1072.474    35.387      1.06        
97.8        31.082      142.077     2.117       5.047       19.142      16.218      18.256      14.859      9.982       21.83       14.77       1.534       270.84      53.146      1.08        1498.473    1198.474    1072.474    36.007      1.038       
97.9        32.42       141.996     2.106       5.302       19.265      16.244      18.252      14.862      9.843       21.827      14.797      1.48        270.312     52.67       1.08        1480.474    1210.474    1096.474    38.157      1.035       
98.0        33.389      141.998     2.099       5.413       19.264      16.209      18.185      14.806      9.67        21.778      14.765      1.483       269.8       52.235      1.08        1462.474    1198.474    1132.474    39.624      1.047       
98.1        34.495      142.022     2.094       5.524       19.15       16.1        17.99       14.636      9.474       21.648      14.726      1.497       269.288     51.843      1.08        1456.474    1252.474    1168.474    39.568      1.045       
98.2        33.6        142.051     2.09        5.322       18.811      15.941      17.647      14.348      9.265       21.447      14.674      1.496       268.776     51.488      1.08        1450.474    1306.472    1180.474    37.609      1.011       
98.3        29.137      142.557     2.094       5.223       18.287      15.704      17.163      13.961      9.046       21.222      14.581      1.487       268.264     51.166      1.08        1456.474    1360.474    1180.474    35.046      0.998       
98.4        27.185      142.805     2.097       5.343       17.689      15.356      16.598      13.536      8.847       21.034      14.488      1.444       267.832     50.867      1.08        1450.474    1372.474    1180.474    35.176      1.008       
98.5        30.565      142.005     2.094       5.288       17.127      14.988      16.021      13.14       8.686       20.953      14.419      1.399       267.448     50.578      1.08        1444.474    1402.474    1180.474    38.164      1.006       
98.6        33.451      142.062     2.088       5.34        16.602      14.648      15.506      12.824      8.565       20.951      14.39       1.345       267.096     50.294      1.08        1432.474    1426.474    1180.474    41.457      1.063       
98.7        31.433      142.091     2.082       5.487       16.152      14.353      15.119      12.641      8.51        20.951      14.379      1.33        266.76      50.024      1.08        1432.474    1438.474    1204.473    42.653      1.068       
98.8        27.724      142.074     2.07        5.618       15.852      14.183      14.923      12.592      8.51        20.951      14.352      1.416       266.44      49.771      1.08        1432.474    1432.474    1222.475    40.262      1.076       
98.9        25.216      143.067     2.062       5.771       15.741      14.116      14.883      12.592      8.51        20.951      14.346      1.468       266.088     49.546      1.08        1426.474    1432.474    1222.474    38.013      1.023       
99.0        24.907      143.535     2.062       5.769       15.741      14.072      14.883      12.592      8.51        21.062      14.369      1.455       265.672     49.36       1.08        1420.474    1408.474    1186.474    37.096      0.975       
99.1        26.488      142.943     2.061       5.798       15.741      14.052      14.883      12.592      8.51        21.374      14.418      1.438       265.256     49.219      1.08        1402.474    1348.474    1156.474    37.352      0.933       
99.2        29.43       142.005     2.059       5.44        15.741      14.052      14.883      12.635      8.544       21.8        14.507      1.424       264.888     49.12       1.08        1390.474    1264.476    1144.474    37.362      0.906       
99.3        30.915      141.8       2.061       5.287       15.75       14.052      14.958      12.795      8.658       22.261      14.628      1.464       264.568     49.059      1.08        1348.473    1204.473    1138.474    36.708      0.955       
99.4        29.224      141.827     2.064       5.159       15.922      14.107      15.2        13.076      8.824       22.696      14.803      1.53        264.312     49.029      1.08        1300.474    1168.474    1120.474    35.542      1.015       
99.5        26.747      142.077     2.065       5.232       16.466      14.255      15.588      13.435      9.048       23.044      15.006      1.59        264.072     49.027      1.08        1252.474    1138.474    1096.474    35.316      1.081       
99.6        26.399      142.32      2.068       5.235       17.401      14.478      16.062      13.813      9.317       23.324      15.248      1.634       263.816     49.027      1.08        1234.474    1090.474    1072.474    35.781      1.108       
