~Version Information Section
VERS.                                         2.0:CWLS log ASCII Standart – VERSION 2.0
WRAP.                                          NO:One line per depth step
~Well Information Section
STRT.M                                        1.6:Начальная глубина
STOP.M                                      209.3:Конечная глубина
STEP.M                                          0:Шаг квантования по глубине
NULL.                                    -9999.25:Признак "Нет данных"
WELL.                                       132Мх:Скважина
~Parameter Information Section
~Curve Information Section
DEPTH.M                                          :Глубина
BК.                                              :BК (Омм)
DS.mm                                            :DS
GGK.g/cm3                                        :GGKp
IК.                                              :IК (Омм)
NGК.                                             :NGК (усл.ед.)
PS.mV                                            :PS
PZ.                                              :PZ (Омм)
REZ.                                             :REZ (Омм)
U1.                                              :U1 (ue)
U2.                                              :U2 (ue)
U3.                                              :U3 (ue)
ГК.mcr/h                                         :ГКканаломНГК
~ASCII LOG DATA
# ...
6.7         -9999.25    154.186     2.399       -9999.25    3.584       -9999.25    -9999.25    2.546       -9999.25    -9999.25    -9999.25    5.102       
6.8         -9999.25    154.349     2.362       -9999.25    4.146       -9999.25    -9999.25    2.451       -9999.25    -9999.25    -9999.25    4.917       
6.9         -9999.25    155.565     2.294       -9999.25    4.283       -9999.25    -9999.25    2.362       -9999.25    -9999.25    -9999.25    4.952       
7.0         -9999.25    154.692     2.268       -9999.25    3.741       -9999.25    -9999.25    2.28        -9999.25    -9999.25    -9999.25    5.161       
7.1         -9999.25    159.266     2.165       -9999.25    3.073       -9999.25    -9999.25    2.204       -9999.25    -9999.25    -9999.25    5.346       
7.2         -9999.25    167.887     2.142       -9999.25    2.176       -9999.25    -9999.25    2.132       -9999.25    -9999.25    -9999.25    5.843       
7.3         -9999.25    171.451     2.136       -9999.25    1.668       -9999.25    -9999.25    2.065       -9999.25    -9999.25    -9999.25    6.324       
7.4         -9999.25    162.529     2.178       -9999.25    1.866       -9999.25    -9999.25    2.002       -9999.25    -9999.25    -9999.25    6.427       
7.5         -9999.25    164.069     2.218       -9999.25    2.547       -9999.25    -9999.25    1.923       -9999.25    -9999.25    -9999.25    6.085       
7.6         -9999.25    164.835     2.202       -9999.25    3.704       -9999.25    -9999.25    2.197       -9999.25    -9999.25    -9999.25    5.513       
7.7         -9999.25    156.321     2.255       -9999.25    4.484       -9999.25    -9999.25    1.935       -9999.25    -9999.25    -9999.25    5.229       
7.8         -9999.25    156.655     2.344       -9999.25    4.808       -9999.25    -9999.25    2.381       -9999.25    -9999.25    -9999.25    5.135       
7.9         -9999.25    154.763     2.38        -9999.25    4.678       -9999.25    -9999.25    2.423       -9999.25    -9999.25    -9999.25    5.206       
8.0         -9999.25    154.248     2.386       -9999.25    3.92        -9999.25    -9999.25    2.418       -9999.25    -9999.25    -9999.25    5.327       
8.1         -9999.25    156.911     2.36        -9999.25    3.274       -9999.25    -9999.25    2.42        -9999.25    -9999.25    -9999.25    5.357       
8.2         -9999.25    155.548     2.369       -9999.25    2.429       -9999.25    -9999.25    2.421       56.412      167.34      269.644     5.802       
8.3         -9999.25    156.339     2.326       -9999.25    1.964       -9999.25    -9999.25    2.42        61.487      176.288     283.641     6.345       
8.4         -9999.25    157.202     2.366       -9999.25    1.75        -9999.25    -9999.25    2.421       111.443     209.699     298.446     7.041       
8.5         -9999.25    157.563     2.278       -9999.25    1.866       -9999.25    -9999.25    2.419       111.517     209.733     298.446     7.332       
8.6         -9999.25    156.655     2.212       -9999.25    2.199       -9999.25    -9999.25    2.418       125.27      221.867     308.451     7.235       
8.7         -9999.25    155.145     2.127       -9999.25    2.451       -9999.25    -9999.25    2.419       168.178     245.752     314.579     6.803       
8.8         -9999.25    157.259     2.172       -9999.25    2.801       -9999.25    -9999.25    2.418       194.869     258.875     314.096     6.137       
8.9         -9999.25    156.389     2.308       -9999.25    3.061       -9999.25    -9999.25    2.417       195.834     256.634     308.051     5.652       
9.0         -9999.25    157.435     2.327       -9999.25    3.286       -9999.25    -9999.25    2.42        188.953     257.115     317.15      5.553       
9.1         -9999.25    157.474     2.317       -9999.25    3.378       -9999.25    -9999.25    2.419       188.908     267.932     341.293     5.729       
9.2         -9999.25    158.677     2.301       -9999.25    3.263       -9999.25    -9999.25    2.418       187.638     276.419     363.391     6.326       
9.3         -9999.25    158.413     2.282       -9999.25    3.069       -9999.25    -9999.25    2.417       150.818     267.818     386.374     6.825       
9.4         -9999.25    158.832     2.241       -9999.25    2.751       -9999.25    -9999.25    2.416       131.53      266.836     405.997     7.335       
9.5         -9999.25    160.027     2.216       -9999.25    2.562       -9999.25    -9999.25    2.416       129.774     273.473     422.257     7.583       
9.6         -9999.25    161.381     2.01        -9999.25    2.223       -9999.25    -9999.25    2.416       111.99      260.451     415.964     8.153       
9.7         -9999.25    163.787     1.864       -9999.25    1.909       -9999.25    -9999.25    2.417       87.94       230.661     379.519     8.889       
9.8         -9999.25    169.557     1.752       -9999.25    1.48        -9999.25    -9999.25    2.417       65.686      196.767     330.009     9.457       
9.9         -9999.25    186.161     1.76        -9999.25    1.206       -9999.25    -9999.25    2.418       52.15       169.402     283.298     9.532       
10.0        -9999.25    192.37      1.92        -9999.25    1.389       -9999.25    -9999.25    2.415       39.621      146.369     246.367     9.649       
10.1        -9999.25    183.337     2.116       -9999.25    1.796       -9999.25    -9999.25    2.416       23.557      122.653     213.795     9.98        
10.2        -9999.25    168.964     2.195       -9999.25    2.649       -9999.25    -9999.25    2.416       19.636      107.446     184.068     10.535      
10.3        -9999.25    170.29      2.21        -9999.25    3.266       -9999.25    -9999.25    2.417       21.632      105.053     175.671     10.8        
10.4        -9999.25    168.004     2.25        -9999.25    3.46        -9999.25    -9999.25    2.417       27.236      111.404     182.9       10.682      
10.5        -9999.25    171.598     2.196       -9999.25    3.099       -9999.25    -9999.25    2.417       29.523      115.868     189.891     10.227      
10.6        -9999.25    171.022     2.103       -9999.25    2.277       -9999.25    -9999.25    2.418       29.795      116.26      190.638     9.864       
10.7        -9999.25    180.26      2.024       -9999.25    1.6         -9999.25    -9999.25    2.417       32.594      117.596     190.561     9.845       
10.8        -9999.25    197.398     2.012       -9999.25    1.258       -9999.25    -9999.25    2.417       34.03       121.185     196.578     10.047      
10.9        -9999.25    223.533     2.075       -9999.25    1.321       -9999.25    -9999.25    2.418       30.565      119.832     197.802     10.156      
11.0        -9999.25    241.847     2.108       -9999.25    2.648       -9999.25    -9999.25    2.419       30.372      117.28      192.644     10.041      
11.1        -9999.25    240.104     2.119       -9999.25    4.148       -9999.25    -9999.25    2.418       27.615      111.548     183.541     9.803       
11.2        -9999.25    206.473     2.103       -9999.25    3.71        -9999.25    -9999.25    2.418       20.992      104.819     176.497     9.948       
11.3        -9999.25    182.18      2.096       -9999.25    5.721       -9999.25    -9999.25    2.419       14.474      100.241     173.807     10.464      
11.4        -9999.25    174.13      2.092       -9999.25    6.185       -9999.25    -9999.25    2.419       11.951      96.505      168.551     10.887      
11.5        -9999.25    171.764     2.146       -9999.25    4.978       -9999.25    -9999.25    2.419       15.546      94.41       160.434     10.76       
11.6        -9999.25    163.629     2.225       -9999.25    2.453       -9999.25    -9999.25    2.419       19.397      94.282      156.748     10.139      
11.7        -9999.25    161.158     2.238       -9999.25    3.674       -9999.25    -9999.25    2.419       25.009      99.582      162.23      9.443       
