~Version Information Section
VERS.                                         2.0:CWLS log ASCII Standart – VERSION 2.0
WRAP.                                          NO:One line per depth step
~Well Information Section
STRT.M                                        0.4:Начальная глубина
STOP.M                                      190.1:Конечная глубина
STEP.M                                          0:Шаг квантования по глубине
NULL.                                    -9999.25:Признак "Нет данных"
WELL.                                       135Мх:Скважина
~Parameter Information Section
~Curve Information Section
DEPTH.M                                          :Глубина
DS.mm                                            :DS  (ДС)
GGK.g/cm3                                        :GGKp
ГК.mcr/h                                         :GK          (ГК)
GZ1.Ohm*M                                        :GZ1   ГЗ1(A0.4M0.1N)
GZ2.Ohm*M                                        :GZ2   ГЗ2(A1.0M0.1N)
GZ3.Ohm*M                                        :GZ3   ГЗ3(A2.0M0.5N)
GZ4.Ohm*M                                        :GZ4   ГЗ4(A4.0M0.5N)
GZ5.Ohm*M                                        :GZ5   ГЗ5(A8.0M0.5N)
GZR.Ohm*M                                        :GZK   ГЗK(N0.5M2.0A)
ИК.Ohm*M                                         :IK
НГК.ue                                           :NGK     (НГК)
NNKM.                                            :NNKm  (ННКм)
PS.mv                                            :PS       (ПС)
PZ.Ohm*M                                         :PZ    (КС)
RS.Ohm*M                                         :RS (Резистивиметр)
U1.mV                                            :U1
U2.mV                                            :U2
U3.mV                                            :U3
BK.Ohm*M                                         :БК
ПОРИСТОСТЬ.                                      :Пористость ННК
~ASCII LOG DATA
# ...
96.4        132.341     2.259       6.121       60.191      36.863      26.046      12.717      9.425       58.501      26.808      1.751       2.492       424.39      30.6        1.44        119.249     59.47       79.058      29.511      28.326      
96.5        132.242     2.26        5.798       63.481      39.819      27.429      12.77       9.43        58.656      27.127      1.801       2.525       424.46      30.6        1.44        123.958     59.966      82.493      27.789      27.846      
96.6        132.257     2.263       5.629       65.355      42.811      29.186      12.843      9.43        58.745      27.37       1.781       2.543       424.605     30.6        1.44        128.52      60.165      85.669      29.273      28.447      
96.7        132.248     2.244       5.583       66.205      45.818      31.202      12.991      9.409       58.614      27.58       1.771       2.505       424.821     30.6        1.44        139.699     60.465      93.859      30.294      30.183      
96.8        132.044     2.205       5.71        66.463      48.882      33.197      13.294      9.333       57.966      27.774      1.719       2.472       425.102     30.6        1.44        146.709     61.347      99.557      31.456      31.246      
96.9        132.024     2.176       5.805       66.481      52.045      34.935      13.813      9.191       56.616      27.935      1.689       2.47        425.463     30.6        1.44        158.957     68.219      109.665     36.354      32.011      
97.0        132.024     2.17        5.711       66.473      55.258      36.355      14.55       8.945       54.351      28.076      1.676       2.484       425.932     30.6        1.44        170.601     76.801      118.92      38.253      32.02       
97.1        132.178     2.176       5.425       66.575      58.397      37.559      15.476      8.593       51.004      28.193      1.736       2.512       426.565     29.928      1.44        181.857     84.606      127.495     39.634      31.156      
97.2        132.082     2.189       4.999       66.98       61.329      38.834      16.61       8.164       46.84       28.235      1.804       2.535       427.376     28.8        1.44        194.436     88.367      136.625     39.646      30.324      
97.3        132.003     2.22        4.763       67.922      63.698      40.461      17.968      7.7         42.272      28.235      1.826       2.554       428.429     28.79       1.44        200.998     90.315      141.587     36.174      29.707      
97.4        131.737     2.246       4.925       69.582      64.887      42.37       19.481      7.252       37.639      28.235      1.793       2.557       429.724     29.105      1.44        202.014     92.351      142.025     35.004      28.934      
97.5        131.543     2.261       5.519       71.947      64.412      44.179      21.013      6.847       33.425      28.225      1.737       2.565       431.255     29.002      1.44        196.468     92.439      137.501     36.93       28.395      
97.6        131.543     2.28        5.818       74.808      62.014      45.485      22.358      6.494       29.986      28.167      1.734       2.589       432.95      28.614      1.44        185.617     84.996      129.056     36.59       27.407      
97.7        131.603     2.311       5.874       77.733      57.841      46.014      23.357      6.206       27.32       28.036      1.754       2.598       434.751     27.924      1.44        180.313     77.464      125.136     34.032      26.721      
97.8        131.638     2.332       5.699       80.26       52.814      45.696      24.025      5.981       25.368      27.85       1.774       2.602       436.595     26.793      1.44        166.416     66.331      114.833     33.653      26.455      
97.9        131.638     2.33        5.719       81.926      48.106      44.813      24.454      5.812       23.998      27.61       1.747       2.584       438.462     25.303      1.44        157.824     62.729      108.449     34.657      27.071      
98.0        131.891     2.321       5.91        82.069      44.374      43.798      24.742      5.702       22.939      27.379      1.729       2.52        440.298     23.876      1.44        153.406     59.466      105.366     28.531      28.332      
98.1        132.167     2.312       5.969       80.198      41.943      42.911      24.962      5.631       22.002      27.128      1.719       2.452       442.047     22.835      1.44        157.784     60.211      109.022     21.66       29.612      
98.2        132.415     2.307       5.823       76.314      40.71       42.282      25.121      5.581       21.128      26.836      1.689       2.438       443.621     22.29       1.44        162.067     60.766      112.513     20.006      31.504      
98.3        132.53      2.305       5.413       70.756      40.147      41.948      25.256      5.541       20.361      26.473      1.639       2.454       445.0       22.132      1.44        161.311     60.458      111.947     21.715      32.475      
98.4        132.16      2.311       5.377       64.416      39.922      41.793      25.471      5.499       19.772      26.073      1.648       2.504       446.132     22.115      1.44        160.179     59.399      110.725     23.402      32.845      
98.5        131.787     2.322       5.363       58.562      39.764      41.739      25.879      5.467       19.39       25.672      1.713       2.563       446.993     22.139      1.44        150.182     58.53       102.89      25.305      32.045      
98.6        131.748     2.347       5.455       53.962      39.492      41.74       26.512      5.45        19.214      25.365      1.698       2.58        447.569     22.269      1.44        141.05      60.034      95.81       24.83       31.375      
98.7        131.748     2.362       5.063       50.863      39.077      41.72       27.248      5.45        19.175      25.157      1.61        2.562       447.931     22.57       1.44        132.081     61.961      89.081      24.658      31.118      
98.8        131.828     2.361       5.005       49.186      38.367      41.612      27.823      5.449       19.201      25.071      1.537       2.535       448.122     23.093      1.44        132.071     65.19       89.131      26.177      31.405      
98.9        131.943     2.365       5.119       48.416      37.485      41.313      28.038      5.45        19.344      25.06       1.515       2.515       448.145     23.361      1.44        130.036     62.52       87.494      23.421      31.944      
99.0        132.375     2.372       5.331       48.108      36.706      40.736      27.926      5.449       19.724      25.06       1.542       2.511       447.983     23.736      1.44        128.01      59.771      85.808      24.042      32.259      
99.1        132.274     2.353       5.067       48.046      36.142      39.966      27.66       5.444       20.444      25.091      1.549       2.53        447.598     24.3        1.44        125.906     55.563      83.985      29.691      29.814      
99.2        131.786     2.342       4.529       48.162      35.823      39.195      27.434      5.441       21.648      25.207      1.593       2.618       446.928     25.236      1.44        125.828     55.405      83.847      32.559      28.346      
99.3        131.786     2.341       4.265       48.531      35.496      38.565      27.345      5.441       23.736      25.372      1.607       2.621       445.947     26.4        1.44        127.195     54.991      84.786      27.9        27.829      
99.4        132.192     2.358       4.53        49.217      34.919      38.175      27.335      5.465       27.648      25.589      1.631       2.575       444.693     27.264      1.44        128.641     54.733      85.862      25.315      27.57       
99.5        132.949     2.387       4.95        50.162      34.132      38.013      27.349      5.572       34.767      25.806      1.668       2.552       443.237     27.564      1.44        134.214     53.338      90.039      24.888      27.431      
