~Version Information Section
VERS.                                         2.0:CWLS log ASCII Standart – VERSION 2.0
WRAP.                                          NO:One line per depth step
~Well Information Section
STRT.M                                       -0.5:Начальная глубина
STOP.M                                      184.3:Конечная глубина
STEP.M                                          0:Шаг квантования по глубине
NULL.                                    -9999.25:Признак "Нет данных"
WELL.                                       133Мх:Скважина
~Parameter Information Section
~Curve Information Section
DEPTH.M                                          :Глубина
DS.mm                                            :DS  (ДС)
GGK.g/cm3                                        :GGKp
ГК.mcr/h                                         :GK          (ГК)
GZ1.Ohm*M                                        :GZ1   ГЗ1(A0.4M0.1N)
GZ2.Ohm*M                                        :GZ2   ГЗ2(A1.0M0.1N)
GZ3.Ohm*M                                        :GZ3   ГЗ3(A2.0M0.5N)
GZ4.Ohm*M                                        :GZ4   ГЗ4(A4.0M0.5N)
GZ5.Ohm*M                                        :GZ5   ГЗ5(A8.0M0.5N)
GZR.Ohm*M                                        :GZK   ГЗK(N0.5M2.0A)
ИК.Ohm*M                                         :IK
НГК.ue                                           :NGK     (НГК)
NNKM.                                            :NNKm  (ННКм)
PS.mv                                            :PS       (ПС)
PZ.Ohm*M                                         :PZ    (КС)
RS.Ohm*M                                         :RS (Резистивиметр)
U1.mV                                            :U1
U2.mV                                            :U2
U3.mV                                            :U3
BK.Ohm*M                                         :БК
ПОРИСТОСТЬ.                                      :Пористость ННК
~ASCII LOG DATA
# ...
114.7       131.273     2.203       5.877       102.718     80.007      87.739      43.741      40.782      63.291      31.341      1.643       2.494       167.365     24.938      1.186       470.865     1274.758    2058.801    73.983      28.767      
114.8       131.451     2.191       6.028       103.288     78.354      88.437      44.268      39.098      62.43       31.321      1.636       2.487       167.64      24.757      1.186       474.134     1277.677    2062.422    44.372      29.029      
114.9       131.694     2.182       6.139       102.678     76.654      88.676      44.463      37.097      61.77       31.294      1.619       2.481       167.284     24.528      1.186       476.1       1280.486    2064.965    43.08       29.73       
115.0       131.795     2.172       5.923       101.17      75.775      88.325      44.603      35.178      61.353      31.241      1.63        2.481       166.327     24.254      1.186       477.022     1282.143    2065.966    42.523      30.478      
115.1       131.743     2.175       5.756       99.604      75.481      87.357      45.063      34.064      60.997      31.125      1.687       2.477       164.687     23.955      1.186       478.513     1282.58     2067.071    39.95       30.861      
115.2       131.714     2.183       5.603       97.962      75.06       86.418      46.143      33.473      60.577      30.956      1.777       2.474       162.402     23.644      1.186       481.137     1282.715    2069.397    37.621      30.777      
115.3       131.804     2.198       5.759       95.613      74.376      86.078      48.004      32.763      59.998      30.782      1.817       2.486       159.458     23.335      1.186       483.034     1283.082    2071.035    36.573      30.418      
115.4       131.873     2.217       5.88        92.691      73.888      85.959      50.502      31.874      59.204      30.583      1.768       2.487       155.904     23.01       1.186       482.365     1283.074    2070.148    40.065      29.514      
115.5       131.752     2.222       5.905       90.682      74.02       85.295      52.387      31.0        58.172      30.396      1.681       2.487       151.847     22.631      1.186       480.26      1282.1      2068.118    38.537      29.107      
115.6       131.504     2.221       6.067       91.027      74.243      83.618      53.768      30.268      56.876      30.202      1.652       2.484       147.333     22.177      1.186       479.101     1279.998    2067.096    36.835      29.282      
115.7       131.307     2.214       6.083       91.357      73.852      81.47       55.275      29.629      55.422      30.042      1.665       2.474       142.307     21.654      1.186       478.957     1277.631    2067.006    36.418      30.115      
115.8       131.235     2.216       6.029       89.663      73.098      79.391      55.364      29.111      53.804      29.875      1.695       2.479       136.798     21.092      1.186       477.35      1276.277    2065.669    34.972      30.859      
115.9       131.226     2.221       6.095       87.477      72.053      76.846      54.386      28.702      51.806      29.718      1.713       2.49        130.793     20.542      1.186       473.871     1276.248    2062.973    35.204      31.12       
116.0       131.155     2.226       6.21        84.967      69.847      73.467      53.912      27.862      49.516      29.568      1.681       2.491       124.331     20.079      1.186       470.861     1277.048    2060.786    36.86       30.797      
116.1       130.991     2.231       6.336       80.781      66.825      69.604      53.86       27.271      47.311      29.436      1.662       2.497       117.603     19.751      1.186       469.768     1277.214    2059.874    36.229      30.137      
116.2       130.883     2.216       6.25        75.913      63.985      65.916      53.976      26.906      45.409      29.315      1.638       2.493       110.927     19.572      1.182       469.903     1276.38     2059.73     26.931      29.637      
116.3       130.98      2.182       6.259       71.626      60.66       63.187      54.274      26.847      44.093      29.207      1.652       2.472       104.533     19.517      1.182       470.712     1275.617    2060.1      36.585      29.41       
116.4       131.264     2.152       6.934       66.825      57.109      61.874      54.455      26.847      43.476      29.101      1.623       2.429       98.604      19.511      1.182       472.195     1276.053    2061.133    36.849      29.45       
116.5       131.572     2.144       7.644       62.518      55.191      61.586      54.455      26.861      43.163      28.961      1.547       2.385       93.163      19.511      1.182       472.62      1278.495    2061.544    29.387      29.627      
116.6       131.748     2.145       8.022       60.802      54.863      61.586      54.455      27.062      43.017      28.741      1.476       2.37        88.185      19.522      1.182       471.065     1281.81     2060.51     26.61       29.783      
116.7       131.807     2.157       7.886       60.802      54.85       61.586      54.659      27.571      43.017      28.506      1.476       2.374       83.767      19.604      1.182       470.228     1283.933    2059.934    28.731      29.834      
116.8       131.88      2.178       7.466       60.802      54.938      62.042      55.934      28.462      43.102      28.412      1.547       2.388       80.052      19.792      1.182       472.866     1284.123    2061.783    34.553      30.024      
116.9       132.059     2.191       7.233       61.206      55.648      63.724      59.229      30.117      43.274      28.41       1.629       2.375       77.167      20.074      1.182       476.246     1283.513    2064.104    34.009      30.396      
117.0       132.296     2.207       7.129       62.489      56.66       66.327      64.082      32.243      43.46       28.41       1.65        2.338       75.262      20.419      1.182       476.184     1283.603    2063.905    30.906      30.81       
117.1       132.492     2.22        6.89        64.376      57.275      68.903      69.136      34.573      43.562      28.458      1.634       2.313       74.419      20.805      1.182       473.3       1283.909    2061.653    34.15       31.312      
117.2       132.559     2.233       6.637       66.478      57.698      71.215      73.864      36.552      43.532      28.616      1.629       2.312       74.553      21.209      1.182       471.064     1283.503    2059.908    38.14       31.522      
117.3       132.49      2.252       6.047       69.289      58.56       73.196      77.934      38.349      43.335      28.765      1.64        2.341       75.508      21.568      1.182       470.7       1282.8      2059.556    37.788      31.513      
117.4       132.403     2.265       6.008       72.54       59.926      74.47       80.314      39.905      43.144      28.891      1.656       2.366       77.222      21.853      1.182       470.667     1282.564    2059.438    36.928      31.366      
117.5       132.388     2.269       6.091       75.374      61.196      74.875      80.924      40.965      43.024      28.955      1.657       2.377       79.71       22.04       1.182       470.179     1282.905    2059.084    34.621      31.25       
117.6       132.427     2.268       5.963       77.515      62.129      74.875      80.924      41.856      42.858      28.955      1.694       2.379       83.067      22.121      1.182       469.524     1283.463    2058.74     29.011      30.741      
117.7       132.451     2.242       5.543       78.983      62.66       74.873      80.551      42.776      42.786      28.955      1.753       2.389       87.366      22.139      1.178       469.216     1284.166    2058.593    28.591      30.219      
117.8       132.379     2.209       5.393       79.61       62.537      74.597      79.634      43.81       42.811      28.953      1.769       2.389       92.638      22.141      1.178       469.388     1285.053    2058.564    33.974      29.939      
