~Version Information Section
VERS.                                         2.0:CWLS log ASCII Standart – VERSION 2.0
WRAP.                                          NO:One line per depth step
~Well Information Section
STRT.M                                        0.6:Начальная глубина
STOP.M                                      209.2:Конечная глубина
STEP.M                                          0:Шаг квантования по глубине
NULL.                                    -9999.25:Признак "Нет данных"
WELL.                                       107Мх:Скважина
~Parameter Information Section
~Curve Information Section
DEPTH.M                                          :Глубина
PS.mv                                            :PS       (ПС)
PZ.Ohm*M                                         :PZ    (КС)
RS.Ohm*M                                         :RS (Резистивиметр)
U1.mV                                            :U1
U2.mV                                            :U2
U3.mV                                            :U3
КП.%                                             :Кп
BK.Ohm*M                                         :BK     (БК)
DS.mm                                            :DS  (ДС)
GGK.g/cm3                                        :GGKp
ГК.mcr/h                                         :GK          (ГК)
GZ1.Ohm*M                                        :GZ1   ГЗ1(A0.4M0.1N)
GZ2.Ohm*M                                        :GZ2   ГЗ2(A1.0M0.1N)
GZ3.Ohm*M                                        :GZ3   ГЗ3(A2.0M0.5N)
GZ4.Ohm*M                                        :GZ4   ГЗ4(A4.0M0.5N)
GZ5.Ohm*M                                        :GZ5   ГЗ5(A8.0M0.5N)
GZR.Ohm*M                                        :GZK   ГЗK(N0.5M2.0A)
ИК.Ohm*M                                         :IK
НГК.u.e.                                         :NGK
NNKM.                                            :NNKm  (ННКм)
~ASCII LOG DATA
# ...
83.8        1077.014    77.887      0.98        530.263     310.544     315.749     30.84       42.756      153.302     2.172       4.554       91.53       40.114      52.462      14.783      16.29       67.0        12.23       1.22        15.112      
83.9        1076.486    76.383      0.982       523.727     349.807     386.495     31.358      42.17       153.758     2.183       4.107       91.53       39.594      52.462      14.663      16.15       64.92       12.23       1.184       15.0        
84.0        1075.958    75.255      0.983       504.097     379.254     451.847     31.695      42.17       153.818     2.203       4.313       91.11       39.074      52.022      14.543      16.01       63.88       12.287      1.127       14.8        
84.1        1075.43     73.751      0.983       466.066     375.51      472.865     31.284      37.497      153.688     2.185       4.059       90.69       38.554      51.582      14.543      16.01       62.84       12.287      1.08        14.55       
84.2        1074.927    71.871      0.983       423.675     351.963     462.988     30.507      37.497      152.969     2.17        4.264       90.27       38.554      51.142      14.423      16.01       62.84       12.269      1.095       14.832      
84.3        1074.449    70.743      0.983       402.103     337.624     453.325     31.363      38.905      153.301     2.171       4.17        90.27       38.554      50.702      14.423      16.01       60.76       12.274      1.079       15.274      
84.4        1073.972    69.239      0.983       406.644     338.489     447.532     32.843      44.566      153.075     2.199       4.326       89.85       38.034      50.702      14.423      15.87       59.72       12.274      1.103       15.301      
84.5        1073.494    67.359      0.983       428.914     356.999     462.226     33.089      44.566      153.297     2.215       4.301       89.43       37.514      50.702      14.303      15.73       58.68       12.317      1.056       15.133      
84.6        1073.041    65.855      0.983       452.067     392.05      517.881     31.484      42.364      153.176     2.239       4.027       89.01       36.994      50.262      14.183      15.73       58.68       12.339      1.126       15.165      
84.7        1072.614    64.727      0.983       468.477     428.584     587.413     30.794      42.364      152.885     2.239       3.869       88.59       36.994      49.822      14.183      15.73       57.64       12.357      1.153       15.627      
84.8        1072.187    63.599      0.983       475.438     443.706     618.581     32.369      42.364      152.894     2.239       3.902       88.17       36.474      49.382      14.063      15.73       56.6        12.357      1.191       15.88       
84.9        1071.734    62.847      0.983       483.257     434.515     603.037     33.611      44.055      152.912     2.249       3.984       87.75       35.954      49.382      14.063      15.73       55.56       12.401      1.196       15.41       
85.0        1071.256    62.095      0.983       523.711     413.278     550.427     32.372      44.055      153.476     2.262       4.211       87.75       35.954      49.382      14.063      15.73       54.52       12.401      1.232       15.034      
85.1        1070.779    61.719      0.983       623.536     401.195     474.818     30.203      41.305      153.48      2.269       4.314       87.75       35.954      49.382      14.063      15.73       53.48       12.401      1.239       15.202      
85.2        1070.301    60.967      0.983       768.601     408.979     401.308     28.953      39.355      153.321     2.25        4.331       87.75       35.954      49.382      14.063      15.73       51.4        12.514      1.223       15.369      
85.3        1069.798    59.839      0.983       917.946     448.227     372.373     29.291      39.355      153.215     2.24        3.906       87.75       35.954      49.382      14.063      15.73       50.36       12.514      1.183       15.292      
85.4        1069.27     58.335      0.983       1034.393    502.62      381.674     29.622      43.251      153.593     2.216       3.538       87.75       35.954      49.382      14.063      15.73       50.36       12.491      1.205       15.19       
85.5        1068.742    57.207      0.983       1059.173    531.343     395.969     29.738      43.752      153.891     2.173       3.517       87.75       35.954      49.382      14.063      15.59       50.36       12.491      1.228       15.234      
85.6        1068.214    55.327      0.983       994.927     534.802     414.966     30.27       43.752      153.3       2.143       3.836       88.59       35.954      49.382      14.063      15.59       50.36       12.532      1.237       15.374      
85.7        1067.686    53.823      0.983       884.84      527.873     444.9       30.71       47.098      152.656     2.14        4.117       89.01       35.954      49.382      14.063      15.45       48.28       12.554      1.222       15.367      
85.8        1067.158    52.695      0.983       761.287     493.788     455.303     30.564      42.658      153.174     2.163       4.148       89.85       36.474      49.382      14.063      15.31       48.28       12.554      1.197       15.212      
85.9        1066.63     51.943      0.983       661.06      437.196     432.603     29.749      42.658      153.768     2.174       4.0         90.27       36.474      49.382      14.063      15.31       48.28       12.582      1.197       15.168      
86.0        1066.102    51.191      0.983       628.747     397.042     402.54      28.652      42.56       153.825     2.191       4.005       91.11       36.994      49.382      14.063      15.03       48.28       12.568      1.23        15.3        
86.1        1065.549    51.191      0.983       652.683     377.963     373.406     28.067      42.56       152.993     2.225       4.303       91.53       36.994      49.382      14.063      15.03       48.28       12.568      1.283       15.361      
86.2        1064.971    51.191      0.983       681.433     371.755     352.803     27.944      44.771      152.736     2.251       4.367       91.53       36.994      49.382      14.063      14.75       48.28       12.564      1.308       15.168      
86.3        1064.392    50.815      0.983       708.858     376.482     342.102     28.268      43.652      153.051     2.343       4.422       91.53       36.994      49.382      14.063      14.75       48.28       12.536      1.257       15.014      
86.4        1063.789    50.439      0.983       752.039     390.38      337.317     29.193      43.652      153.959     2.321       4.093       91.95       36.994      49.822      14.063      14.75       49.32       12.536      1.246       15.419      
86.5        1063.16     50.063      0.983       804.822     417.499     347.438     30.446      58.614      153.85      2.287       3.981       91.95       36.994      49.822      14.063      14.75       49.32       12.473      1.188       15.824      
86.6        1062.481    49.687      0.983       840.725     467.052     395.622     31.259      58.614      153.753     2.194       3.812       92.37       36.994      49.822      14.303      14.89       50.36       12.428      1.218       16.071      
86.7        1061.752    49.311      0.983       872.385     523.487     458.326     30.791      61.376      154.283     2.182       3.679       92.79       37.514      50.262      14.303      15.03       50.36       12.428      1.201       16.319      
86.8        1060.973    49.311      0.983       905.172     579.351     525.863     30.053      47.315      153.384     2.182       3.584       92.79       37.514      50.702      14.423      15.03       51.4        12.335      1.206       16.015      
86.9        1060.143    49.311      0.983       912.081     644.687     620.809     30.892      46.559      153.485     2.177       3.422       93.21       38.034      50.702      14.543      15.17       51.4        12.335      1.202       15.635      
