~Version Information Section
VERS.                                         2.0:CWLS log ASCII Standart – VERSION 2.0
WRAP.                                          NO:One line per depth step
~Well Information Section
STRT.M                                       -0.5:Начальная глубина
STOP.M                                      184.3:Конечная глубина
STEP.M                                          0:Шаг квантования по глубине
NULL.                                    -9999.25:Признак "Нет данных"
WELL.                                       133Мх:Скважина
~Parameter Information Section
~Curve Information Section
DEPTH.M                                          :Глубина
DS.mm                                            :DS  (ДС)
GGK.g/cm3                                        :GGKp
ГК.mcr/h                                         :GK          (ГК)
GZ1.Ohm*M                                        :GZ1   ГЗ1(A0.4M0.1N)
GZ2.Ohm*M                                        :GZ2   ГЗ2(A1.0M0.1N)
GZ3.Ohm*M                                        :GZ3   ГЗ3(A2.0M0.5N)
GZ4.Ohm*M                                        :GZ4   ГЗ4(A4.0M0.5N)
GZ5.Ohm*M                                        :GZ5   ГЗ5(A8.0M0.5N)
GZR.Ohm*M                                        :GZK   ГЗK(N0.5M2.0A)
ИК.Ohm*M                                         :IK
НГК.ue                                           :NGK     (НГК)
NNKM.                                            :NNKm  (ННКм)
PS.mv                                            :PS       (ПС)
PZ.Ohm*M                                         :PZ    (КС)
RS.Ohm*M                                         :RS (Резистивиметр)
U1.mV                                            :U1
U2.mV                                            :U2
U3.mV                                            :U3
BK.Ohm*M                                         :БК
ПОРИСТОСТЬ.                                      :Пористость ННК
~ASCII LOG DATA
# ...
124.3       134.347     2.25        8.392       44.673      32.943      39.813      32.115      29.52       28.965      22.74       1.638       2.25        155.659     10.059      1.186       472.943     1288.944    2068.417    22.001      34.086      
124.4       134.363     2.227       8.365       43.83       33.344      39.705      32.17       29.858      29.762      22.562      1.674       2.233       155.411     9.691       1.186       471.338     1282.972    2065.833    22.441      34.616      
124.5       134.215     2.218       8.423       43.179      33.905      39.553      32.463      30.393      30.854      22.372      1.634       2.246       155.19      9.355       1.186       468.701     1283.38     2062.74     22.513      35.082      
124.6       134.312     2.212       8.387       42.426      34.097      39.508      32.946      30.475      31.957      22.214      1.553       2.27        155.01      9.094       1.186       467.531     1291.994    2060.732    22.476      35.151      
124.7       134.784     2.22        8.268       41.386      34.127      39.508      33.191      30.423      32.617      22.083      1.492       2.293       154.88      8.922       1.186       468.688     1299.222    2061.077    23.012      34.436      
124.8       135.298     2.243       8.113       40.393      34.127      39.304      33.191      30.423      32.778      21.983      1.486       2.304       154.797     8.831       1.186       469.23      1298.234    2063.387    23.756      33.369      
124.9       135.38      2.247       7.753       39.446      33.719      38.368      33.024      30.402      32.778      21.879      1.53        2.292       154.759     8.803       1.186       467.101     1294.267    2066.919    24.58       32.661      
125.0       135.051     2.233       7.695       38.184      32.102      36.542      32.439      30.142      32.719      21.757      1.544       2.272       154.758     8.799       1.186       463.783     1294.178    2069.81     23.757      32.069      
125.1       134.73      2.211       7.365       36.813      29.493      34.37       31.824      29.203      32.426      21.631      1.524       2.242       154.78      8.799       1.186       460.853     1295.019    2067.808    22.528      31.953      
125.2       134.587     2.19        7.047       35.898      27.332      32.382      31.555      27.669      31.861      21.514      1.526       2.236       154.804     8.802       1.186       458.732     1296.52     2061.336    22.787      32.314      
125.3       134.536     2.194       7.082       35.626      26.002      30.821      31.422      26.38       31.18       21.405      1.552       2.237       154.817     8.831       1.186       457.494     1302.371    2058.081    22.432      33.309      
125.4       134.542     2.216       7.39        35.568      24.96       29.779      31.307      25.28       30.546      21.307      1.556       2.219       154.804     8.898       1.186       457.692     1308.737    2064.394    21.555      33.937      
125.5       134.705     2.244       8.047       35.477      24.374      29.159      31.214      24.338      29.976      21.243      1.525       2.187       154.746     9.006       1.186       457.652     1309.048    2075.601    21.824      34.402      
125.6       134.958     2.269       8.301       35.445      24.262      28.855      31.123      23.7        29.431      21.243      1.511       2.175       154.625     9.151       1.186       455.489     1305.75     2080.465    22.681      34.234      
125.7       135.151     2.283       8.373       35.525      24.262      28.723      31.253      23.419      28.966      21.245      1.495       2.167       154.432     9.327       1.186       454.323     1307.625    2077.015    23.259      32.775      
125.8       135.225     2.291       8.373       35.943      24.262      28.667      31.728      23.279      28.593      21.284      1.442       2.172       154.169     9.521       1.186       458.471     1313.625    2073.378    23.69       31.175      
125.9       135.149     2.31        8.206       36.714      24.469      28.667      32.126      23.222      28.42       21.413      1.39        2.185       153.843     9.717       1.186       466.65      1318.25     2075.207    23.554      30.301      
126.0       135.118     2.351       8.446       37.495      24.935      28.685      32.33       23.222      28.416      21.592      1.407       2.18        153.469     9.897       1.186       471.862     1320.875    2078.158    23.048      30.192      
126.1       135.325     2.391       8.647       38.199      25.503      28.702      32.491      23.258      28.416      21.75       1.467       2.168       153.068     10.044      1.186       469.691     1322.25     2074.411    22.603      30.289      
126.2       135.589     2.412       8.644       38.905      26.129      28.824      32.555      23.412      28.416      21.865      1.507       2.16        152.66      10.163      1.186       463.448     1325.0      2065.295    22.939      30.351      
126.3       135.526     2.4         8.338       39.72       26.935      29.142      32.602      23.722      28.44       21.951      1.528       2.183       152.269     10.242      1.186       457.796     1328.625    2059.087    23.305      30.047      
126.4       135.098     2.373       7.823       40.737      27.986      29.569      32.776      23.786      28.404      22.033      1.535       2.214       151.927     10.274      1.186       453.264     1330.375    2061.126    24.119      29.678      
126.5       134.675     2.347       7.64        41.677      28.923      30.053      33.045      23.665      28.304      22.117      1.557       2.252       151.668     10.28       1.186       449.275     1329.625    2068.15     24.552      28.527      
126.6       134.556     2.31        7.687       42.488      29.581      30.508      33.272      23.744      28.242      22.194      1.576       2.308       151.516     10.28       1.186       446.038     1328.75     2073.25     24.305      27.124      
126.7       134.706     2.286       7.936       43.315      30.172      30.833      33.356      23.913      28.137      22.251      1.586       2.361       151.492     10.268      1.186       443.08      1332.375    2073.299    24.303      26.41       
126.8       134.829     2.263       8.237       43.911      30.602      31.023      33.356      24.325      27.874      22.284      1.584       2.395       151.59      10.234      1.186       439.046     1336.875    2067.882    25.152      26.261      
126.9       134.717     2.237       8.483       44.106      30.725      31.131      33.321      24.792      27.54       22.296      1.574       2.396       151.788     10.159      1.186       434.807     1337.25     2060.526    26.306      27.289      
127.0       134.549     2.236       8.642       44.106      30.725      31.206      33.426      25.09       27.385      22.296      1.557       2.366       152.06      10.036      1.186       433.265     1335.0      2056.658    25.292      28.176      
127.1       134.64      2.25        8.243       43.923      30.725      31.317      33.759      25.159      27.385      22.296      1.543       2.325       152.375     9.889       1.186       433.27      1334.375    2059.651    24.492      29.764      
127.2       135.027     2.258       7.788       43.413      30.725      31.587      33.952      25.937      27.385      22.282      1.528       2.29        152.702     9.73        1.186       431.16      1339.625    2067.529    24.279      30.765      
127.3       135.373     2.261       7.437       42.702      30.725      32.12       33.952      26.66       27.62       22.219      1.514       2.267       153.026     9.564       1.186       427.392     1344.375    2070.409    24.245      31.104      
127.4       135.404     2.262       7.958       41.94       30.744      32.819      34.074      27.885      28.259      22.096      1.509       2.237       153.332     9.404       1.186       426.789     1341.875    2063.64     24.07       31.294      
