~Version Information Section
VERS.                                         2.0:CWLS log ASCII Standart – VERSION 2.0
WRAP.                                          NO:One line per depth step
~Well Information Section
STRT.M                                        0.4:Начальная глубина
STOP.M                                      190.1:Конечная глубина
STEP.M                                          0:Шаг квантования по глубине
NULL.                                    -9999.25:Признак "Нет данных"
WELL.                                       135Мх:Скважина
~Parameter Information Section
~Curve Information Section
DEPTH.M                                          :Глубина
DS.mm                                            :DS  (ДС)
GGK.g/cm3                                        :GGKp
ГК.mcr/h                                         :GK          (ГК)
GZ1.Ohm*M                                        :GZ1   ГЗ1(A0.4M0.1N)
GZ2.Ohm*M                                        :GZ2   ГЗ2(A1.0M0.1N)
GZ3.Ohm*M                                        :GZ3   ГЗ3(A2.0M0.5N)
GZ4.Ohm*M                                        :GZ4   ГЗ4(A4.0M0.5N)
GZ5.Ohm*M                                        :GZ5   ГЗ5(A8.0M0.5N)
GZR.Ohm*M                                        :GZK   ГЗK(N0.5M2.0A)
ИК.Ohm*M                                         :IK
НГК.ue                                           :NGK     (НГК)
NNKM.                                            :NNKm  (ННКм)
PS.mv                                            :PS       (ПС)
PZ.Ohm*M                                         :PZ    (КС)
RS.Ohm*M                                         :RS (Резистивиметр)
U1.mV                                            :U1
U2.mV                                            :U2
U3.mV                                            :U3
BK.Ohm*M                                         :БК
ПОРИСТОСТЬ.                                      :Пористость ННК
~ASCII LOG DATA
# ...
173.2       124.95      2.495       4.016       13.487      5.636       8.42        2.127       2.974       10.531      37.895      2.776       3.813       288.576     12.036      1.18        124.547     61.333      89.348      81.146      12.368      
173.3       124.984     2.511       3.819       13.61       6.435       8.398       1.348       2.442       10.164      38.117      2.879       3.853       286.743     13.536      1.18        120.391     64.0        85.215      96.447      11.929      
173.4       125.043     2.522       3.603       13.814      7.258       8.397       0.911       1.999       9.86        38.335      2.912       3.853       285.073     14.964      1.18        121.409     64.0        85.549      138.372     11.769      
173.5       125.115     2.53        3.608       14.082      7.93        8.395       0.752       1.644       9.641       38.537      2.879       3.805       283.535     16.2        1.18        126.95      64.0        82.59       177.655     11.907      
173.6       125.205     2.52        3.739       14.331      8.293       8.393       0.729       1.402       9.506       38.721      2.823       3.734       282.116     18.072      1.18        131.476     61.333      81.961      114.236     12.306      
173.7       125.299     2.494       3.983       14.484      8.31        8.391       0.793       1.213       9.45        38.868      2.811       3.681       280.783     20.064      1.2         136.0       56.0        84.0        86.747      12.606      
173.8       125.126     2.467       4.135       14.525      8.05        8.389       1.065       1.077       9.44        38.986      2.841       3.676       279.492     21.9        1.2         136.0       53.333      92.0        72.278      12.984      
173.9       124.852     2.446       4.205       14.441      7.654       8.387       1.642       0.994       9.446       39.072      2.882       3.708       278.222     23.364      1.21        136.0       56.0        100.0       65.716      13.164      
174.0       124.8       2.43        4.133       14.246      7.293       8.385       2.504       0.952       9.474       39.118      2.892       3.731       276.98      25.272      1.22        136.0       61.333      105.333     63.965      13.336      
174.1       124.796     2.426       4.219       13.892      7.04        8.384       3.483       0.94        9.538       39.13       2.88        3.723       275.759     27.264      1.23        138.667     64.0        108.0       68.303      13.526      
174.2       124.785     2.43        4.168       13.315      6.891       8.383       4.325       0.959       9.662       39.133      2.83        3.691       274.575     29.436      1.24        144.0       64.0        108.0       69.006      13.618      
174.3       124.761     2.432       4.146       12.558      6.825       8.382       4.826       0.95        9.856       39.133      2.735       3.64        273.468     31.128      1.24        152.0       61.333      100.0       41.852      13.605      
174.4       124.735     2.441       4.231       11.762      6.812       8.382       4.885       0.947       10.076      39.133      2.707       3.609       272.477     33.408      1.25        157.333     58.666      94.666      36.366      13.341      
174.5       124.717     2.454       4.403       11.111      6.843       8.382       4.568       0.95        10.27       39.121      2.719       3.602       271.611     35.628      1.28        160.0       56.0        89.333      49.4        13.147      
174.6       124.71      2.462       4.492       10.664      6.962       8.381       4.045       0.959       10.396      39.076      2.76        3.619       270.86      37.5        1.28        160.0       56.0        89.333      72.163      12.974      
174.7       124.703     2.455       4.242       10.334      7.194       8.381       3.476       0.949       10.419      39.037      2.78        3.625       270.181     38.964      -9999.25    160.0       56.0        84.0        105.936     13.086      
174.8       124.69      2.453       4.069       10.034      7.547       8.381       2.972       0.981       10.319      39.017      2.829       3.639       269.508     41.208      -9999.25    160.0       56.0        78.667      105.949     13.28       
174.9       124.681     2.448       4.016       9.729       7.982       8.383       2.565       1.055       10.063      38.971      2.845       3.644       268.802     43.092      -9999.25    160.0       61.334      76.0        72.22       13.568      
175.0       124.674     2.439       4.025       9.458       8.418       8.398       2.228       1.182       9.599       38.924      2.77        3.63        268.053     44.736      -9999.25    160.0       66.666      76.0        117.798     13.669      
175.1       124.663     2.436       4.062       9.301       8.801       8.454       1.959       1.364       8.887       38.885      2.67        3.636       267.238     45.828      -9999.25    160.0       72.0        76.0        154.222     13.587      
175.2       124.661     2.437       3.859       9.26        9.065       8.59        1.781       1.593       7.951       38.856      2.654       3.623       266.356     47.508      -9999.25    160.0       72.0        76.0        107.939     13.3        
175.3       124.651     2.417       3.992       9.255       9.124       8.852       1.703       1.868       6.876       38.812      2.707       3.624       265.422     49.128      -9999.25    160.0       74.667      76.0        107.939     13.071      
175.4       124.635     2.401       4.328       9.235       8.928       9.277       1.688       2.19        5.781       38.707      2.743       3.654       264.428     50.4        -9999.25    160.0       85.334      76.0        97.888      12.689      
175.5       124.624     2.403       4.683       9.191       8.46        9.875       1.721       2.579       4.78        38.545      2.739       3.714       263.347     50.928      -9999.25    160.0       101.332     73.333      101.044     12.337      
175.6       124.609     2.405       4.623       9.115       7.742       10.606      1.884       3.033       3.951       38.289      2.736       3.771       262.182     51.672      -9999.25    157.333     117.334     70.667      102.145     12.175      
175.7       124.6       2.409       4.424       9.024       6.913       11.4        2.319       3.554       3.33        37.971      2.737       3.794       260.968     51.902      -9999.25    152.0       128.0       81.332      93.409      12.077      
175.8       124.593     2.427       4.481       8.936       6.121       12.169      3.172       4.142       2.913       37.622      2.727       3.766       259.74      52.501      -9999.25    157.333     130.667     97.333      82.251      12.147      
175.9       124.584     2.448       4.595       8.821       5.362       12.834      4.531       4.796       2.668       37.251      2.634       3.669       258.526     53.619      -9999.25    168.001     125.333     116.0       61.953      12.754      
176.0       124.562     2.453       4.587       8.611       4.637       13.352      6.345       5.373       2.552       36.895      2.521       3.546       257.374     54.744      -9999.25    186.666     114.667     121.333     48.967      13.946      
176.1       124.529     2.456       4.526       8.236       3.933       13.709      8.415       5.914       2.511       36.548      2.375       3.422       256.289     55.806      -9999.25    200.001     106.666     124.0       46.131      14.866      
176.2       124.501     2.447       4.873       7.661       3.22        13.899      10.491      6.418       2.503       36.187      2.248       3.276       255.269     56.859      -9999.25    213.333     111.999     124.0       45.35       16.72       
176.3       124.485     2.427       5.244       6.908       2.584       13.91       12.332      6.887       2.504       35.808      2.14        3.129       254.337     57.912      -9999.25    218.667     122.667     126.667     43.34       18.385      
