~Version Information Section
VERS.                                         2.0:CWLS log ASCII Standart – VERSION 2.0
WRAP.                                          NO:One line per depth step
~Well Information Section
STRT.M                                        1.0:Начальная глубина
STOP.M                                      151.7:Конечная глубина
STEP.M                                          0:Шаг квантования по глубине
NULL.                                    -9999.25:Признак "Нет данных"
WELL.                                       117Мх:Скважина
~Parameter Information Section
~Curve Information Section
DEPTH.M                                          :Глубина
DСР.мм                                           :Dср
ГК.гамма                                         :GK
ИК.мСм/м                                         :IK
N0.5M2.0A.Омм.                                   :N0.5M2.0A.Омм
R.Омм                                            :R
U1.                                              :U1
U2.                                              :U2
U3.                                              :U3
W.имп/1,25с                                      :W
А0.4М0.1N.Омм.                                   :А0.4М0.1N.Омм
А1.0М0.1N.Омм.                                   :А1.0М0.1N.Омм
А2.0М0.5N.Омм.                                   :А2.0М0.5N.Омм
А4.0М0.5N.Oмм.                                   :А4.0М0.5N.Oмм
А8.0М1.0N.Омм.                                   :А8.0М1.0N.Омм
БЗ.имп/мин                                       :БЗ
БК.Омм                                           :БК
КС.Омм                                           :КС
ПС.                                              :ПС
МЗ.имп/мин                                       :МЗ
НГК.имп/1,25с                                    :ННКб
ННКМ.имп/1,25с                                   :ННКм
ПЛОТНОСТЬГГК.г/см3                               :плотностьГГК
~ASCII LOG DATA
# ...
90.9        135.921     7.981       22.96       37.305      1.263       182.043     57.666      109.79      29.995      37.649      36.046      40.607      35.97       38.584      11740.0     29.243      34.996      153.18      5680.0      2.5         1.582       2.341       
91.0        135.999     7.887       22.834      37.368      1.263       183.398     55.774      109.369     29.966      39.483      38.87       41.325      36.515      37.884      11720.0     28.915      34.451      153.128     5780.0      2.507       1.596       2.345       
91.1        135.684     7.769       22.725      36.511      1.261       182.471     54.566      109.902     30.055      40.704      41.771      41.111      37.204      37.044      11620.0     28.655      33.893      152.963     5960.0      2.49        1.606       2.345       
91.2        135.789     7.768       22.632      35.647      1.263       182.764     54.126      111.316     30.282      39.275      41.227      40.295      38.222      36.17       11400.0     28.101      33.349      152.709     5800.0      2.446       1.583       2.34        
91.3        135.58      7.865       22.508      34.29       1.263       184.033     52.539      111.828     30.518      35.9        37.394      38.383      37.429      35.295      11600.0     27.173      32.879      152.401     5840.0      2.381       1.55        2.329       
91.4        135.489     8.021       22.358      32.942      1.262       186.89      51.282      113.138     30.619      34.329      35.274      35.896      33.829      34.69       11520.0     26.282      32.49       152.072     5820.0      2.315       1.524       2.323       
91.5        135.628     8.332       22.204      32.194      1.259       189.697     52.38       114.816     30.608      34.292      34.26       33.931      30.294      34.295      11780.0     25.631      32.242      151.752     5920.0      2.277       1.522       2.319       
91.6        135.661     8.638       22.103      31.818      1.26        192.505     53.479      116.494     30.598      33.75       33.432      32.747      29.026      33.812      12260.0     25.288      32.115      151.471     5900.0      2.273       1.509       2.312       
91.7        135.772     8.892       22.008      31.478      1.261       188.257     54.114      115.451     30.566      32.878      32.667      32.144      28.825      33.342      12440.0     25.216      31.967      151.257     5820.0      2.297       1.493       2.307       
91.8        135.959     9.024       21.879      31.562      1.259       184.009     54.748      114.407     30.425      31.892      31.966      31.777      27.875      33.327      12620.0     25.233      31.792      151.123     5840.0      2.319       1.493       2.306       
91.9        135.505     9.004       21.766      31.771      1.258       180.835     55.749      112.891     30.082      31.174      31.55       31.385      27.803      34.056      12300.0     25.241      31.633      151.067     5900.0      2.327       1.503       2.309       
92.0        135.607     8.732       21.723      31.598      1.26        177.661     56.75       111.374     29.6        30.889      31.711      31.021      29.18       35.169      12380.0     25.233      31.543      151.075     5940.0      2.339       1.512       2.31        
92.1        135.558     8.405       21.79       30.705      1.268       175.501     60.559      112.287     29.104      30.665      32.021      30.526      30.332      36.131      12440.0     25.142      31.568      151.134     5900.0      2.353       1.505       2.31        
92.2        135.533     8.167       21.895      29.538      1.274       179.175     64.062      115.042     28.713      30.257      31.65       29.957      30.943      36.792      12300.0     24.896      31.709      151.227     5880.0      2.405       1.498       2.312       
92.3        135.5       8.163       21.995      28.976      1.271       182.129     70.569      120.106     28.433      29.84       30.912      29.518      30.978      37.249      12360.0     24.61       31.954      151.331     5860.0      2.488       1.494       2.314       
92.4        135.574     8.239       22.074      29.618      1.273       182.422     76.38       124.845     28.242      29.051      29.896      29.375      30.638      37.625      12160.0     24.52       32.189      151.421     5900.0      2.548       1.489       2.312       
92.5        135.623     8.407       22.114      31.919      1.272       185.608     78.088      128.49      28.058      28.583      29.013      30.173      31.181      37.988      12760.0     24.805      32.314      151.477     5940.0      2.553       1.511       2.313       
92.6        135.465     8.614       22.162      34.364      1.275       187.781     76.99       129.705     27.971      28.778      29.091      31.979      32.714      38.367      12380.0     25.599      32.38       151.488     5940.0      2.526       1.538       2.306       
92.7        135.463     8.611       22.255      35.629      1.277       192.541     75.928      132.274     28.065      29.014      31.445      34.232      34.122      38.69       11880.0     26.767      32.454      151.458     5800.0      2.535       1.575       2.303       
92.8        135.522     8.344       22.367      35.733      1.278       198.022     71.863      132.533     28.29       32.508      36.653      36.19       36.172      38.771      11900.0     28.054      32.722      151.405     5800.0      2.577       1.586       2.301       
92.9        135.514     8.208       22.56       34.937      1.277       199.341     81.702      136.927     28.419      34.77       38.968      37.212      40.236      38.277      12220.0     29.346      33.257      151.346     5700.0      2.618       1.6         2.3         
93.0        135.548     8.257       22.778      33.829      1.278       197.766     95.642      142.415     28.331      32.982      35.326      37.23       42.778      37.269      12000.0     30.469      33.878      151.303     5720.0      2.643       1.619       2.297       
93.1        135.572     8.29        22.965      33.049      1.275       202.917     96.057      143.147     28.122      32.412      32.366      36.085      41.264      36.326      12300.0     31.243      34.625      151.309     5580.0      2.666       1.638       2.302       
93.2        135.627     8.398       23.114      32.635      1.273       205.481     96.436      142.527     27.987      33.794      31.894      34.924      39.174      35.375      12620.0     31.841      35.537      151.392     5700.0      2.707       1.649       2.301       
93.3        135.686     8.627       23.241      32.404      1.266       200.574     95.118      138.75      27.999      35.983      31.723      34.708      37.117      34.42       12420.0     32.423      36.444      151.568     5840.0      2.753       1.644       2.303       
93.4        135.764     8.664       23.363      32.546      1.262       199.829     79.894      130.837     28.167      37.814      32.272      34.989      34.725      34.421      12100.0     32.817      37.166      151.841     5860.0      2.787       1.655       2.308       
93.5        135.716     8.434       23.387      32.677      1.265       200.256     62.28       122.413     28.457      39.647      33.077      35.495      32.94       35.477      12220.0     32.866      37.515      152.203     5780.0      2.803       1.675       2.311       
93.6        135.826     8.301       23.382      32.582      1.271       193.957     58.191      118.744     28.689      41.037      33.905      35.773      31.131      36.382      11920.0     32.418      37.473      152.644     5860.0      2.755       1.688       2.309       
93.7        135.866     8.379       23.333      32.242      1.273       189.868     57.116      118.084     28.763      41.606      34.992      35.782      29.25       36.499      12120.0     31.295      37.239      153.142     5720.0      2.637       1.674       2.312       
