~Version Information Section
VERS.                                         2.0:CWLS log ASCII Standart – VERSION 2.0
WRAP.                                          NO:One line per depth step
~Well Information Section
STRT.M                                        0.4:Начальная глубина
STOP.M                                      170.2:Конечная глубина
STEP.M                                          0:Шаг квантования по глубине
NULL.                                    -9999.25:Признак "Нет данных"
WELL.                                       121Мх:Скважина
~Parameter Information Section
~Curve Information Section
DEPTH.M                                          :Глубина
BK.Ohm*M                                         :BK     (БК)
DS.mm                                            :DS  (ДС)
GGK.g/cm3                                        :GGKp
ГК.mcr/h                                         :GK          (ГК)
GZ1.Ohm*M                                        :GZ1   ГЗ1(A0.4M0.1N)
GZ2.Ohm*M                                        :GZ2   ГЗ2(A1.0M0.1N)
GZ3.Ohm*M                                        :GZ3   ГЗ3(A2.0M0.5N)
GZ4.Ohm*M                                        :GZ4   ГЗ4(A4.0M0.5N)
GZ5.Ohm*M                                        :GZ5   ГЗ5(A8.0M0.5N)
GZR.Ohm*M                                        :GZK   ГЗK(N0.5M2.0A)
ИК.Ohm*M                                         :IK
НГК.u.e.                                         :NGK
NNKM.                                            :NNKm  (ННКм)
PS.mv                                            :PS       (ПС)
PZ.Ohm*M                                         :PZ    (КС)
RS.Ohm*M                                         :RS (Резистивиметр)
U1.mV                                            :U1
U2.mV                                            :U2
U3.mV                                            :U3
КП.%                                             :Кп
~ASCII LOG DATA
# ...
38.8        66.834      135.947     2.327       3.427       56.8        50.97       36.958      55.631      49.6        56.121      13.478      1.271       2.148       529.344     61.962      1.06        157.074     140.099     149.583     36.443      
39.0        460.257     134.872     2.274       3.353       61.6        53.488      37.406      55.871      49.6        51.047      13.717      1.197       2.312       533.456     61.448      1.06        161.138     143.24      139.054     36.503      
39.2        416.869     135.104     2.268       3.469       64.8        55.08       37.0        55.594      52.0        46.212      13.74       1.124       2.263       536.96      61.144      1.06        150.195     131.172     128.637     38.554      
39.4        73.961      135.236     2.25        3.347       67.2        56.629      37.15       55.575      52.0        42.465      13.566      1.148       2.167       536.96      61.034      1.06        135.586     140.179     135.359     41.328      
39.6        74.302      135.17      2.26        3.344       67.2        58.309      37.841      56.414      52.8        39.7        13.498      1.178       2.12        532.16      61.03       1.06        128.783     151.46      134.565     41.685      
39.8        70.632      134.982     2.329       3.525       66.4        60.024      39.286      57.637      52.8        37.601      13.504      1.101       2.178       510.288     61.061      1.06        118.718     151.671     134.167     41.316      
40.0        67.764      134.571     2.322       3.583       79.2        60.915      40.377      58.613      54.4        35.875      13.579      1.206       2.166       473.408     61.373      1.06        115.952     142.451     180.553     42.309      
40.2        63.387      135.445     2.308       3.758       84.048      61.14       42.131      59.436      55.2        34.441      13.576      1.284       2.13        436.016     62.153      1.06        115.518     155.066     204.032     41.22       
40.4        66.374      135.678     2.294       3.564       85.37       61.072      44.305      60.282      56.8        33.279      13.52       1.287       2.137       410.112     63.318      1.06        115.698     156.935     184.211     40.485      
40.6        69.823      136.494     2.288       3.573       86.443      61.218      47.223      61.307      57.6        32.444      13.484      1.164       2.149       393.232     64.682      1.06        129.467     164.683     191.032     38.464      
40.8        67.608      136.129     2.291       3.243       87.301      61.859      50.516      62.666      56.0        31.545      13.346      1.18        2.173       379.808     66.199      1.06        155.107     160.308     224.601     38.87       
41.0        73.961      135.995     2.306       3.497       88.547      63.401      54.283      64.34       54.4        30.086      13.203      1.223       2.211       367.936     67.882      1.06        157.162     157.849     204.661     38.802      
41.2        74.302      135.772     2.372       3.454       89.613      64.678      57.275      66.22       54.4        28.419      12.874      1.132       2.221       359.136     69.542      1.06        149.507     138.657     178.76      36.714      
41.4        69.823      135.913     2.414       3.339       89.978      65.436      58.742      68.174      53.6        27.11       12.462      1.255       2.262       353.84      70.85       1.06        155.287     139.47      164.92      36.157      
41.6        71.121      136.209     2.348       3.323       88.821      65.166      58.217      68.819      37.6        25.237      12.169      1.348       2.231       351.152     71.398      1.06        157.012     123.877     149.953     35.07       
41.8        371.535     136.606     2.23        3.608       84.42       61.589      54.966      63.693      38.697      19.515      11.82       1.27        2.279       350.064     71.418      1.06        141.639     121.38      127.866     35.871      
42.0        341.193     136.661     2.214       3.516       75.65       53.439      48.52       53.006      42.433      13.004      11.382      1.178       2.266       350.064     71.007      1.06        128.903     133.144     110.636     34.672      
42.2        367.282     137.944     2.272       3.16        64.476      44.156      40.375      41.459      43.047      8.153       10.915      1.142       2.22        350.144     69.82       1.06        117.314     152.247     103.01      39.911      
42.4        301.301     138.012     2.272       3.639       53.169      35.881      32.429      35.776      40.642      7.39        10.423      1.082       2.041       352.528     68.107      1.06        110.809     166.465     126.907     42.399      
42.6        304.089     139.017     2.272       4.319       43.298      29.076      26.309      31.832      36.959      7.559       9.819       1.141       1.981       358.944     65.84       1.06        111.291     170.603     187.954     42.153      
42.8        28.379      138.585     2.39        5.011       36.577      24.764      22.393      32.815      34.123      11.828      9.211       1.116       1.968       368.64      62.767      1.06        110.485     156.838     237.595     41.326      
43.0        21.184      138.833     2.482       5.338       34.058      23.422      20.845      38.679      32.342      17.334      8.779       1.035       1.906       379.44      58.691      1.06        119.981     146.585     258.687     39.843      
43.2        30.69       139.472     2.484       5.026       33.764      22.915      20.336      45.812      32.381      21.421      8.619       1.081       1.86        390.544     53.828      1.06        142.614     139.313     253.313     41.519      
43.4        3672.823    138.903     2.448       4.838       33.598      20.868      20.388      47.445      33.144      21.507      8.7         1.084       1.915       403.12      49.123      1.06        141.928     135.0       202.258     38.81       
43.6        37.844      139.202     2.457       5.067       33.037      17.826      20.053      48.718      34.323      22.144      8.813       1.149       2.133       417.392     45.515      1.06        116.652     128.005     148.589     38.836      
43.8        26.242      139.255     2.442       5.277       32.67       15.165      20.064      50.362      35.362      23.086      8.785       1.109       2.091       432.416     43.212      1.06        111.738     134.723     136.682     39.584      
44.0        26.977      139.116     2.422       5.34        32.6        14.029      20.234      51.881      36.505      23.893      8.594       1.1         1.988       447.632     41.728      1.06        137.652     138.767     150.879     39.268      
44.2        16.943      139.158     2.367       5.344       33.644      13.16       20.736      52.624      37.34       24.108      8.5         0.986       1.846       462.896     40.568      1.06        163.163     139.782     161.128     40.429      
44.4        17.14       139.95      2.409       4.888       35.518      12.919      20.662      53.505      37.741      24.235      8.6         0.997       1.78        477.504     39.546      1.06        182.069     150.314     144.015     41.818      
44.6        758.578     138.838     2.498       4.502       36.865      12.686      19.493      53.392      37.252      23.079      8.914       1.104       2.009       488.688     38.698      1.06        192.339     149.432     119.617     35.558      
44.8        688.652     138.924     2.505       4.75        36.962      12.792      17.063      52.558      36.317      21.256      9.231       1.019       2.179       494.016     38.099      1.06        170.615     142.591     114.292     34.089      
45.0        540.754     139.91      2.495       4.853       36.056      11.306      14.678      51.823      35.677      19.384      9.011       1.03        2.076       494.272     37.764      1.06        128.272     130.647     120.737     38.837      
