~Version Information Section
VERS.                                         2.0:CWLS log ASCII Standart – VERSION 2.0
WRAP.                                          NO:One line per depth step
~Well Information Section
STRT.M                                      -0.07:Начальная глубина
STOP.M                                     189.23:Конечная глубина
STEP.M                                          0:Шаг квантования по глубине
NULL.                                    -9999.25:Признак "Нет данных"
WELL.                                       127Мх:Скважина
~Parameter Information Section
~Curve Information Section
DEPTH.M                                          :Глубина
BK.                                              :BK
ГК.гамма                                         :GK
ИК.                                              :IK
НГК.усл.ед                                       :NGK
PSЭ3.                                            :PSэ3
PZЭ3.                                            :PZэ3
U1.                                              :U1
U2.                                              :U2
U3.                                              :U3
W.усл.ед                                         :W
ГЗ1.                                             :ГЗ1
ГЗ2.                                             :ГЗ2
ГЗ3.                                             :ГЗ3
ГЗ4.                                             :ГЗ4
ГЗ5.                                             :ГЗ5
ГЗК.                                             :ГЗК
ННКМ.усл.ед                                      :ННКм
PL.g/cm3                                         :Плотность
ПРОФ_СР.                                         :ПРОФ_СР
IS.                                              :РЕЗ
~ASCII LOG DATA
# ...
35.13       21.688      3.437       17.723      3.675       -9999.25    -9999.25    -9999.25    -9999.25    -9999.25    15.089      1.339       75.462      33.84       31.148      31.232      14.535      2.516       1.769       100.873     1.073       
35.23       21.688      3.399       17.723      3.503       -9999.25    -9999.25    -9999.25    -9999.25    -9999.25    16.003      1.339       75.462      33.84       27.239      31.232      13.062      2.478       1.759       100.892     1.073       
35.33       21.688      3.208       17.723      3.381       -9999.25    -9999.25    -9999.25    -9999.25    -9999.25    15.882      1.339       75.462      33.84       23.321      31.232      11.617      2.471       1.751       100.894     1.073       
35.43       21.688      3.155       17.723      3.393       -9999.25    -9999.25    -9999.25    -9999.25    -9999.25    16.413      1.339       75.462      33.84       20.364      31.232      10.583      2.542       1.745       100.891     1.073       
35.53       21.688      3.084       17.723      3.289       -9999.25    -9999.25    -9999.25    -9999.25    -9999.25    16.763      1.339       75.462      33.84       19.895      31.232      10.421      2.609       1.744       100.916     1.073       
35.63       21.688      2.898       17.723      3.163       -9999.25    -9999.25    -9999.25    -9999.25    -9999.25    16.348      1.339       75.462      33.84       19.895      31.232      10.421      2.628       1.743       100.947     1.073       
35.73       21.688      2.64        17.723      3.262       -9999.25    -9999.25    -9999.25    -9999.25    -9999.25    15.962      1.339       75.462      33.84       19.895      31.232      10.421      2.639       1.743       100.924     1.073       
35.83       21.688      2.661       17.723      3.134       -9999.25    -9999.25    -9999.25    -9999.25    -9999.25    16.19       1.339       75.462      33.84       19.895      31.232      10.421      2.675       1.743       100.965     1.073       
35.93       21.688      2.698       17.723      3.332       -9999.25    -9999.25    -9999.25    -9999.25    -9999.25    16.564      1.339       75.462      33.84       19.895      31.232      10.421      2.736       1.743       100.967     1.073       
36.03       21.688      2.561       17.723      3.515       -9999.25    -9999.25    -9999.25    -9999.25    -9999.25    16.736      1.339       75.462      33.84       19.895      31.232      10.421      2.788       1.742       100.946     1.073       
36.13       21.688      2.254       17.723      3.422       -9999.25    -9999.25    -9999.25    -9999.25    -9999.25    16.889      1.339       75.462      33.84       19.895      31.232      10.421      2.849       1.74        100.951     1.073       
36.23       21.688      2.111       17.723      3.289       -9999.25    -9999.25    -9999.25    -9999.25    -9999.25    16.979      1.339       75.462      33.84       19.895      31.232      10.421      2.881       1.732       100.908     1.073       
36.33       21.688      2.379       17.723      3.271       -9999.25    -9999.25    -9999.25    -9999.25    -9999.25    16.451      1.339       75.462      33.84       19.895      31.232      10.421      2.843       1.723       100.904     1.073       
36.43       21.688      2.748       17.723      3.322       -9999.25    -9999.25    -9999.25    -9999.25    -9999.25    16.238      1.339       75.462      33.84       19.895      31.232      10.421      2.796       1.713       100.897     1.073       
36.53       21.688      3.061       17.723      3.231       -9999.25    -9999.25    -9999.25    -9999.25    -9999.25    16.376      1.339       75.462      33.84       19.895      31.232      10.421      2.746       1.705       100.873     1.073       
36.63       21.688      3.256       17.723      3.047       -9999.25    -9999.25    -9999.25    -9999.25    -9999.25    16.264      1.339       75.462      33.84       19.895      31.232      10.421      2.678       1.698       100.863     1.073       
36.73       21.688      3.046       17.723      3.145       -9999.25    -9999.25    -9999.25    -9999.25    -9999.25    15.854      1.339       75.462      33.84       19.895      31.232      10.421      2.604       1.696       100.927     1.073       
36.83       21.688      2.504       17.723      3.05        -9999.25    -9999.25    -9999.25    -9999.25    -9999.25    15.664      1.339       75.462      33.84       19.895      31.232      10.421      2.54        1.695       100.925     1.073       
36.93       21.688      1.9         17.723      2.991       -9999.25    -9999.25    -9999.25    -9999.25    -9999.25    16.621      1.342       75.462      33.84       19.895      31.232      10.421      2.57        1.697       100.948     1.073       
37.03       21.688      1.786       17.723      2.963       -9999.25    -9999.25    -9999.25    -9999.25    -9999.25    18.266      1.299       75.462      33.84       19.895      31.232      10.421      2.714       1.698       101.037     1.073       
37.13       21.688      1.866       17.723      2.947       -9999.25    -9999.25    -9999.25    -9999.25    -9999.25    17.555      1.126       75.462      33.84       19.895      31.232      10.421      2.802       1.7         100.982     1.073       
37.23       21.688      1.951       17.723      2.947       -9999.25    -9999.25    -9999.25    -9999.25    -9999.25    15.893      0.927       75.462      33.84       19.895      31.232      10.421      2.8         1.703       100.966     1.073       
37.33       21.688      1.898       17.723      2.928       -9999.25    -9999.25    -9999.25    -9999.25    -9999.25    15.859      0.729       75.462      33.84       19.895      31.232      10.421      2.794       1.708       100.95      1.073       
37.43       21.688      2.068       17.723      3.031       -9999.25    -9999.25    -9999.25    -9999.25    -9999.25    15.706      0.53        75.462      33.84       19.895      31.232      10.421      2.776       1.717       100.934     1.073       
37.53       21.688      2.588       17.723      3.193       -9999.25    -9999.25    -9999.25    -9999.25    -9999.25    15.303      0.329       75.462      33.84       19.895      31.232      10.421      2.748       1.731       100.923     1.073       
37.63       21.688      3.297       17.723      3.218       -9999.25    -9999.25    -9999.25    -9999.25    -9999.25    14.575      0.172       75.462      33.84       19.895      31.232      10.421      2.715       1.751       100.935     1.073       
37.73       21.688      3.727       17.723      3.416       -9999.25    -9999.25    -9999.25    -9999.25    -9999.25    13.972      0.147       75.462      33.84       19.895      31.232      10.421      2.671       1.773       100.945     1.073       
37.83       21.688      3.481       17.723      3.642       -9999.25    -9999.25    -9999.25    -9999.25    -9999.25    14.247      0.147       75.462      33.84       19.895      31.232      10.421      2.632       1.795       100.9       1.073       
37.93       21.688      2.908       17.723      3.509       -9999.25    -9999.25    -9999.25    -9999.25    -9999.25    14.569      0.147       75.462      33.84       19.895      31.232      10.421      2.585       1.811       100.933     1.073       
38.03       21.688      2.427       17.723      3.469       -9999.25    -9999.25    -9999.25    -9999.25    -9999.25    14.543      0.147       77.487      33.84       19.895      31.232      10.421      2.578       1.817       100.907     1.073       
38.13       21.688      2.333       17.723      3.404       -9999.25    -9999.25    -9999.25    -9999.25    -9999.25    15.19       0.147       80.332      33.84       19.895      31.232      10.421      2.681       1.813       100.864     1.073       
38.23       21.688      2.347       17.723      3.346       -9999.25    -9999.25    -9999.25    -9999.25    -9999.25    15.026      0.147       73.18       33.84       19.895      31.232      10.421      2.797       1.801       100.946     1.073       
