~Version Information Section
VERS.                                         2.0:CWLS log ASCII Standart – VERSION 2.0
WRAP.                                          NO:One line per depth step
~Well Information Section
STRT.M                                        0.8:Начальная глубина
STOP.M                                      209.6:Конечная глубина
STEP.M                                          0:Шаг квантования по глубине
NULL.                                    -9999.25:Признак "Нет данных"
WELL.                                         5Мх:Скважина
~Parameter Information Section
~Curve Information Section
DEPTH.M                                          :Глубина
BK.Ohm*M                                         :BK     (БК)
DS.mm                                            :DS  (ДС)
ГК.mcr/h                                         :GK          (ГК)
GZ1.Ohm*M                                        :GZ1   ГЗ1(A0.4M0.1N)
GZ2.Ohm*M                                        :GZ2   ГЗ2(A1.0M0.1N)
GZ3.Ohm*M                                        :GZ3   ГЗ3(A2.0M0.5N)
GZ4.Ohm*M                                        :GZ4   ГЗ4(A4.0M0.5N)
GZ5.Ohm*M                                        :GZ5   ГЗ5(A8.0M0.5N)
GZR.Ohm*M                                        :GZK   ГЗK(N0.5M2.0A)
ИК.Ohm*M                                         :IK
НГК.                                             :NNKb  (ННКб)
NNKM.                                            :NNKm  (ННКм)
PS.mv                                            :PS       (ПС)
PZ.Ohm*M                                         :PZ    (КС)
RS.Ohm*M                                         :RS (Резистивиметр)
W.%                                              :W
ГГК.g/cm3                                        :ГГК
SGDT1.1/min                                      :ПЛ1
SGDT2.1/min                                      :ПЛ2
SGDT3.1/min                                      :ПЛ3
SGDT4.1/min                                      :ПЛ4
~ASCII LOG DATA
# ...
44.2        11.22       160.159     4.688       3.624       10.905      5.974       4.084       17.062      9.575       16.089      2.713       1.967       899.107     13.129      0.838       37.549      2.276       13680.0     19740.0     14320.0     4620.0      
44.4        14.689      158.932     4.669       3.07        10.573      5.794       4.084       16.522      9.852       16.863      2.967       1.926       907.174     13.941      0.839       32.091      2.31        11879.994   18640.0     13700.0     4260.0      
44.6        16.749      159.638     4.426       2.837       10.288      4.534       4.244       15.622      8.632       17.941      3.492       2.107       923.85      21.4        0.839       28.194      2.329       11119.988   17840.0     13400.0     3960.0      
44.8        30.903      159.783     3.55        2.709       9.935       3.634       3.444       15.262      6.41        19.145      4.746       2.269       929.358     34.017      0.839       20.997      2.36        10439.991   16980.0     12540.0     4180.0      
45.0        142.233     160.183     3.156       2.604       8.802       2.914       4.084       15.442      3.968       20.493      5.922       2.669       925.123     38.626      0.839       18.631      2.39        10200.009   16800.0     12440.0     4120.0      
45.2        115.878     159.037     3.31        2.548       6.458       3.094       4.724       17.242      2.226       21.19       6.468       2.937       915.721     38.152      0.839       18.615      2.424       10240.0     16680.0     13220.0     4180.0      
45.4        92.683      158.937     3.679       3.645       7.91        3.634       5.204       20.302      2.006       21.054      6.416       3.029       915.256     32.049      0.839       20.56       2.408       10239.993   17500.0     13740.0     4800.0      
45.6        30.2        159.595     3.817       6.277       8.869       9.034       5.524       21.922      2.335       20.094      4.551       2.878       914.261     23.526      0.839       30.461      2.336       10760.017   18720.0     13940.0     4880.0      
45.8        15.812      159.414     4.052       5.797       10.084      5.074       5.444       21.382      2.705       18.962      3.234       2.464       906.992     17.252      0.839       37.962      2.27        13679.978   19580.0     13860.0     4780.0      
46.0        17.66       157.829     3.801       4.917       11.125      4.354       4.884       20.842      2.729       18.336      2.975       2.106       896.936     12.96       0.839       36.725      2.248       14960.009   19880.0     14880.0     4700.0      
46.2        18.072      157.46      3.688       2.917       11.181      3.814       4.404       20.302      2.26        18.027      3.04        2.143       894.196     13.171      0.839       34.562      2.263       14800.0     20620.0     15160.0     4920.0      
46.4        19.498      153.806     3.63        3.157       11.076      3.814       4.084       18.502      1.819       18.105      3.45        2.127       900.07      17.263      0.839       30.091      2.303       14799.989   21120.0     14560.0     4740.0      
46.6        33.343      153.593     3.428       3.077       10.811      3.814       3.924       16.702      1.85        18.509      3.55        2.274       910.719     18.935      0.839       31.481      2.326       12719.983   20820.0     14560.0     4660.0      
46.8        26.792      154.349     3.418       2.997       10.697      3.994       3.684       16.522      1.978       18.686      3.583       2.454       934.726     17.972      0.839       34.056      2.311       13039.987   20660.0     14980.0     5080.0      
47.0        24.946      153.758     3.665       2.837       11.231      3.994       3.764       16.342      2.43        18.587      3.274       2.356       948.393     15.082      0.839       36.101      2.303       15079.982   20720.0     15720.0     5160.0      
47.2        17.701      154.869     4.799       2.837       11.113      3.994       3.924       16.162      2.833       18.135      3.34        2.279       945.01      13.964      0.839       35.48       2.282       14400.0     22400.0     16179.999   5000.0      
47.4        18.88       152.508     3.758       2.837       10.954      3.994       3.924       16.882      3.461       18.06       3.054       2.218       923.137     15.229      0.839       36.021      2.217       14880.012   23220.0     15980.001   4660.0      
47.6        33.574      151.312     1.958       2.837       10.756      3.994       3.764       17.242      4.28        18.428      3.194       2.172       896.756     16.719      0.839       34.235      2.178       16520.018   23200.0     14980.0     5100.0      
47.8        37.931      152.236     1.771       2.917       10.551      3.814       3.524       16.882      4.847       18.805      3.522       2.33        884.286     18.121      0.839       32.426      2.199       17440.008   21600.0     14740.0     5100.0      
48.0        25.942      151.741     2.079       3.077       10.597      3.814       3.444       16.702      5.407       18.957      3.748       2.413       889.513     17.661      0.839       32.167      2.224       16040.005   20460.0     15680.001   5560.0      
48.2        27.164      153.163     3.033       3.157       10.729      3.994       3.524       16.702      6.941       18.615      3.527       2.349       909.247     16.058      0.839       33.087      2.245       16080.0     21240.0     16420.0     5460.0      
48.4        13.032      154.033     4.872       3.317       10.671      4.354       3.684       17.062      10.138      18.084      3.557       2.375       917.285     16.084      0.839       32.691      2.312       15159.979   21220.0     15120.0     5200.0      
48.6        29.512      152.121     4.126       3.557       10.837      3.994       3.444       18.322      11.578      18.091      3.367       2.18        915.793     15.814      0.839       32.498      2.388       13359.996   20380.0     14440.0     5360.0      
48.8        35.481      155.013     2.802       2.884       10.459      3.814       3.364       16.882      10.014      18.462      3.494       2.287       912.711     15.32       0.839       32.241      2.428       11720.004   20460.0     15140.0     5380.0      
49.0        37.931      156.354     2.644       2.433       10.017      3.814       3.204       16.522      6.526       18.632      4.002       2.434       913.953     17.024      0.839       29.303      2.437       13239.995   21220.0     16200.0     5860.0      
49.2        45.709      160.784     3.004       2.628       9.905       4.534       3.364       16.882      5.225       18.317      4.314       2.487       920.56      20.881      0.839       27.097      2.419       13120.0     21540.0     18360.0     6340.0      
49.4        24.21       164.415     4.136       2.961       9.591       4.894       3.684       16.702      3.749       17.396      4.315       2.552       937.078     22.252      0.839       28.612      2.337       14080.0     23240.0     19100.0     6760.0      
49.6        18.408      165.495     4.876       3.268       9.018       4.534       3.924       16.882      3.309       16.29       3.751       2.432       951.868     21.414      0.839       30.88       2.262       16320.019   24180.0     18680.0     6540.0      
49.8        16.827      165.187     4.844       3.549       10.113      3.634       3.844       17.422      2.758       15.733      3.415       2.239       952.664     16.831      0.839       32.726      2.259       17280.01    23520.0     17800.0     5720.0      
50.0        19.231      161.99      5.22        2.791       10.018      3.094       3.684       17.782      2.647       15.408      3.005       2.104       948.511     14.753      0.839       34.637      2.297       15960.009   22920.0     17200.0     5120.0      
50.2        20.941      163.782     4.844       2.736       10.242      3.094       3.844       17.422      3.233       15.148      3.031       2.117       941.058     12.5        0.839       37.202      2.302       15760.0     22720.0     17520.0     5640.0      
