~Version Information Section
VERS.                                         2.0:CWLS log ASCII Standart – VERSION 2.0
WRAP.                                          NO:One line per depth step
~Well Information Section
STRT.M                                       0.67:Начальная глубина
STOP.M                                     204.27:Конечная глубина
STEP.M                                          0:Шаг квантования по глубине
NULL.                                    -9999.25:Признак "Нет данных"
WELL.                                       110Мх:Скважина
~Parameter Information Section
~Curve Information Section
DEPTH.M                                          :Глубина
БК.Омм                                           :BK     (БК)
DСР.мм                                           :DS  (ДС)
ГК.гамма                                         :GK          (ГК)
А0.4М0.1N.Омм.ohmm                               :GZ1   ГЗ1(A0.4M0.1N)
А1.0М0.1N.Омм.ohmm                               :GZ2   ГЗ2(A1.0M0.1N)
А2.0М0.5N.Омм.ohmm                               :GZ3   ГЗ3(A2.0M0.5N)
А4.0М0.5N.Oмм.ohmm                               :GZ4   ГЗ4(A4.0M0.5N)
А8.0М1.0N.Омм.ohmm                               :GZ5   ГЗ5(A8.0M0.5N)
N0.5M2.0A.Омм.ohmm                               :GZK   ГЗK(N0.5M2.0A)
ИК.мСм/м                                         :IK
НГК.усл.ед                                       :NGK     (НГК)
ПС.mv                                            :PS       (ПС)
КС.Омм                                           :PZ    (КС)
R.Омм                                            :RS (Резистивиметр)
W_SI.%                                           :п
ННКМ.имп/1,25с                                   :ННКм
ПЛОТНОСТЬГГК.г/см3                               :плотностьГГК
~ASCII LOG DATA
# ...
31.67       30.425      135.279     6.71        -9999.25    -9999.25    -9999.25    -9999.25    -9999.25    -9999.25    15.045      1.382       366.553     31.256      0.96        29.683      1.661       2.346       
31.7        -9999.25    -9999.25    -9999.25    43.522      23.655      32.425      2.671       1.344       19.681      -9999.25    -9999.25    -9999.25    -9999.25    -9999.25    -9999.25    -9999.25    -9999.25    
31.77       26.89       134.958     6.906       -9999.25    -9999.25    -9999.25    -9999.25    -9999.25    -9999.25    14.591      1.323       367.876     30.825      0.96        30.468      1.575       2.358       
31.8        -9999.25    -9999.25    -9999.25    34.265      20.217      28.978      2.723       0.983       17.526      -9999.25    -9999.25    -9999.25    -9999.25    -9999.25    -9999.25    -9999.25    -9999.25    
31.87       22.728      134.965     7.167       -9999.25    -9999.25    -9999.25    -9999.25    -9999.25    -9999.25    14.173      1.294       368.9       30.077      0.96        31.213      1.546       2.365       
31.9        -9999.25    -9999.25    -9999.25    29.304      19.602      23.825      2.774       1.136       16.104      -9999.25    -9999.25    -9999.25    -9999.25    -9999.25    -9999.25    -9999.25    -9999.25    
31.97       18.074      135.39      7.489       -9999.25    -9999.25    -9999.25    -9999.25    -9999.25    -9999.25    13.773      1.263       369.658     29.113      0.96        31.823      1.546       2.367       
32.0        -9999.25    -9999.25    -9999.25    27.61       20.59       19.637      3.052       1.64        15.262      -9999.25    -9999.25    -9999.25    -9999.25    -9999.25    -9999.25    -9999.25    -9999.25    
32.07       15.652      135.895     7.602       -9999.25    -9999.25    -9999.25    -9999.25    -9999.25    -9999.25    13.348      1.234       370.175     28.159      0.96        32.503      1.518       2.366       
32.1        -9999.25    -9999.25    -9999.25    24.841      20.26       17.569      4.122       1.935       14.518      -9999.25    -9999.25    -9999.25    -9999.25    -9999.25    -9999.25    -9999.25    -9999.25    
32.17       15.357      135.956     7.532       -9999.25    -9999.25    -9999.25    -9999.25    -9999.25    -9999.25    12.957      1.182       370.499     27.297      0.96        32.958      1.506       2.367       
32.2        -9999.25    -9999.25    -9999.25    21.462      18.77       16.427      5.689       2.099       14.734      -9999.25    -9999.25    -9999.25    -9999.25    -9999.25    -9999.25    -9999.25    -9999.25    
32.27       15.044      135.816     7.398       -9999.25    -9999.25    -9999.25    -9999.25    -9999.25    -9999.25    12.693      1.136       370.726     26.329      0.96        33.095      1.48        2.367       
32.3        -9999.25    -9999.25    -9999.25    19.443      18.161      16.328      7.685       2.493       15.868      -9999.25    -9999.25    -9999.25    -9999.25    -9999.25    -9999.25    -9999.25    -9999.25    
32.37       14.323      136.377     7.415       -9999.25    -9999.25    -9999.25    -9999.25    -9999.25    -9999.25    12.56       1.103       370.898     25.368      0.96        33.144      1.467       2.368       
32.4        -9999.25    -9999.25    -9999.25    20.184      19.777      16.459      9.914       2.838       16.855      -9999.25    -9999.25    -9999.25    -9999.25    -9999.25    -9999.25    -9999.25    -9999.25    
32.47       14.077      136.59      7.595       -9999.25    -9999.25    -9999.25    -9999.25    -9999.25    -9999.25    12.513      1.107       371.06      24.506      0.96        32.843      1.42        2.372       
32.5        -9999.25    -9999.25    -9999.25    22.014      21.621      18.19       11.272      2.777       19.126      -9999.25    -9999.25    -9999.25    -9999.25    -9999.25    -9999.25    -9999.25    -9999.25    
32.57       15.193      135.8       7.749       -9999.25    -9999.25    -9999.25    -9999.25    -9999.25    -9999.25    12.588      1.139       371.211     23.75       0.96        32.366      1.4         2.386       
32.6        -9999.25    -9999.25    -9999.25    22.767      23.597      21.826      10.339      2.722       22.545      -9999.25    -9999.25    -9999.25    -9999.25    -9999.25    -9999.25    -9999.25    -9999.25    
32.67       18.417      135.053     7.78        -9999.25    -9999.25    -9999.25    -9999.25    -9999.25    -9999.25    12.792      1.197       371.315     23.142      0.96        31.543      1.495       2.403       
32.7        -9999.25    -9999.25    -9999.25    25.579      29.265      24.259      8.066       2.723       24.229      -9999.25    -9999.25    -9999.25    -9999.25    -9999.25    -9999.25    -9999.25    -9999.25    
32.77       21.56       135.194     7.721       -9999.25    -9999.25    -9999.25    -9999.25    -9999.25    -9999.25    13.005      1.278       371.321     22.834      0.96        30.577      1.621       2.421       
32.8        -9999.25    -9999.25    -9999.25    31.443      32.978      24.509      6.958       2.757       23.287      -9999.25    -9999.25    -9999.25    -9999.25    -9999.25    -9999.25    -9999.25    -9999.25    
32.87       23.536      135.382     7.509       -9999.25    -9999.25    -9999.25    -9999.25    -9999.25    -9999.25    13.149      1.318       371.174     22.782      0.96        29.914      1.69        2.436       
32.9        -9999.25    -9999.25    -9999.25    30.971      28.345      23.278      7.282       2.911       19.485      -9999.25    -9999.25    -9999.25    -9999.25    -9999.25    -9999.25    -9999.25    -9999.25    
32.97       26.454      134.848     7.196       -9999.25    -9999.25    -9999.25    -9999.25    -9999.25    -9999.25    13.273      1.313       370.855     22.867      0.96        29.267      1.776       2.449       
33.0        -9999.25    -9999.25    -9999.25    26.268      18.919      21.267      6.746       2.626       16.467      -9999.25    -9999.25    -9999.25    -9999.25    -9999.25    -9999.25    -9999.25    -9999.25    
33.07       26.38       134.939     7.026       -9999.25    -9999.25    -9999.25    -9999.25    -9999.25    -9999.25    13.342      1.273       370.353     23.004      0.96        29.408      1.8         2.46        
33.1        -9999.25    -9999.25    -9999.25    24.377      13.141      17.386      4.911       2.398       14.492      -9999.25    -9999.25    -9999.25    -9999.25    -9999.25    -9999.25    -9999.25    -9999.25    
33.17       19.918      136.547     7.127       -9999.25    -9999.25    -9999.25    -9999.25    -9999.25    -9999.25    13.324      1.25        369.651     22.754      0.959       30.363      1.697       2.465       
33.2        -9999.25    -9999.25    -9999.25    23.991      11.782      13.515      3.81        2.463       11.949      -9999.25    -9999.25    -9999.25    -9999.25    -9999.25    -9999.25    -9999.25    -9999.25    
33.27       15.911      140.166     7.583       -9999.25    -9999.25    -9999.25    -9999.25    -9999.25    -9999.25    13.302      1.255       368.684     21.502      0.959       31.444      1.654       2.456       
33.3        -9999.25    -9999.25    -9999.25    24.397      11.12       12.046      5.175       3.372       10.527      -9999.25    -9999.25    -9999.25    -9999.25    -9999.25    -9999.25    -9999.25    -9999.25    
33.37       14.426      138.915     8.266       -9999.25    -9999.25    -9999.25    -9999.25    -9999.25    -9999.25    13.29       1.264       367.421     20.152      0.959       32.334      1.522       2.442       
33.4        -9999.25    -9999.25    -9999.25    22.616      10.391      11.572      8.834       5.648       9.701       -9999.25    -9999.25    -9999.25    -9999.25    -9999.25    -9999.25    -9999.25    -9999.25    
33.47       13.81       137.524     8.493       -9999.25    -9999.25    -9999.25    -9999.25    -9999.25    -9999.25    13.32       1.251       365.895     19.78       0.959       32.97       1.465       2.427       
