~Version Information Section
VERS.                                         2.0:CWLS log ASCII Standart – VERSION 2.0
WRAP.                                          NO:One line per depth step
~Well Information Section
STRT.M                                        0.1:Начальная глубина
STOP.M                                      202.9:Конечная глубина
STEP.M                                          0:Шаг квантования по глубине
NULL.                                    -9999.25:Признак "Нет данных"
WELL.                                       155Мх:Скважина
~Parameter Information Section
~Curve Information Section
DEPTH.M                                          :Глубина
BK.Ohm*M                                         :BK     (БК)
DS.mm                                            :DS  (ДС)
GGK.g/cm3                                        :GGKp
ГК.mcr/h                                         :GK          (ГК)
GZ1.Ohm*M                                        :GZ1   ГЗ1(A0.4M0.1N)
GZ2.Ohm*M                                        :GZ2   ГЗ2(A1.0M0.1N)
GZ3.Ohm*M                                        :GZ3   ГЗ3(A2.0M0.5N)
GZ4.Ohm*M                                        :GZ4   ГЗ4(A4.0M0.5N)
GZ5.Ohm*M                                        :GZ5   ГЗ5(A8.0M0.5N)
GZR.                                             :GZR   ГЗK(N0.5M2.0A)
ИК.Ohm*M                                         :IK
НГК.ue                                           :NGK     (НГК)
NNKM.                                            :NNKm  (ННКм)
PS.mv                                            :PS       (ПС)
PZ.Ohm*M                                         :PZ    (КС)
RS.Ohm*M                                         :RS (Резистивиметр)
W.%                                              :W
~ASCII LOG DATA
# ...
44.5        38.106      180.259     2.252       4.761       110.912     125.132     84.889      67.082      7.217       16.179      30.748      0.92        1.234       63.354      87.897      1.233       30.381      
44.6        26.48       179.649     2.238       5.305       81.55       87.117      71.963      57.588      7.181       14.547      29.548      0.874       1.221       64.347      79.885      1.226       29.366      
44.7        17.599      179.388     2.224       5.745       53.049      61.557      60.661      52.141      7.138       14.27       28.239      0.83        1.187       65.87       70.271      1.22        28.759      
44.8        16.529      178.875     2.215       6.051       39.568      58.671      57.602      53.073      6.983       15.556      27.039      0.819       1.151       67.068      58.462      1.218       28.021      
44.9        20.612      178.782     2.214       6.182       37.406      63.831      62.844      59.002      6.914       17.096      25.727      0.869       1.135       67.657      50.552      1.215       26.853      
45.0        34.015      178.681     2.219       6.175       41.014      68.328      68.835      67.026      6.907       18.869      24.615      0.955       1.148       67.996      48.471      1.208       25.659      
45.1        48.425      178.451     2.229       6.107       46.033      71.82       70.737      73.397      7.403       20.287      23.986      1.02        1.198       68.562      47.68       1.206       24.558      
45.2        46.554      178.758     2.238       6.094       51.393      66.87       70.483      74.925      7.711       20.672      23.875      1.035       1.265       69.849      46.17       1.206       23.649      
45.3        35.269      180.021     2.245       6.167       54.303      54.168      68.593      73.67       7.726       21.209      23.932      1.009       1.309       72.083      43.182      1.206       23.5        
45.4        28.452      183.15      2.247       6.284       55.541      47.169      65.78       71.583      7.556       21.675      24.052      0.99        1.315       75.557      40.439      1.207       24.332      
45.5        27.49       180.454     2.245       6.392       61.935      51.71       63.62       68.578      7.258       21.738      24.102      0.98        1.28        79.314      39.276      1.21        25.698      
45.6        31.944      172.115     2.24        6.473       63.978      50.0        63.25       66.348      6.988       21.934      23.984      0.969       1.247       81.601      39.603      1.214       27.105      
45.7        30.358      166.01      2.232       6.538       52.703      38.86       61.834      65.465      6.642       22.167      23.369      0.968       1.225       81.454      41.372      1.211       28.364      
45.8        22.245      165.329     2.223       6.616       42.603      32.712      59.009      63.981      6.417       22.363      22.902      0.98        1.211       79.563      40.988      1.206       29.616      
45.9        22.189      165.615     2.213       6.738       42.097      33.981      54.525      60.069      6.266       21.693      22.234      0.993       1.205       77.896      37.855      1.206       30.644      
46.0        23.137      166.804     2.201       6.899       45.161      39.183      49.435      56.124      5.979       20.548      21.629      0.988       1.196       77.526      35.866      1.206       31.13       
46.1        24.245      168.602     2.189       7.038       43.124      35.471      47.013      53.431      5.831       19.594      21.409      0.964       1.186       78.286      34.471      1.207       31.393      
46.2        22.405      168.527     2.177       7.06        36.842      27.833      44.367      50.409      5.981       18.581      20.849      0.934       1.175       79.204      33.08       1.206       31.649      
46.3        19.799      168.44      2.168       6.914       31.576      25.616      39.463      47.239      6.281       18.483      20.339      0.917       1.15        79.653      31.264      1.206       31.742      
46.4        19.206      170.066     2.162       6.619       29.261      25.106      38.434      47.106      6.513       19.491      19.749      0.92        1.114       79.945      30.192      1.206       31.119      
46.5        19.903      174.672     2.162       6.25        29.522      29.93       42.474      52.433      6.721       22.622      19.261      0.944       1.083       80.382      29.603      1.206       30.113      
46.6        26.502      180.401     2.164       5.909       31.977      39.132      46.2        60.365      6.642       25.829      18.915      0.978       1.07        80.703      29.185      1.206       29.215      
46.7        43.399      178.043     2.167       5.677       39.783      45.652      49.557      66.647      6.575       27.948      18.59       1.008       1.108       80.296      30.187      1.206       28.419      
46.8        55.947      179.175     2.167       5.624       51.048      48.156      49.207      67.34       6.485       28.073      18.359      1.026       1.174       79.242      32.01       1.206       27.987      
46.9        44.705      182.664     2.164       5.764       60.647      44.269      43.909      61.204      6.375       25.901      18.266      1.016       1.225       78.543      32.787      1.206       28.596      
47.0        27.61       187.844     2.157       6.059       60.369      35.022      36.156      51.065      6.224       22.574      18.306      0.977       1.23        78.759      31.698      1.206       29.804      
47.1        16.92       182.719     2.149       6.436       50.654      26.487      28.078      39.842      5.912       18.789      18.221      0.916       1.167       79.086      30.171      1.206       31.072      
47.2        14.391      184.76      2.141       6.834       39.965      21.033      21.635      30.478      5.729       16.369      18.033      0.845       1.077       78.223      27.431      1.213       32.568      
47.3        13.871      181.799     2.138       7.188       30.979      18.359      17.435      24.196      5.409       15.363      17.758      0.799       1.001       75.872      25.036      1.213       34.199      
47.4        13.395      181.779     2.141       7.415       24.478      16.172      16.209      20.719      5.058       15.606      17.248      0.798       0.966       73.431      24.605      1.207       35.095      
47.5        13.206      182.218     2.152       7.466       19.997      15.034      15.588      19.359      5.387       16.559      16.77       0.828       0.973       72.207      24.161      1.206       35.393      
47.6        13.774      182.757     2.17        7.33        17.903      15.022      15.141      18.92       6.509       19.231      16.604      0.846       0.979       72.226      23.314      1.206       35.362      
47.7        14.925      182.95      2.197       7.012       17.23       15.575      15.665      19.38       7.412       22.315      16.433      0.84        0.996       73.019      22.54       1.206       34.727      
47.8        16.676      186.154     2.228       6.533       17.741      16.305      17.633      21.275      10.12       25.823      16.454      0.844       1.03        74.459      22.04       1.206       33.241      
47.9        20.168      196.888     2.262       5.931       19.133      19.114      19.947      25.07       13.647      30.303      16.607      0.872       1.083       76.818      21.83       1.206       31.5        
48.0        26.561      202.885     2.294       5.307       24.042      24.417      22.667      29.531      18.545      36.44       16.962      0.907       1.154       79.638      22.346      1.206       29.837      
48.1        31.943      194.933     2.319       4.713       31.345      29.394      26.414      33.831      24.474      41.673      17.394      0.93        1.216       82.002      23.557      1.206       28.059      
