~Version Information Section
VERS.                                         2.0:CWLS log ASCII Standart – VERSION 2.0
WRAP.                                          NO:One line per depth step
~Well Information Section
STRT.M                                      -0.07:Начальная глубина
STOP.M                                     189.23:Конечная глубина
STEP.M                                          0:Шаг квантования по глубине
NULL.                                    -9999.25:Признак "Нет данных"
WELL.                                       127Мх:Скважина
~Parameter Information Section
~Curve Information Section
DEPTH.M                                          :Глубина
BK.                                              :BK
ГК.гамма                                         :GK
ИК.                                              :IK
НГК.усл.ед                                       :NGK
PSЭ3.                                            :PSэ3
PZЭ3.                                            :PZэ3
U1.                                              :U1
U2.                                              :U2
U3.                                              :U3
W.усл.ед                                         :W
ГЗ1.                                             :ГЗ1
ГЗ2.                                             :ГЗ2
ГЗ3.                                             :ГЗ3
ГЗ4.                                             :ГЗ4
ГЗ5.                                             :ГЗ5
ГЗК.                                             :ГЗК
ННКМ.усл.ед                                      :ННКм
PL.g/cm3                                         :Плотность
ПРОФ_СР.                                         :ПРОФ_СР
IS.                                              :РЕЗ
~ASCII LOG DATA
# ...
169.53      139.049     2.851       48.648      1.297       61.594      106.22      1001.542    600.089     367.35      40.598      107.891     130.112     56.537      29.972      13.386      158.218     2.063       2.182       124.641     1.078       
169.63      132.27      2.75        49.402      1.352       60.85       109.4       973.36      610.914     389.596     40.045      107.898     137.244     66.741      31.425      14.01       158.218     2.041       2.17        125.01      1.078       
169.73      118.628     2.745       50.442      1.33        59.594      112.119     948.353     627.721     418.32      39.496      107.894     143.078     77.697      32.692      14.582      158.218     2.018       2.153       125.067     1.078       
169.83      120.296     2.657       51.861      1.415       57.789      114.485     934.14      631.558     427.921     39.289      107.885     145.252     88.339      33.499      15.111      158.218     2.0         2.138       124.094     1.078       
169.93      129.563     2.76        52.783      1.563       55.989      116.712     940.875     625.506     416.99      39.409      107.862     140.148     98.42       33.927      15.62       158.218     1.99        2.128       124.339     1.078       
170.03      131.423     3.095       53.278      1.552       54.822      118.959     951.229     623.644     410.3       39.468      107.833     132.865     107.298     34.133      16.049      158.218     1.984       2.119       124.614     1.078       
170.13      128.626     3.387       54.435      1.46        54.228      121.052     962.894     624.149     406.224     39.807      107.815     123.366     114.095     34.192      16.439      158.218     1.996       2.116       124.437     1.078       
170.23      138.755     3.408       54.786      1.384       54.261      122.64      970.49      622.768     400.965     39.776      107.8       113.868     118.254     34.195      16.9        158.218     2.011       2.123       124.303     1.078       
170.33      163.898     3.356       55.25       1.36        54.811      124.219     976.33      620.853     395.958     38.997      107.806     104.454     120.56      34.318      17.354      158.218     2.012       2.133       124.081     1.078       
170.43      156.249     3.352       56.069      1.313       55.444      125.798     990.076     620.866     391.585     38.594      107.812     98.003      122.439     34.792      17.793      158.218     2.009       2.144       123.849     1.078       
170.53      157.873     3.345       56.363      1.434       55.867      127.317     1017.14     621.55      383.19      39.276      107.818     98.003      124.564     35.726      18.176      158.218     2.012       2.155       123.745     1.078       
170.63      170.56      3.277       56.099      1.387       55.778      128.74      1051.411    623.745     374.207     39.911      107.845     98.003      127.681     37.006      18.488      158.218     2.025       2.163       123.808     1.078       
170.73      169.998     3.185       56.662      1.291       54.822      130.009     1091.302    622.857     358.952     39.151      107.843     98.003      132.138     38.424      18.769      158.218     2.019       2.159       124.324     1.078       
170.83      138.069     3.249       56.435      1.291       52.383      131.0       1098.826    608.099     337.877     37.519      107.847     98.003      136.331     39.754      18.989      158.218     1.974       2.147       124.759     1.078       
170.93      140.515     3.329       57.193      1.294       48.561      131.632     1064.781    590.065     327.965     36.536      107.854     98.003      140.112     40.87       19.155      158.38      1.945       2.132       124.413     1.078       
171.03      149.337     3.48        57.657      1.306       44.489      132.003     1029.665    579.961     331.16      36.427      107.873     98.003      144.992     41.959      19.273      158.94      1.95        2.116       124.216     1.078       
171.13      171.211     3.624       58.21       1.321       40.094      132.235     1012.985    545.158     306.779     37.41       107.885     98.003      153.207     43.434      19.396      159.491     1.963       2.103       123.968     1.078       
171.23      156.885     3.585       58.239      1.318       34.839      132.297     1010.917    502.652     271.359     39.084      107.903     98.003      160.397     45.521      19.492      159.864     1.996       2.1         124.166     1.078       
171.33      139.414     3.368       58.232      1.323       29.317      132.216     1014.534    492.1       263.487     39.601      107.913     98.003      166.127     48.13       19.56       160.223     2.024       2.105       124.299     1.078       
171.43      146.845     3.078       58.333      1.322       25.411      132.086     1026.831    501.813     270.519     38.622      107.896     98.003      171.858     51.435      19.638      160.465     2.02        2.114       124.206     1.078       
171.53      150.434     3.009       58.461      1.375       25.472      131.959     1050.975    518.137     278.13      37.172      107.836     98.003      177.59      55.75       19.741      160.558     2.001       2.126       123.929     1.078       
171.63      149.841     3.119       58.61       1.336       29.344      131.964     1066.236    567.001     318.992     35.859      107.76      98.003      181.602     59.547      19.888      161.581     1.986       2.143       123.653     1.078       
171.73      155.877     3.322       58.283      1.215       35.606      132.369     1060.913    622.338     371.565     35.581      107.704     98.003      181.602     60.046      20.095      162.614     1.978       2.162       123.562     1.078       
171.83      168.094     3.394       58.591      1.273       42.961      133.255     1077.271    653.513     396.965     37.527      107.632     98.003      181.602     59.651      20.508      163.825     1.992       2.183       123.683     1.078       
171.93      171.657     3.258       58.851      1.301       49.889      134.426     1110.675    657.511     391.218     39.702      107.572     98.003      181.602     58.61       21.198      165.05      2.034       2.206       123.764     1.078       
172.03      162.098     3.197       58.42       1.442       55.55       135.6       1136.271    643.634     368.742     38.598      107.534     98.003      181.602     56.863      22.234      166.391     2.052       2.226       123.759     1.078       
172.13      153.882     2.972       59.243      1.504       59.528      136.577     1178.694    630.565     343.154     36.133      107.552     98.003      181.602     54.089      23.509      167.721     2.024       2.241       123.714     1.078       
172.23      118.754     3.085       59.13       1.453       61.061      137.207     1217.74     622.595     322.826     35.482      107.547     98.003      181.602     51.544      24.89       167.721     2.004       2.244       123.635     1.078       
172.33      120.668     3.147       58.927      1.373       58.672      137.468     1241.72     617.19      308.946     35.899      107.5       98.003      181.602     51.544      26.386      167.721     2.014       2.238       123.424     1.078       
172.43      166.64      3.494       58.726      1.331       51.094      137.511     1223.361    608.43      304.284     36.465      107.472     98.003      181.602     51.544      27.863      167.721     2.013       2.223       123.358     1.078       
172.53      247.126     3.709       58.526      1.247       39.95       137.5       1164.053    594.22      305.501     36.251      107.476     98.003      181.602     51.544      29.139      167.721     1.951       2.207       123.516     1.078       
172.63      318.377     3.822       58.327      1.358       27.644      137.575     1087.52     573.688     303.958     36.266      107.487     98.003      181.602     51.544      30.148      167.721     1.875       2.191       123.51      1.078       
