~Version Information Section
VERS.                                         2.0:CWLS log ASCII Standart – VERSION 2.0
WRAP.                                          NO:One line per depth step
~Well Information Section
STRT.M                                        0.0:Начальная глубина
STOP.M                                      166.2:Конечная глубина
STEP.M                                          0:Шаг квантования по глубине
NULL.                                    -9999.25:Признак "Нет данных"
WELL.                                         1Мх:Скважина
~Parameter Information Section
~Curve Information Section
DEPTH.M                                          :Глубина
BK.lgОмм                                         :BK
ПРОФ_СР.мм                                       :ПРОФ_СР
GGKP.имп/мин                                     :GGKp
ГК.мкР/час                                       :GK
ИК.мСм/м                                         :IK
PS.мВ                                            :PS
PZ.Омм                                           :PZ
RIS.Омм                                          :RIS
U1.мВ                                            :U1
U2.мВ                                            :U2
U3.mv                                            :U3
WS.%                                             :WS
ГЗ1.Омм                                          :ГЗ1
ГЗ2.Омм                                          :ГЗ2
ГЗ3.Омм                                          :ГЗ3
ГЗ4.Oмм                                          :ГЗ4
ГЗК.Омм                                          :ГЗК
НГК.усл.ед                                       :ННКб
ННКМ.усл.ед                                      :ННКм
ГЗ5.Oмм                                          :ГЗ5
ПЛ1.имп/мин                                      :ПЛ1
ПЛ2.имп/мин                                      :ПЛ2
ПЛ3.имп/мин                                      :ПЛ3
ПЛ4.имп/мин                                      :ПЛ4
~ASCII LOG DATA
# ...
27.0        26.27       161.789     2.24        6.032       19.371      62.343      20.292      1.086       567.691     535.898     623.502     36.939      1.808       6.379       5.377       6.025       6.019       2.581       1.857       4.071       22440.0     26260.0     17180.0     4620.0      
27.1        25.886      161.102     2.255       5.834       19.765      59.566      20.858      1.075       612.112     501.735     570.779     37.074      1.75        6.21        5.377       5.925       6.019       2.584       1.856       4.071       23160.0     26260.0     17160.0     4640.0      
27.2        25.866      162.322     2.245       5.798       20.286      55.808      21.782      1.075       685.519     439.311     456.946     37.576      1.643       6.017       5.277       5.925       5.919       2.606       1.868       4.071       20160.0     26680.0     17660.0     4440.0      
27.3        26.661      161.199     2.236       5.587       20.93       51.018      23.2        1.075       666.621     397.994     388.554     37.555      1.503       5.581       5.177       5.925       5.819       2.662       1.896       4.071       23040.0     26600.0     17860.0     4500.0      
27.4        30.401      160.07      2.224       5.226       21.717      45.394      25.169      1.075       674.259     372.487     319.393     37.096      1.74        5.195       5.177       5.925       5.819       2.744       1.926       4.071       21840.0     26560.0     17660.0     4160.0      
27.5        37.548      159.939     2.198       5.142       22.512      39.318      27.317      1.075       648.437     362.706     290.841     36.677      2.049       5.485       5.077       5.925       5.719       2.774       1.949       4.071       22320.0     26460.0     17520.0     4120.0      
27.6        44.384      157.36      2.182       5.124       23.418      33.292      29.53       1.075       589.156     368.652     302.896     36.22       2.252       5.823       5.077       5.925       5.719       2.747       1.975       4.071       21720.0     26460.0     17400.0     4100.0      
27.7        46.341      156.921     2.155       4.894       24.353      27.531      31.626      1.075       483.879     372.417     335.821     35.839      2.354       5.92        5.077       5.925       5.719       2.7         2.012       4.071       24600.0     26540.0     17060.0     4220.0      
27.8        43.935      156.89      2.139       4.858       25.014      22.335      33.706      1.075       485.59      352.172     301.495     35.316      2.334       5.872       5.077       5.925       5.619       2.712       2.038       4.071       23760.0     26520.0     16840.0     4220.0      
27.9        41.954      156.866     2.128       4.969       25.525      17.91       35.467      1.075       508.067     346.484     277.989     34.903      2.422       5.824       5.077       5.925       5.519       2.781       2.036       4.071       22560.0     26280.0     16780.0     4320.0      
28.0        42.423      156.929     2.118       4.924       25.883      14.378      36.726      1.075       552.21      357.549     267.822     34.73       2.441       5.751       5.077       5.925       5.519       2.85        2.01        4.071       21840.0     26760.0     16840.0     4380.0      
28.1        44.501      156.873     2.112       4.822       26.296      11.75       37.516      1.075       618.019     385.366     270.99      34.85       2.582       5.654       5.077       5.925       5.319       2.887       1.988       4.071       20160.0     26640.0     16680.0     4280.0      
28.2        48.656      156.821     2.097       4.839       26.939      9.813       38.183      1.075       641.922     411.596     309.1       35.073      2.939       5.775       5.077       5.925       5.319       2.875       1.98        4.071       23160.0     26280.0     16780.0     4320.0      
28.3        52.095      157.155     2.081       4.674       27.418      8.406       38.767      1.075       616.842     433.366     383.16      35.22       2.986       5.993       5.077       5.925       5.319       2.796       1.984       4.071       19440.0     26340.0     16940.0     4320.0      
28.4        54.164      157.494     2.079       4.402       27.939      7.497       39.414      1.075       555.428     432.486     451.977     35.445      3.097       6.041       5.077       6.025       5.319       2.713       1.986       4.071       18360.0     26600.0     17440.0     4640.0      
28.5        53.382      157.822     2.072       4.154       28.344      6.889       39.96       1.075       461.237     408.696     512.328     35.987      3.196       6.137       5.077       6.025       5.319       2.664       1.975       4.071       21000.0     26240.0     18040.0     4460.0      
28.6        52.483      158.415     2.066       3.995       28.518      6.476       40.406      1.065       335.86      356.254     539.504     35.977      3.266       6.258       5.077       6.125       5.319       2.698       1.955       4.171       21000.0     26660.0     18500.0     4820.0      
28.7        52.08       158.674     2.074       3.881       28.696      6.353       40.783      1.065       255.645     310.544     527.914     35.72       3.344       6.331       5.077       6.225       5.319       2.786       1.938       4.271       21960.0     27180.0     18820.0     4800.0      
28.8        52.653      158.101     2.077       3.813       28.785      6.705       41.094      1.065       269.811     302.109     496.479     35.523      3.42        6.403       5.177       6.225       5.319       2.852       1.933       4.271       24240.0     27800.0     19060.0     4660.0      
28.9        54.719      158.171     2.09        3.888       29.025      7.777       41.195      1.065       340.505     320.678     457.949     35.364      3.639       6.548       5.177       6.325       5.319       2.872       1.954       4.371       23760.0     27900.0     18920.0     4420.0      
29.0        56.084      158.431     2.102       3.901       29.056      9.611       41.113      1.065       462.073     364.366     413.492     35.427      3.614       6.645       5.277       6.325       5.319       2.852       1.994       4.371       24720.0     27580.0     18140.0     4580.0      
29.1        56.42       157.724     2.114       3.83        29.241      12.258      40.786      1.065       562.337     389.078     362.559     35.456      3.643       6.742       5.377       6.325       5.319       2.847       2.037       4.371       26280.0     27380.0     17520.0     4600.0      
29.2        55.337      157.547     2.104       3.739       29.394      15.85       40.463      1.065       625.399     384.622     303.271     35.667      3.658       6.814       5.377       6.525       5.519       2.863       2.061       4.371       25680.0     26740.0     17220.0     4660.0      
29.3        54.87       157.835     2.1         3.926       29.333      20.348      40.153      1.065       633.587     359.203     248.82      36.139      3.678       6.959       5.577       6.525       5.619       2.88        2.056       4.371       24600.0     26640.0     17280.0     4680.0      
29.4        54.328      158.482     2.086       3.85        29.238      25.47       39.786      1.065       585.538     316.9       203.96      36.842      3.799       7.031       5.577       6.525       5.719       2.894       2.04        4.471       24240.0     26960.0     17100.0     4740.0      
29.5        53.425      158.326     2.089       3.674       29.333      30.787      39.3        1.065       532.196     285.202     184.51      37.197      3.794       7.032       5.777       6.625       5.919       2.884       2.027       4.571       22200.0     27260.0     17560.0     4700.0      
29.6        52.447      158.6       2.096       3.753       29.333      35.982      38.921      1.065       558.672     321.783     220.242     36.978      3.793       6.983       5.877       6.625       6.019       2.825       2.031       4.571       23520.0     27340.0     18180.0     4600.0      
