~Version Information Section
VERS.                                         2.0:CWLS log ASCII Standart – VERSION 2.0
WRAP.                                          NO:One line per depth step
~Well Information Section
STRT.M                                        2.1:Начальная глубина
STOP.M                                      196.8:Конечная глубина
STEP.M                                          0:Шаг квантования по глубине
NULL.                                    -9999.25:Признак "Нет данных"
WELL.                                       154Мх:Скважина
~Parameter Information Section
~Curve Information Section
DEPTH.M                                          :Глубина
BK.lgОмм                                         :BK     (БК)
DСР.мм                                           :DS  (ДС)
ГГКП.g/cm3                                       :GGKp
ГК.мкР/час                                       :GK          (ГК)
ГЗ1.Омм                                          :GZ1   ГЗ1(A0.4M0.1N)
ГЗ2.Омм                                          :GZ2   ГЗ2(A1.0M0.1N)
ГЗ3.Омм                                          :GZ3   ГЗ3(A2.0M0.5N)
ГЗ4.Oмм                                          :GZ4   ГЗ4(A4.0M0.5N)
ГЗ5.Oмм                                          :GZ5   ГЗ5(A8.0M0.5N)
ГЗК.Омм                                          :GZR   ГЗK(N0.5M2.0A)
ИК.мСм/м                                         :IK
НГК.усл.ед.                                      :NGK     (НГК)
РЕЗ.Омм                                          :RS (Резистивиметр)
W.                                               :W
ННКМ.усл.ед                                      :NNKm  (ННКм)
PS.мB                                            :PS       (ПС)
~ASCII LOG DATA
# ...
150.1       22.22       152.996     2.321       6.446       89.01       29.714      47.622      14.423      14.33       37.88       20.423      1.06        1.026       34.489      1.096       69.596      
150.2       21.482      152.9       2.332       6.532       88.59       29.714      47.182      14.303      14.19       36.84       20.501      1.057       1.026       33.966      1.098       69.57       
150.3       21.777      153.087     2.313       6.779       87.75       29.714      47.182      14.183      13.91       35.8        20.423      1.041       1.026       33.346      1.102       69.518      
150.4       22.296      152.902     2.303       6.836       87.33       30.234      47.182      13.943      13.91       34.76       20.423      1.042       1.026       32.891      1.105       69.49       
150.5       22.656      153.224     2.292       6.757       86.91       30.234      46.302      13.583      13.77       34.76       20.423      1.063       1.026       32.711      1.099       69.537      
150.6       23.712      153.508     2.293       6.782       86.91       30.754      46.302      13.463      13.63       34.76       20.539      1.052       1.026       32.588      1.095       69.568      
150.7       24.249      153.702     2.282       6.867       86.91       31.274      46.302      13.463      13.63       34.76       20.539      1.054       1.026       32.364      1.095       69.625      
150.8       25.101      153.85      2.278       6.941       86.91       31.794      46.302      13.343      13.49       34.76       20.539      1.054       1.026       32.392      1.096       69.727      
150.9       25.043      153.954     2.284       6.701       86.91       31.794      46.302      13.223      13.35       34.76       20.656      1.049       1.026       32.479      1.1         69.856      
151.0       25.101      154.224     2.263       6.54        86.91       31.794      46.302      13.223      13.21       34.76       20.656      1.028       1.026       32.662      1.107       70.036      
151.1       25.043      154.408     2.283       6.313       86.91       31.794      46.302      13.223      13.21       34.76       20.735      1.029       1.026       33.379      1.109       70.245      
151.2       25.196      154.888     2.297       6.187       86.91       31.794      46.302      13.223      13.21       34.76       20.774      1.03        1.026       34.365      1.106       70.427      
151.3       24.987      154.816     2.309       6.048       86.91       32.314      46.302      13.223      13.21       34.76       20.774      1.048       1.026       34.575      1.106       70.63       
151.4       24.739      155.086     2.306       6.109       86.91       32.834      46.742      14.063      13.21       34.76       20.734      1.094       1.026       33.837      1.109       70.803      
151.5       24.416      155.683     2.319       6.145       87.33       33.354      47.622      14.183      13.49       34.76       20.734      1.105       1.026       32.925      1.114       70.96       
151.6       24.51       156.28      2.31        6.213       87.33       33.354      48.062      14.303      13.49       34.76       20.734      1.138       1.026       31.543      1.119       71.089      
151.7       24.797      156.725     2.307       6.385       87.75       33.354      48.502      14.303      13.63       34.76       20.774      1.154       1.026       30.276      1.123       71.216      
151.8       24.723      157.135     2.308       6.489       87.75       33.354      48.502      14.303      13.91       34.76       20.774      1.154       1.026       30.035      1.123       71.339      
151.9       24.629      157.505     2.314       6.553       88.17       33.354      48.942      14.303      14.47       34.76       20.774      1.137       1.026       30.503      1.119       71.42       
152.0       24.417      157.505     2.299       6.641       88.17       32.834      49.382      14.303      14.47       34.76       20.655      1.146       1.026       30.968      1.114       71.497      
152.1       24.642      157.353     2.294       6.651       88.59       31.794      49.382      14.303      14.33       34.76       20.695      1.109       1.026       31.401      1.109       71.538      
152.2       24.604      157.288     2.302       6.61        88.59       31.794      49.822      14.183      14.33       34.76       20.695      1.057       1.026       31.148      1.104       71.538      
152.3       24.143      156.872     2.299       6.602       88.59       31.274      50.262      14.183      14.19       34.76       20.578      1.062       1.026       30.356      1.102       71.59       
152.4       23.576      156.32      2.298       6.562       88.59       30.754      50.262      14.183      14.19       34.76       20.461      1.044       1.026       30.175      1.106       71.643      
152.5       23.21       156.069     2.3         6.374       88.59       30.234      50.262      14.183      14.05       34.76       20.423      1.05        1.026       30.712      1.111       71.673      
152.6       23.391      155.964     2.302       6.316       88.59       29.714      50.262      14.183      14.05       35.8        20.385      1.062       1.026       31.53       1.114       71.7        
152.7       23.679      156.1       2.289       6.379       88.59       29.714      50.262      14.183      14.05       35.8        20.385      1.105       1.026       32.877      1.116       71.738      
152.8       23.697      156.095     2.286       6.387       88.59       29.714      50.262      14.063      14.05       35.8        20.232      1.097       1.026       34.452      1.115       71.814      
152.9       22.98       156.147     2.273       6.895       88.59       30.234      50.262      14.063      13.91       35.8        20.232      1.087       1.026       35.487      1.11        71.917      
153.0       21.889      156.213     2.255       7.153       88.59       30.754      50.262      14.063      13.77       35.8        20.157      1.071       1.026       35.412      1.105       71.969      
153.1       20.98       156.014     2.238       7.422       88.59       31.274      50.262      13.943      13.77       36.84       20.158      1.107       1.026       34.598      1.104       71.969      
153.2       20.654      155.654     2.24        7.306       88.59       31.794      50.262      13.943      13.77       36.84       20.008      1.121       1.026       33.746      1.108       71.945      
153.3       20.702      155.364     2.261       7.184       89.01       31.794      50.262      13.823      13.77       36.84       20.01       1.132       1.026       33.089      1.118       71.918      
153.4       20.845      155.326     2.295       6.672       89.43       31.794      50.262      13.823      13.77       36.84       19.97       1.147       1.026       32.439      1.129       71.857      
153.5       21.171      155.101     2.35        6.431       89.43       32.314      50.702      13.823      13.77       36.84       20.01       1.149       1.026       32.022      1.14        71.768      
153.6       21.649      154.67      2.382       6.168       89.43       32.314      50.702      13.823      13.77       37.88       20.01       1.125       1.026       32.12       1.154       71.665      
153.7       22.013      154.554     2.388       5.993       89.85       32.314      50.702      13.703      13.77       37.88       19.971      1.12        1.026       32.246      1.168       71.536      
153.8       23.62       154.566     2.378       6.219       90.27       31.794      50.702      13.703      13.77       37.88       20.122      1.118       1.026       32.391      1.175       71.433      
153.9       25.218      154.793     2.334       6.287       90.69       31.794      50.702      13.703      13.77       37.88       20.121      1.111       1.026       32.936      1.174       71.329      
154.0       25.819      154.85      2.295       6.438       90.69       31.794      50.702      13.703      13.77       37.88       20.196      1.1         1.026       33.823      1.167       71.205      
