~Version Information Section
VERS.                                         2.0:CWLS log ASCII Standart – VERSION 2.0
WRAP.                                          NO:One line per depth step
~Well Information Section
STRT.M                                        2.0:Начальная глубина
STOP.M                                      201.2:Конечная глубина
STEP.M                                          0:Шаг квантования по глубине
NULL.                                    -9999.25:Признак "Нет данных"
WELL.                                       126Мх:Скважина
~Parameter Information Section
~Curve Information Section
DEPTH.M                                          :Глубина
BK.ohmm                                          :BK
ПРОФ_СР.мм                                       :DS  (ДС)
W.g/cm3                                          :GGKp
ГК.мкР/час                                       :GK          (ГК)
ГЗ1.Омм                                          :GZ1   ГЗ1(A0.4M0.1N)
ГЗ2.Омм                                          :GZ2   ГЗ2(A1.0M0.1N)
ГЗ3.Омм                                          :GZ3   ГЗ3(A2.0M0.5N)
ГЗ4.Oмм                                          :GZ4   ГЗ4(A4.0M0.5N)
ГЗ5.Oмм                                          :GZ5   ГЗ5(A8.0M0.5N)
ГЗК.Омм                                          :GZK   ГЗK(N0.5M2.0A)
ИК.ohmm                                          :IK
НГК.усл.ед.                                      :NGK
ННКМ.усл.ед                                      :NNKm  (ННКм)
PS.мВ                                            :PS       (ПС)
PZ.Омм                                           :PZ    (КС)
RIS.Омм                                          :RS (Резистивиметр)
U1.мВ                                            :U1
U2.мВ                                            :U2
U3.mv                                            :U3
~ASCII LOG DATA
# ...
168.6       183.231     121.544     2.174       4.498       37.8        10.678      89.999      18.536      9.951       39.574      10.972      1.25        2.343       204.646     30.511      1.454       608.636     391.605     325.997     
168.7       175.388     121.441     2.105       4.397       36.72       9.789       103.2       18.936      11.001      43.883      11.728      1.307       2.432       200.95      33.895      1.454       440.086     346.353     353.087     
168.8       157.398     121.454     2.057       4.501       36.72       8.915       106.0       20.736      13.426      50.639      12.515      1.43        2.528       196.726     38.407      1.452       326.163     280.146     307.107     
168.9       146.218     121.475     2.032       4.164       36.72       8.696       111.201     21.536      19.009      63.562      13.175      1.638       2.735       193.03      47.808      1.447       286.93      236.517     264.58      
169.0       134.896     122.391     2.032       3.921       36.72       9.317       114.0       21.736      41.734      129.419     13.703      1.815       2.878       189.862     58.711      1.441       270.078     238.799     302.065     
169.1       122.18      121.87      2.028       3.815       36.72       15.317      119.6       22.736      44.334      186.162     14.099      1.932       2.833       186.694     69.991      1.432       274.54      287.406     421.005     
169.2       116.413     121.677     2.047       3.944       36.72       16.324      124.4       23.736      49.534      194.941     14.417      2.011       2.766       182.998     84.654      1.426       472.742     445.826     538.278     
169.3       115.08      121.803     2.068       3.993       36.72       20.353      132.4       24.736      55.734      234.489     14.696      1.994       2.699       179.302     98.191      1.423       691.89      603.967     620.752     
169.4       113.24      121.882     2.088       3.783       36.72       20.535      140.401     25.379      61.934      247.195     14.883      1.963       2.696       175.606     108.344     1.423       899.137     741.578     663.878     
169.5       112.202     121.79      2.084       3.678       37.8        22.02       149.199     24.75       64.334      227.529     15.091      1.922       2.725       172.438     121.127     1.426       902.027     751.63      674.212     
169.6       115.08      121.667     2.084       3.721       37.375      25.773      158.801     25.497      64.334      222.836     15.206      1.89        2.79        169.27      135.791     1.434       836.627     693.061     623.396     
169.7       120.226     121.475     2.077       3.819       79.436      28.662      158.401     28.845      63.935      197.072     15.254      1.822       2.84        166.63      147.446     1.443       726.708     573.763     501.529     
169.8       118.85      121.663     2.081       3.822       138.155     29.797      156.801     30.278      62.134      169.111     15.315      1.791       2.82        165.046     160.231     1.453       690.336     512.128     423.106     
169.9       112.72      121.725     2.074       3.712       138.155     35.545      156.801     30.214      61.334      164.711     15.373      1.786       2.8         163.462     173.392     1.46        801.182     594.848     481.783     
170.0       105.196     121.667     2.055       3.744       145.395     40.356      156.801     29.774      60.935      144.25      15.36       1.812       2.789       161.878     180.159     1.462       1086.801    827.496     669.519     
170.1       95.94       121.69      2.054       3.603       141.066     46.731      156.801     29.034      58.935      132.791     15.378      1.816       2.76        160.822     184.295     1.462       1436.598    1089.047    862.907     
170.2       89.743      121.808     2.061       3.474       141.066     80.251      156.801     28.944      57.134      130.678     15.366      1.864       2.719       159.766     186.551     1.46        1654.455    1239.606    964.321     
170.3       85.114      121.858     2.061       3.236       129.612     112.308     156.801     28.66       55.935      121.242     15.324      1.917       2.713       158.71      186.551     1.453       1645.611    1236.875    966.971     
170.4       78.886      122.093     2.061       3.198       126.423     117.173     156.801     28.962      54.134      117.329     15.32       1.918       2.737       157.126     183.167     1.445       1402.608    1083.498    879.778     
170.5       73.282      121.611     2.068       3.286       126.423     140.798     156.801     29.2        53.334      117.19      15.259      1.914       2.715       155.542     180.535     1.437       1138.63     949.099     850.389     
170.6       69.183      121.744     2.071       3.486       125.925     157.492     156.801     30.33       53.134      115.565     15.227      1.991       2.678       153.43      176.399     1.431       1002.689    882.555     857.444     
170.7       66.222      120.754     2.083       3.588       128.621     160.256     156.801     31.16       52.134      111.042     15.191      2.037       2.706       151.846     171.887     1.426       1020.903    854.214     828.28      
170.8       63.826      121.635     2.102       3.62        130.408     171.988     157.2       31.619      51.334      109.991     15.116      2.026       2.74        149.734     165.871     1.423       1137.993    796.027     675.822     
170.9       63.533      122.163     2.132       3.515       130.408     174.648     159.201     31.576      51.934      108.214     15.077      1.972       2.747       147.622     159.479     1.42        1211.697    746.186     556.446     
171.0       69.183      121.247     2.175       3.75        126.491     174.334     161.2       31.245      55.933      99.394      15.0        1.969       2.753       144.982     152.335     1.418       1154.656    767.936     636.15      
171.1       88.308      121.27      2.204       3.766       122.516     173.493     163.2       30.613      62.534      92.523      15.041      2.044       2.753       142.87      145.943     1.416       1048.114    842.652     822.119     
171.2       116.413     120.445     2.217       3.836       122.516     173.993     164.801     30.36       63.534      90.489      15.05       2.01        2.768       140.758     141.055     1.416       1046.04     912.907     912.016     
171.3       112.98      120.401     2.23        3.587       123.364     169.313     164.801     28.876      64.734      80.647      15.14       1.974       2.807       138.646     138.423     1.416       1137.805    918.795     825.001     
171.4       116.145     121.001     2.24        3.519       123.364     164.243     164.001     26.985      65.934      73.848      15.245      1.92        2.832       137.062     137.671     1.417       1154.009    846.635     669.179     
171.5       127.644     120.222     2.242       3.436       123.074     138.212     160.401     26.374      64.334      72.617      15.373      1.929       2.834       136.006     139.927     1.419       1010.197    715.83      541.108     
171.6       142.233     120.248     2.234       3.37        113.488     115.18      158.801     23.341      64.134      67.322      15.519      1.911       2.818       134.422     142.935     1.421       803.371     569.672     439.418     
171.7       148.936     121.247     2.214       3.405       113.488     111.391     158.801     20.999      63.134      65.846      15.654      1.975       2.828       132.838     147.071     1.424       661.345     467.273     366.442     
171.8       152.055     121.401     2.215       3.477       98.152      96.223      158.801     20.503      62.134      67.456      15.8        2.008       2.854       131.254     151.207     1.427       647.434     438.549     334.575     
171.9       167.109     120.746     2.223       3.521       88.619      95.908      158.801     18.394      61.334      76.649      15.861      2.082       2.915       130.198     156.095     1.428       855.651     522.849     356.044     
