~Version Information Section
VERS.                                         2.0:CWLS log ASCII Standart – VERSION 2.0
WRAP.                                          NO:One line per depth step
~Well Information Section
STRT.M                                        1.0:Начальная глубина
STOP.M                                      203.4:Конечная глубина
STEP.M                                          0:Шаг квантования по глубине
NULL.                                    -9999.25:Признак "Нет данных"
WELL.                                         3Мх:Скважина
~Parameter Information Section
~Curve Information Section
DEPTH.M                                          :Глубина
BK.Ohm*M                                         :BK
DS.mm                                            :DS  (ДС)
ГК.mcr/h                                         :GK          (ГК)
GZ1.Ohm*M                                        :GZ1   ГЗ1(A0.4M0.1N)
GZ2.Ohm*M                                        :GZ2   ГЗ2(A1.0M0.1N)
GZ3.Ohm*M                                        :GZ3   ГЗ3(A2.0M0.5N)
GZ4.Ohm*M                                        :GZ4   ГЗ4(A4.0M0.5N)
GZ5.Ohm*M                                        :GZ5   ГЗ5(A8.0M0.5N)
U2.mV                                            :U2
U3.mV                                            :U3
W.                                               :W
КП.%                                             :Кп
НГК.усл.ед                                       :ННКб
ННКМ.усл.ед                                      :ННКм
GZR.Ohm*M                                        :GZK   ГЗK(N0.5M2.0A)
ИК.Ohm*M                                         :IK
PS.mv                                            :PS       (ПС)
PZ.Ohm*M                                         :PZ    (КС)
RS.Ohm*M                                         :RS (Резистивиметр)
U1.mV                                            :U1
~ASCII LOG DATA
# ...
196.2       7.379       155.553     7.96        -9999.25    -9999.25    -9999.25    -9999.25    -9999.25    1007.777    901.144     2.489       34.497      3.089       1.917       -9999.25    11.85       281.606     37.978      -9999.25    1143.493    
196.3       9.886       155.814     7.935       -9999.25    -9999.25    -9999.25    -9999.25    -9999.25    999.079     880.937     2.478       35.52       3.121       1.944       -9999.25    11.501      281.899     37.096      -9999.25    1135.534    
196.4       10.864      156.65      7.965       -9999.25    -9999.25    -9999.25    -9999.25    -9999.25    954.84      848.655     2.464       36.396      2.842       1.922       -9999.25    11.209      282.486     36.608      -9999.25    1069.696    
196.5       12.677      157.753     8.057       -9999.25    -9999.25    -9999.25    -9999.25    -9999.25    893.008     801.334     2.476       36.803      2.847       1.882       -9999.25    11.055      283.366     36.11       -9999.25    989.771     
196.6       14.655      158.519     8.114       -9999.25    -9999.25    -9999.25    -9999.25    -9999.25    820.577     733.812     2.47        37.547      2.856       1.848       -9999.25    11.1        283.953     35.371      -9999.25    919.085     
196.7       14.125      157.564     8.003       -9999.25    -9999.25    -9999.25    -9999.25    -9999.25    735.058     640.44      2.459       40.139      2.789       1.877       -9999.25    11.453      284.246     34.37       -9999.25    863.974     
196.8       15.812      156.73      7.773       -9999.25    -9999.25    -9999.25    -9999.25    -9999.25    635.202     522.27      2.44        40.217      2.721       1.98        -9999.25    11.881      284.246     32.964      -9999.25    822.316     
196.9       16.144      155.843     7.52        -9999.25    -9999.25    -9999.25    -9999.25    -9999.25    524.785     389.611     2.435       38.174      3.237       2.055       -9999.25    12.223      284.246     31.208      -9999.25    785.619     
197.0       16.144      155.316     7.302       -9999.25    -9999.25    -9999.25    -9999.25    -9999.25    417.183     266.811     2.436       33.892      3.358       2.082       -9999.25    12.471      284.246     29.06       -9999.25    741.031     
197.1       16.144      155.325     7.148       -9999.25    -9999.25    -9999.25    -9999.25    -9999.25    331.772     177.713     2.429       33.089      3.47        2.081       -9999.25    12.734      284.246     27.178      -9999.25    689.46      
197.2       16.144      155.339     7.023       -9999.25    -9999.25    -9999.25    -9999.25    -9999.25    287.665     139.186     2.428       33.529      3.39        2.08        -9999.25    12.934      284.246     25.599      -9999.25    643.399     
197.3       16.904      155.745     6.985       -9999.25    -9999.25    -9999.25    -9999.25    -9999.25    284.409     149.362     2.438       34.586      3.284       2.086       -9999.25    13.149      284.246     24.311      -9999.25    604.585     
197.4       16.596      155.93      7.017       -9999.25    -9999.25    -9999.25    -9999.25    -9999.25    300.799     193.338     2.432       35.176      3.352       2.109       -9999.25    13.388      283.953     23.065      -9999.25    551.895     
197.5       16.558      155.386     7.128       -9999.25    -9999.25    -9999.25    -9999.25    -9999.25    310.7       247.763     2.42        35.045      3.386       2.139       -9999.25    13.703      283.366     21.958      -9999.25    468.452     
197.6       16.558      154.541     7.186       -9999.25    -9999.25    -9999.25    -9999.25    -9999.25    304.9       292.997     2.433       34.972      3.493       2.178       -9999.25    13.971      282.486     21.013      -9999.25    369.046     
197.7       16.558      154.784     7.157       -9999.25    -9999.25    -9999.25    -9999.25    -9999.25    292.482     318.655     2.454       35.037      3.499       2.21        -9999.25    14.142      281.899     20.16       -9999.25    291.147     
197.8       16.558      155.319     7.086       -9999.25    -9999.25    -9999.25    -9999.25    -9999.25    285.494     322.755     2.46        33.789      3.526       2.229       -9999.25    14.295      281.606     19.58       -9999.25    262.195     
197.9       16.558      155.519     7.072       -9999.25    -9999.25    -9999.25    -9999.25    -9999.25    296.787     319.672     2.477       31.221      3.663       2.201       -9999.25    14.476      281.606     19.834      -9999.25    287.28      
198.0       16.558      155.441     7.298       -9999.25    -9999.25    -9999.25    -9999.25    -9999.25    339.878     337.684     2.493       29.322      3.8         2.111       -9999.25    14.694      281.606     21.248      -9999.25    357.821     
198.1       16.558      155.89      7.671       -9999.25    -9999.25    -9999.25    -9999.25    -9999.25    422.683     403.431     2.494       29.248      3.59        2.058       -9999.25    14.971      281.606     23.402      -9999.25    457.155     
198.2       16.558      156.713     8.001       -9999.25    -9999.25    -9999.25    -9999.25    -9999.25    526.72      505.529     2.486       32.691      3.484       2.046       -9999.25    15.312      281.606     25.367      -9999.25    558.698     
198.3       16.558      157.193     7.915       -9999.25    -9999.25    -9999.25    -9999.25    -9999.25    603.115     585.481     2.471       35.308      3.075       2.04        -9999.25    15.701      281.606     26.329      -9999.25    629.433     
198.4       16.558      156.577     7.452       -9999.25    -9999.25    -9999.25    -9999.25    -9999.25    608.01      583.823     2.452       37.432      3.177       2.07        -9999.25    16.016      281.606     26.416      -9999.25    651.863     
198.5       16.368      155.261     6.954       -9999.25    -9999.25    -9999.25    -9999.25    -9999.25    532.328     485.819     2.437       36.804      3.382       2.166       -9999.25    16.205      281.606     25.821      -9999.25    630.721     
198.6       15.453      154.654     6.748       -9999.25    -9999.25    -9999.25    -9999.25    -9999.25    415.539     339.161     2.431       35.957      3.49        2.234       -9999.25    16.295      281.606     24.962      -9999.25    591.45      
198.7       16.711      154.155     6.821       -9999.25    -9999.25    -9999.25    -9999.25    -9999.25    309.461     207.236     2.424       35.191      3.545       2.24        -9999.25    16.556      281.606     23.79       -9999.25    557.104     
198.8       21.184      153.686     7.007       -9999.25    -9999.25    -9999.25    -9999.25    -9999.25    250.973     135.03      2.421       35.0        3.413       2.201       -9999.25    16.601      281.606     22.589      -9999.25    537.347     
198.9       24.155      153.124     7.086       -9999.25    -9999.25    -9999.25    -9999.25    -9999.25    246.098     132.572     2.417       35.169      3.366       2.148       -9999.25    16.601      281.606     21.293      -9999.25    525.092     
199.0       23.768      152.403     7.19        -9999.25    -9999.25    -9999.25    -9999.25    -9999.25    274.178     183.317     2.416       35.323      3.317       2.126       -9999.25    16.601      281.606     19.879      -9999.25    500.677     
199.1       22.594      152.176     7.238       -9999.25    -9999.25    -9999.25    -9999.25    -9999.25    302.857     255.274     2.421       35.435      3.226       2.088       -9999.25    16.601      281.606     18.313      -9999.25    447.734     
199.2       21.184      153.146     7.484       -9999.25    -9999.25    -9999.25    -9999.25    -9999.25    303.355     309.096     2.427       34.982      3.135       2.03        -9999.25    16.644      281.899     16.796      -9999.25    366.756     
199.3       21.135      153.717     7.663       -9999.25    -9999.25    -9999.25    -9999.25    -9999.25    274.674     320.118     2.426       34.437      3.248       2.012       -9999.25    16.295      282.486     15.505      -9999.25    288.553     
