~Version Information Section
VERS.                                         2.0:CWLS log ASCII Standart – VERSION 2.0
WRAP.                                          NO:One line per depth step
~Well Information Section
STRT.M                                        0.1:Начальная глубина
STOP.M                                      167.0:Конечная глубина
STEP.M                                          0:Шаг квантования по глубине
NULL.                                    -9999.25:Признак "Нет данных"
WELL.                                        143К:Скважина
~Parameter Information Section
~Curve Information Section
DEPTH.M                                          :Глубина
БК.Омм                                           :BK     (БК)
DСР.мм                                           :DS  (ДС)
ПЛОТНОСТЬ.г/см^3                                 :GGKp
ГК.гамма                                         :GK          (ГК)
ИК.мСм/м                                         :IK
НГК.усл.ед                                       :NGK     (НГК)
ННКМ.усл.ед                                      :NNKm  (ННКм)
ПС.mv                                            :PS       (ПС)
N11.0M0.5A.Омм                                   :PZ    (КС)
R.Омм                                            :RS (Резистивиметр)
КП.%                                             :W
А0.4М0.1N.Омм                                    :GZ1   ГЗ1(A0.4M0.1N)
А1.0М0.1N.Омм                                    :GZ2   ГЗ2(A1.0M0.1N)
А2.0М0.5N.Омм                                    :GZ3   ГЗ3(A2.0M0.5N)
А4.0М0.5N.Oмм                                    :GZ4   ГЗ4(A4.0M0.5N)
А8.0М1.0N.Омм                                    :GZ5   ГЗ5(A8.0M0.5N)
N0.5M2.0A.Омм                                    :GZR   ГЗK(N0.5M2.0A)
~ASCII LOG DATA
# ...
144.4       350.945     139.039     2.485       4.461       73.535      2.424       3.594       50.931      262.056     1.02        10.686      212.295     223.9       168.246     190.097     157.76      119.266     
144.5       355.109     138.871     2.487       4.482       73.432      2.459       3.64        50.968      257.605     1.021       10.415      215.602     228.48      168.246     190.097     155.775     117.118     
144.6       375.834     138.675     2.489       4.377       73.062      2.484       3.683       50.858      249.644     1.022       10.122      216.292     229.153     167.484     188.775     151.976     116.737     
144.7       408.972     138.7       2.494       4.233       72.506      2.524       3.71        50.627      237.752     1.025       9.887       216.292     229.153     163.37      182.819     146.766     116.737     
144.8       436.183     139.066     2.502       4.22        71.834      2.555       3.734       50.305      222.41      1.028       9.688       213.36      224.415     154.592     171.315     141.229     117.039     
144.9       434.069     138.875     2.516       4.165       71.098      2.557       3.754       49.927      204.445     1.032       9.551       194.77      205.419     142.39      156.371     135.76      118.155     
145.0       428.764     138.849     2.536       3.999       70.368      2.545       3.741       49.526      186.074     1.035       9.512       163.625     176.083     128.347     140.255     131.255     119.158     
145.1       420.735     138.848     2.56        4.05        69.633      2.529       3.709       49.13       171.495     1.038       9.567       139.245     148.434     114.628     126.72      127.321     119.331     
145.2       337.566     138.866     2.584       4.201       68.785      2.483       3.669       48.769      163.861     1.039       9.699       127.754     125.462     103.689     118.358     124.486     119.133     
145.3       224.179     138.778     2.605       4.181       67.76       2.44        3.615       48.462      161.862     1.04        9.963       125.159     109.103     96.25       114.123     122.941     118.951     
145.4       111.319     138.636     2.613       4.186       66.676      2.419       3.56        48.225      161.862     1.04        10.239      125.159     103.139     91.596      112.021     122.898     118.951     
145.5       73.961      138.512     2.607       4.221       65.729      2.39        3.529       48.069      161.862     1.04        10.5        125.121     103.139     89.335      110.698     122.362     116.894     
145.6       53.404      138.639     2.588       4.2         65.13       2.363       3.512       48.003      164.107     1.04        10.74       124.87      103.139     88.742      109.6       121.859     110.979     
145.7       66.576      138.609     2.56        4.267       64.931      2.352       3.512       48.035      173.09      1.04        10.957      135.671     105.949     88.711      108.725     121.055     104.155     
145.8       163.992     138.58      2.53        4.433       64.931      2.316       3.532       48.172      188.268     1.04        11.171      157.637     112.627     88.711      108.664     120.387     99.275      
145.9       316.228     138.67      2.507       4.607       65.003      2.256       3.537       48.421      205.101     1.04        11.471      173.976     120.366     88.924      109.418     120.103     96.318      
146.0       466.631     138.983     2.492       4.792       65.321      2.22        3.501       48.785      221.059     1.04        11.814      180.896     130.078     89.457      110.237     120.064     94.275      
146.1       520.073     138.951     2.486       5.015       65.859      2.166       3.446       49.26       234.7       1.04        12.219      184.796     144.782     90.808      110.667     119.971     91.716      
146.2       481.643     138.793     2.485       5.132       66.379      2.067       3.373       49.844      244.19      1.04        12.675      188.977     162.697     93.248      110.728     119.315     87.762      
146.3       399.419     138.898     2.483       5.163       66.609      2.007       3.296       50.531      248.86      1.041       13.128      191.251     180.068     96.452      110.906     118.461     82.212      
146.4       346.678     138.803     2.482       5.149       66.609      1.988       3.238       51.312      250.115     1.042       13.51       193.789     196.614     100.385     111.545     118.001     75.592      
146.5       339.004     138.899     2.479       5.151       66.609      1.972       3.216       52.175      250.115     1.045       13.831      198.838     210.802     105.106     112.649     117.167     68.796      
146.6       383.842     138.938     2.475       5.146       66.565      1.991       3.212       53.105      249.15      1.048       14.038      204.074     219.33      110.479     113.505     116.196     62.568      
146.7       454.592     139.013     2.473       5.266       66.256      2.046       3.224       54.084      246.342     1.052       14.07       207.234     222.569     116.273     113.72      114.653     57.322      
146.8       494.914     139.059     2.474       5.329       65.492      2.075       3.239       55.093      241.448     1.055       13.957      208.131     223.242     123.682     113.72      112.01      53.076      
146.9       488.349     139.073     2.476       5.335       64.354      2.064       3.26        56.11       233.77      1.057       13.815      208.131     223.242     133.243     113.271     108.568     49.378      
147.0       443.081     139.098     2.479       5.369       62.858      2.032       3.267       57.108      223.695     1.057       13.699      208.155     222.469     141.765     111.881     104.047     45.937      
147.1       402.339     139.029     2.481       5.394       61.076      1.988       3.272       58.06       212.606     1.057       13.666      206.993     219.926     146.09      109.51      98.529      42.767      
147.2       371.161     138.987     2.483       5.321       59.021      1.942       3.263       58.941      200.11      1.056       13.681      204.016     215.851     147.047     105.537     91.468      39.565      
147.3       368.95      138.802     2.483       5.315       56.722      1.905       3.223       59.726      185.166     1.052       13.74       200.07      208.034     147.047     99.579      83.322      36.03       
147.4       369.83      138.844     2.484       5.41        54.271      1.876       3.181       60.394      168.419     1.045       13.911      193.692     193.461     144.172     91.666      74.558      32.059      
147.5       327.208     138.918     2.484       5.654       51.763      1.843       3.151       60.925      148.09      1.035       14.26       183.002     173.146     133.541     81.43       66.367      27.691      
147.6       247.574     138.846     2.476       5.912       49.305      1.78        3.107       61.304      125.055     1.025       14.726      164.448     147.927     115.022     69.241      58.074      23.575      
147.7       186.987     138.786     2.457       6.182       46.986      1.693       3.034       61.523      103.155     1.014       15.383      138.655     118.414     93.297      56.615      50.815      20.605      
147.8       184.892     138.55      2.426       6.342       44.863      1.596       2.955       61.577      83.488      1.006       16.349      110.555     89.72       72.448      45.917      46.343      19.477      
147.9       184.832     138.507     2.385       6.552       42.93       1.495       2.844       61.464      67.403      0.998       17.582      83.645      68.092      56.489      39.339      44.573      19.461      
148.0       146.946     138.556     2.34        6.754       41.151      1.406       2.699       61.181      58.334      0.993       18.953      61.369      55.001      48.244      37.286      44.573      19.461      
