~Version Information Section
VERS.                                         2.0:CWLS log ASCII Standart – VERSION 2.0
WRAP.                                          NO:One line per depth step
~Well Information Section
STRT.M                                        0.7:Начальная глубина
STOP.M                                      200.1:Конечная глубина
STEP.M                                          0:Шаг квантования по глубине
NULL.                                    -9999.25:Признак "Нет данных"
WELL.                                       111Мх:Скважина
~Parameter Information Section
~Curve Information Section
DEPTH.M                                          :Глубина
DСР.mm                                           :Dср
ГК.1/min                                         :GK
ИК.mSim/m                                        :IK
N0.5M2.0A.Омм                                    :N0
НГК.усл.ед                                       :NGK
PZ.Ohm*M                                         :PZ
R.Ohm*M                                          :R
PS.mV                                            :ПС
U1.mV                                            :U1
U2.                                              :U2
U3.mV                                            :U3
А0.4М0.1N.Омм                                    :А0
А1.0М0.1N.Омм                                    :А1
А2.0М0.5N.Омм                                    :А2
А4.0М0.5N.Oмм                                    :А4
А8.0М1.0N.Омм                                    :А8
BK.Ohm*M                                         :БК
ГГК.1/min                                        :ГГК
КП.%                                             :Кп
ННКМ.усл.ед                                      :ННКм
~ASCII LOG DATA
# ...
163.9       122.95      6.317       12.244      13.444      1.317       35.5        1.06        300.115     1053.202    1462.432    1668.801    18.885      16.02       17.895      3.901       1.785       21.432      2.288       31.184      2.036       
164.0       122.93      6.173       12.232      13.323      1.341       35.6        1.06        300.115     1034.0      1453.526    1657.6      18.813      16.059      17.731      4.512       1.776       20.811      2.286       31.687      2.027       
164.1       122.911     6.144       12.201      13.17       1.264       35.7        1.06        299.869     1009.999    1447.62     1624.723    18.758      16.059      17.562      5.295       1.768       20.368      2.288       32.123      2.006       
164.2       122.936     6.202       12.165      12.989      1.288       35.8        1.06        299.499     1000.4      1432.928    1586.388    18.707      16.048      17.41       6.286       1.76        20.499      2.3         32.62       2.007       
164.3       122.925     6.23        12.131      12.759      1.265       36.0        1.06        299.13      988.4       1406.609    1532.837    18.645      15.986      17.267      7.582       1.753       20.893      2.311       33.392      2.011       
164.4       122.915     6.374       12.097      12.599      1.213       36.3        1.06        298.883     971.601     1370.194    1453.391    18.554      15.859      17.193      9.577       1.748       21.017      2.319       34.123      2.01        
164.5       122.923     6.419       12.072      12.47       1.312       36.6        1.06        298.76      957.485     1326.241    1354.61     18.469      15.752      17.193      12.358      1.747       20.697      2.321       34.237      2.014       
164.6       122.948     6.509       12.043      12.24       1.318       36.9        1.06        298.76      953.53      1282.288    1272.439    18.434      15.723      17.193      15.368      1.746       20.483      2.329       34.309      2.022       
164.7       122.924     6.419       12.003      12.0        1.421       37.2        1.06        298.144     949.576     1248.965    1195.748    18.441      15.747      17.197      18.191      1.746       20.732      2.334       33.84       2.035       
164.8       122.925     6.374       11.974      11.743      1.4         37.5        1.06        296.912     957.21      1238.022    1150.302    18.411      15.717      17.297      20.549      1.75        20.944      2.342       33.36       2.051       
164.9       122.928     6.193       11.961      11.485      1.331       37.6        1.06        295.064     969.641     1256.074    1151.655    18.333      15.618      17.438      21.885      1.763       20.799      2.343       33.06       2.055       
165.0       122.92      6.192       11.937      11.246      1.266       37.4        1.06        292.6       989.42      1298.308    1186.286    18.253      15.512      17.458      22.207      1.815       21.286      2.346       32.865      2.056       
165.1       122.918     6.336       11.899      11.097      1.373       37.0        1.06        289.52      1017.746    1355.84     1234.886    18.204      15.388      17.423      22.207      1.998       21.996      2.348       32.695      2.068       
165.2       122.908     6.413       11.866      11.072      1.308       36.8        1.06        287.056     1050.213    1417.749    1291.72     18.208      15.284      17.402      22.028      2.393       21.423      2.343       31.88       2.077       
165.3       122.894     6.49        11.828      11.072      1.473       36.7        1.06        285.208     1081.548    1471.908    1335.315    18.25       15.288      17.389      21.554      2.999       20.324      2.337       31.148      2.076       
165.4       122.881     6.63        11.754      11.072      1.369       36.6        1.06        283.976     1114.922    1501.0      1351.373    18.271      15.307      17.349      20.92       3.77        19.799      2.336       31.218      2.063       
165.5       122.928     6.701       11.652      11.114      1.379       36.5        1.06        283.36      1136.647    1497.793    1342.801    18.262      15.231      17.229      20.318      4.631       19.947      2.33        31.223      2.039       
165.6       122.93      6.586       11.542      11.328      1.387       36.5        1.06        283.36      1141.174    1470.319    1319.944    18.258      15.182      17.115      19.907      5.44        20.449      2.328       31.42       2.006       
165.7       122.965     6.518       11.415      11.774      1.325       36.4        1.06        283.36      1133.808    1436.629    1286.074    18.258      15.182      17.084      19.709      6.073       20.953      2.322       31.41       1.982       
165.8       123.0       6.182       11.258      12.399      1.291       36.2        1.06        283.36      1113.452    1405.237    1258.919    18.301      15.186      17.084      19.625      6.51        21.411      2.324       31.329      1.98        
165.9       123.019     6.054       11.079      13.077      1.348       35.7        1.06        283.36      1091.054    1389.769    1251.943    18.467      15.309      17.07       19.534      6.78        21.798      2.333       31.773      1.989       
166.0       123.294     5.99        10.89       13.729      1.26        35.1        1.06        283.36      1068.005    1391.759    1263.998    18.719      15.554      17.1        19.405      6.924       22.225      2.34        32.288      2.029       
166.1       123.232     6.598       10.668      14.354      1.275       34.2        1.06        283.36      1048.909    1417.171    1313.668    18.993      15.804      17.188      19.247      7.002       22.259      2.343       32.9        2.072       
166.2       123.196     6.72        10.415      14.91       1.264       33.4        1.06        283.483     1042.378    1462.951    1401.622    19.282      16.097      17.238      19.132      7.069       21.508      2.334       33.423      2.09        
166.3       123.266     6.432       10.213      15.467      1.307       32.9        1.06        283.853     1051.726    1521.047    1494.434    19.563      16.387      17.243      19.036      7.142       20.661      2.32        33.314      2.072       
166.4       123.261     6.432       10.123      16.166      1.233       33.1        1.06        284.469     1073.651    1573.946    1579.293    19.82       16.584      17.243      18.395      7.22        20.035      2.312       32.856      2.031       
166.5       123.257     6.317       10.156      17.203      1.224       33.1        1.06        285.578     1121.411    1620.045    1624.571    19.941      16.662      17.146      17.717      7.299       19.471      2.313       32.084      2.003       
166.6       123.216     6.579       10.249      19.722      1.323       33.1        1.06        287.302     1192.499    1635.447    1591.779    19.915      16.598      16.75       17.502      7.381       18.845      2.322       31.582      1.99        
166.7       122.717     7.104       10.32       28.9        1.355       33.1        1.06        289.52      1258.758    1617.654    1516.138    19.352      15.867      15.982      17.286      7.492       17.59       2.331       31.222      2.0         
166.8       122.62      6.989       10.344      51.651      1.285       33.1        1.06        292.23      1317.722    1583.424    1428.913    17.851      14.493      14.889      17.07       7.672       14.781      2.331       31.321      2.01        
166.9       122.76      6.758       10.303      88.962      1.312       35.0        1.06        295.434     1339.858    1545.158    1353.15     16.854      13.152      13.641      16.855      7.97        11.034      2.324       31.742      2.013       
167.0       122.691     6.989       10.157      140.402     1.319       39.7        1.06        298.76      1311.761    1506.759    1321.408    16.991      11.942      12.545      16.639      8.452       9.996       2.312       32.486      2.003       
