~Version Information Section
VERS.                                         2.0:CWLS log ASCII Standart – VERSION 2.0
WRAP.                                          NO:One line per depth step
~Well Information Section
STRT.M                                       -2.2:Начальная глубина
STOP.M                                      205.6:Конечная глубина
STEP.M                                          0:Шаг квантования по глубине
NULL.                                    -9999.25:Признак "Нет данных"
WELL.                                       108Мх:Скважина
~Parameter Information Section
~Curve Information Section
DEPTH.M                                          :Глубина
BK.Ohm*M                                         :BK     (БК)
DS.mm                                            :DS  (ДС)
GGK.g/cm3                                        :GGKp
ГК.mcr/h                                         :GK          (ГК)
GZ1.Ohm*M                                        :GZ1   ГЗ1(A0.4M0.1N)
GZ2.Ohm*M                                        :GZ2   ГЗ2(A1.0M0.1N)
GZ3.Ohm*M                                        :GZ3   ГЗ3(A2.0M0.5N)
GZ4.Ohm*M                                        :GZ4   ГЗ4(A4.0M0.5N)
GZ5.Ohm*M                                        :GZ5   ГЗ5(A8.0M0.5N)
GZR.Ohm*M                                        :GZK   ГЗK(N0.5M2.0A)
ИК.Ohm*M                                         :IK
НГК.ue                                           :NGK     (НГК)
NNKM.                                            :NNKm  (ННКм)
PS.mv                                            :PS       (ПС)
PZ.Ohm*M                                         :PZ    (КС)
RS.Ohm*M                                         :RS (Резистивиметр)
U1.mV                                            :U1
U2.mV                                            :U2
U3.mV                                            :U3
КП.%                                             :Кп
~ASCII LOG DATA
# ...
64.6        -9999.25    140.616     -9999.25    -9999.25    132.785     8.381       60.292      21579.232   330.098     723.765     -9999.25    -9999.25    -9999.25    1190.247    -1879.27    18.889      888.155     1021.607    1295.371    -9999.25    
64.63       83.746      -9999.25    2.275       7.648       -9999.25    -9999.25    -9999.25    -9999.25    -9999.25    -9999.25    12.348      5.811       3.857       -9999.25    -9999.25    -9999.25    -9999.25    -9999.25    -9999.25    2.382       
64.7        -9999.25    142.393     -9999.25    -9999.25    132.785     8.381       60.292      22833.48    370.546     723.765     -9999.25    -9999.25    -9999.25    1188.939    -2156.88    18.889      979.105     1020.324    1384.655    -9999.25    
64.73       192.098     -9999.25    2.261       7.434       -9999.25    -9999.25    -9999.25    -9999.25    -9999.25    -9999.25    12.15       5.779       3.895       -9999.25    -9999.25    -9999.25    -9999.25    -9999.25    -9999.25    1.828       
64.8        -9999.25    144.971     -9999.25    -9999.25    132.785     8.381       60.292      23838.148   404.917     723.728     -9999.25    -9999.25    -9999.25    1190.513    -2380.78    18.889      1065.493    1020.547    1397.822    -9999.25    
64.83       432.384     -9999.25    2.229       7.043       -9999.25    -9999.25    -9999.25    -9999.25    -9999.25    -9999.25    11.957      5.891       3.78        -9999.25    -9999.25    -9999.25    -9999.25    -9999.25    -9999.25    1.391       
64.9        -9999.25    152.024     -9999.25    -9999.25    132.785     8.381       60.292      24507.039   430.148     717.522     -9999.25    -9999.25    -9999.25    1189.405    -2519.94    18.889      1083.35     962.246     1349.429    -9999.25    
64.93       448.984     -9999.25    2.216       6.902       -9999.25    -9999.25    -9999.25    -9999.25    -9999.25    -9999.25    11.784      6.308       3.691       -9999.25    -9999.25    -9999.25    -9999.25    -9999.25    -9999.25    1.093       
65.0        -9999.25    159.07      -9999.25    -9999.25    132.785     8.381       60.292      24840.281   446.244     705.145     -9999.25    -9999.25    -9999.25    1194.912    -2574.23    18.889      1043.863    884.642     1257.857    -9999.25    
65.03       165.117     -9999.25    2.214       7.093       -9999.25    -9999.25    -9999.25    -9999.25    -9999.25    -9999.25    11.704      6.996       3.88        -9999.25    -9999.25    -9999.25    -9999.25    -9999.25    -9999.25    0.361       
65.1        -9999.25    161.893     -9999.25    -9999.25    132.785     8.381       60.292      24457.959   453.203     686.598     -9999.25    -9999.25    -9999.25    1189.69     -2525.78    18.889      1012.643    816.119     1132.236    -9999.25    
65.13       114.335     -9999.25    2.179       7.196       -9999.25    -9999.25    -9999.25    -9999.25    -9999.25    -9999.25    11.687      7.714       4.304       -9999.25    -9999.25    -9999.25    -9999.25    -9999.25    -9999.25    -0.463      
65.2        -9999.25    161.253     -9999.25    -9999.25    132.785     8.381       60.292      23647.234   453.034     663.06      -9999.25    -9999.25    -9999.25    1173.904    -2387.68    18.889      921.015     789.278     1031.741    -9999.25    
65.23       133.711     -9999.25    2.104       6.997       -9999.25    -9999.25    -9999.25    -9999.25    -9999.25    -9999.25    11.736      8.282       4.451       -9999.25    -9999.25    -9999.25    -9999.25    -9999.25    -9999.25    -0.878      
65.3        -9999.25    151.144     -9999.25    -9999.25    132.785     8.381       60.292      22772.283   439.234     616.432     -9999.25    -9999.25    -9999.25    1133.792    -2155.34    18.889      783.878     774.768     974.423     -9999.25    
65.33       404.893     -9999.25    2.085       6.803       -9999.25    -9999.25    -9999.25    -9999.25    -9999.25    -9999.25    11.826      8.249       4.117       -9999.25    -9999.25    -9999.25    -9999.25    -9999.25    -9999.25    -0.292      
65.4        -9999.25    145.392     -9999.25    -9999.25    132.785     8.381       60.292      21785.109   412.851     552.892     -9999.25    -9999.25    -9999.25    1096.154    -1864.24    18.889      690.31      752.655     926.251     -9999.25    
65.43       852.585     -9999.25    2.074       6.722       -9999.25    -9999.25    -9999.25    -9999.25    -9999.25    -9999.25    11.917      7.721       3.8         -9999.25    -9999.25    -9999.25    -9999.25    -9999.25    -9999.25    0.866       
65.5        -9999.25    137.766     -9999.25    -9999.25    132.785     8.381       60.292      20579.252   376.941     478.569     -9999.25    -9999.25    -9999.25    1029.211    -1532.2     18.889      674.139     739.496     857.371     -9999.25    
65.53       763.48      -9999.25    2.044       6.649       -9999.25    -9999.25    -9999.25    -9999.25    -9999.25    -9999.25    12.01       6.842       3.66        -9999.25    -9999.25    -9999.25    -9999.25    -9999.25    -9999.25    2.236       
65.6        -9999.25    136.615     -9999.25    -9999.25    132.785     8.381       60.292      19201.043   331.504     393.464     -9999.25    -9999.25    -9999.25    994.796     -1185.93    18.889      662.791     719.752     772.323     -9999.25    
65.63       692.865     -9999.25    1.994       6.493       -9999.25    -9999.25    -9999.25    -9999.25    -9999.25    -9999.25    12.104      6.028       3.566       -9999.25    -9999.25    -9999.25    -9999.25    -9999.25    -9999.25    3.264       
65.7        -9999.25    136.706     -9999.25    -9999.25    132.785     8.381       60.292      17940.008   274.532     296.399     -9999.25    -9999.25    -9999.25    978.055     -852.293    18.889      675.82      705.433     713.26      -9999.25    
65.73       694.155     -9999.25    1.987       6.321       -9999.25    -9999.25    -9999.25    -9999.25    -9999.25    -9999.25    12.199      5.439       3.556       -9999.25    -9999.25    -9999.25    -9999.25    -9999.25    -9999.25    4.102       
65.8        -9999.25    137.967     -9999.25    -9999.25    132.785     8.381       60.292      16546.996   216.594     204.318     -9999.25    -9999.25    -9999.25    962.108     -564.929    18.889      744.502     743.404     719.25      -9999.25    
65.83       598.049     -9999.25    2.03        6.222       -9999.25    -9999.25    -9999.25    -9999.25    -9999.25    -9999.25    12.296      5.124       3.594       -9999.25    -9999.25    -9999.25    -9999.25    -9999.25    -9999.25    4.39        
65.9        -9999.25    137.18      -9999.25    -9999.25    132.785     8.381       60.292      15348.022   172.291     135.33      -9999.25    -9999.25    -9999.25    940.666     -326.471    18.889      839.782     858.992     864.292     -9999.25    
65.93       344.463     -9999.25    2.013       6.196       -9999.25    -9999.25    -9999.25    -9999.25    -9999.25    -9999.25    12.395      5.256       3.694       -9999.25    -9999.25    -9999.25    -9999.25    -9999.25    -9999.25    3.141       
66.0        -9999.25    143.912     -9999.25    -9999.25    132.785     8.381       60.292      14449.362   138.562     83.295      -9999.25    -9999.25    -9999.25    930.321     -158.884    18.889      910.54      1029.371    1321.975    -9999.25    
66.03       1209.021    -9999.25    1.995       6.384       -9999.25    -9999.25    -9999.25    -9999.25    -9999.25    -9999.25    12.495      6.194       3.958       -9999.25    -9999.25    -9999.25    -9999.25    -9999.25    -9999.25    1.17        
66.1        -9999.25    155.745     -9999.25    -9999.25    132.785     8.381       60.292      13851.011   115.407     48.212      -9999.25    -9999.25    -9999.25    934.161     -51.522     18.889      991.577     1188.29     1790.175    -9999.25    
66.13       1926.678    -9999.25    1.977       6.825       -9999.25    -9999.25    -9999.25    -9999.25    -9999.25    -9999.25    12.597      7.614       4.154       -9999.25    -9999.25    -9999.25    -9999.25    -9999.25    -9999.25    -0.725      
