~Version Information Section
VERS.                                         2.0:CWLS log ASCII Standart – VERSION 2.0
WRAP.                                          NO:One line per depth step
~Well Information Section
STRT.M                                        0.4:Начальная глубина
STOP.M                                      206.4:Конечная глубина
STEP.M                                          0:Шаг квантования по глубине
NULL.                                    -9999.25:Признак "Нет данных"
WELL.                                       157Мх:Скважина
~Parameter Information Section
~Curve Information Section
DEPTH.M                                          :Глубина
BK.Ohm*M                                         :BK     (БК)
DS.mm                                            :DS  (ДС)
GGK.g/cm3                                        :GGKp
ГК.mcr/h                                         :GK          (ГК)
GZ1.Ohm*M                                        :GZ1   ГЗ1(A0.4M0.1N)
GZ2.Ohm*M                                        :GZ2   ГЗ2(A1.0M0.1N)
GZ3.Ohm*M                                        :GZ3   ГЗ3(A2.0M0.5N)
GZ4.Ohm*M                                        :GZ4   ГЗ4(A4.0M0.5N)
GZ5.Ohm*M                                        :GZ5   ГЗ5(A8.0M0.5N)
GZR.                                             :GZR   ГЗK(N0.5M2.0A)
ИК.Ohm*M                                         :IK
НГК.ue                                           :NGK     (НГК)
NNKM.                                            :NNKm  (ННКм)
PS.mv                                            :PS       (ПС)
PZ.Ohm*M                                         :PZ    (КС)
RS.Ohm*M                                         :RS (Резистивиметр)
W.%                                              :W
~ASCII LOG DATA
# ...
170.6       50.719      154.741     2.236       7.631       16.814      15.428      21.738      17.2        73.78       338.942     47.69       1.622       2.212       90.743      42.629      1.116       30.528      
170.7       142.132     154.468     2.197       7.003       22.385      19.073      25.386      18.2        78.763      376.439     53.611      1.656       2.285       88.206      50.144      1.115       29.607      
170.8       194.023     154.551     2.163       6.371       33.775      22.52       28.489      19.2        83.388      391.013     59.032      1.752       2.389       86.154      62.417      1.115       27.38       
170.9       206.793     154.616     2.13        5.63        53.13       25.98       30.723      20.2        87.535      390.835     63.78       1.88        2.511       84.384      81.605      1.116       24.336      
171.0       211.566     154.188     2.106       5.141       79.229      30.025      32.358      21.2        90.494      388.38      68.676      2.036       2.628       82.849      106.976     1.117       21.46       
171.1       198.309     153.261     2.084       4.866       105.714     35.055      34.029      22.4        91.843      379.859     72.179      2.14        2.708       81.364      132.429     1.119       19.215      
171.2       166.972     150.416     2.064       4.939       125.882     41.347      35.669      24.6        92.246      372.377     76.045      2.216       2.76        80.034      154.799     1.118       17.976      
171.3       143.218     149.907     2.048       5.06        136.873     49.679      37.125      27.2        92.352      365.829     78.939      2.33        2.769       78.675      171.722     1.118       17.506      
171.4       134.218     149.217     2.04        5.147       141.889     63.928      38.531      28.4        92.369      359.346     82.909      2.461       2.76        77.308      183.84      1.119       17.388      
171.5       136.917     149.161     2.036       5.139       143.498     88.542      40.035      30.2        92.406      353.04      85.406      2.586       2.762       75.884      190.353     1.119       17.268      
171.6       133.981     149.171     2.038       5.058       143.419     121.897     41.576      31.0        92.663      346.767     87.962      2.616       2.785       74.478      192.785     1.121       16.853      
171.7       125.761     149.312     2.041       5.012       142.638     154.959     43.008      31.2        93.192      340.164     88.451      2.638       2.822       72.886      193.648     1.119       16.255      
171.8       119.486     149.595     2.051       4.939       140.029     181.983     44.24       32.2        93.966      333.588     89.197      2.661       2.843       71.135      194.19      1.12        15.917      
171.9       117.248     150.013     2.063       4.935       136.491     201.196     45.343      33.0        94.97       327.118     90.723      2.699       2.833       69.155      194.806     1.122       16.128      
172.0       121.677     150.238     2.073       5.049       133.985     214.654     46.407      33.0        96.059      320.725     93.342      2.709       2.806       66.816      195.441     1.124       16.855      
172.1       124.622     150.07      2.081       5.217       132.394     221.967     47.585      32.945      97.039      313.935     95.393      2.678       2.784       63.875      195.952     1.124       17.709      
172.2       125.532     149.974     2.087       5.412       131.391     224.907     49.05       32.815      97.623      307.536     97.637      2.63        2.788       60.444      196.139     1.122       17.99       
172.3       126.141     149.514     2.093       5.393       131.014     226.52      50.888      33.191      97.754      300.708     97.826      2.592       2.791       56.566      196.095     1.121       17.592      
172.4       129.334     149.529     2.097       5.125       130.229     226.516     53.265      33.282      97.572      293.418     99.35       2.541       2.775       52.169      195.754     1.121       17.013      
172.5       127.546     149.484     2.106       4.903       129.349     225.783     56.433      33.231      96.808      285.719     98.912      2.432       2.718       47.278      194.861     1.121       16.847      
172.6       113.605     149.613     2.117       4.876       126.898     221.717     62.17       32.891      95.441      279.669     99.51       2.301       2.667       41.797      193.767     1.118       17.638      
172.7       105.539     149.613     2.131       5.067       122.771     215.679     72.79       32.155      93.849      277.029     98.934      2.209       2.616       35.533      193.033     1.117       19.047      
172.8       105.399     149.774     2.139       5.142       118.184     209.865     88.606      31.253      92.501      277.111     99.204      2.152       2.596       28.672      192.758     1.117       20.47       
172.9       106.444     150.003     2.147       5.176       114.742     205.85      106.381     30.541      91.513      278.493     99.808      2.106       2.584       21.733      192.815     1.115       21.363      
173.0       107.253     149.953     2.147       5.252       111.358     201.486     125.384     30.474      90.779      284.695     101.472     2.068       2.581       15.13       193.259     1.114       21.155      
173.1       106.446     150.019     2.144       5.507       108.001     197.315     143.827     30.623      90.122      295.153     101.775     2.053       2.571       9.616       194.625     1.116       20.206      
173.2       107.864     150.25      2.129       5.739       106.232     196.194     161.15      31.482      89.448      307.152     103.241     2.06        2.559       5.599       197.467     1.115       19.329      
173.3       117.084     150.396     2.113       6.086       106.583     197.05      175.787     32.88       88.77       316.065     104.245     2.07        2.556       3.07        201.787     1.115       19.154      
173.4       157.395     150.117     2.096       6.266       109.159     202.117     189.244     34.778      88.036      318.266     107.379     2.072       2.565       1.74        206.309     1.114       19.013      
173.5       195.695     150.053     2.08        6.257       115.412     210.048     202.922     37.14       87.251      317.329     110.051     2.104       2.655       1.254       210.888     1.113       18.123      
173.6       197.187     150.019     2.07        6.084       123.441     216.252     215.933     39.751      86.368      311.327     110.164     2.271       2.754       1.093       215.776     1.112       16.498      
173.7       185.887     149.789     2.059       5.804       132.023     220.109     227.08      42.085      85.304      299.621     110.359     2.482       2.877       1.053       222.292     1.113       14.988      
173.8       178.075     149.855     2.054       5.676       140.036     223.596     235.763     43.994      83.846      286.001     112.314     2.76        2.925       1.053       229.026     1.114       14.08       
173.9       171.737     149.909     2.044       5.529       145.994     227.574     241.853     45.484      81.954      272.081     113.999     2.874       2.972       1.056       234.486     1.113       13.607      
174.0       164.971     149.863     2.039       5.487       148.913     231.743     245.619     46.504      79.802      260.943     115.726     2.887       2.995       1.085       236.858     1.113       13.709      
174.1       151.801     149.834     2.033       5.459       148.614     234.909     248.222     47.133      77.774      253.011     116.57      2.787       2.987       1.211       237.26      1.112       14.043      
174.2       137.084     149.844     2.034       5.371       146.929     237.759     250.013     47.52       76.045      247.591     116.849     2.713       2.959       1.494       236.921     1.111       14.639      
