~Version Information Section
VERS.                                         2.0:CWLS log ASCII Standart – VERSION 2.0
WRAP.                                          NO:One line per depth step
~Well Information Section
STRT.M                                        1.0:Начальная глубина
STOP.M                                      192.9:Конечная глубина
STEP.M                                          0:Шаг квантования по глубине
NULL.                                    -9999.25:Признак "Нет данных"
WELL.                                       123Мх:Скважина
~Parameter Information Section
~Curve Information Section
DEPTH.M                                          :Глубина
BK.lgОмм                                         :BK     (БК)
ПРОФ_СР.мм                                       :DS  (ДС)
ГК.мкР/час                                       :GK          (ГК)
ГЗ1.Омм                                          :GZ1   ГЗ1(A0.4M0.1N)
ГЗ2.Омм                                          :GZ2   ГЗ2(A1.0M0.1N)
ГЗ3.Омм                                          :GZ3   ГЗ3(A2.0M0.5N)
ГЗ4.Oмм                                          :GZ4   ГЗ4(A4.0M0.5N)
ГЗ5.Oмм                                          :GZ5   ГЗ5(A8.0M0.5N)
ГЗК.Омм                                          :GZK   ГЗK(N0.5M2.0A)
ИК.мСм/м                                         :IK
НГК.усл.ед.                                      :NGK     (НГК)
PS.мВ                                            :PS       (ПС)
PZ.Омм                                           :PZ    (КС)
RIS.Омм                                          :RS (Резистивиметр)
U1.мВ                                            :U1
U2.мВ                                            :U2
U3.mv                                            :U3
W.                                               :W
П.%                                              :п
ННКМ.усл.ед                                      :ННКм
~ASCII LOG DATA
# ...
61.8        48.529      132.385     4.525       67.32       51.34       91.468      40.536      48.334      48.786      13.212      1.148       158.172     72.623      1.465       598.022     547.729     564.882     2.234       33.406      0.196       
61.9        49.545      132.585     4.734       66.6        51.34       90.801      40.536      48.334      48.786      13.314      1.15        157.417     74.127      1.46        595.205     579.521     640.802     2.243       32.778      0.197       
62.0        53.088      132.178     4.621       66.24       51.34       89.468      40.536      48.334      48.786      13.359      1.131       156.663     75.255      1.457       538.702     564.16      684.614     2.239       33.353      0.201       
62.1        51.88       131.912     4.358       65.88       51.34       86.801      40.536      48.334      48.786      13.392      1.117       155.532     76.383      1.455       530.514     501.697     626.573     2.254       33.794      0.205       
62.2        49.317      132.118     4.21        65.88       51.0        82.801      40.536      48.334      48.786      13.392      1.158       154.4       77.135      1.453       624.32      439.282     498.793     2.248       34.949      0.207       
62.3        50.699      132.37      4.232       65.88       50.32       79.468      40.536      48.334      48.786      13.392      1.286       153.646     78.639      1.45        820.13      376.913     301.263     2.254       34.704      0.208       
62.4        53.211      132.471     4.358       65.88       49.64       77.468      40.536      48.334      48.786      13.398      1.355       152.892     80.143      1.445       760.091     349.681     249.222     2.247       35.308      0.209       
62.5        56.494      132.193     4.457       65.88       48.96       76.801      41.203      48.334      48.786      13.417      1.304       152.137     82.023      1.438       642.279     348.747     265.638     2.258       34.162      0.204       
62.6        59.841      132.749     4.317       65.88       48.28       76.801      41.869      48.334      48.786      13.45       1.191       151.383     83.527      1.433       468.709     374.024     349.732     2.261       33.753      0.195       
62.7        60.954      133.565     4.059       66.24       47.26       76.801      42.869      48.334      48.786      13.463      1.098       151.006     84.655      1.43        495.212     390.377     356.028     2.251       32.09       0.197       
62.8        59.841      132.744     3.938       66.96       46.24       76.801      43.203      48.334      48.786      13.379      1.12        151.006     84.655      1.429       502.826     376.797     328.645     2.228       31.782      0.202       
62.9        60.814      132.531     4.013       68.04       44.88       76.801      43.536      48.334      48.453      13.301      1.068       151.006     83.527      1.429       488.675     332.124     266.981     2.218       30.923      0.197       
63.0        59.979      133.556     4.178       68.76       43.52       76.801      43.869      48.334      47.786      13.193      1.118       151.006     82.023      1.426       507.137     311.801     224.124     2.197       31.455      0.2         
63.1        58.479      132.656     3.92        69.12       42.5        76.801      44.536      48.334      47.119      13.038      1.095       151.006     80.519      1.421       582.596     349.244     236.401     2.174       31.34       0.204       
63.2        65.163      132.731     3.877       69.12       42.16       76.801      44.869      48.334      46.453      12.903      1.193       151.006     79.015      1.414       715.929     445.702     305.187     2.158       31.618      0.203       
63.3        64.121      132.41      3.64        69.12       42.16       76.801      44.869      48.334      46.119      12.66       1.218       151.006     77.135      1.404       725.916     485.316     380.495     2.156       31.508      0.209       
63.4        57.148      132.513     3.612       69.12       42.16       77.468      44.203      48.334      45.786      12.5        1.29        151.383     75.631      1.397       596.397     458.486     459.209     2.153       31.675      0.213       
63.5        55.719      132.971     3.566       68.76       42.16       78.134      43.869      48.334      45.786      12.366      1.235       152.137     73.751      1.392       402.816     390.332     525.767     2.168       31.796      0.215       
63.6        55.59       133.084     3.639       68.4        42.16       78.801      43.203      48.334      45.786      12.195      1.191       153.269     71.871      1.39        281.455     344.411     575.116     2.196       31.784      0.216       
63.7        54.702      134.326     3.878       67.68       42.16       79.468      42.536      48.334      45.786      12.021      1.145       154.777     69.991      1.39        247.626     317.182     565.762     2.224       31.408      0.212       
63.8        51.404      134.849     3.969       66.96       42.16       80.134      41.536      48.334      45.786      11.735      1.148       156.663     68.487      1.39        226.274     282.077     507.056     2.239       30.742      0.217       
63.9        43.053      134.082     4.224       66.24       42.16       82.134      40.536      47.667      45.453      11.5        1.148       159.68      66.983      1.39        277.349     280.841     432.796     2.267       29.906      0.22        
64.0        29.717      133.654     4.524       65.52       42.16       83.468      39.536      46.667      44.786      11.203      1.15        163.452     65.855      1.391       410.563     331.04      389.841     2.303       29.047      0.212       
64.1        26.915      134.382     4.951       64.8        42.5        84.801      37.869      45.001      44.119      10.986      1.152       167.223     64.727      1.392       625.502     434.115     384.413     2.334       28.821      0.211       
64.2        26.485      133.736     5.048       64.08       43.18       83.468      36.203      43.667      43.119      10.798      1.167       170.995     63.599      1.392       735.173     462.132     342.561     2.346       28.96       0.212       
64.3        29.377      133.935     4.689       63.36       43.86       82.134      34.536      42.667      42.453      10.648      1.194       174.766     62.471      1.393       701.097     388.651     249.259     2.35        29.911      0.203       
64.4        31.261      134.12      4.092       62.64       44.2        80.801      33.869      42.001      41.453      10.549      1.21        178.537     61.719      1.393       563.208     272.236     158.342     2.337       30.891      0.198       
64.5        34.119      134.478     3.866       61.56       44.2        80.801      33.203      41.667      40.786      10.423      1.218       181.932     60.967      1.392       449.226     210.743     125.513     2.328       31.994      0.199       
64.6        38.371      134.346     4.236       60.84       43.86       80.801      32.536      41.334      39.453      10.36       1.194       184.195     60.591      1.389       470.165     268.415     186.478     2.334       32.105      0.201       
64.7        36.728      133.971     4.844       60.12       43.18       80.801      31.869      41.667      38.119      10.192      1.155       185.703     60.591      1.386       610.315     399.766     294.931     2.363       31.568      0.207       
64.8        35.237      134.332     5.235       59.76       42.5        80.801      31.536      42.001      36.786      10.029      1.098       187.589     60.591      1.382       735.009     503.913     381.502     2.391       30.229      0.21        
64.9        30.061      134.181     5.416       59.4        42.16       80.801      31.536      42.001      36.119      9.815       1.088       189.475     60.591      1.38        719.524     507.532     402.003     2.413       29.371      0.212       
