~Version Information Section
VERS.                                         2.0:CWLS log ASCII Standart – VERSION 2.0
WRAP.                                          NO:One line per depth step
~Well Information Section
STRT.M                                        0.1:Начальная глубина
STOP.M                                      153.3:Конечная глубина
STEP.M                                          0:Шаг квантования по глубине
NULL.                                    -9999.25:Признак "Нет данных"
WELL.                                        144К:Скважина
~Parameter Information Section
~Curve Information Section
DEPTH.M                                          :Глубина
БК.Омм                                           :BK     (БК)
DСР.мм                                           :DS  (ДС)
ПЛОТНОСТЬ.г/см^3                                 :GGKp
ГК.мкР/ч                                         :GK          (ГК)
А0.4М0.1N.Омм                                    :GZ1   ГЗ1(A0.4M0.1N)
А1.0М0.1N.Омм                                    :GZ2   ГЗ2(A1.0M0.1N)
А2.0М0.5N.Омм                                    :GZ3   ГЗ3(A2.0M0.5N)
А4.0М0.5N.Oмм                                    :GZ4   ГЗ4(A4.0M0.5N)
А8.0М1.0N.Омм                                    :GZ5   ГЗ5(A8.0M0.5N)
N0.5M2.0A.Омм                                    :GZR   ГЗK(N0.5M2.0A)
ИК.мСм/м                                         :IK
БЗ.ue                                            :NNKb  (ННКб)
МЗ.ue                                            :NNKm  (ННКм)
ПС.mv                                            :PS       (ПС)
N11.0M0.5A.Омм                                   :PZ    (КС)
R.Омм                                            :RS (Резистивиметр)
ПОРИСТОСТЬ.                                      :W
~ASCII LOG DATA
# ...
122.2       212.862     150.714     2.189       3.533       153.009     272.684     258.886     171.909     143.622     166.083     60.835      3.269       1.921       27.186      229.735     1.131       30.968      
122.3       198.894     150.741     2.186       3.593       153.77      272.565     259.079     170.188     142.891     159.62      60.266      3.244       1.93        27.018      227.867     1.13        31.498      
122.4       186.404     150.665     2.181       3.647       153.695     271.443     258.226     167.505     141.866     153.613     59.478      3.19        1.936       26.875      225.747     1.13        32.191      
122.5       156.295     150.507     2.175       3.718       153.028     268.917     255.321     163.968     140.724     148.336     59.326      3.14        1.941       26.789      223.542     1.13        32.835      
122.6       147.748     150.548     2.17        3.744       152.09      264.986     249.478     159.582     138.619     143.302     58.855      3.063       1.928       26.798      221.009     1.128       33.182      
122.7       147.0       150.575     2.161       3.692       150.59      259.323     242.439     154.679     136.109     138.058     57.654      2.957       1.921       26.938      218.31      1.128       33.202      
122.8       130.366     150.528     2.149       3.53        148.305     251.502     235.779     150.205     132.592     133.257     56.683      2.882       1.921       27.25       216.061     1.127       32.997      
122.9       132.054     150.377     2.137       3.366       145.38      242.659     230.105     146.822     129.551     129.402     56.082      2.89        1.916       27.763      214.074     1.127       32.568      
123.0       134.968     150.265     2.128       3.253       142.29      234.903     224.752     144.494     126.47      126.377     55.31       3.007       1.923       28.485      211.998     1.125       31.813      
123.1       122.413     150.301     2.124       3.26        140.281     229.225     218.824     142.63      124.346     123.475     54.984      3.14        1.913       29.385      209.868     1.122       30.893      
123.2       122.698     150.424     2.126       3.393       139.044     225.927     212.699     141.031     122.021     120.988     54.549      3.237       1.913       30.431      208.056     1.125       29.908      
123.3       127.007     150.641     2.133       3.594       137.903     222.473     207.346     139.918     118.73      119.678     54.342      3.294       1.924       31.539      206.611     1.127       29.14       
123.4       125.821     150.778     2.143       3.73        136.765     218.15      203.893     138.787     115.0       119.128     54.075      3.327       1.928       32.591      205.279     1.128       28.632      
123.5       119.446     150.83      2.159       3.783       136.655     214.377     200.888     136.848     112.443     118.48      53.839      3.366       1.931       33.458      204.434     1.127       28.517      
123.6       112.94      151.247     2.175       3.777       136.103     212.117     197.01      134.444     111.458     117.611     53.274      3.401       1.925       34.031      203.319     1.127       28.809      
123.7       114.611     151.201     2.184       3.735       131.834     206.341     192.578     132.605     110.927     116.999     53.121      3.42        1.917       34.227      201.813     1.127       29.335      
123.8       117.748     150.947     2.186       3.675       129.206     200.431     189.398     131.062     110.184     116.765     52.477      3.402       1.905       34.003      201.414     1.127       29.876      
123.9       102.599     151.717     2.191       3.654       130.847     199.197     188.409     130.322     109.273     117.798     51.658      3.324       1.887       33.345      202.542     1.128       30.187      
124.0       93.992      156.187     2.208       3.647       132.274     198.551     189.178     130.661     108.882     120.739     51.135      3.285       1.874       32.298      204.563     1.125       30.192      
124.1       98.946      167.705     2.237       3.632       136.506     201.15      191.101     131.779     108.882     124.569     50.508      3.309       1.892       30.932      208.342     1.127       29.957      
124.2       103.26      163.286     2.277       3.542       140.275     203.749     193.112     134.152     109.143     127.883     50.441      3.467       1.982       29.357      212.965     1.127       29.231      
124.3       118.914     150.956     2.314       3.421       140.073     201.291     193.969     135.927     110.436     129.993     50.078      3.701       2.062       27.692      215.828     1.128       28.078      
124.4       111.595     150.976     2.334       3.348       139.289     194.474     193.745     136.162     111.727     131.698     49.905      3.946       2.154       26.05       217.574     1.128       26.723      
124.5       106.672     150.866     2.332       3.339       138.707     187.658     192.751     135.838     112.943     134.62      49.581      4.212       2.214       24.524      218.902     1.127       25.311      
124.6       102.124     150.963     2.319       3.358       138.192     183.26      190.978     135.233     113.797     138.991     49.205      4.426       2.229       23.17       218.667     1.127       24.097      
124.7       104.485     151.073     2.307       3.358       137.121     178.483     188.621     134.773     114.172     144.072     49.349      4.612       2.22        22.013      217.597     1.126       23.172      
124.8       110.718     150.977     2.301       3.406       136.254     171.59      185.628     134.324     114.172     149.033     49.495      4.756       2.246       21.084      217.506     1.129       22.42       
124.9       99.601      150.962     2.299       3.413       135.757     162.687     182.161     133.594     113.988     154.644     49.392      4.9         2.285       20.361      217.524     1.129       21.987      
125.0       100.488     150.908     2.298       3.315       135.571     155.697     178.804     132.489     113.426     161.163     49.498      5.059       2.317       19.821      217.06      1.127       21.786      
125.1       110.798     150.908     2.293       3.097       136.56      153.027     175.692     131.139     113.287     168.34      49.601      5.164       2.352       19.422      217.498     1.127       21.797      
125.2       132.509     150.98      2.286       2.964       137.764     151.9       172.548     129.876     112.941     175.97      49.385      5.188       2.368       19.127      218.731     1.125       21.856      
125.3       109.722     151.057     2.279       2.889       137.978     150.272     169.706     128.573     112.761     184.007     49.466      5.024       2.366       18.924      219.822     1.124       21.812      
125.4       103.366     151.418     2.278       2.855       138.514     148.108     165.951     126.651     111.59      192.533     48.95       4.83        2.341       18.802      221.068     1.125       21.628      
125.5       99.128      150.868     2.29        2.852       140.151     146.407     160.018     123.844     109.882     201.092     48.962      4.701       2.305       18.737      222.474     1.13        21.132      
125.6       89.681      150.952     2.316       2.902       139.807     145.633     152.501     121.416     108.49      211.348     49.307      4.878       2.27        18.708      223.218     1.129       20.337      
125.7       108.825     150.931     2.352       2.929       137.974     144.407     145.724     120.618     108.49      228.353     49.456      5.325       2.287       18.683      223.502     1.128       19.19       
125.8       137.862     150.857     2.387       2.907       136.82      143.392     141.54      121.289     108.831     254.016     49.998      5.912       2.352       18.646      222.806     1.133       17.731      
