~Version Information Section
VERS.                                         2.0:CWLS log ASCII Standart – VERSION 2.0
WRAP.                                          NO:One line per depth step
~Well Information Section
STRT.M                                        0.0:Начальная глубина
STOP.M                                      180.0:Конечная глубина
STEP.M                                          0:Шаг квантования по глубине
NULL.                                    -9999.25:Признак "Нет данных"
WELL.                                       120Мх:Скважина
~Parameter Information Section
~Curve Information Section
DEPTH.M                                          :Глубина
BK.Ohm*M                                         :BK     (БК)
DS.mm                                            :DS  (ДС)
GGK.g/cm3                                        :GGKp
ГК.mcr/h                                         :GK          (ГК)
GZ1.Ohm*M                                        :GZ1   ГЗ1(A0.4M0.1N)
GZ2.Ohm*M                                        :GZ2   ГЗ2(A1.0M0.1N)
GZ3.Ohm*M                                        :GZ3   ГЗ3(A2.0M0.5N)
GZ4.Ohm*M                                        :GZ4   ГЗ4(A4.0M0.5N)
GZ5.Ohm*M                                        :GZ5   ГЗ5(A8.0M0.5N)
GZR.Ohm*M                                        :GZK   ГЗK(N0.5M2.0A)
ИК.Ohm*M                                         :IK
НГК.u.e.                                         :NGK
NNKM.                                            :NNKm  (ННКм)
PS.mv                                            :PS       (ПС)
PZ.Ohm*M                                         :PZ    (КС)
RS.Ohm*M                                         :RS (Резистивиметр)
U1.mV                                            :U1
U2.mV                                            :U2
U3.mV                                            :U3
КП.%                                             :Кп
~ASCII LOG DATA
# ...
134.4       16.482      133.605     2.35        6.864       25.33       15.591      14.745      24.334      21.225      21.899      7.108       1.115       2.033       494.326     20.234      1.15        470.156     442.373     491.966     31.659      
134.6       16.788      133.901     2.34        6.947       24.867      15.163      15.023      27.0        20.558      21.899      7.106       1.085       2.044       493.846     19.231      1.125       672.549     562.325     546.977     31.215      
134.8       17.022      134.503     2.336       7.29        24.523      15.056      15.298      28.334      19.225      24.566      7.119       1.015       2.047       493.366     19.231      1.122       1126.445    759.154     544.549     31.729      
135.0       17.338      134.868     2.27        7.195       24.356      15.082      14.484      29.667      19.225      27.899      7.114       1.066       2.036       492.886     19.231      1.131       1248.318    823.271     619.261     35.986      
135.2       14.723      134.068     2.316       7.309       24.113      14.852      14.471      25.001      20.602      24.566      7.108       1.101       1.976       492.684     19.356      1.156       624.476     604.829     706.371     33.959      
135.4       14.555      133.694     2.317       6.862       24.808      15.305      14.38       19.667      21.255      24.566      7.078       1.139       2.007       493.404     20.61       1.179       457.055     431.069     494.281     36.137      
135.6       14.655      134.043     2.341       6.515       24.828      14.864      14.156      19.667      21.12       24.566      7.041       1.176       2.01        494.806     21.863      1.179       692.807     526.735     454.185     30.77       
135.8       14.757      134.516     2.356       6.924       24.74       14.618      13.716      19.667      21.213      27.232      7.044       1.127       2.018       496.486     22.991      1.152       564.099     469.744     488.262     32.508      
136.0       15.101      133.531     2.347       7.135       24.813      14.576      13.416      21.0        21.367      28.566      7.038       1.108       1.975       498.684     22.991      1.117       422.05      352.234     402.305     34.442      
136.2       15.631      133.495     2.323       7.031       24.847      13.052      13.022      21.667      21.584      29.899      7.046       1.058       2.004       501.526     22.991      1.111       553.004     411.795     372.961     34.215      
136.4       14.859      133.142     2.309       6.83        23.57       11.458      13.213      23.0        21.838      31.232      7.032       1.022       2.003       504.166     23.116      1.124       590.064     438.581     406.048     31.388      
136.6       14.723      133.469     2.3         7.411       24.77       9.295       13.999      23.667      22.023      31.899      7.002       1.084       1.976       506.364     24.37       1.144       712.682     464.534     368.263     32.237      
136.8       14.757      133.711     2.345       7.413       25.945      5.308       13.948      22.195      22.419      35.899      6.959       1.115       2.005       508.726     24.871      1.146       682.477     573.807     547.356     36.879      
137.0       13.74       133.415     2.432       6.71        23.076      4.649       12.378      19.972      23.166      45.49       6.91        1.157       2.136       511.088     24.871      1.136       626.402     497.956     445.519     32.929      
137.2       14.588      133.595     2.381       6.32        23.363      4.115       11.187      18.335      24.309      50.507      6.914       1.075       2.204       513.084     24.871      1.121       589.463     452.213     390.824     28.23       
137.4       16.982      132.963     2.312       6.879       22.872      4.079       10.764      17.749      26.315      53.708      6.985       1.039       2.07        515.446     24.871      1.102       659.665     542.405     496.367     28.091      
137.6       13.74       133.665     2.318       7.139       22.676      4.168       8.233       17.164      23.539      57.198      7.028       1.026       1.984       517.884     24.871      1.067       567.98      512.048     535.35      38.764      
137.8       13.868      134.083     2.307       7.119       22.587      4.256       5.018       16.436      17.892      60.455      7.034       1.033       2.047       520.726     24.871      1.027       462.915     310.569     290.28      29.857      
138.0       14.791      133.915     2.285       7.392       22.512      4.345       4.234       15.505      22.558      65.639      7.101       1.113       1.989       523.366     25.623      1.0         695.997     337.863     183.196     31.214      
138.2       14.289      133.807     2.334       7.191       21.856      4.433       4.29        14.553      31.891      70.715      7.29        1.024       1.954       525.728     27.503      0.987       712.917     432.861     332.612     33.159      
138.4       15.488      133.85      2.313       7.194       20.36       4.909       5.547       16.835      39.892      136.346     7.517       1.019       1.974       527.408     29.383      0.986       526.603     405.696     409.238     32.205      
138.6       15.488      134.896     2.319       8.012       21.433      6.792       9.044       22.665      37.892      288.372     7.87        1.051       1.986       528.291     30.511      0.994       687.779     404.907     300.149     38.834      
138.8       15.205      134.466     2.343       7.61        34.894      9.458       13.404      28.092      33.225      370.79      8.289       1.082       2.017       527.331     30.636      1.0         440.086     346.353     353.087     36.525      
139.0       14.757      134.008     2.275       5.82        75.344      12.792      12.071      34.573      29.892      333.461     8.964       1.194       2.052       524.009     32.767      1.001       286.93      236.517     264.58      41.145      
139.2       18.75       130.671     2.194       4.217       126.133     21.458      16.071      34.119      33.225      249.21      9.705       1.51        2.225       518.489     39.41       1.014       274.54      287.406     421.005     30.402      
139.4       284.446     124.85      2.192       3.612       125.006     33.459      14.737      33.026      41.892      209.465     10.932      1.726       2.677       510.972     78.515      1.047       691.89      603.967     620.752     18.322      
139.6       200.909     123.273     2.121       3.353       122.399     52.995      14.737      33.421      45.225      192.186     12.234      1.838       2.823       500.969     142.81      1.095       902.027     751.63      674.212     15.64       
139.8       162.555     123.031     2.079       3.43        123.261     92.227      21.404      35.083      45.225      189.833     13.043      1.816       2.679       489.766     235.055     1.146       726.708     573.763     501.529     18.926      
140.0       174.181     123.576     2.115       3.814       128.301     139.453     22.071      36.76       45.225      185.417     13.535      1.717       2.62        478.687     271.777     1.186       801.182     594.848     481.783     20.71       
140.2       164.437     122.926     2.08        3.926       133.286     171.04      22.071      37.232      45.225      171.789     13.848      1.722       2.641       467.724     284.185     1.2         1436.598    1089.047    862.907     19.523      
140.4       159.956     122.937     2.042       3.705       130.558     164.894     35.405      36.434      45.225      164.241     14.131      1.8         2.646       457.568     294.338     1.2         1645.611    1236.875    966.971     19.618      
140.6       185.78      123.067     2.018       3.455       120.913     148.242     49.9        36.773      43.263      174.955     14.327      1.819       2.72        447.804     298.85      1.21        1138.63     949.099     850.389     17.183      
