~Version Information Section
VERS.                                         2.0:CWLS log ASCII Standart – VERSION 2.0
WRAP.                                          NO:One line per depth step
~Well Information Section
STRT.M                                        0.6:Начальная глубина
STOP.M                                      202.6:Конечная глубина
STEP.M                                          0:Шаг квантования по глубине
NULL.                                    -9999.25:Признак "Нет данных"
WELL.                                       130Мх:Скважина
~Parameter Information Section
~Curve Information Section
DEPTH.M                                          :Глубина
БК.Омм                                           :BK     (БК)
DСР.мм                                           :DS  (ДС)
W.g/cm3                                          :GGKp
ГК.гамма                                         :GK          (ГК)
А0.4М0.1N.Омм.ohmm                               :GZ1   ГЗ1(A0.4M0.1N)
А1.0М0.1N.Омм.ohmm                               :GZ2   ГЗ2(A1.0M0.1N)
А2.0М0.5N.Омм.ohmm                               :GZ3   ГЗ3(A2.0M0.5N)
А4.0М0.5N.Oмм.ohmm                               :GZ4   ГЗ4(A4.0M0.5N)
А8.0М1.0N.Омм.ohmm                               :GZ5   ГЗ5(A8.0M0.5N)
N0.5M2.0A.Омм.ohmm                               :GZK   ГЗK(N0.5M2.0A)
ИК.мСм/м                                         :IK
НГК.усл.ед                                       :NNKb  (ННКб)
ННКМ.усл.ед                                      :NNKm  (ННКм)
ПС.мВ                                            :PS       (ПС)
КС.Омм                                           :PZ    (КС)
R.Омм                                            :RS (Резистивиметр)
U1.мВ                                            :U1
U2.mV                                            :U2
U3.мВ                                            :U3
КП.%                                             :Кп
~ASCII LOG DATA
# ...
19.8        11493.9     140.548     2.221       2.476       50.767      27.238      5.861       6.421       4.0         27.504      -9999.25    23.351      4.796       162.334     100.0       1.094       2555.639    2587.638    2271.639    -9.676      
19.9        9048.123    140.406     2.218       2.719       50.765      27.15       6.392       5.907       3.0         24.348      -9999.25    22.592      4.626       165.147     108.0       1.095       2443.638    2551.638    2191.638    -9.708      
20.0        8804.748    140.319     2.217       2.712       50.072      27.251      7.522       5.394       3.0         21.313      -9999.25    21.936      4.516       167.714     111.0       1.093       2379.638    2527.638    1921.544    -10.018     
20.1        6878.39     139.803     2.223       2.936       46.202      27.711      9.69        4.88        3.0         18.695      -9999.25    21.56       4.465       170.022     110.0       1.091       2315.638    2328.975    1659.448    -10.139     
20.2        156.718     139.565     2.239       3.113       39.193      28.788      12.57       4.366       3.0         16.945      -9999.25    21.125      4.379       172.085     109.0       1.088       2266.47     2120.97     1410.089    -10.005     
20.3        116.971     138.486     2.256       3.475       32.799      29.738      15.464      3.852       3.0         16.315      -9999.25    20.518      4.278       173.897     108.0       1.086       2145.887    1867.181    1195.097    -9.692      
20.4        89.971      138.258     2.27        3.744       28.231      29.858      18.478      3.339       3.0         16.221      -9999.25    20.049      4.109       175.418     108.0       1.084       1992.012    1559.972    934.316     -9.379      
20.5        82.664      138.249     2.283       3.9         26.221      29.497      20.604      2.825       3.0         16.221      20.124      19.142      3.955       176.441     110.0       1.084       1807.137    1240.92     851.501     -9.438      
20.6        131.761     138.307     2.284       3.792       26.215      30.211      21.17       2.518       3.0         16.204      19.961      18.926      3.988       176.854     110.0       1.084       1577.605    1095.123    768.686     -9.958      
20.7        190.986     138.529     2.276       3.594       25.61       30.603      21.225      2.907       3.0         16.481      20.017      18.811      4.058       176.854     114.0       1.083       1362.23     931.416     651.978     -10.085     
20.8        182.128     137.64      2.268       3.512       24.488      29.511      21.218      3.296       3.034       17.122      19.966      18.821      4.006       176.854     116.0       1.081       1202.277    792.879     539.024     -9.608      
20.9        192.712     137.551     2.263       3.425       23.88       27.949      21.309      3.684       3.76        17.81       19.808      18.781      3.942       176.594     117.0       1.078       1093.645    699.699     458.786     -8.979      
21.0        191.261     137.744     2.262       3.634       23.912      26.047      21.771      4.073       4.537       18.382      19.425      18.362      3.889       175.684     114.0       1.076       1067.358    618.363     378.676     -9.081      
21.1        181.145     137.427     2.268       3.675       23.787      24.514      22.203      4.462       4.785       18.916      18.876      17.719      3.833       174.21      106.0       1.074       1140.179    568.443     301.275     -9.778      
21.2        213.199     137.298     2.278       3.622       23.625      23.818      22.43       4.851       4.348       19.566      18.363      17.865      3.809       172.414     106.0       1.075       1209.234    566.684     268.337     -10.254     
21.3        165.789     137.296     2.287       3.498       23.906      23.762      22.807      5.24        4.414       20.461      18.132      18.166      3.802       170.423     106.0       1.078       1169.499    559.457     274.584     -10.303     
21.4        133.803     137.945     2.288       3.327       23.812      23.085      23.246      5.629       4.414       21.596      18.189      18.701      3.862       168.308     109.0       1.079       1062.107    534.754     294.254     -10.172     
21.5        176.731     137.393     2.286       3.313       22.9        21.488      23.356      6.018       4.541       22.843      18.378      19.248      3.902       166.086     112.0       1.078       911.369     503.046     299.361     -10.43      
21.6        967.695     137.423     2.283       3.122       22.28       20.284      23.207      6.407       4.61        24.077      18.729      18.439      3.862       163.759     112.0       1.076       721.286     453.329     301.76      -10.984     
21.7        4229.803    137.719     2.279       3.256       21.605      19.805      23.448      6.796       4.203       25.693      18.987      17.946      3.894       161.315     111.0       1.074       575.136     397.023     289.356     -12.324     
21.8        7107.242    137.803     2.283       3.576       20.931      19.719      24.457      7.184       3.723       27.726      19.039      18.193      4.022       158.784     109.0       1.074       502.008     379.661     301.652     -12.892     
21.9        12307.94    137.808     2.299       4.026       21.823      20.589      25.783      7.573       3.341       29.701      18.781      18.297      4.022       156.212     107.0       1.075       478.831     385.897     338.161     -12.186     
22.0        5919.872    138.566     2.324       4.15        22.714      21.293      26.908      7.962       3.175       30.685      18.363      18.088      3.891       153.674     105.0       1.076       455.653     391.068     358.905     -8.455      
22.1        4913.509    137.476     2.353       4.181       22.894      21.621      27.949      22.053      2.951       31.564      17.964      18.112      3.767       151.255     104.0       1.078       427.831     396.24      369.733     -0.317      
22.2        1414.646    137.473     2.373       4.204       23.822      21.95       28.461      25.623      2.746       33.534      17.788      18.483      3.668       149.053     100.0       1.078       411.426     397.726     380.058     11.143      
22.3        1064.192    137.362     2.375       3.993       25.398      22.114      29.143      30.016      2.642       34.625      17.989      19.63       3.717       147.131     97.0        1.077       451.301     401.047     360.503     23.746      
22.4        4809.269    137.48      2.358       3.647       29.446      22.452      29.954      32.803      2.594       34.31       18.47       22.043      3.85        145.527     92.0        1.076       500.166     415.854     332.629     31.078      
22.5        6339.507    137.689     2.322       3.138       35.354      22.625      29.948      33.547      2.488       32.649      19.124      22.727      4.063       144.241     84.0        1.075       543.959     437.733     341.511     33.867      
22.6        17404.81    138.497     2.275       2.944       38.207      21.647      29.813      33.547      2.331       29.646      19.706      22.744      4.201       143.247     84.0        1.076       577.29      459.613     361.089     32.164      
22.7        29265.94    138.336     2.238       2.993       38.371      20.09       29.551      32.83       2.133       25.605      19.935      18.099      4.018       142.494     87.0        1.077       618.151     487.135     379.725     30.881      
22.8        7858.122    137.985     2.214       3.343       38.371      18.744      27.706      29.992      1.96        20.844      19.673      11.118      3.684       141.934     80.0        1.079       675.648     517.106     394.241     29.986      
22.9        2527.444    138.16      2.207       3.923       37.19       16.824      23.545      24.199      1.648       16.505      18.944      5.513       3.139       141.52      79.0        1.079       767.566     551.498     403.126     30.178      
