~Version Information Section
VERS.                                         2.0:CWLS log ASCII Standart – VERSION 2.0
WRAP.                                          NO:One line per depth step
~Well Information Section
STRT.M                                        0.4:Начальная глубина
STOP.M                                      206.4:Конечная глубина
STEP.M                                          0:Шаг квантования по глубине
NULL.                                    -9999.25:Признак "Нет данных"
WELL.                                       157Мх:Скважина
~Parameter Information Section
~Curve Information Section
DEPTH.M                                          :Глубина
BK.Ohm*M                                         :BK     (БК)
DS.mm                                            :DS  (ДС)
GGK.g/cm3                                        :GGKp
ГК.mcr/h                                         :GK          (ГК)
GZ1.Ohm*M                                        :GZ1   ГЗ1(A0.4M0.1N)
GZ2.Ohm*M                                        :GZ2   ГЗ2(A1.0M0.1N)
GZ3.Ohm*M                                        :GZ3   ГЗ3(A2.0M0.5N)
GZ4.Ohm*M                                        :GZ4   ГЗ4(A4.0M0.5N)
GZ5.Ohm*M                                        :GZ5   ГЗ5(A8.0M0.5N)
GZR.                                             :GZR   ГЗK(N0.5M2.0A)
ИК.Ohm*M                                         :IK
НГК.ue                                           :NGK     (НГК)
NNKM.                                            :NNKm  (ННКм)
PS.mv                                            :PS       (ПС)
PZ.Ohm*M                                         :PZ    (КС)
RS.Ohm*M                                         :RS (Резистивиметр)
W.%                                              :W
~ASCII LOG DATA
# ...
59.6        32.356      155.051     2.274       5.865       29.47       27.215      34.104      33.228      33.625      31.324      25.56       1.602       2.153       228.45      34.633      1.134       31.369      
59.7        37.079      155.047     2.27        5.521       33.197      30.588      35.736      37.995      32.451      32.568      25.407      1.503       2.209       227.829     34.074      1.132       30.742      
59.8        35.591      155.256     2.269       5.396       33.774      30.526      35.681      39.654      31.745      32.408      25.004      1.512       2.268       227.03      32.151      1.132       29.474      
59.9        24.609      155.422     2.266       5.497       33.251      29.428      34.875      39.002      31.579      31.238      24.661      1.543       2.236       226.006     29.794      1.131       28.436      
60.0        19.016      155.467     2.265       5.694       29.909      24.896      31.554      35.218      31.496      28.779      24.418      1.535       2.145       224.873     28.833      1.132       28.451      
60.1        16.601      155.436     2.263       6.29        24.17       19.973      26.825      29.464      31.393      27.438      24.587      1.474       2.012       223.535     28.874      1.132       29.236      
60.2        16.322      155.13      2.267       6.848       20.802      18.283      23.043      24.773      30.844      27.508      25.072      1.443       1.955       222.15      29.184      1.131       30.497      
60.3        17.021      155.193     2.275       7.407       18.878      17.71       21.14       22.574      29.951      28.25       25.94       1.471       1.95        220.75      29.87       1.129       31.471      
60.4        19.797      155.041     2.27        7.372       17.87       17.546      21.052      22.122      29.663      30.52       27.001      1.553       1.976       219.215     30.313      1.13        30.902      
60.5        24.579      154.848     2.245       7.071       17.771      17.647      21.193      22.289      29.767      32.544      28.015      1.593       2.067       217.425     30.673      1.131       29.218      
60.6        27.939      154.983     2.209       6.743       18.058      18.254      21.971      23.347      30.943      34.017      29.126      1.612       2.128       215.353     31.451      1.13        27.96       
60.7        29.712      155.074     2.181       6.667       19.572      19.269      23.236      25.549      32.868      36.133      30.119      1.623       2.168       212.914     32.89       1.128       28.018      
60.8        29.377      155.991     2.167       6.768       21.426      20.469      25.524      28.933      34.231      39.979      31.259      1.648       2.164       210.004     34.902      1.129       28.277      
60.9        29.717      156.233     2.182       6.766       23.738      22.623      28.665      32.922      34.686      44.779      32.316      1.689       2.208       206.991     37.257      1.128       27.353      
61.0        34.454      156.78      2.214       6.585       27.99       26.363      31.699      36.485      34.744      48.325      33.048      1.768       2.288       203.964     39.334      1.128       25.612      
61.1        46.065      157.207     2.243       6.439       33.641      28.598      33.51       38.444      34.661      49.272      33.615      1.861       2.423       200.881     40.603      1.128       24.142      
61.2        42.208      157.779     2.246       6.402       37.409      29.103      33.771      38.698      34.561      48.98       33.801      1.95        2.491       197.758     41.186      1.128       23.323      
61.3        35.405      158.435     2.232       6.469       39.26       28.676      33.458      38.199      34.478      47.132      34.016      1.961       2.507       194.844     41.53       1.128       23.062      
61.4        33.481      159.521     2.21        6.479       40.079      26.837      31.684      35.467      34.194      43.881      34.192      1.931       2.45        191.823     42.517      1.127       23.146      
61.5        32.699      162.109     2.19        6.392       39.959      26.316      29.12       31.894      33.358      41.431      34.323      1.865       2.405       188.908     44.446      1.126       23.33       
61.6        32.106      164.571     2.18        6.304       39.929      26.527      27.007      29.016      32.063      40.169      34.464      1.843       2.384       186.393     46.345      1.125       23.689      
61.7        34.029      167.906     2.178       6.286       40.387      27.585      26.049      27.557      31.019      40.128      34.225      1.861       2.363       184.228     47.27       1.127       23.815      
61.8        35.315      169.9       2.179       6.272       40.236      28.664      26.009      26.794      30.753      40.079      34.375      1.882       2.355       182.294     47.353      1.128       23.35       
61.9        32.696      172.24      2.173       6.097       39.385      29.61       26.128      26.159      30.89       40.035      34.442      1.866       2.36        180.974     47.506      1.129       23.401      
62.0        29.871      170.878     2.17        5.813       38.332      30.326      26.814      25.765      31.593      39.801      34.639      1.828       2.343       179.961     47.55       1.127       24.863      
62.1        31.726      171.043     2.17        5.686       38.071      32.396      27.868      25.788      32.511      39.521      34.644      1.811       2.303       179.263     47.846      1.128       26.236      
62.2        35.432      169.603     2.171       5.763       38.382      35.911      28.879      26.02       33.354      39.281      34.689      1.848       2.289       178.909     48.379      1.13        25.844      
62.3        38.528      166.954     2.175       6.011       40.145      39.808      29.776      26.842      34.069      38.921      34.768      1.894       2.315       178.909     48.673      1.131       24.538      
62.4        40.722      166.087     2.179       6.03        42.67       41.923      30.615      28.19       34.538      38.148      34.494      1.923       2.355       178.909     48.784      1.13        24.271      
62.5        39.221      165.988     2.186       5.752       44.725      42.405      31.599      29.696      34.652      37.055      34.426      1.928       2.362       178.931     48.933      1.129       25.313      
62.6        37.464      165.988     2.193       5.513       46.443      43.052      32.612      31.399      34.538      35.957      34.497      1.932       2.371       179.084     48.803      1.13        26.176      
62.7        37.251      166.283     2.203       5.483       49.399      44.328      33.479      32.673      34.141      35.016      34.619      1.946       2.386       179.527     48.621      1.132       26.065      
62.8        41.256      167.628     2.214       5.592       51.63       45.251      33.874      33.026      33.543      34.073      34.446      1.945       2.436       180.545     47.994      1.13        25.604      
62.9        39.101      170.478     2.227       5.528       52.035      45.219      33.818      32.773      32.745      32.68       33.939      1.923       2.451       182.187     46.579      1.131       25.953      
63.0        34.56       170.644     2.242       5.459       51.056      44.346      33.319      31.225      31.695      30.645      33.385      1.869       2.401       184.694     44.736      1.131       27.293      
63.1        27.91       170.644     2.26        5.57        46.107      40.498      31.838      28.48       30.378      28.22       32.958      1.821       2.319       188.136     43.669      1.128       28.411      
63.2        23.531      168.057     2.282       6.135       41.173      37.581      30.135      25.485      28.935      26.029      32.857      1.739       2.268       192.412     43.278      1.126       28.467      
