~Version Information Section
VERS.                                         2.0:CWLS log ASCII Standart – VERSION 2.0
WRAP.                                          NO:One line per depth step
~Well Information Section
STRT.M                                        1.2:Начальная глубина
STOP.M                                      169.7:Конечная глубина
STEP.M                                          0:Шаг квантования по глубине
NULL.                                    -9999.25:Признак "Нет данных"
WELL.                                       115Мх:Скважина
~Parameter Information Section
~Curve Information Section
DEPTH.M                                          :Глубина
BK.Ohm*M                                         :BK     (БК)
DS.mm                                            :DS  (ДС)
GGK.g/cm3                                        :GGKp
ГК.mcr/h                                         :GK          (ГК)
GZ1.Ohm*M                                        :GZ1   ГЗ1(A0.4M0.1N)
GZ2.Ohm*M                                        :GZ2   ГЗ2(A1.0M0.1N)
GZ3.Ohm*M                                        :GZ3   ГЗ3(A2.0M0.5N)
GZ4.Ohm*M                                        :GZ4   ГЗ4(A4.0M0.5N)
GZ5.Ohm*M                                        :GZ5   ГЗ5(A8.0M0.5N)
GZR.Ohm*M                                        :GZK   ГЗK(N0.5M2.0A)
ИК.Ohm*M                                         :IK
НГК.ue                                           :NGK     (НГК)
NNKM.                                            :NNKm  (ННКм)
PS.mv                                            :PS       (ПС)
PZ.Ohm*M                                         :PZ    (КС)
RS.Ohm*M                                         :RS (Резистивиметр)
U1.mV                                            :U1
U2.mV                                            :U2
U3.mV                                            :U3
КП.%                                             :Кп
~ASCII LOG DATA
# ...
78.0        43.652      132.322     2.273       5.208       2.763       6.02        5.477       6.325       4.971       5.519       25.454      1.27        2.209       1055.075    52.521      0.972       507.993     417.563     377.424     29.823      
78.1        37.931      133.028     2.279       5.294       3.029       6.117       5.777       6.425       4.971       5.719       25.15       1.241       2.202       1053.633    52.894      0.972       621.616     371.781     263.925     29.519      
78.2        38.019      132.401     2.281       5.202       4.352       6.745       5.777       6.525       4.971       5.819       24.812      1.212       2.242       1050.947    53.174      0.972       727.396     340.953     192.499     28.788      
78.3        34.119      132.167     2.302       5.011       4.063       7.083       5.677       6.625       4.971       5.919       24.509      1.203       2.29        1047.659    53.376      0.972       748.171     342.029     195.018     28.154      
78.4        25.586      133.397     2.354       4.898       3.777       7.011       5.577       6.825       5.071       5.819       24.152      1.229       2.341       1043.623    53.531      0.972       659.326     376.859     271.208     28.326      
78.5        27.606      133.684     2.381       4.794       3.743       7.132       5.477       6.825       5.171       5.619       23.85       1.246       2.378       1039.825    53.64       0.972       562.922     434.323     380.027     28.334      
78.6        31.623      134.011     2.411       4.692       3.376       7.228       5.377       6.825       5.371       5.619       23.737      1.273       2.405       1036.084    53.687      0.972       534.596     505.084     489.572     28.09       
78.7        35.975      133.468     2.421       4.581       3.337       6.914       5.477       6.825       5.671       5.519       23.58       1.277       2.425       1032.896    53.671      0.972       552.247     548.758     543.961     27.628      
78.8        39.902      133.207     2.388       4.632       3.144       6.697       5.577       6.825       5.771       5.419       23.249      1.197       2.436       1029.496    53.593      0.972       561.547     531.916     507.414     28.233      
78.9        30.974      133.876     2.325       4.744       3.729       6.479       5.677       6.925       6.071       5.419       23.092      1.119       2.388       1025.697    53.453      0.972       543.017     473.608     416.85      30.883      
79.0        30.13       133.99      2.264       4.492       4.343       6.624       5.777       7.125       5.971       5.419       22.903      1.096       2.334       1021.654    53.236      0.972       523.556     428.439     349.774     32.82       
79.1        48.865      135.316     2.222       4.601       5.715       6.962       5.777       7.225       5.871       5.519       22.847      1.154       2.252       1017.595    52.941      0.972       524.657     420.307     334.633     32.156      
79.2        45.29       138.041     2.251       4.672       6.427       7.349       6.177       7.325       5.771       5.619       22.488      1.186       2.233       1014.504    52.552      0.972       542.076     423.864     330.536     29.948      
79.3        38.994      133.566     2.291       5.011       5.013       7.373       6.777       7.325       5.771       5.819       22.11       1.211       2.383       1012.61     52.055      0.972       571.018     424.887     315.849     29.174      
79.4        43.451      133.237     2.327       4.84        4.097       6.842       6.777       7.525       5.771       5.919       21.793      1.182       2.45        1011.622    51.449      0.972       654.451     463.277     326.691     29.948      
79.5        28.314      134.9       2.376       4.631       4.556       6.817       6.677       7.625       5.671       6.119       21.29       1.159       2.353       1011.506    50.703      0.972       811.921     557.759     380.374     30.173      
79.6        25.882      135.232     2.394       4.395       4.688       6.866       6.577       7.625       5.571       6.319       20.858      1.137       2.31        1011.613    49.833      0.972       950.141     609.872     400.296     30.086      
79.7        25.351      134.082     2.353       4.646       5.881       7.252       6.477       7.725       5.571       6.519       20.533      1.173       2.353       1011.691    48.854      0.972       978.973     539.518     324.69      30.25       
79.8        22.751      134.128     2.336       4.947       8.023       7.954       6.377       7.825       5.571       6.919       20.241      1.187       2.387       1011.923    47.782      0.972       836.189     384.921     207.743     29.823      
79.9        26.062      134.173     2.336       5.188       7.355       8.195       6.377       7.825       5.571       6.719       20.043      1.166       2.408       1013.092    46.633      0.972       600.173     266.214     152.256     29.079      
80.0        27.164      133.821     2.33        4.837       7.544       8.195       6.277       7.825       5.571       6.619       19.85       1.173       2.46        1015.71     45.421      0.972       445.176     267.517     196.83      28.983      
80.1        20.941      132.848     2.339       4.526       7.892       8.582       6.277       7.925       5.571       6.619       19.744      1.229       2.533       1019.312    44.178      0.972       456.832     347.502     275.747     29.741      
80.2        18.836      133.02      2.382       4.624       6.682       8.317       6.277       7.925       5.571       6.619       19.556      1.333       2.578       1024.68     42.904      0.972       650.058     484.52      362.828     28.328      
80.3        21.528      133.851     2.439       4.332       5.702       8.268       6.277       7.925       5.671       6.619       19.535      1.396       2.599       1031.515    41.63       0.972       752.205     543.277     391.192     25.726      
80.4        22.182      133.498     2.447       4.035       5.335       8.171       6.277       8.025       5.771       6.619       19.722      1.401       2.812       1039.341    40.387      0.972       675.307     481.392     340.66      23.643      
80.5        28.708      131.825     2.461       3.63        4.982       7.809       6.277       8.125       5.971       6.619       19.828      1.361       3.073       1047.524    39.19       0.972       605.857     359.16      235.699     24.508      
80.6        29.242      131.955     2.471       3.976       4.686       7.615       6.277       8.125       6.171       6.719       19.935      1.337       2.899       1055.26     38.056      0.972       731.21      285.541     143.611     27.415      
80.7        23.55       133.493     2.443       4.337       4.67        7.567       6.277       8.125       6.271       6.819       20.131      1.357       2.628       1062.853    37.015      0.972       929.163     304.363     132.422     28.942      
80.8        23.659      133.15      2.382       4.343       4.991       7.784       6.377       8.125       6.171       6.819       20.175      1.35        2.548       1069.905    36.098      0.972       975.144     359.126     189.338     29.855      
80.9        23.714      133.061     2.38        4.139       5.285       8.437       6.577       8.225       6.171       6.819       20.375      1.327       2.519       1076.798    35.322      0.972       819.85      433.883     307.882     29.186      
81.0        24.889      132.767     2.367       4.329       6.442       9.235       6.677       8.325       6.371       6.819       20.579      1.288       2.559       1083.202    34.731      0.972       673.456     451.144     352.448     28.966      
81.1        27.861      132.31      2.355       4.518       6.429       9.452       6.777       8.325       6.471       6.819       20.788      1.309       2.538       1088.283    34.358      0.972       582.981     395.489     295.109     27.751      
