~Version Information Section
VERS.                                         2.0:CWLS log ASCII Standart – VERSION 2.0
WRAP.                                          NO:One line per depth step
~Well Information Section
STRT.M                                        0.1:Начальная глубина
STOP.M                                      153.3:Конечная глубина
STEP.M                                          0:Шаг квантования по глубине
NULL.                                    -9999.25:Признак "Нет данных"
WELL.                                        144К:Скважина
~Parameter Information Section
~Curve Information Section
DEPTH.M                                          :Глубина
БК.Омм                                           :BK     (БК)
DСР.мм                                           :DS  (ДС)
ПЛОТНОСТЬ.г/см^3                                 :GGKp
ГК.мкР/ч                                         :GK          (ГК)
А0.4М0.1N.Омм                                    :GZ1   ГЗ1(A0.4M0.1N)
А1.0М0.1N.Омм                                    :GZ2   ГЗ2(A1.0M0.1N)
А2.0М0.5N.Омм                                    :GZ3   ГЗ3(A2.0M0.5N)
А4.0М0.5N.Oмм                                    :GZ4   ГЗ4(A4.0M0.5N)
А8.0М1.0N.Омм                                    :GZ5   ГЗ5(A8.0M0.5N)
N0.5M2.0A.Омм                                    :GZR   ГЗK(N0.5M2.0A)
ИК.мСм/м                                         :IK
БЗ.ue                                            :NNKb  (ННКб)
МЗ.ue                                            :NNKm  (ННКм)
ПС.mv                                            :PS       (ПС)
N11.0M0.5A.Омм                                   :PZ    (КС)
R.Омм                                            :RS (Резистивиметр)
ПОРИСТОСТЬ.                                      :W
~ASCII LOG DATA
# ...
107.4       19.784      151.571     2.342       6.599       18.009      15.038      14.427      17.458      1.222       19.702      10.712      2.87        1.797       83.408      26.166      1.101       30.013      
107.5       19.521      151.616     2.34        6.663       17.703      14.937      14.21       16.988      1.205       20.588      10.69       2.909       1.772       83.047      26.008      1.101       29.661      
107.6       19.517      151.556     2.342       6.674       17.4        14.94       14.055      16.55       1.188       22.064      10.694      2.984       1.746       82.531      25.859      1.101       29.412      
107.7       19.081      151.722     2.348       6.65        17.171      14.921      13.959      16.13       1.183       23.981      10.712      3.085       1.742       81.881      25.688      1.101       29.378      
107.8       19.263      151.867     2.356       6.628       17.009      14.817      13.841      15.759      1.158       26.081      10.738      3.132       1.749       81.112      25.522      1.101       29.53       
107.9       19.881      151.782     2.357       6.651       16.919      14.652      13.656      15.46       1.154       28.058      10.771      3.127       1.762       80.27       25.357      1.101       29.725      
108.0       19.369      151.926     2.349       6.673       16.843      14.406      13.405      15.099      1.135       29.737      10.839      3.047       1.77        79.401      25.186      1.101       29.853      
108.1       18.522      151.756     2.34        6.666       16.677      14.16       13.127      14.691      1.115       30.777      10.896      2.929       1.77        78.544      25.056      1.101       29.91       
108.2       19.561      152.001     2.334       6.652       16.55       13.953      12.871      14.274      1.097       31.359      10.976      2.873       1.761       77.722      25.01       1.101       29.954      
108.3       20.413      151.428     2.333       6.693       16.644      13.724      12.608      13.839      1.087       31.986      11.071      2.903       1.754       76.936      25.043      1.101       30.014      
108.4       21.075      151.385     2.334       6.763       16.834      13.538      12.332      13.387      1.087       32.888      11.186      3.017       1.76        76.193      25.158      1.101       29.981      
108.5       21.3        151.412     2.337       6.824       17.106      13.454      12.063      12.974      1.098       33.97       11.324      3.119       1.77        75.5        25.342      1.101       29.977      
108.6       21.226      151.346     2.339       6.876       17.476      13.482      11.841      12.63       1.126       35.22       11.425      3.134       1.777       74.84       25.564      1.101       30.049      
108.7       20.933      151.337     2.341       6.911       17.8        13.582      11.678      12.332      1.165       36.507      11.554      3.067       1.774       74.197      25.803      1.101       30.377      
108.8       20.979      151.386     2.346       6.952       18.008      13.755      11.529      12.015      1.204       37.711      11.69       2.982       1.767       73.565      26.007      1.101       30.899      
108.9       21.146      151.284     2.349       6.965       18.083      13.872      11.357      11.67       1.232       38.847      11.835      2.938       1.778       72.937      26.182      1.101       31.498      
109.0       21.34       151.611     2.349       6.954       18.056      13.893      11.152      11.305      1.28        40.173      12.034      2.913       1.796       72.304      26.363      1.101       32.003      
109.1       21.601      151.419     2.345       6.878       17.998      13.902      10.895      10.888      1.326       41.982      12.297      2.881       1.81        71.648      26.549      1.101       32.316      
109.2       21.341      151.372     2.342       6.737       17.929      13.864      10.587      10.449      1.406       44.372      12.551      2.825       1.799       70.953      26.754      1.101       32.42       
109.3       20.233      151.304     2.341       6.604       17.817      13.754      10.236      10.016      1.51        47.373      12.857      2.794       1.779       70.229      27.032      1.101       32.24       
109.4       19.846      151.48      2.34        6.526       17.609      13.624      9.854       9.606       1.597       51.434      13.302      2.762       1.765       69.456      27.371      1.101       31.872      
109.5       19.351      151.331     2.338       6.482       17.287      13.303      9.429       9.218       1.837       57.153      13.73       2.769       1.763       68.64       27.75       1.102       31.359      
109.6       18.972      151.368     2.336       6.47        16.9        12.759      9.039       8.985       2.191       65.315      14.281      2.827       1.77        67.783      28.198      1.106       30.792      
109.7       18.838      151.539     2.335       6.469       16.453      12.075      8.81        8.942       2.871       79.078      14.903      2.927       1.772       66.874      28.764      1.11        30.249      
109.8       18.592      151.539     2.333       6.567       15.914      11.279      8.742       9.367       4.208       106.708     15.546      3.045       1.77        65.923      29.503      1.113       29.804      
109.9       18.289      151.257     2.322       6.726       15.194      10.715      9.064       10.965      5.806       154.233     16.31       3.098       1.76        64.931      30.537      1.114       29.401      
110.0       18.396      151.282     2.3         6.966       14.23       10.546      10.331      14.147      7.89        217.904     17.255      3.128       1.758       63.898      31.982      1.114       28.981      
110.1       18.581      151.398     2.275       7.103       13.696      11.308      12.538      17.772      10.054      276.393     17.997      3.16        1.766       62.858      33.567      1.114       28.505      
110.2       20.177      151.426     2.247       7.043       15.157      13.629      15.311      22.168      13.82       323.639     19.057      3.238       1.773       61.795      36.289      1.114       27.733      
110.3       33.533      151.379     2.213       6.597       19.526      17.119      18.051      26.599      17.995      357.451     22.833      3.445       1.805       60.717      40.923      1.119       26.708      
110.4       79.042      151.03      2.172       5.877       27.841      20.805      20.497      29.555      21.243      373.397     25.589      3.787       1.898       59.592      47.69       1.119       25.51       
110.5       164.038     150.8       2.13        5.038       42.125      24.303      22.457      30.86       29.668      379.171     28.617      4.208       1.963       58.425      58.048      1.119       24.279      
110.6       237.21      150.536     2.099       4.333       63.263      27.764      23.599      30.175      37.884      369.927     31.786      4.584       2.104       57.227      73.529      1.119       23.124      
110.7       230.999     150.51      2.081       3.856       85.801      30.56       24.223      28.956      46.101      351.116     34.168      4.802       2.217       56.014      92.589      1.119       22.204      
110.8       203.825     150.603     2.072       3.655       101.866     34.006      24.654      28.292      46.784      334.499     35.278      4.909       2.257       54.732      112.436     1.117       21.451      
110.9       186.648     150.582     2.065       3.66        108.876     40.066      25.146      28.164      46.784      321.127     38.778      4.944       2.25        53.381      131.655     1.117       20.967      
111.0       119.597     150.502     2.058       3.727       112.245     50.557      25.827      28.103      46.058      309.239     40.727      5.03        2.234       51.951      148.268     1.115       20.63       
