~Version Information Section
VERS.                                         2.0:CWLS log ASCII Standart – VERSION 2.0
WRAP.                                          NO:One line per depth step
~Well Information Section
STRT.M                                        1.0:Начальная глубина
STOP.M                                      192.9:Конечная глубина
STEP.M                                          0:Шаг квантования по глубине
NULL.                                    -9999.25:Признак "Нет данных"
WELL.                                       123Мх:Скважина
~Parameter Information Section
~Curve Information Section
DEPTH.M                                          :Глубина
BK.lgОмм                                         :BK     (БК)
ПРОФ_СР.мм                                       :DS  (ДС)
ГК.мкР/час                                       :GK          (ГК)
ГЗ1.Омм                                          :GZ1   ГЗ1(A0.4M0.1N)
ГЗ2.Омм                                          :GZ2   ГЗ2(A1.0M0.1N)
ГЗ3.Омм                                          :GZ3   ГЗ3(A2.0M0.5N)
ГЗ4.Oмм                                          :GZ4   ГЗ4(A4.0M0.5N)
ГЗ5.Oмм                                          :GZ5   ГЗ5(A8.0M0.5N)
ГЗК.Омм                                          :GZK   ГЗK(N0.5M2.0A)
ИК.мСм/м                                         :IK
НГК.усл.ед.                                      :NGK     (НГК)
PS.мВ                                            :PS       (ПС)
PZ.Омм                                           :PZ    (КС)
RIS.Омм                                          :RS (Резистивиметр)
U1.мВ                                            :U1
U2.мВ                                            :U2
U3.mv                                            :U3
W.                                               :W
П.%                                              :п
ННКМ.усл.ед                                      :ННКм
~ASCII LOG DATA
# ...
109.8       54.45       126.232     4.168       53.28       31.96       19.468      36.536      28.334      26.786      12.695      1.267       308.275     44.799      1.403       1735.285    1304.831    1177.352    2.299       30.843      0.2         
109.9       63.826      125.796     4.055       53.64       31.96       20.801      37.203      28.667      26.119      12.903      1.247       307.52      45.927      1.403       1807.39     1356.83     1164.626    2.291       31.566      0.199       
110.0       69.663      125.479     4.142       54.36       31.96       23.468      37.536      29.334      25.786      12.948      1.236       306.389     46.679      1.403       1629.581    1256.134    1030.513    2.292       31.078      0.207       
110.1       71.121      125.412     4.144       55.08       31.96       27.468      37.203      30.334      25.786      13.139      1.218       305.257     47.055      1.404       1329.736    945.108     733.657     2.288       30.351      0.213       
110.2       69.984      125.456     4.252       55.8        32.3        31.468      36.536      31.334      26.119      13.295      1.198       304.126     47.431      1.405       972.735     606.512     428.942     2.291       29.043      0.215       
110.3       71.779      124.222     4.344       56.52       32.98       36.134      35.536      32.334      26.786      13.419      1.162       303.372     47.431      1.408       826.531     460.164     288.263     2.29        28.622      0.218       
110.4       74.645      124.356     4.465       57.24       33.66       40.801      34.536      33.334      27.786      13.57       1.138       302.24      47.431      1.411       763.222     453.679     302.958     2.274       28.707      0.216       
110.5       74.131      126.212     4.396       57.96       34.34       47.468      33.536      34.667      28.453      13.643      1.151       301.109     47.431      1.413       767.529     528.935     410.699     2.257       28.778      0.21        
110.6       72.444      126.374     4.18        59.04       35.02       51.468      33.203      36.001      29.453      13.774      1.182       299.977     47.431      1.415       832.877     667.341     591.355     2.252       29.065      0.203       
110.7       69.024      125.328     3.971       59.76       35.7        53.468      33.203      37.334      30.119      13.855      1.228       298.846     47.431      1.416       937.949     787.368     720.853     2.239       29.358      0.202       
110.8       71.45       125.68      3.91        61.92       36.72       50.801      33.536      39.001      31.453      13.947      1.258       297.715     47.431      1.416       1028.895    821.271     714.91      2.24        29.987      0.206       
110.9       73.451      125.541     4.109       65.52       37.74       48.801      33.536      40.667      32.453      13.961      1.253       296.206     47.431      1.416       1114.542    835.073     674.418     2.229       30.282      0.209       
111.0       72.277      125.719     4.256       69.12       39.1        46.134      33.536      42.334      33.786      13.985      1.216       294.697     48.935      1.416       1219.739    923.883     743.429     2.231       30.497      0.215       
111.1       72.946      125.893     4.154       70.56       40.46       43.468      33.536      43.001      34.786      14.019      1.16        293.189     51.943      1.416       1228.533    966.214     804.924     2.219       30.687      0.216       
111.2       72.778      125.165     3.929       69.12       42.16       42.134      33.536      43.667      36.119      14.034      1.186       291.68      55.327      1.416       1102.805    863.725     723.235     2.214       30.825      0.21        
111.3       73.79       124.113     3.842       67.68       43.86       42.801      33.203      44.001      37.786      13.981      1.207       290.549     59.087      1.416       839.006     602.813     478.354     2.212       30.428      0.212       
111.4       76.56       124.054     3.772       66.96       45.56       44.801      32.536      44.334      39.453      14.014      1.201       289.795     62.847      1.416       636.077     410.432     301.399     2.217       29.66       0.21        
111.5       78.343      125.487     3.693       66.96       46.58       47.468      31.536      44.334      40.453      14.01       1.16        289.04      65.103      1.416       520.46      316.777     223.18      2.218       29.084      0.204       
111.6       77.446      125.972     3.727       66.96       47.6        50.801      30.536      44.334      42.453      13.934      1.153       288.663     65.479      1.415       475.243     319.489     260.402     2.218       28.576      0.209       
111.7       77.983      126.087     3.931       67.32       47.94       54.134      29.536      44.334      44.453      13.844      1.177       288.286     65.103      1.413       420.317     329.42      325.548     2.219       27.829      0.21        
111.8       77.268      126.711     4.05        70.56       48.28       56.801      28.536      44.334      46.453      13.812      1.181       288.286     62.471      1.409       594.329     532.206     550.849     2.219       27.272      0.207       
111.9       78.524      127.029     3.776       73.44       48.28       59.468      27.869      44.001      45.453      13.738      1.14        288.286     59.087      1.402       1029.824    942.564     928.579     2.217       27.818      0.208       
112.0       76.913      126.435     3.566       75.96       47.6        61.468      27.203      42.334      43.786      13.683      1.144       288.286     55.703      1.394       1487.514    1310.398    1210.664    2.219       28.912      0.21        
112.1       74.473      125.686     3.467       74.88       46.92       60.801      26.536      40.334      41.119      13.55       1.162       288.286     52.695      1.386       1710.182    1429.972    1244.918    2.216       30.035      0.218       
112.2       75.336      127.125     3.531       70.2        45.56       58.134      25.536      38.001      38.453      13.487      1.217       288.286     51.191      1.378       1574.171    1210.648    979.091     2.227       30.986      0.221       
112.3       78.524      126.271     3.746       65.16       44.54       54.134      24.869      36.001      35.453      13.349      1.256       288.286     51.567      1.372       1318.039    901.132     658.926     2.228       31.803      0.217       
112.4       76.56       125.377     3.981       60.12       42.5        52.134      24.536      34.001      32.453      13.257      1.238       288.286     52.695      1.367       1161.534    703.384     458.489     2.242       31.316      0.213       
112.5       69.823      124.723     4.467       59.76       40.12       50.801      24.869      31.334      30.786      13.131      1.197       288.286     53.823      1.365       1212.561    695.611     421.014     2.255       30.287      0.212       
112.6       74.989      125.911     4.757       60.48       38.08       50.801      25.869      28.667      29.786      13.087      1.175       288.286     54.951      1.364       1473.331    879.416     547.389     2.255       29.178      0.211       
112.7       72.277      125.849     4.921       62.28       37.4        50.801      28.203      26.001      29.786      13.009      1.194       288.286     55.327      1.364       1581.989    1042.42     742.675     2.269       28.694      0.212       
112.8       62.806      123.695     4.82        65.16       38.42       50.801      30.203      25.001      29.786      13.011      1.215       288.286     56.079      1.366       1534.051    1184.077    1009.012    2.28        28.044      0.213       
112.9       53.827      123.617     4.518       67.68       39.78       50.801      31.536      25.667      29.786      12.969      1.205       288.286     57.207      1.369       1545.978    1340.158    1248.41     2.299       27.697      0.215       
