~Version Information Section
VERS.                                         2.0:CWLS log ASCII Standart – VERSION 2.0
WRAP.                                          NO:One line per depth step
~Well Information Section
STRT.M                                        0.6:Начальная глубина
STOP.M                                      209.2:Конечная глубина
STEP.M                                          0:Шаг квантования по глубине
NULL.                                    -9999.25:Признак "Нет данных"
WELL.                                       107Мх:Скважина
~Parameter Information Section
~Curve Information Section
DEPTH.M                                          :Глубина
PS.mv                                            :PS       (ПС)
PZ.Ohm*M                                         :PZ    (КС)
RS.Ohm*M                                         :RS (Резистивиметр)
U1.mV                                            :U1
U2.mV                                            :U2
U3.mV                                            :U3
КП.%                                             :Кп
BK.Ohm*M                                         :BK     (БК)
DS.mm                                            :DS  (ДС)
GGK.g/cm3                                        :GGKp
ГК.mcr/h                                         :GK          (ГК)
GZ1.Ohm*M                                        :GZ1   ГЗ1(A0.4M0.1N)
GZ2.Ohm*M                                        :GZ2   ГЗ2(A1.0M0.1N)
GZ3.Ohm*M                                        :GZ3   ГЗ3(A2.0M0.5N)
GZ4.Ohm*M                                        :GZ4   ГЗ4(A4.0M0.5N)
GZ5.Ohm*M                                        :GZ5   ГЗ5(A8.0M0.5N)
GZR.Ohm*M                                        :GZK   ГЗK(N0.5M2.0A)
ИК.Ohm*M                                         :IK
НГК.u.e.                                         :NGK
NNKM.                                            :NNKm  (ННКм)
~ASCII LOG DATA
# ...
192.6       1025.421    462.535     1.044       429.376     319.744     429.661     11.025      387.258     118.827     2.627       3.133       147.39      144.634     147.942     40.103      43.31       267.72      13.295      3.469       33.829      
192.7       1027.105    463.287     1.044       455.959     358.633     469.961     12.891      347.536     118.821     2.706       3.248       146.97      144.114     147.942     39.983      43.45       267.72      13.112      3.334       33.606      
192.8       1028.865    464.415     1.044       465.392     406.115     555.473     17.054      308.319     119.054     2.697       3.444       146.13      143.594     147.942     39.863      43.45       267.72      12.94       3.251       32.572      
192.9       1030.651    465.167     1.044       452.82      437.602     647.303     20.01       295.121     119.028     2.666       3.496       145.29      143.594     144.862     39.863      43.45       268.76      12.702      3.122       31.538      
193.0       1032.436    465.543     1.044       469.964     474.512     728.227     21.424      155.239     119.235     2.588       3.544       142.77      143.594     145.302     39.623      43.59       268.76      12.651      2.865       30.629      
193.1       1034.196    465.167     1.044       565.837     553.811     808.904     19.777      76.208      119.854     2.469       3.637       141.93      143.594     145.302     39.503      43.73       269.8       12.559      2.483       29.719      
193.2       1035.956    464.039     1.044       735.057     673.68      886.267     16.891      34.995      120.193     2.379       3.781       141.51      143.594     145.742     39.383      43.87       270.84      12.428      2.141       26.494      
193.3       1037.766    461.783     1.044       923.538     787.271     925.117     15.208      19.364      122.847     2.358       4.38        139.83      143.594     146.182     39.383      44.01       273.96      12.428      1.858       23.269      
193.4       1039.601    459.527     1.044       1059.119    835.922     887.123     14.541      16.218      121.231     2.42        4.752       139.41      144.114     146.622     39.383      44.01       279.16      12.357      1.684       21.617      
193.5       1041.462    457.271     1.044       1104.065    817.131     804.908     14.72       43.652      119.615     2.437       5.49        138.57      144.634     147.062     39.503      44.15       283.32      12.357      1.606       19.966      
193.6       1043.348    455.015     1.044       1035.562    745.682     728.299     14.996      70.307      119.108     2.43        5.489       137.31      144.634     147.502     39.863      44.85       288.52      12.291      1.618       21.431      
193.7       1045.259    452.759     1.044       868.166     617.052     636.8       14.677      70.795      119.068     2.387       5.346       134.79      147.234     148.382     39.983      44.99       292.68      12.287      1.677       23.262      
193.8       1047.22     451.255     1.044       684.16      472.114     528.106     13.969      72.111      119.154     2.407       4.739       133.95      148.274     149.702     41.063      44.99       295.8       12.191      1.793       24.081      
193.9       1049.231    449.751     1.044       591.447     401.909     470.341     13.244      75.509      119.232     2.414       4.342       133.53      147.234     150.142     41.303      44.57       290.6       12.021      1.892       24.836      
194.0       1051.293    448.999     1.044       616.634     412.384     460.579     13.286      80.168      119.202     2.505       4.254       132.69      146.194     150.142     42.503      44.01       289.56      11.879      1.947       25.346      
194.1       1053.405    448.999     1.044       711.886     443.103     435.231     16.054      87.297      119.174     2.577       4.51        131.43      143.074     149.702     40.583      43.03       285.4       11.669      1.927       25.693      
194.2       1055.542    450.879     1.044       827.068     482.262     410.603     19.077      93.111      119.207     2.721       4.65        130.59      140.994     148.382     38.543      42.19       284.36      11.498      1.94        25.808      
194.3       1057.729    453.511     1.044       940.596     548.542     435.928     24.095      84.723      119.203     2.719       4.766       130.17      135.794     147.502     37.103      41.49       282.28      11.272      1.978       25.761      
194.4       1059.942    458.399     1.044       1025.714    622.553     495.221     27.023      68.077      119.203     2.643       4.602       130.17      132.674     146.182     36.623      41.35       280.2       11.218      1.977       25.557      
194.5       1062.155    459.527     1.044       1052.056    671.456     550.773     26.827      66.222      119.203     2.439       4.862       129.33      132.154     144.862     36.383      41.07       270.84      11.197      1.898       25.107      
194.6       1064.418    459.527     -9999.25    1045.303    706.245     604.349     23.72       29.444      119.203     2.261       4.643       127.65      131.634     144.422     36.023      40.93       263.56      11.199      1.641       23.252      
194.7       1066.705    456.895     -9999.25    1053.62     753.246     670.108     18.48       16.444      119.203     2.178       4.913       127.23      129.034     143.982     35.903      40.51       261.48      11.252      1.401       19.287      
194.8       1068.994    451.255     -9999.25    1060.071    798.048     738.891     15.932      14.289      119.203     2.214       5.266       127.23      126.434     141.342     35.543      40.37       256.28      11.307      1.229       16.746      
194.9       1071.281    441.855     -9999.25    1019.793    805.441     786.794     13.771      13.964      119.203     2.332       5.985       125.13      124.874     138.262     35.183      39.95       255.24      11.328      1.207       15.937      
195.0       1073.544    433.959     -9999.25    969.353     788.614     807.682     13.16       21.281      119.203     2.489       6.272       124.71      123.834     135.182     34.943      39.81       247.96      11.307      1.252       15.289      
195.1       1075.832    426.439     -9999.25    992.079     785.863     801.456     12.78       48.195      119.203     2.531       6.085       124.71      123.834     132.542     34.823      39.67       245.88      11.289      1.428       18.359      
195.2       1078.145    418.167     -9999.25    1065.724    787.716     765.902     12.464      48.195      118.678     2.561       5.751       123.03      122.794     131.222     34.703      39.39       238.6       11.27       1.619       22.196      
195.3       1080.408    411.023     -9999.25    1149.156    786.649     715.116     12.57       61.659      118.715     2.522       5.401       122.61      122.274     130.782     34.583      38.97       235.48      11.183      1.829       24.335      
195.4       1082.596    403.503     -9999.25    1272.796    812.74      674.028     13.454      63.68       118.653     2.555       4.94        122.19      120.714     129.902     34.343      38.69       230.28      11.111      1.991       26.049      
195.5       1084.733    395.231     -9999.25    1403.188    863.503     662.533     14.222      60.534      118.454     2.534       4.49        121.35      117.594     127.262     34.223      38.13       228.2       10.987      2.122       26.296      
195.6       1086.82     385.83      -9999.25    1459.768    922.777     712.845     14.365      52.36       118.85      2.566       4.282       121.35      116.554     126.382     34.103      37.71       228.2       10.85       2.156       26.169      
195.7       1088.881    377.935     -9999.25    1456.257    989.69      815.414     14.184      56.105      118.712     2.541       4.246       121.35      116.034     125.502     33.983      37.01       226.12      10.713      2.065       26.126      
