~Version Information Section
VERS.                                         2.0:CWLS log ASCII Standart – VERSION 2.0
WRAP.                                          NO:One line per depth step
~Well Information Section
STRT.M                                        1.2:Начальная глубина
STOP.M                                      208.4:Конечная глубина
STEP.M                                          0:Шаг квантования по глубине
NULL.                                    -9999.25:Признак "Нет данных"
WELL.                                       109Мх:Скважина
~Parameter Information Section
~Curve Information Section
DEPTH.M                                          :Глубина
BK.Ohm*M                                         :BK     (БК)
DS.mm                                            :DS  (ДС)
GGK.g/cm3                                        :GGKp
ГК.mcr/h                                         :GK          (ГК)
GZ1.Ohm*M                                        :GZ1   ГЗ1(A0.4M0.1N)
GZ2.Ohm*M                                        :GZ2   ГЗ2(A1.0M0.1N)
GZ3.Ohm*M                                        :GZ3   ГЗ3(A2.0M0.5N)
GZ4.Ohm*M                                        :GZ4   ГЗ4(A4.0M0.5N)
GZ5.Ohm*M                                        :GZ5   ГЗ5(A8.0M0.5N)
GZR.Ohm*M                                        :GZK   ГЗK(N0.5M2.0A)
ИК.Ohm*M                                         :IK
НГК.u.e.                                         :NGK
NNKM.                                            :NNKm  (ННКм)
U1.mV                                            :U1
U2.mV                                            :U2
U3.mV                                            :U3
КП.%                                             :Кп
PS.mv                                            :PS       (ПС)
PZ.Ohm*M                                         :PZ    (КС)
RS.Ohm*M                                         :RS (Резистивиметр)
~ASCII LOG DATA
# ...
174.0       104.713     129.638     2.069       3.29        86.91       66.114      52.462      19.943      20.63       85.72       10.293      1.816       2.51        346.591     269.664     375.943     21.95       1031.623    61.396      1.061       
174.1       105.439     129.642     2.054       3.182       87.33       68.714      52.902      20.543      22.45       87.8        10.452      1.823       2.516       329.569     272.017     413.669     20.85       1030.634    68.03       1.061       
174.2       111.944     130.196     2.03        3.343       87.33       71.834      53.342      20.663      22.73       90.92       10.452      1.809       2.523       361.614     330.772     519.295     19.709      1029.603    72.356      1.061       
174.3       116.681     132.853     2.011       3.655       88.17       72.354      53.342      20.903      27.07       93.0        10.616      1.816       2.555       532.178     471.585     631.272     19.181      1028.53     76.105      1.061       
174.4       112.461     135.068     1.998       3.811       88.59       72.874      53.782      21.143      27.07       107.56      10.7        1.763       2.605       746.074     626.488     713.019     18.981      1027.416    79.494      1.061       
174.5       107.399     133.922     2.001       3.832       88.59       74.434      53.782      21.503      27.07       122.12      10.872      1.683       2.63        922.521     746.969     757.191     18.771      1026.267    82.09       1.061       
174.6       109.144     129.655     2.048       3.934       107.49      74.434      53.782      21.743      26.93       127.32      11.234      1.623       2.639       947.177     766.448     762.987     18.616      1025.102    84.325      1.061       
174.7       115.345     127.361     2.089       3.74        110.85      76.514      53.782      21.983      26.79       131.48      11.328      1.596       2.618       885.588     709.15      710.593     18.877      1023.929    86.2        1.061       
174.8       115.08      127.313     2.121       3.499       112.53      79.114      54.222      22.223      26.37       132.52      11.424      1.609       2.559       794.554     608.787     607.038     19.458      1022.747    86.705      1.059       
174.9       104.954     127.361     2.108       3.169       113.79      80.154      54.662      22.343      25.95       131.48      11.521      1.629       2.523       769.978     561.03      543.607     20.404      1021.557    86.416      1.058       
175.0       91.201      127.336     2.105       3.261       114.63      79.634      54.662      22.463      25.95       130.44      11.928      1.663       2.486       885.222     644.632     600.988     21.04       1020.359    85.623      1.056       
175.1       90.365      127.328     2.09        3.363       119.241     74.434      55.542      22.943      25.39       130.44      12.034      1.683       2.44        1153.181    857.945     769.003     21.635      1019.169    84.181      1.053       
175.2       95.719      127.314     2.092       3.41        119.241     69.754      55.982      22.103      24.83       128.36      12.365      1.683       2.42        1471.56     1097.084    946.749     21.864      1018.004    82.162      1.051       
175.3       100.0       127.285     2.081       3.403       122.667     68.714      56.862      21.383      24.41       127.32      12.365      1.669       2.411       1674.263    1240.88     1047.079    21.237      1016.872    80.143      1.049       
175.4       98.628      127.299     2.095       3.424       123.554     68.194      68.302      21.023      23.99       126.28      12.479      1.656       2.429       1664.213    1238.564    1051.151    20.426      1015.758    78.124      1.047       
175.5       95.06       127.302     2.087       3.438       120.837     68.194      76.662      20.903      23.71       125.24      12.595      1.676       2.443       1455.34     1112.341    987.591     20.448      1014.651    76.394      1.045       
175.6       98.855      127.231     2.073       3.526       122.6       67.674      77.982      20.903      23.15       124.2       12.714      1.676       2.42        1215.179    985.749     954.783     21.491      1013.553    74.808      1.044       
175.7       100.462     127.192     2.056       3.552       122.6       67.154      77.982      20.903      23.15       123.16      12.834      1.636       2.398       1083.43     914.465     950.209     21.554      1012.481    73.87       1.044       
175.8       101.625     127.224     2.068       3.779       126.536     67.154      77.982      21.143      23.15       123.16      12.957      1.569       2.491       1092.808    875.237     907.108     20.177      1011.441    72.933      1.044       
175.9       101.625     127.288     2.107       3.866       126.338     67.154      77.982      21.263      23.43       121.08      12.957      1.509       2.608       1187.137    823.159     779.667     18.953      1010.444    72.5        1.044       
176.0       102.565     127.254     2.117       3.876       126.338     67.154      77.542      21.263      23.85       121.08      12.957      1.476       2.566       1246.855    783.443     686.864     19.986      1009.48     72.428      1.044       
176.1       101.158     127.303     2.105       3.765       112.847     67.154      77.102      21.383      23.99       120.04      12.957      1.436       2.458       1202.801    802.218     751.735     21.627      1008.542    72.933      1.044       
176.2       95.719      127.262     2.074       3.761       109.896     67.154      77.102      21.503      23.99       120.04      13.083      1.396       2.416       1120.908    867.735     905.304     23.627      1007.636    73.726      1.044       
176.3       93.325      127.283     2.111       3.805       111.545     67.154      76.222      21.623      24.27       117.96      13.211      1.369       2.419       1117.137    928.408     982.267     24.348      1006.765    74.663      1.044       
176.4       99.77       127.232     2.112       3.682       108.812     67.154      76.222      21.863      24.41       117.96      13.341      1.356       2.42        1181.796    932.104     912.544     26.059      1005.918    75.745      1.044       
176.5       113.24      127.237     2.164       3.585       108.812     68.714      75.782      22.103      24.55       117.96      13.474      1.343       2.296       1184.488    863.054     772.182     27.049      1005.097    76.754      1.044       
176.6       124.738     127.588     2.15        3.37        106.901     71.314      75.342      22.343      24.97       120.04      13.61       1.329       2.172       1056.173    739.159     643.88      28.076      1004.301    77.692      1.044       
176.7       128.825     127.587     2.188       3.356       107.925     72.874      75.342      22.463      25.11       126.28      13.748      1.316       2.167       869.823     602.476     542.574     28.127      1003.521    78.557      1.044       
176.8       128.825     127.209     2.168       3.395       109.869     74.954      74.902      22.463      25.11       128.36      13.748      1.316       2.162       737.923     504.861     471.578     28.096      1002.759    79.206      1.044       
176.9       128.825     127.211     2.146       3.545       109.869     75.474      74.902      22.703      25.25       133.56      13.748      1.316       2.139       739.064     482.437     441.669     27.948      1002.013    79.855      1.044       
177.0       118.577     127.172     2.107       3.462       111.944     75.474      76.222      23.063      25.53       135.64      14.034      1.285       2.107       927.616     557.927     460.16      27.952      1001.284    80.36       1.044       
177.1       118.85      127.169     2.082       3.357       111.262     75.474      78.862      23.423      25.53       135.64      14.034      1.255       2.11        1194.98     685.253     514.005     28.303      1000.571    80.936      1.044       
