~Version Information Section
VERS.                                         2.0:CWLS log ASCII Standart – VERSION 2.0
WRAP.                                          NO:One line per depth step
~Well Information Section
STRT.M                                        0.7:Начальная глубина
STOP.M                                      200.1:Конечная глубина
STEP.M                                          0:Шаг квантования по глубине
NULL.                                    -9999.25:Признак "Нет данных"
WELL.                                       111Мх:Скважина
~Parameter Information Section
~Curve Information Section
DEPTH.M                                          :Глубина
DСР.mm                                           :Dср
ГК.1/min                                         :GK
ИК.mSim/m                                        :IK
N0.5M2.0A.Омм                                    :N0
НГК.усл.ед                                       :NGK
PZ.Ohm*M                                         :PZ
R.Ohm*M                                          :R
PS.mV                                            :ПС
U1.mV                                            :U1
U2.                                              :U2
U3.mV                                            :U3
А0.4М0.1N.Омм                                    :А0
А1.0М0.1N.Омм                                    :А1
А2.0М0.5N.Омм                                    :А2
А4.0М0.5N.Oмм                                    :А4
А8.0М1.0N.Омм                                    :А8
BK.Ohm*M                                         :БК
ГГК.1/min                                        :ГГК
КП.%                                             :Кп
ННКМ.усл.ед                                      :ННКм
~ASCII LOG DATA
# ...
119.1       128.701     2.022       48.813      72.227      1.88        251.9       1.06        248.002     1187.6      1569.0      1458.8      328.646     91.726      45.699      22.538      43.534      924.453     2.435       16.608      3.532       
119.2       128.968     1.958       50.448      71.646      2.028       260.3       1.06        251.698     1202.0      1575.0      1472.799    338.912     142.944     45.3        23.95       39.959      815.362     2.432       16.564      3.507       
119.3       129.486     1.709       51.62       71.646      2.18        268.3       1.06        256.133     1223.601    1581.0      1495.201    342.517     203.479     45.3        28.231      34.642      790.1       2.431       16.558      3.471       
119.4       128.944     1.709       52.289      71.646      2.392       274.1       1.06        261.307     1242.8      1584.0      1518.534    342.748     266.789     45.3        34.196      28.686      743.534     2.423       16.668      3.446       
119.5       129.401     1.805       52.834      72.475      2.645       277.3       1.06        266.974     1250.0      1587.0      1536.267    343.638     327.745     45.839      40.153      22.833      698.883     2.42        16.748      3.458       
119.6       129.376     1.869       53.306      75.33       2.654       277.3       1.06        273.381     1247.6      1590.0      1554.933    343.117     372.77      47.299      46.303      17.708      649.904     2.415       17.009      3.423       
119.7       128.955     2.189       53.419      81.564      2.723       277.3       1.06        279.664     1235.601    1590.0      1573.599    341.265     396.948     49.479      53.737      13.752      566.578     2.413       17.171      3.371       
119.8       129.447     2.909       53.002      93.567      2.768       277.3       1.06        285.947     1240.4      1590.0      1587.6      339.492     420.741     53.102      62.422      10.969      530.644     2.407       17.153      3.376       
119.9       128.852     3.629       52.326      111.598     2.604       277.3       1.06        292.477     1257.201    1590.0      1597.867    338.161     451.265     60.318      72.512      9.1         528.896     2.41        17.043      3.393       
120.0       128.266     3.206       51.369      132.105     2.629       277.3       1.06        298.883     1283.6      1593.0      1602.317    339.929     479.706     72.848      85.147      7.896       398.5       2.417       16.814      3.458       
120.1       128.605     2.995       50.39       147.283     2.763       270.5       1.06        305.043     1321.999    1596.0      1594.722    341.893     513.427     91.174      101.993     7.085       323.363     2.44        16.376      3.525       
120.2       127.423     3.619       49.668      152.345     2.608       260.9       1.06        311.573     1362.799    1587.702    1571.635    345.527     546.589     117.228     117.017     6.391       796.459     2.469       15.679      3.544       
120.3       127.406     3.744       49.015      152.502     2.541       249.4       1.06        317.979     1355.6      1549.193    1534.434    346.945     560.121     151.014     122.28      5.746       1319.022    2.504       15.02       3.602       
120.4       129.523     2.707       48.451      152.502     2.551       237.5       1.06        323.646     1326.799    1492.318    1486.017    340.695     560.121     176.765     122.28      5.231       1206.272    2.527       14.646      3.741       
120.5       129.615     2.49        47.915      148.002     2.378       224.5       1.06        328.574     1290.8      1424.718    1430.628    327.176     528.238     184.133     121.66      4.807       756.329     2.54        14.82       3.748       
120.6       127.129     2.054       47.124      135.451     2.464       217.9       1.06        333.01      1252.401    1356.763    1373.915    299.042     453.505     184.133     115.24      4.376       347.539     2.528       15.057      3.577       
120.7       127.737     2.454       46.164      118.422     2.461       211.7       1.06        336.952     1214.0      1300.104    1322.542    270.273     371.375     182.433     100.025     3.93        115.509     2.498       16.476      3.284       
120.8       128.075     3.053       44.927      104.798     2.365       205.6       1.06        341.018     1202.0      1277.856    1284.344    248.341     285.095     173.558     77.613      3.487       47.222      2.458       18.234      2.974       
120.9       128.508     4.346       43.255      97.454      2.631       199.7       1.06        346.685     1202.0      1282.673    1265.947    212.19      193.247     153.753     54.075      3.054       47.967      2.422       20.55       2.684       
121.0       128.011     4.992       41.812      92.159      2.752       193.6       1.06        354.323     1206.8      1312.64     1302.949    175.488     134.503     123.837     37.457      2.678       181.41      2.409       22.157      2.498       
121.1       128.203     4.176       40.971      86.805      2.825       192.7       1.06        363.563     1211.6      1353.51     1389.295    150.055     115.19      96.46       28.731      2.418       437.014     2.423       22.819      2.614       
121.2       127.437     4.013       40.715      81.021      3.052       191.2       1.06        374.158     1204.4      1394.38     1487.787    127.404     101.73      80.715      24.15       2.271       475.516     2.449       23.737      2.727       
121.3       127.423     2.822       40.943      75.249      2.76        189.2       1.06        385.246     1185.199    1427.931    1586.289    117.63      87.925      70.173      19.696      2.191       253.349     2.464       25.047      2.7         
121.4       126.306     3.088       41.199      70.493      2.555       187.3       1.06        394.733     1163.599    1439.008    1630.214    121.563     78.715      60.464      15.453      2.153       90.023      2.441       26.363      2.602       
121.5       125.627     4.416       41.158      67.504      2.278       182.9       1.06        402.618     1134.8      1426.525    1586.436    135.523     73.034      51.558      12.355      2.144       67.574      2.389       27.862      2.372       
121.6       126.135     4.0         40.758      66.53       2.0         182.1       1.06        408.901     1101.2      1401.62     1494.669    151.389     70.122      44.6        9.685       2.144       91.161      2.328       28.281      2.229       
121.7       126.56      3.168       40.284      66.53       1.9         182.1       1.06        413.459     1072.401    1375.373    1398.108    160.075     69.368      40.364      7.967       2.151       104.842     2.279       28.765      2.244       
121.8       127.598     3.091       40.193      66.53       1.637       183.7       1.06        416.662     1053.199    1352.247    1322.237    164.982     69.29       38.998      7.545       2.191       107.365     2.263       29.362      2.353       
121.9       126.4       3.014       40.505      66.59       1.604       185.5       1.06        418.757     1036.4      1340.192    1303.295    173.871     69.29       38.998      7.545       2.288       110.252     2.282       29.457      2.478       
122.0       125.925     2.982       41.008      67.446      1.765       187.1       1.06        419.373     1026.8      1327.869    1326.648    196.581     71.482      38.998      7.545       2.44        112.803     2.324       29.401      2.575       
122.1       126.235     2.976       41.427      68.921      1.819       187.1       1.06        419.373     1022.0      1310.546    1349.705    217.665     75.561      39.406      8.111       2.625       108.446     2.374       28.31       2.625       
122.2       126.996     3.13        41.564      70.337      1.504       187.1       1.06        419.373     1031.6      1288.8      1360.759    222.871     79.371      40.906      9.214       2.834       102.892     2.404       27.002      2.546       
