~Version Information Section
VERS.                                         2.0:CWLS log ASCII Standart – VERSION 2.0
WRAP.                                          NO:One line per depth step
~Well Information Section
STRT.M                                        1.6:Начальная глубина
STOP.M                                      209.3:Конечная глубина
STEP.M                                          0:Шаг квантования по глубине
NULL.                                    -9999.25:Признак "Нет данных"
WELL.                                       132Мх:Скважина
~Parameter Information Section
~Curve Information Section
DEPTH.M                                          :Глубина
BК.                                              :BК (Омм)
DS.mm                                            :DS
GGK.g/cm3                                        :GGKp
IК.                                              :IК (Омм)
NGК.                                             :NGК (усл.ед.)
PS.mV                                            :PS
PZ.                                              :PZ (Омм)
REZ.                                             :REZ (Омм)
U1.                                              :U1 (ue)
U2.                                              :U2 (ue)
U3.                                              :U3 (ue)
ГК.mcr/h                                         :ГКканаломНГК
~ASCII LOG DATA
# ...
200.5       21.928      127.93      2.533       13.61       1.674       298.728     14.501      -9999.25    191.958     162.059     126.946     8.988       
200.6       31.277      126.962     2.575       13.852      1.677       298.945     14.502      -9999.25    189.652     157.846     120.963     9.465       
200.7       34.251      126.517     2.585       13.976      1.588       299.131     -9999.25    -9999.25    179.317     148.1       111.918     10.122      
200.8       16.562      126.379     2.484       14.079      1.468       299.195     -9999.25    -9999.25    167.842     138.328     103.946     10.605      
200.9       14.45       126.935     2.4         14.13       1.381       -9999.25    -9999.25    -9999.25    157.541     129.034     95.735      10.637      
201.0       17.67       126.535     2.383       14.104      1.373       -9999.25    -9999.25    -9999.25    147.556     119.53      86.748      10.358      
201.1       24.962      126.781     2.455       14.053      1.376       -9999.25    -9999.25    -9999.25    136.465     108.579     75.971      10.203      
201.2       16.061      126.801     2.457       14.053      1.378       -9999.25    -9999.25    -9999.25    120.171     94.416      63.799      10.058      
201.3       13.276      126.747     2.419       13.951      1.38        -9999.25    -9999.25    -9999.25    116.878     89.675      57.722      9.973       
201.4       13.817      126.766     2.379       13.9        1.347       -9999.25    -9999.25    -9999.25    117.556     88.26       54.233      10.417      
201.5       15.005      128.499     2.345       13.826      1.272       -9999.25    -9999.25    -9999.25    119.889     89.664      54.643      11.017      
201.6       16.262      127.956     2.346       13.875      1.208       -9999.25    -9999.25    -9999.25    124.423     94.01       58.799      11.169      
201.7       16.814      126.795     2.36        13.899      1.193       -9999.25    -9999.25    -9999.25    132.579     102.532     67.712      10.661      
201.8       15.902      125.34      2.414       13.951      1.229       -9999.25    -9999.25    -9999.25    149.8       120.546     86.559      10.295      
201.9       14.835      125.382     2.45        13.976      1.26        -9999.25    -9999.25    -9999.25    163.981     137.898     106.921     10.433      
202.0       14.771      125.525     2.451       13.999      1.237       -9999.25    -9999.25    -9999.25    188.117     163.348     133.613     10.347      
202.1       15.302      125.786     2.451       14.074      1.184       -9999.25    -9999.25    -9999.25    222.208     196.897     166.633     9.95        
202.2       17.398      125.088     2.445       14.151      1.124       -9999.25    -9999.25    -9999.25    255.172     228.707     197.282     9.597       
202.3       17.86       125.315     2.469       14.228      1.104       -9999.25    -9999.25    -9999.25    287.011     258.777     225.561     9.629       
202.4       16.44       125.022     2.449       14.305      1.104       -9999.25    -9999.25    -9999.25    312.279     281.794     246.293     9.662       
202.5       15.691      124.609     2.449       14.278      1.104       -9999.25    -9999.25    -9999.25    320.829     287.24      248.669     9.597       
202.6       15.608      124.501     2.449       14.304      1.105       -9999.25    -9999.25    -9999.25    308.694     272.454     231.385     9.733       
202.7       15.222      124.656     2.437       14.303      1.106       -9999.25    -9999.25    -9999.25    279.711     242.758     201.075     9.954       
202.8       15.859      125.142     2.401       14.354      1.09        -9999.25    -9999.25    -9999.25    244.418     207.87      166.592     10.136      
202.9       16.342      125.183     2.373       14.406      1.067       -9999.25    -9999.25    -9999.25    218.704     183.001     142.556     10.109      
203.0       16.202      124.99      2.362       14.434      1.095       -9999.25    -9999.25    -9999.25    190.134     154.366     114.008     10.336      
203.1       17.97       124.63      2.361       14.514      1.151       -9999.25    -9999.25    -9999.25    168.857     132.479     91.757      10.597      
203.2       16.859      124.96      2.365       14.569      1.198       -9999.25    -9999.25    -9999.25    161.506     127.01      88.229      10.706      
203.3       15.599      125.081     2.383       14.57       1.192       -9999.25    -9999.25    -9999.25    164.245     132.633     96.789      10.551      
203.4       15.164      125.023     2.383       14.516      1.155       -9999.25    -9999.25    -9999.25    171.48      141.01      106.379     10.518      
203.5       15.079      124.913     2.392       14.516      1.127       -9999.25    -9999.25    -9999.25    167.324     136.929     102.382     10.636      
203.6       15.129      125.185     2.381       14.542      1.17        -9999.25    -9999.25    -9999.25    155.683     128.213     97.08       10.764      
203.7       19.352      124.981     2.407       14.542      1.246       -9999.25    -9999.25    -9999.25    159.838     135.052     106.604     10.79       
203.8       20.026      125.087     2.413       14.733      1.317       -9999.25    -9999.25    -9999.25    173.154     147.78      118.527     10.863      
203.9       19.857      125.011     2.431       14.817      1.316       -9999.25    -9999.25    -9999.25    175.646     148.299     116.949     10.871      
204.0       19.862      124.845     2.396       14.874      1.301       -9999.25    -9999.25    -9999.25    172.905     144.947     112.928     10.617      
204.1       19.884      124.789     2.418       14.847      1.297       -9999.25    -9999.25    -9999.25    169.886     142.292     110.671     10.424      
204.2       19.879      124.756     2.425       14.903      1.255       -9999.25    -9999.25    -9999.25    175.115     146.299     112.851     10.634      
204.3       19.873      124.728     2.441       14.934      1.211       -9999.25    -9999.25    -9999.25    172.674     142.679     107.742     11.022      
204.4       19.881      124.459     2.428       14.992      1.19        -9999.25    -9999.25    -9999.25    157.928     128.954     95.08       11.052      
204.5       19.882      124.618     2.405       14.993      1.213       -9999.25    -9999.25    -9999.25    150.86      123.224     90.765      10.758      
204.6       19.88       124.606     2.389       15.023      1.199       -9999.25    -9999.25    -9999.25    147.387     120.048     87.93       10.625      
204.7       19.885      124.516     2.392       15.024      1.162       -9999.25    -9999.25    -9999.25    142.554     114.857     82.366      10.731      
204.8       19.884      124.633     2.42        14.995      1.123       -9999.25    -9999.25    -9999.25    147.63      117.214     82.349      10.779      
204.9       19.886      124.382     2.436       14.936      1.13        -9999.25    -9999.25    -9999.25    155.253     121.217     83.475      10.664      
205.0       19.881      124.096     2.411       15.023      1.228       -9999.25    -9999.25    -9999.25    154.043     117.181     77.006      10.385      
205.1       19.88       124.192     2.391       15.14       1.33        -9999.25    -9999.25    -9999.25    144.001     105.106     62.943      10.348      
205.2       19.881      124.181     2.428       15.288      1.467       -9999.25    -9999.25    -9999.25    150.869     116.329     79.856      10.735      
205.3       19.874      124.057     2.487       15.596      1.514       -9999.25    -9999.25    -9999.25    157.906     126.428     93.808      11.036      
205.4       19.883      124.059     2.563       15.883      1.546       -9999.25    -9999.25    -9999.25    153.843     125.841     96.525      10.701      
205.5       19.882      124.002     2.555       15.98       1.527       -9999.25    -9999.25    -9999.25    147.223     124.367     99.552      10.029      
