~Version Information Section
VERS.                                         2.0:CWLS log ASCII Standart – VERSION 2.0
WRAP.                                          NO:One line per depth step
~Well Information Section
STRT.M                                        0.2:Начальная глубина
STOP.M                                      176.0:Конечная глубина
STEP.M                                          0:Шаг квантования по глубине
NULL.                                    -9999.25:Признак "Нет данных"
WELL.                                       112Мх:Скважина
~Parameter Information Section
~Curve Information Section
DEPTH.M                                          :Глубина
BK.Ohm*M                                         :BK     (БК)
DS.mm                                            :DS  (ДС)
GGK.g/cm3                                        :GGKp
ГК.mcr/h                                         :GK          (ГК)
GZ1.Ohm*M                                        :GZ1   ГЗ1(A0.4M0.1N)
GZ2.Ohm*M                                        :GZ2   ГЗ2(A1.0M0.1N)
GZ3.Ohm*M                                        :GZ3   ГЗ3(A2.0M0.5N)
GZ4.Ohm*M                                        :GZ4   ГЗ4(A4.0M0.5N)
GZ5.Ohm*M                                        :GZ5   ГЗ5(A8.0M0.5N)
GZR.Ohm*M                                        :GZK   ГЗK(N0.5M2.0A)
ИК.Ohm*M                                         :IK
НГК.ue                                           :NGK     (НГК)
NNKM.                                            :NNKm  (ННКм)
PS.mv                                            :PS       (ПС)
PZ.Ohm*M                                         :PZ    (КС)
U1.mV                                            :U1
U2.mV                                            :U2
U3.mV                                            :U3
КП.%                                             :Кп
~ASCII LOG DATA
# ...
153.2       179.739     131.462     2.206       3.333       299.181     227.378     173.983     110.709     81.187      156.105     61.298      1.469       2.414       328.86      319.32      480.0       3020.0      610.0       39.332      
153.3       179.702     131.323     2.205       3.039       298.665     227.389     174.975     109.503     82.007      153.133     61.171      1.431       2.453       326.5       319.96      460.0       3050.0      700.0       39.827      
153.4       183.239     131.173     2.202       2.99        297.9       227.373     175.892     107.838     82.783      149.846     61.123      1.398       2.466       324.6       320.56      460.0       3050.0      660.0       40.733      
153.5       187.387     131.132     2.195       3.038       296.988     227.248     176.611     106.08      83.605      146.546     61.091      1.336       2.453       323.0       321.12      490.0       3050.0      660.0       41.403      
153.6       192.857     131.141     2.19        3.087       295.989     226.931     177.085     104.548     84.568      143.516     60.728      1.314       2.436       321.74      321.68      490.0       3000.0      660.0       41.263      
153.7       198.321     131.11      2.187       3.136       295.036     226.561     177.339     103.449     85.763      140.899     60.847      1.311       2.42        320.78      322.32      480.0       3000.0      730.0       40.834      
153.8       196.217     131.132     2.192       3.138       294.332     226.268     177.44      102.854     87.23       138.621     60.201      1.289       2.404       320.02      322.96      480.0       3020.0      690.0       40.627      
153.9       186.889     131.139     2.193       3.324       294.037     226.155     177.471     102.703     88.956      136.414     60.29       1.291       2.391       319.42      323.64      530.0       3020.0      640.0       39.99       
154.0       180.571     131.148     2.197       3.45        294.037     226.155     177.488     102.703     90.879      133.849     60.043      1.305       2.396       318.96      324.44      520.0       2990.0      630.0       39.539      
154.1       175.315     131.13      2.198       3.379       294.055     226.167     177.527     102.725     92.864      130.447     59.896      1.351       2.411       318.6       325.36      510.0       2970.0      620.0       39.365      
154.2       166.363     131.141     2.195       3.085       294.263     226.29      177.672     102.92      94.743      125.83      59.094      1.332       2.462       318.34      326.32      490.0       2970.0      620.0       39.123      
154.3       165.039     131.107     2.184       2.968       295.212     226.764     178.059     103.546     96.366      119.792     58.861      1.346       2.496       318.18      327.28      490.0       2960.0      690.0       38.529      
154.4       175.0       131.102     2.171       3.095       297.534     227.737     178.752     104.613     97.629      112.341     58.49       1.36        2.457       318.08      328.28      550.0       2950.0      620.0       38.111      
154.5       192.682     131.39      2.167       3.135       301.276     229.072     179.728     105.942     98.491      103.759     58.399      1.378       2.416       318.02      329.28      540.0       2920.0      590.0       38.383      
154.6       261.208     131.182     2.171       3.268       306.085     230.515     180.88      107.357     99.0        94.523      57.964      1.375       2.392       318.0       330.16      530.0       2920.0      570.0       39.652      
154.7       336.996     131.149     2.186       3.372       311.334     231.767     182.02      108.617     99.258      85.174      57.99       1.401       2.39        318.0       330.96      520.0       2900.0      570.0       40.626      
154.8       230.411     131.14      2.202       3.341       316.253     232.627     182.947     109.583     99.366      76.292      57.855      1.411       2.408       318.0       331.68      520.0       2900.0      570.0       40.856      
154.9       207.181     131.21      2.209       3.133       320.151     233.07      183.577     110.224     99.4        68.397      57.945      1.382       2.419       318.0       332.24      560.0       2900.0      630.0       40.396      
155.0       211.674     131.201     2.205       2.976       322.736     233.19      183.938     110.6       99.421      61.824      57.329      1.331       2.425       318.0       332.6       540.0       2880.0      580.0       40.215      
155.1       200.639     131.183     2.193       2.953       324.217     233.206     184.105     110.804     99.477      56.735      56.695      1.312       2.384       318.0       332.8       530.0       2880.0      550.0       40.969      
155.2       182.343     131.174     2.186       2.889       324.935     233.253     184.162     110.961     99.648      53.129      56.312      1.34        2.334       318.0       332.8       520.0       2880.0      530.0       42.407      
155.3       185.131     131.174     2.19        2.722       325.194     233.299     184.215     111.221     100.046     50.823      55.907      1.366       2.341       318.0       332.8       520.0       2860.0      530.0       43.507      
155.4       188.492     131.051     2.205       2.898       325.307     233.314     184.407     111.749     100.784     49.512      55.114      1.417       2.354       318.0       331.44      540.0       2830.0      560.0       44.516      
155.5       183.395     130.756     2.224       3.029       325.488     233.464     184.991     112.711     101.956     48.871      54.292      1.449       2.351       318.0       328.52      610.0       2830.0      540.0       42.775      
155.6       178.718     130.172     2.24        3.089       325.991     234.076     186.287     114.27      103.586     48.614      54.074      1.458       2.362       318.0       324.08      600.0       2850.0      540.0       40.619      
155.7       175.386     129.971     2.251       2.898       327.24      235.491     188.625     116.51      105.626     48.529      53.07       1.469       2.406       318.0       317.4       580.0       2840.0      580.0       37.753      
155.8       176.587     129.642     2.26        2.884       329.558     237.839     192.241     119.378     107.983     48.488      52.185      1.45        2.469       318.0       308.56      540.0       2820.0      570.0       36.81       
155.9       193.21      129.538     2.267       2.784       333.134     241.049     197.14      122.679     110.558     48.433      51.335      1.396       2.539       318.0       300.36      530.0       2820.0      570.0       35.095      
156.0       211.128     129.603     2.278       2.849       338.018     244.882     203.032     126.145     113.222     48.337      50.636      1.33        2.603       318.0       292.84      530.0       2840.0      610.0       33.858      
156.1       239.877     129.354     2.287       2.916       343.922     248.921     209.464     129.505     115.77      48.183      49.504      1.31        2.641       318.0       286.0       510.0       2820.0      590.0       32.789      
156.2       317.266     129.353     2.293       3.212       350.272     252.726     215.984     132.602     117.785     47.939      48.164      1.347       2.72        318.0       281.36      490.0       2820.0      570.0       33.027      
156.3       323.229     129.354     2.29        3.429       356.582     255.58      222.094     135.32      118.807     47.553      46.886      1.412       2.805       318.0       278.88      470.0       2800.0      570.0       33.324      
156.4       289.042     129.049     2.283       3.52        362.042     256.732     226.888     137.255     119.012     46.954      45.108      1.443       2.816       318.0       277.2       470.0       2790.0      600.0       33.667      
156.5       261.0       129.004     2.277       3.477       365.278     256.702     229.179     137.967     118.857     46.04       43.542      1.468       2.816       318.0       276.32      520.0       2790.0      570.0       33.996      
