~Version Information Section
VERS.                                         2.0:CWLS log ASCII Standart – VERSION 2.0
WRAP.                                          NO:One line per depth step
~Well Information Section
STRT.M                                        0.6:Начальная глубина
STOP.M                                      208.2:Конечная глубина
STEP.M                                          0:Шаг квантования по глубине
NULL.                                    -9999.25:Признак "Нет данных"
WELL.                                       156Мх:Скважина
~Parameter Information Section
~Curve Information Section
DEPTH.M                                          :Глубина
БК.Ом                                            :BK     (БК)
DСР.мм                                           :DS  (ДС)
ПЛОТНОСТЬ.г/см^3                                 :GGKp
ГК.мкР/час                                       :GK          (ГК)
А0.4М0.1N.Ом                                     :GZ1   ГЗ1(A0.4M0.1N)
А1.0М0.1N.Ом                                     :GZ2   ГЗ2(A1.0M0.1N)
А2.0М0.5N.Ом                                     :GZ3   ГЗ3(A2.0M0.5N)
А4.0М0.5N.Oм                                     :GZ4   ГЗ4(A4.0M0.5N)
А8.0М1.0N.Ом                                     :GZ5   ГЗ5(A8.0M0.5N)
N0.5M2.0A.Ом                                     :GZR   ГЗK(N0.5M2.0A)
ИК.мСм/м                                         :IK
НГК.усл.ед                                       :NGK     (НГК)
ННКМ.усл.ед                                      :NNKm  (ННКм)
ПС.mv                                            :PS       (ПС)
N11.0M0.5A.Ом                                    :PZ    (КС)
РЕЗИСТИВИМЕТР.Ом                                 :RS (Резистивиметр)
КПSIO.%                                          :W
~ASCII LOG DATA
# ...
185.6       105.388     150.536     2.198       5.107       171.793     247.288     267.271     250.837     162.536     58.703      41.037      1.279       1.339       71.281      174.333     1.335       25.249      
185.7       108.109     150.579     2.219       5.194       184.052     263.226     279.54      258.105     163.32      61.612      39.131      1.326       1.377       71.207      175.006     1.33        23.922      
185.8       114.293     150.864     2.243       5.268       193.764     275.587     288.883     259.55      158.637     63.861      37.096      1.38        1.408       71.28       175.118     1.323       22.628      
185.9       133.802     150.926     2.267       5.28        203.843     288.627     290.128     251.12      148.686     65.002      35.039      1.445       1.462       71.584      173.819     1.317       21.603      
186.0       164.872     150.949     2.286       5.214       214.144     300.051     276.847     229.378     135.775     64.925      32.977      1.495       1.527       72.193      169.902     1.313       20.77       
186.1       182.475     151.052     2.303       5.28        204.669     280.026     247.687     195.811     121.035     63.85       30.959      1.512       1.586       73.132      162.497     1.31        20.21       
186.2       182.811     151.344     2.313       5.285       163.259     215.276     206.272     154.27      105.023     61.645      29.058      1.503       1.611       74.441      150.92      1.31        19.915      
186.3       170.152     151.623     2.315       5.357       104.901     131.444     156.923     109.417     87.653      57.364      27.366      1.455       1.633       76.055      134.061     1.31        20.061      
186.4       150.119     152.947     2.311       5.696       58.755      69.752      106.246     68.737      70.056      50.44       25.91       1.364       1.627       77.768      110.427     1.31        20.491      
186.5       136.272     153.848     2.302       6.235       36.812      43.517      64.41       39.794      52.401      41.847      24.631      1.275       1.601       79.482      82.935      1.31        21.298      
186.6       101.276     153.847     2.286       6.73        26.284      31.976      38.451      24.771      35.794      33.433      23.44       1.194       1.547       81.156      58.758      1.31        22.392      
186.7       40.416      153.788     2.265       7.48        19.904      25.165      26.152      18.37       23.563      26.744      22.256      1.117       1.489       82.805      43.406      1.31        23.849      
186.8       20.209      153.127     2.24        8.152       15.772      20.126      20.304      15.243      17.211      22.644      21.005      1.058       1.371       84.519      36.422      1.31        25.564      
186.9       14.39       153.309     2.213       8.621       13.353      16.238      17.098      14.115      16.473      21.546      19.791      1.027       1.258       86.349      33.292      1.31        27.581      
187.0       12.657      153.897     2.184       9.0         12.053      13.617      16.064      15.275      18.227      23.062      18.751      1.008       1.122       88.194      31.349      1.31        29.584      
187.1       12.276      154.699     2.159       9.344       11.823      13.107      17.348      19.043      21.027      26.415      17.991      1.005       1.022       89.932      29.895      1.31        31.5        
187.2       12.055      155.135     2.136       9.474       12.81       15.081      20.664      25.137      24.476      32.702      17.537      1.006       0.938       91.512      28.885      1.31        33.007      
187.3       11.409      157.215     2.113       9.551       14.851      18.428      25.466      32.625      28.425      46.473      17.369      1.017       0.922       92.849      28.473      1.31        34.001      
187.4       11.256      160.199     2.089       9.352       17.654      21.343      30.884      40.005      32.801      71.592      17.504      1.042       0.914       93.804      28.682      1.31        34.336      
187.5       11.55       172.665     2.068       8.853       22.143      22.949      35.879      45.841      37.381      107.15      17.962      1.082       0.946       94.277      29.405      1.31        34.155      
187.6       12.355      182.591     2.052       8.279       31.198      23.92       39.75       49.638      41.92       147.636     18.831      1.129       0.983       94.167      30.471      1.311       33.409      
187.7       15.156      168.58      2.043       7.69        46.602      25.02       42.544      51.961      45.892      186.403     20.206      1.178       1.014       93.73       31.785      1.312       32.328      
187.8       24.119      164.141     2.045       7.237       66.932      26.365      44.906      53.531      49.157      217.985     22.168      1.223       1.051       93.218      33.555      1.313       31.031      
187.9       44.691      164.371     2.056       6.946       86.947      27.717      47.177      54.598      51.73       238.702     24.693      1.261       1.101       92.399      36.993      1.314       29.763      
188.0       72.476      166.385     2.072       6.671       102.224     29.297      49.29       55.273      53.958      248.565     27.661      1.284       1.147       91.072      44.836      1.316       28.567      
188.1       95.151      162.29      2.09        6.397       111.909     32.584      50.982      55.722      56.061      251.223     30.824      1.296       1.214       89.336      59.156      1.318       27.61       
188.2       113.264     150.875     2.104       6.119       117.785     40.756      52.146      56.107      58.413      250.577     33.855      1.303       1.273       87.392      78.176      1.32        26.9        
188.3       126.881     149.409     2.114       5.833       121.868     55.812      52.831      56.483      60.778      248.672     36.538      1.301       1.329       85.376      97.658      1.323       26.445      
188.4       131.121     149.43      2.119       5.653       124.734     75.791      52.992      56.86       62.839      245.676     38.748      1.285       1.364       83.272      114.348     1.325       26.152      
188.5       120.009     149.466     2.121       5.721       127.813     96.316      52.552      57.223      64.307      241.31      40.626      1.264       1.386       81.125      127.39      1.327       26.077      
188.6       109.841     149.46      2.122       5.801       130.998     113.441     51.502      57.595      65.307      236.053     42.151      1.236       1.381       79.261      136.964     1.329       26.16       
188.7       108.976     149.518     2.12        5.896       133.559     126.406     50.114      58.027      66.041      230.338     43.472      1.206       1.379       77.935      143.254     1.331       26.397      
188.8       113.927     149.789     2.116       5.93        135.402     136.462     48.754      58.54       66.621      225.204     44.595      1.191       1.371       77.14       148.031     1.333       26.696      
188.9       115.919     149.848     2.117       5.974       137.758     145.33      47.698      59.149      67.292      221.378     45.564      1.2         1.358       76.707      153.465     1.336       26.966      
189.0       109.553     149.92      2.124       6.006       141.828     154.096     47.118      59.854      68.034      219.223     46.43       1.223       1.346       76.497      160.279     1.339       27.152      
189.1       104.178     149.891     2.132       5.938       146.657     162.386     46.987      60.581      68.763      218.208     47.086      1.261       1.341       76.375      167.674     1.342       27.35       
189.2       101.484     149.865     2.141       5.829       151.418     169.879     47.299      61.123      69.259      217.428     47.693      1.301       1.353       76.3        174.551     1.343       27.49       
