~Version Information Section
VERS.                                         2.0:CWLS log ASCII Standart – VERSION 2.0
WRAP.                                          NO:One line per depth step
~Well Information Section
STRT.M                                        0.1:Начальная глубина
STOP.M                                      167.0:Конечная глубина
STEP.M                                          0:Шаг квантования по глубине
NULL.                                    -9999.25:Признак "Нет данных"
WELL.                                        143К:Скважина
~Parameter Information Section
~Curve Information Section
DEPTH.M                                          :Глубина
БК.Омм                                           :BK     (БК)
DСР.мм                                           :DS  (ДС)
ПЛОТНОСТЬ.г/см^3                                 :GGKp
ГК.гамма                                         :GK          (ГК)
ИК.мСм/м                                         :IK
НГК.усл.ед                                       :NGK     (НГК)
ННКМ.усл.ед                                      :NNKm  (ННКм)
ПС.mv                                            :PS       (ПС)
N11.0M0.5A.Омм                                   :PZ    (КС)
R.Омм                                            :RS (Резистивиметр)
КП.%                                             :W
А0.4М0.1N.Омм                                    :GZ1   ГЗ1(A0.4M0.1N)
А1.0М0.1N.Омм                                    :GZ2   ГЗ2(A1.0M0.1N)
А2.0М0.5N.Омм                                    :GZ3   ГЗ3(A2.0M0.5N)
А4.0М0.5N.Oмм                                    :GZ4   ГЗ4(A4.0M0.5N)
А8.0М1.0N.Омм                                    :GZ5   ГЗ5(A8.0M0.5N)
N0.5M2.0A.Омм                                    :GZR   ГЗK(N0.5M2.0A)
~ASCII LOG DATA
# ...
96.3        147.291     220.522     2.316       5.066       32.563      1.26        2.271       70.718      56.267      1.1         25.727      71.252      58.438      41.835      52.578      56.691      29.668      
96.4        158.022     220.326     2.281       5.341       32.563      1.208       2.219       70.96       54.644      1.1         26.055      66.479      58.175      39.156      49.555      55.496      28.754      
96.5        136.098     220.328     2.25        5.61        32.563      1.174       2.135       71.182      51.592      1.1         26.973      56.461      56.166      37.362      47.731      55.152      28.494      
96.6        93.828      220.409     2.231       5.901       32.539      1.161       2.04        71.391      48.24       1.1         28.145      47.142      53.789      36.461      47.164      55.152      28.494      
96.7        60.296      220.412     2.223       6.025       32.415      1.162       1.968       71.593      45.66       1.1         29.468      42.726      51.303      36.2        47.164      55.152      28.494      
96.8        42.206      220.421     2.224       6.1         32.149      1.173       1.933       71.792      43.966      1.099       30.696      40.022      48.156      36.2        47.164      55.152      28.638      
96.9        32.548      220.629     2.227       5.991       31.809      1.182       1.924       71.99       43.048      1.098       31.672      38.154      45.586      36.2        47.265      56.621      29.185      
97.0        31.286      220.792     2.23        5.917       31.446      1.185       1.919       72.188      42.727      1.095       32.336      36.877      44.758      36.369      48.012      60.595      30.266      
97.1        34.114      220.57      2.234       5.875       31.142      1.178       1.926       72.384      42.723      1.092       32.693      36.385      45.194      37.466      50.465      67.341      32.298      
97.2        36.823      219.55      2.24        5.83        30.96       1.172       1.933       72.573      42.723      1.088       32.748      36.385      45.488      40.432      55.517      75.668      35.867      
97.3        35.77       219.601     2.249       5.836       30.898      1.175       1.933       72.748      42.723      1.085       32.658      36.385      45.517      45.547      63.545      84.717      40.457      
97.4        32.088      219.963     2.259       5.883       30.898      1.193       1.929       72.899      43.024      1.082       32.508      37.27       47.496      52.392      73.059      93.066      44.373      
97.5        30.02       220.684     2.269       5.834       30.908      1.222       1.939       73.016      43.639      1.081       32.177      40.435      50.618      58.708      80.988      99.887      46.671      
97.6        32.411      221.87      2.283       5.742       30.977      1.255       1.955       73.088      43.954      1.08        31.6        44.572      52.26       61.912      84.955      103.437     47.426      
97.7        37.096      219.842     2.304       5.696       31.146      1.275       1.989       73.106      44.002      1.08        30.732      48.068      52.972      62.565      85.726      103.437     47.426      
97.8        40.523      219.868     2.327       5.646       31.357      1.28        2.043       73.063      44.203      1.08        29.746      51.016      53.346      62.565      85.726      103.437     46.998      
97.9        43.648      219.965     2.347       5.552       31.54       1.271       2.111       72.952      44.428      1.08        28.756      52.325      53.489      61.551      84.127      102.635     44.969      
98.0        55.69       220.63      2.355       5.65        31.667      1.256       2.157       72.766      44.369      1.08        27.998      52.325      52.42       58.455      79.003      98.591      41.491      
98.1        76.473      222.229     2.35        5.821       31.707      1.237       2.177       72.501      43.846      1.08        27.412      52.22       48.982      53.549      71.625      92.177      38.367      
98.2        89.662      223.218     2.333       6.09        31.707      1.229       2.152       72.155      43.194      1.08        27.067      50.513      46.336      48.782      64.847      84.244      36.34       
98.3        82.052      223.52      2.31        6.242       31.707      1.23        2.109       71.73       42.635      1.08        26.903      47.582      46.059      45.969      60.073      76.764      35.264      
98.4        58.796      223.517     2.292       6.301       31.68       1.228       2.046       71.229      41.916      1.08        26.994      44.838      46.017      44.618      57.128      71.239      34.9        
98.5        41.116      223.284     2.283       6.192       31.539      1.218       1.995       70.659      41.006      1.08        27.189      42.052      45.848      43.546      55.118      67.227      34.727      
98.6        35.499      222.648     2.284       6.081       31.24       1.202       1.96        70.033      40.169      1.08        27.533      39.737      46.116      42.341      53.373      64.381      34.457      
98.7        36.467      221.343     2.292       5.972       30.808      1.178       1.944       69.361      39.235      1.08        27.954      38.462      46.569      41.073      51.707      62.32       33.884      
98.8        35.315      221.26      2.301       6.08        30.267      1.156       1.929       68.657      38.061      1.08        28.32       37.868      46.485      39.739      49.889      60.429      32.835      
98.9        31.725      222.018     2.308       6.263       29.668      1.145       1.926       67.936      37.083      1.08        28.497      37.262      46.191      38.424      47.817      58.334      31.404      
99.0        28.972      222.878     2.313       6.548       29.059      1.142       1.927       67.21       36.339      1.08        28.602      36.632      45.821      37.152      45.609      56.056      29.714      
99.1        29.593      224.904     2.313       6.808       28.484      1.144       1.939       66.492      35.689      1.08        28.746      36.056      45.07       35.734      43.143      53.66       27.795      
99.2        31.453      226.59      2.307       7.026       27.979      1.151       1.962       65.797      35.162      1.08        28.984      35.412      43.512      34.122      40.391      50.802      25.881      
99.3        32.076      228.07      2.298       7.158       27.553      1.154       1.989       65.137      34.706      1.08        29.353      34.733      41.337      32.512      37.656      47.611      24.268      
99.4        31.827      229.503     2.286       7.285       27.214      1.146       1.989       64.524      34.183      1.08        29.814      33.858      38.988      31.197      35.065      44.417      22.964      
99.5        32.313      230.401     2.275       7.441       26.949      1.131       1.969       63.966      33.62       1.08        30.332      32.719      37.008      30.432      32.565      41.489      21.979      
99.6        33.652      231.512     2.268       7.493       26.731      1.115       1.942       63.472      33.076      1.08        30.916      31.346      35.711      30.201      30.342      38.957      21.385      
99.7        33.604      232.148     2.267       7.509       26.519      1.103       1.91        63.045      32.545      1.08        31.628      29.803      34.786      30.201      28.666      36.85       21.136      
99.8        31.872      233.079     2.269       7.601       26.282      1.09        1.869       62.689      32.082      1.08        32.587      28.515      34.243      30.201      27.604      35.128      21.078      
99.9        29.538      233.297     2.271       7.652       25.998      1.077       1.831       62.405      31.712      1.08        33.663      27.798      34.024      30.399      27.114      33.783      21.077      
