~Version Information Section
VERS.                                         2.0:CWLS log ASCII Standart – VERSION 2.0
WRAP.                                          NO:One line per depth step
~Well Information Section
STRT.M                                        1.0:Начальная глубина
STOP.M                                      203.4:Конечная глубина
STEP.M                                          0:Шаг квантования по глубине
NULL.                                    -9999.25:Признак "Нет данных"
WELL.                                         3Мх:Скважина
~Parameter Information Section
~Curve Information Section
DEPTH.M                                          :Глубина
BK.Ohm*M                                         :BK
DS.mm                                            :DS  (ДС)
ГК.mcr/h                                         :GK          (ГК)
GZ1.Ohm*M                                        :GZ1   ГЗ1(A0.4M0.1N)
GZ2.Ohm*M                                        :GZ2   ГЗ2(A1.0M0.1N)
GZ3.Ohm*M                                        :GZ3   ГЗ3(A2.0M0.5N)
GZ4.Ohm*M                                        :GZ4   ГЗ4(A4.0M0.5N)
GZ5.Ohm*M                                        :GZ5   ГЗ5(A8.0M0.5N)
U2.mV                                            :U2
U3.mV                                            :U3
W.                                               :W
КП.%                                             :Кп
НГК.усл.ед                                       :ННКб
ННКМ.усл.ед                                      :ННКм
GZR.Ohm*M                                        :GZK   ГЗK(N0.5M2.0A)
ИК.Ohm*M                                         :IK
PS.mv                                            :PS       (ПС)
PZ.Ohm*M                                         :PZ    (КС)
RS.Ohm*M                                         :RS (Резистивиметр)
U1.mV                                            :U1
~ASCII LOG DATA
# ...
132.2       63.387      151.065     3.543       8.398       10.588      9.877       10.825      8.271       1012.171    839.507     2.296       40.579      3.289       2.324       9.919       38.111      175.135     79.417      1.025       1224.677    
132.3       60.395      151.293     3.479       9.304       11.144      9.777       10.725      8.271       1010.742    858.595     2.282       39.787      3.675       2.41        9.719       37.73       168.029     80.018      1.025       1197.102    
132.4       57.943      151.388     3.512       10.145      11.75       9.677       10.625      8.271       1016.423    897.724     2.288       37.121      3.675       2.497       9.619       37.236      162.57      80.766      1.021       1156.391    
132.5       57.943      151.393     3.665       11.044      12.113      9.577       10.525      8.371       1016.618    920.107     2.323       34.82       3.965       2.466       9.519       36.739      158.699     81.387      1.021       1123.568    
132.6       63.387      151.477     4.036       10.701      11.75       9.577       10.425      8.471       1019.085    918.615     2.348       32.216      4.038       2.429       9.319       36.558      156.001     81.829      1.021       1127.697    
132.7       76.208      151.475     4.521       9.71        11.12       9.677       10.425      8.471       1056.276    924.919     2.387       31.655      3.968       2.38        9.219       36.172      154.008     81.6        1.021       1202.677    
132.8       82.985      151.816     5.007       8.84        10.539      9.777       10.425      8.571       1146.73     976.159     2.413       32.789      3.921       2.336       9.119       35.676      152.723     80.412      1.021       1341.775    
132.9       74.302      151.007     5.13        8.153       10.153      9.977       10.425      8.671       1259.003    1065.14     2.422       33.155      3.689       2.345       9.219       35.628      151.95      77.482      1.021       1481.44     
133.0       56.234      151.042     5.056       8.148       9.767       10.077      10.425      8.771       1329.536    1142.154    2.403       33.102      3.89        2.349       9.319       35.446      151.198     73.001      1.021       1540.868    
133.1       44.259      151.104     4.91        9.088       10.347      10.277      10.425      8.771       1306.28     1148.275    2.391       32.03       3.94        2.339       9.419       35.205      150.473     67.493      1.021       1480.047    
133.2       46.774      151.31      4.857       9.19        10.588      10.377      10.425      8.771       1192.898    1064.589    2.372       32.077      3.952       2.358       9.519       34.843      149.793     62.2        1.016       1335.218    
133.3       53.827      151.293     4.793       10.759      11.289      10.277      10.425      8.671       1032.409    911.716     2.369       33.412      3.954       2.382       9.719       34.331      149.737     57.873      1.012       1181.072    
133.4       56.234      151.242     4.738       12.018      11.966      10.277      10.425      8.671       875.886     735.429     2.365       34.754      3.999       2.472       9.819       33.703      149.843     54.867      1.012       1076.307    
133.5       56.494      151.153     4.682       10.437      11.386      10.277      10.425      8.571       744.094     566.625     2.373       34.933      4.01        2.578       9.919       33.319      149.887     52.796      1.012       1029.31     
133.6       56.885      151.128     4.703       10.643      11.918      10.277      10.525      8.671       638.351     425.414     2.399       33.82       4.311       2.614       10.019      32.893      149.524     51.472      1.008       1016.248    
133.7       59.02       151.125     4.753       10.005      11.895      10.077      10.525      8.771       559.135     320.234     2.422       31.411      4.387       2.632       10.219      32.646      149.203     50.636      1.008       1022.717    
133.8       62.661      151.145     4.893       9.067       11.436      9.877       10.825      8.771       518.961     264.03      2.433       29.862      4.494       2.588       10.219      32.422      149.368     50.541      1.008       1046.587    
133.9       70.146      151.305     5.017       9.214       11.338      9.677       10.925      8.971       525.098     261.423     2.476       28.67       4.521       2.527       10.019      32.008      150.027     50.953      1.008       1080.81     
134.0       80.723      151.974     5.162       8.869       11.119      9.477       11.025      8.871       576.497     319.318     2.498       28.153      4.25        2.447       10.019      31.72       151.082     51.737      1.008       1101.409    
134.1       83.753      153.848     5.352       8.38        10.442      9.377       11.125      8.771       661.303     435.295     2.494       29.343      4.182       2.333       9.919       31.448      152.412     52.27       1.008       1092.701    
134.2       76.56       155.508     5.694       8.449       10.538      9.377       11.025      7.871       766.222     594.556     2.492       30.837      3.843       2.292       9.519       30.972      154.568     52.315      1.008       1066.115    
134.3       58.749      155.539     6.004       9.215       10.975      9.377       10.925      7.671       867.954     751.872     2.495       32.598      3.759       2.297       9.219       30.6        157.623     51.639      1.008       1048.964    
134.4       42.462      155.068     6.199       9.473       11.314      9.277       10.825      7.571       937.518     850.907     2.475       33.097      3.652       2.259       9.119       30.085      161.051     50.021      1.008       1053.741    
134.5       39.994      154.785     6.124       9.263       11.871      9.177       10.725      7.471       957.081     865.842     2.468       34.244      3.582       2.211       9.019       29.332      164.053     47.462      1.008       1066.151    
134.6       41.495      152.336     5.842       8.948       11.434      9.177       10.625      7.371       928.212     815.964     2.472       36.193      3.579       2.266       8.819       28.505      165.925     44.343      0.994       1057.709    
134.7       38.815      151.366     5.501       8.356       11.289      9.177       10.525      7.271       867.045     743.59      2.482       35.969      3.577       2.373       8.719       27.656      167.72      41.889      0.994       1007.515    
134.8       33.884      151.935     5.314       8.354       11.287      9.177       10.425      7.271       784.629     671.565     2.478       34.229      3.778       2.354       8.719       26.87       169.889     40.814      0.994       911.602     
134.9       35.075      153.594     5.477       8.617       11.143      9.177       10.425      7.271       697.417     613.284     2.476       31.984      3.828       2.277       8.719       26.268      174.426     41.321      0.994       790.564     
135.0       50.699      153.298     5.789       7.562       10.395      8.977       10.125      7.271       633.267     589.4       2.478       31.868      3.594       2.205       8.719       25.679      180.64      42.639      0.994       682.032     
135.1       56.364      155.257     6.02        7.554       10.177      8.777       10.125      7.271       620.926     621.037     2.48        33.3        3.438       2.11        8.719       25.269      188.813     44.149      0.994       623.745     
135.2       41.591      156.431     6.211       6.903       9.55        8.677       9.925       7.271       655.612     692.027     2.479       35.097      3.36        2.112       8.619       25.082      197.763     45.36       0.994       621.867     
135.3       30.479      156.659     6.223       7.966       10.177      8.577       9.825       7.271       708.084     755.527     2.473       35.533      3.321       2.172       8.519       24.876      206.81      46.321      0.994       664.683     
