~Version Information Section
VERS.                                         2.0:CWLS log ASCII Standart – VERSION 2.0
WRAP.                                          NO:One line per depth step
~Well Information Section
STRT.M                                        0.6:Начальная глубина
STOP.M                                      205.9:Конечная глубина
STEP.M                                          0:Шаг квантования по глубине
NULL.                                    -9999.25:Признак "Нет данных"
WELL.                                       106Мх:Скважина
~Parameter Information Section
~Curve Information Section
DEPTH.M                                          :Глубина
BK.Ohm*M                                         :BK     (БК)
DS.mm                                            :DS  (ДС)
GGK.g/cm3                                        :GGKp
ГК.mcr/h                                         :GK          (ГК)
GZ1.Ohm*M                                        :GZ1   ГЗ1(A0.4M0.1N)
GZ2.Ohm*M                                        :GZ2   ГЗ2(A1.0M0.1N)
GZ3.Ohm*M                                        :GZ3   ГЗ3(A2.0M0.5N)
U2.mV                                            :U2
U3.mV                                            :U3
КП.%                                             :Кп
GZ4.Ohm*M                                        :GZ4   ГЗ4(A4.0M0.5N)
GZ5.Ohm*M                                        :GZ5   ГЗ5(A8.0M0.5N)
GZR.Ohm*M                                        :GZK   ГЗK(N0.5M2.0A)
ИК.Ohm*M                                         :IK
НГК.u.e.                                         :NGK
NNKM.                                            :NNKm  (ННКм)
PS.mv                                            :PS       (ПС)
PZ.Ohm*M                                         :PZ    (КС)
RS.Ohm*M                                         :RS (Резистивиметр)
U1.mV                                            :U1
~ASCII LOG DATA
# ...
77.4        47.863      127.0       2.224       5.783       41.164      30.809      22.964      450.0       486.667     29.13       47.467      46.851      18.868      27.908      1.386       2.415       680.338     34.237      1.1         506.667     
77.5        47.098      125.638     2.222       5.988       40.216      30.568      23.354      450.0       490.0       28.877      47.368      46.851      18.171      28.382      1.368       2.432       681.022     35.037      1.1         523.333     
77.6        54.576      126.08      2.219       5.841       39.144      30.377      23.502      450.0       488.889     30.396      47.248      46.851      17.487      28.412      1.356       2.411       681.707     35.496      1.1         520.0       
77.7        50.234      126.358     2.21        5.852       38.235      30.267      23.101      450.0       485.556     32.898      47.026      46.678      16.928      27.88       1.331       2.38        683.418     35.719      1.1         520.0       
77.8        44.566      126.701     2.201       5.815       37.451      29.983      22.639      440.0       488.889     34.066      46.379      46.504      16.327      27.809      1.312       2.352       685.813     35.793      1.1         540.001     
77.9        43.152      127.36      2.198       5.946       36.53       29.037      22.109      430.0       492.222     33.771      45.072      45.984      15.815      27.457      1.281       2.346       688.893     35.793      1.1         546.667     
78.0        44.668      128.127     2.194       5.962       35.362      27.776      21.409      400.0       486.667     32.289      43.199      45.638      15.392      27.361      1.27        2.38        691.631     35.778      1.1         530.0       
78.1        47.753      128.715     2.184       5.884       34.187      26.501      20.848      400.0       467.778     31.33       41.062      44.078      15.169      27.746      1.27        2.381       694.711     35.585      1.1         490.0       
78.2        52.723      129.468     2.175       5.779       33.146      25.563      20.426      400.0       444.445     32.916      39.109      41.998      15.076      27.712      1.28        2.343       698.133     35.156      1.1         460.0       
78.3        49.774      130.808     2.165       5.61        32.406      25.154      20.534      400.0       431.111     34.956      37.745      39.918      15.004      27.649      1.258       2.276       701.898     34.459      1.1         450.0       
78.4        43.551      130.428     2.157       5.62        32.098      25.095      21.042      430.0       434.444     36.363      37.14       39.051      14.96       27.491      1.243       2.179       704.293     33.674      1.1         443.333     
78.5        43.053      128.937     2.156       5.634       32.098      25.246      21.897      430.0       450.0       35.509      37.246      38.878      14.961      27.267      1.231       2.197       705.32      32.948      1.1         440.0       
78.6        38.282      127.913     2.159       5.91        32.273      25.404      22.667      440.0       464.445     33.521      37.785      38.704      15.03       27.02       1.186       2.279       706.004     32.43       1.1         436.667     
78.7        34.041      129.073     2.164       6.207       32.824      25.509      23.126      430.0       470.0       32.294      38.337      38.531      15.041      26.588      1.137       2.232       707.716     32.059      1.1         426.667     
78.8        33.574      131.345     2.168       6.264       33.463      25.348      23.431      400.0       467.778     32.321      38.634      38.704      15.156      26.3        1.172       2.138       710.796     31.822      1.1         413.333     
78.9        37.325      130.715     2.17        6.127       33.873      24.953      23.64       380.0       465.555     32.987      38.568      41.969      15.323      26.059      1.213       2.156       713.876     31.674      1.1         403.333     
79.0        41.115      130.408     2.171       5.954       34.0        24.241      23.573      380.0       465.556     33.723      38.141      46.146      15.582      26.234      1.268       2.219       716.613     31.615      1.1         420.0       
79.1        44.566      130.691     2.174       5.977       34.0        23.689      23.194      440.0       463.333     33.652      37.583      50.597      16.075      26.234      1.239       2.289       718.667     31.6        1.1         440.0       
79.2        45.499      130.096     2.172       5.939       33.88       23.176      22.91       420.0       455.556     33.564      37.19       52.116      16.872      26.267      1.224       2.346       721.404     31.6        1.1         470.0       
79.3        43.752      130.626     2.17        5.915       33.891      22.799      22.788      410.0       443.333     33.547      37.191      52.774      17.896      26.41       1.208       2.311       724.827     31.6        1.1         480.0       
79.4        46.026      130.969     2.163       5.832       33.971      23.202      22.985      380.0       432.222     33.174      37.883      53.029      18.954      26.554      1.144       2.275       728.933     31.6        1.1         490.0       
79.5        43.351      131.188     2.152       6.035       34.445      24.132      23.532      380.0       424.444     32.819      39.529      53.188      19.706      26.769      1.159       2.225       732.698     31.6        1.1         496.667     
79.6        41.495      131.206     2.14        5.859       35.214      25.124      24.33       400.0       421.111     32.465      42.039      53.366      20.002      26.769      1.151       2.175       736.462     31.6        1.1         506.667     
79.7        40.738      130.782     2.133       5.633       35.977      25.75       24.917      410.0       428.889     32.811      44.973      53.568      20.108      26.644      1.237       2.176       740.227     31.63       1.1         510.0       
79.8        39.174      130.732     2.129       5.462       36.583      26.175      25.43       390.0       450.001     33.873      47.788      53.768      19.985      26.588      1.234       2.178       744.333     31.719      1.1         506.666     
79.9        38.905      130.904     2.133       5.487       37.153      26.422      25.648      390.0       482.223     34.359      49.939      53.93       19.716      26.498      1.265       2.18        748.44      31.896      1.1         526.667     
80.0        40.551      130.963     2.139       5.571       37.692      26.68       25.669      430.0       506.667     34.007      51.005      54.024      19.267      26.41       1.281       2.195       752.204     32.104      1.1         550.0       
80.1        41.4        130.007     2.145       5.415       38.018      26.954      25.542      430.0       515.556     32.326      51.045      54.031      18.581      26.498      1.285       2.238       755.969     32.311      1.1         556.667     
80.2        41.687      128.736     2.148       5.313       38.018      26.751      25.313      400.0       511.111     30.948      50.655      53.882      17.77       26.588      1.29        2.313       759.733     32.489      1.1         533.334     
80.3        46.345      129.521     2.148       5.399       37.83       26.413      24.914      380.0       504.444     30.097      50.331      53.511      17.173      26.769      1.291       2.405       764.182     32.696      1.1         513.333     
80.4        51.404      130.924     2.147       5.48        37.152      25.592      24.509      360.0       502.222     29.87       50.042      52.865      16.883      26.802      1.296       2.389       768.631     32.904      1.1         533.333     
80.5        54.075      130.592     2.14        5.618       36.447      25.184      24.251      350.0       503.333     31.154      49.735      52.005      16.578      27.01       1.287       2.295       772.738     33.081      1.1         550.0       
