~Version Information Section
VERS.                                         2.0:CWLS log ASCII Standart – VERSION 2.0
WRAP.                                          NO:One line per depth step
~Well Information Section
STRT.M                                        1.6:Начальная глубина
STOP.M                                      212.2:Конечная глубина
STEP.M                                          0:Шаг квантования по глубине
NULL.                                    -9999.25:Признак "Нет данных"
WELL.                                       139Мх:Скважина
~Parameter Information Section
~Curve Information Section
DEPTH.M                                          :Глубина
BK.Ohm*M                                         :BK     (БК)
DS.mm                                            :DS  (ДС)
GGK.g/cm3                                        :GGKp
ГК.mcr/h                                         :GK          (ГК)
GZ1.Ohm*M                                        :GZ1   ГЗ1(A0.4M0.1N)
GZ2.Ohm*M                                        :GZ2   ГЗ2(A1.0M0.1N)
GZ3.Ohm*M                                        :GZ3   ГЗ3(A2.0M0.5N)
GZ4.Ohm*M                                        :GZ4   ГЗ4(A4.0M0.5N)
GZ5.Ohm*M                                        :GZ5   ГЗ5(A8.0M0.5N)
GZR.Ohm*M                                        :GZK   ГЗK(N0.5M2.0A)
ИК.Ohm*M                                         :IK
НГК.ue                                           :NGK     (НГК)
NNKM.                                            :NNKm  (ННКм)
PS.mv                                            :PS       (ПС)
PZ.Ohm*M                                         :PZ    (КС)
U1.mV                                            :U1
U2.mV                                            :U2
U3.mV                                            :U3
КП.%                                             :Кп
~ASCII LOG DATA
# ...
141.0       192.449     133.868     2.203       4.49        65.443      45.513      71.2        69.234      60.83       78.976      31.843      1.161       2.373       184.204     58.28       241.85      314.42      381.084     34.635      
141.1       225.557     129.816     2.195       4.288       70.767      48.486      74.824      71.927      62.738      79.63       32.08       1.174       2.39        184.213     59.846      280.087     276.216     266.657     34.012      
141.2       226.57      129.16      2.196       4.322       75.824      51.078      78.588      73.09       63.717      79.588      32.275      1.215       2.427       184.232     61.64       334.972     284.925     231.765     33.098      
141.3       195.135     129.219     2.202       4.2         79.921      53.029      82.512      73.325      63.978      79.221      32.483      1.315       2.464       184.267     63.714      387.377     338.491     287.599     32.73       
141.4       170.365     129.357     2.196       3.931       82.709      54.341      86.304      73.294      64.0        78.095      32.629      1.286       2.477       184.324     66.075      437.217     389.98      327.516     33.165      
141.5       157.829     129.767     2.206       3.895       84.249      55.05       89.576      73.047      63.888      76.475      32.743      1.272       2.477       184.404     68.672      486.991     398.345     309.963     33.816      
141.6       132.743     129.444     2.217       4.037       84.715      55.398      91.776      72.402      63.418      75.303      32.828      1.309       2.446       184.507     71.405      522.236     365.652     250.854     34.583      
141.7       104.293     129.327     2.23        4.323       84.691      55.576      93.576      71.743      62.736      75.032      32.822      1.33        2.415       184.633     74.127      515.442     335.021     207.643     34.307      
141.8       98.115      129.772     2.242       4.452       84.463      55.735      94.952      71.472      62.144      75.032      32.827      1.327       2.372       184.777     76.673      492.081     345.968     249.027     33.346      
141.9       102.829     130.258     2.227       4.506       83.69       55.995      95.776      71.443      61.779      75.083      32.733      1.338       2.314       184.936     78.93       472.355     326.824     232.768     32.645      
142.0       98.439      129.079     2.208       4.355       82.544      56.613      96.0        71.438      61.632      75.487      32.651      1.36        2.269       185.109     80.856      457.836     307.677     216.505     32.767      
142.1       81.329      129.763     2.189       4.204       81.799      57.777      96.0        71.408      61.597      76.496      32.684      1.333       2.243       185.294     82.467      417.297     283.413     187.532     33.915      
142.2       68.531      129.57      2.189       4.078       81.6        59.47       95.988      71.365      61.562      77.412      32.728      1.27        2.251       185.491     83.832      370.995     325.685     264.982     34.7        
142.3       68.136      130.476     2.194       3.883       81.6        61.544      95.888      71.333      61.494      77.669      32.813      1.235       2.285       185.693     85.049      373.084     368.573     319.346     34.85       
142.4       74.893      130.815     2.201       3.562       81.641      63.782      95.516      71.043      61.296      77.61       33.071      1.237       2.341       185.895     86.197      429.305     390.939     316.357     34.679      
142.5       93.762      131.247     2.229       3.443       82.021      65.838      94.464      70.022      60.812      77.09       33.358      1.244       2.4         186.09      87.32       506.394     394.343     279.09      34.886      
142.6       105.65      130.723     2.223       3.596       83.311      67.596      92.4        68.034      59.923      75.408      33.506      1.249       2.434       186.275     88.428      523.943     358.423     235.152     35.436      
142.7       100.441     130.426     2.202       3.775       85.53       69.005      89.988      65.25       58.56       72.512      33.496      1.247       2.413       186.454     89.506      461.112     281.001     168.536     36.077      
142.8       99.041      130.562     2.2         3.893       87.913      70.036      87.512      62.1        56.737      68.908      33.564      1.348       2.386       186.642     90.521      352.8       193.492     107.806     36.446      
142.9       100.606     129.982     2.17        3.629       89.653      70.789      85.084      59.041      54.66       65.232      33.49       1.352       2.364       186.86      91.433      251.297     136.788     75.639      36.797      
143.0       100.509     130.582     2.156       3.473       90.26       71.385      83.336      56.53       52.587      62.138      33.401      1.343       2.352       187.134     92.188      200.593     120.959     73.23       36.618      
143.1       101.406     132.726     2.159       3.351       90.232      71.903      82.6        54.752      50.682      59.739      33.265      1.223       2.367       187.491     92.692      173.065     128.716     102.381     36.245      
143.2       101.84      133.149     2.146       3.484       89.939      72.603      82.224      53.525      49.032      57.867      33.128      1.252       2.378       187.947     92.901      170.156     160.06      158.282     35.985      
143.3       90.792      133.02      2.156       3.733       88.809      73.373      82.0        52.614      47.681      56.418      32.85       1.234       2.379       188.511     92.901      185.634     198.017     209.366     36.111      
143.4       71.089      133.271     2.164       3.982       86.697      73.934      82.0        51.809      46.595      55.263      32.638      1.282       2.346       189.183     92.901      189.877     200.397     206.374     36.413      
143.5       67.585      132.811     2.18        4.129       84.305      74.209      82.0        50.937      45.717      54.224      32.553      1.257       2.305       189.952     92.803      164.503     160.583     154.116     36.4        
143.6       69.965      130.947     2.201       4.333       81.96       74.198      82.0        49.934      45.002      53.151      32.566      1.266       2.33        190.798     92.414      122.207     114.166     106.686     36.232      
143.7       70.416      130.481     2.198       4.529       79.938      74.058      82.0        48.802      44.437      51.927      32.377      1.257       2.373       191.698     91.776      136.641     145.632     157.731     35.633      
143.8       77.004      129.542     2.207       4.859       78.25       73.385      82.0        47.601      44.002      50.538      32.406      1.272       2.439       192.631     90.987      224.755     259.311     292.229     35.007      
143.9       86.113      130.426     2.205       4.726       76.742      71.798      82.0        46.503      43.667      49.063      32.392      1.343       2.498       193.573     90.099      306.287     351.904     396.957     33.656      
144.0       88.592      132.27      2.199       4.593       75.478      69.649      82.036      45.688      43.413      47.638      32.007      1.359       2.507       194.509     89.131      330.268     365.456     397.183     32.428      
144.1       80.212      131.058     2.214       4.449       74.588      67.571      82.3        45.193      43.247      46.324      31.796      1.346       2.483       195.434     88.081      298.141     313.066     329.403     31.626      
144.2       65.11       131.447     2.232       4.471       74.121      65.943      82.9        45.008      43.177      45.124      31.718      1.278       2.441       196.35      86.927      260.516     271.468     283.066     31.775      
144.3       61.117      131.782     2.23        4.432       74.004      64.986      83.476      45.008      43.164      44.026      31.679      1.292       2.416       197.264     85.629      225.347     250.82      266.479     32.343      
