~Version Information Section
VERS.                                         2.0:CWLS log ASCII Standart – VERSION 2.0
WRAP.                                          NO:One line per depth step
~Well Information Section
STRT.M                                       -2.2:Начальная глубина
STOP.M                                      205.6:Конечная глубина
STEP.M                                          0:Шаг квантования по глубине
NULL.                                    -9999.25:Признак "Нет данных"
WELL.                                       108Мх:Скважина
~Parameter Information Section
~Curve Information Section
DEPTH.M                                          :Глубина
BK.Ohm*M                                         :BK     (БК)
DS.mm                                            :DS  (ДС)
GGK.g/cm3                                        :GGKp
ГК.mcr/h                                         :GK          (ГК)
GZ1.Ohm*M                                        :GZ1   ГЗ1(A0.4M0.1N)
GZ2.Ohm*M                                        :GZ2   ГЗ2(A1.0M0.1N)
GZ3.Ohm*M                                        :GZ3   ГЗ3(A2.0M0.5N)
GZ4.Ohm*M                                        :GZ4   ГЗ4(A4.0M0.5N)
GZ5.Ohm*M                                        :GZ5   ГЗ5(A8.0M0.5N)
GZR.Ohm*M                                        :GZK   ГЗK(N0.5M2.0A)
ИК.Ohm*M                                         :IK
НГК.ue                                           :NGK     (НГК)
NNKM.                                            :NNKm  (ННКм)
PS.mv                                            :PS       (ПС)
PZ.Ohm*M                                         :PZ    (КС)
RS.Ohm*M                                         :RS (Резистивиметр)
U1.mV                                            :U1
U2.mV                                            :U2
U3.mV                                            :U3
КП.%                                             :Кп
~ASCII LOG DATA
# ...
122.2       -9999.25    127.252     -9999.25    -9999.25    47.885      42.977      59.3        94.3        24.823      109.396     -9999.25    -9999.25    -9999.25    557.837     137.531     3.863       1974.77     3669.526    2126.949    -9999.25    
122.23      260.258     -9999.25    2.426       2.686       -9999.25    -9999.25    -9999.25    -9999.25    -9999.25    -9999.25    36.291      2.139       2.738       -9999.25    -9999.25    -9999.25    -9999.25    -9999.25    -9999.25    18.936      
122.3       -9999.25    126.955     -9999.25    -9999.25    65.468      64.048      60.927      103.631     24.995      97.116      -9999.25    -9999.25    -9999.25    503.029     156.272     3.863       2031.236    3713.725    2120.629    -9999.25    
122.33      386.085     -9999.25    2.46        2.323       -9999.25    -9999.25    -9999.25    -9999.25    -9999.25    -9999.25    39.629      2.265       2.815       -9999.25    -9999.25    -9999.25    -9999.25    -9999.25    -9999.25    17.542      
122.4       -9999.25    126.905     -9999.25    -9999.25    85.46       89.094      62.946      110.401     25.164      88.619      -9999.25    -9999.25    -9999.25    453.592     174.468     3.863       2087.702    3713.725    2095.349    -9999.25    
122.43      707.209     -9999.25    2.492       2.106       -9999.25    -9999.25    -9999.25    -9999.25    -9999.25    -9999.25    43.12       2.357       2.81        -9999.25    -9999.25    -9999.25    -9999.25    -9999.25    -9999.25    17.109      
122.5       -9999.25    126.694     -9999.25    -9999.25    106.857     116.926     65.653      114.763     25.314      83.451      -9999.25    -9999.25    -9999.25    409.343     191.162     3.863       2132.875    3660.685    2070.069    -9999.25    
122.53      948.357     -9999.25    2.517       1.943       -9999.25    -9999.25    -9999.25    -9999.25    -9999.25    -9999.25    45.092      2.377       2.812       -9999.25    -9999.25    -9999.25    -9999.25    -9999.25    -9999.25    16.845      
122.6       -9999.25    126.773     -9999.25    -9999.25    127.026     145.363     69.056      116.868     25.41       81.302      -9999.25    -9999.25    -9999.25    376.294     205.43      3.863       2144.168    3581.127    2051.109    -9999.25    
122.63      1402.541    -9999.25    2.51        1.958       -9999.25    -9999.25    -9999.25    -9999.25    -9999.25    -9999.25    46.813      2.301       2.835       -9999.25    -9999.25    -9999.25    -9999.25    -9999.25    -9999.25    16.439      
122.7       -9999.25    127.352     -9999.25    -9999.25    142.216     170.349     72.91       116.868     25.41       81.302      -9999.25    -9999.25    -9999.25    356.986     216.468     3.863       2144.168    3519.244    1949.985    -9999.25    
122.73      593.509     -9999.25    2.489       2.055       -9999.25    -9999.25    -9999.25    -9999.25    -9999.25    -9999.25    47.902      2.185       2.85        -9999.25    -9999.25    -9999.25    -9999.25    -9999.25    -9999.25    16.039      
122.8       -9999.25    127.617     -9999.25    -9999.25    152.149     187.385     76.811      116.868     25.41       81.302      -9999.25    -9999.25    -9999.25    346.538     223.705     3.863       2121.581    3501.565    1842.549    -9999.25    
122.83      821.84      -9999.25    2.474       2.184       -9999.25    -9999.25    -9999.25    -9999.25    -9999.25    -9999.25    49.162      2.115       2.819       -9999.25    -9999.25    -9999.25    -9999.25    -9999.25    -9999.25    15.98       
122.9       -9999.25    127.601     -9999.25    -9999.25    158.124     196.985     80.073      116.609     25.407      81.413      -9999.25    -9999.25    -9999.25    347.958     226.765     3.863       1940.888    3492.725    1627.669    -9999.25    
122.93      682.594     -9999.25    2.457       2.24        -9999.25    -9999.25    -9999.25    -9999.25    -9999.25    -9999.25    49.518      2.107       2.749       -9999.25    -9999.25    -9999.25    -9999.25    -9999.25    -9999.25    16.305      
123.0       -9999.25    127.581     -9999.25    -9999.25    160.771     201.631     82.442      115.984     25.392      81.792      -9999.25    -9999.25    -9999.25    355.372     225.59      3.863       1748.902    3634.165    1494.949    -9999.25    
123.03      653.374     -9999.25    2.454       2.274       -9999.25    -9999.25    -9999.25    -9999.25    -9999.25    -9999.25    49.059      2.188       2.713       -9999.25    -9999.25    -9999.25    -9999.25    -9999.25    -9999.25    16.897      
123.1       -9999.25    127.51      -9999.25    -9999.25    160.449     202.086     84.003      115.067     25.308      82.587      -9999.25    -9999.25    -9999.25    366.862     220.385     3.827       1573.856    3775.6      1362.23     -9999.25    
123.13      563.477     -9999.25    2.466       2.428       -9999.25    -9999.25    -9999.25    -9999.25    -9999.25    -9999.25    49.305      2.248       2.725       -9999.25    -9999.25    -9999.25    -9999.25    -9999.25    -9999.25    17.413      
123.2       -9999.25    127.637     -9999.25    -9999.25    159.494     199.9       85.296      114.023     25.134      83.766      -9999.25    -9999.25    -9999.25    381.056     211.666     3.799       1556.915    3917.045    1336.949    -9999.25    
123.23      381.807     -9999.25    2.473       2.729       -9999.25    -9999.25    -9999.25    -9999.25    -9999.25    -9999.25    49.194      2.305       2.746       -9999.25    -9999.25    -9999.25    -9999.25    -9999.25    -9999.25    17.691      
123.3       -9999.25    127.616     -9999.25    -9999.25    159.494     197.838     87.02       112.789     24.936      85.182      -9999.25    -9999.25    -9999.25    397.241     200.1       3.745       1551.269    3724.406    1343.269    -9999.25    
123.33      310.947     -9999.25    2.481       2.871       -9999.25    -9999.25    -9999.25    -9999.25    -9999.25    -9999.25    48.561      2.295       2.789       -9999.25    -9999.25    -9999.25    -9999.25    -9999.25    -9999.25    17.135      
123.4       -9999.25    127.838     -9999.25    -9999.25    159.494     197.838     90.241      111.347     24.72       86.407      -9999.25    -9999.25    -9999.25    415.429     186.471     3.69        1556.915    3269.778    1368.549    -9999.25    
123.43      337.209     -9999.25    2.48        2.875       -9999.25    -9999.25    -9999.25    -9999.25    -9999.25    -9999.25    47.639      2.247       2.825       -9999.25    -9999.25    -9999.25    -9999.25    -9999.25    -9999.25    16.252      
123.5       -9999.25    128.266     -9999.25    -9999.25    161.542     197.838     95.253      109.304     24.492      86.51       -9999.25    -9999.25    -9999.25    434.483     171.608     3.636       1568.209    2614.272    1494.949    -9999.25    
123.53      461.976     -9999.25    2.465       3.026       -9999.25    -9999.25    -9999.25    -9999.25    -9999.25    -9999.25    45.972      2.165       2.759       -9999.25    -9999.25    -9999.25    -9999.25    -9999.25    -9999.25    17.072      
123.6       -9999.25    128.142     -9999.25    -9999.25    165.637     194.207     98.857      106.076     24.315      84.824      -9999.25    -9999.25    -9999.25    455.51      156.321     3.581       1590.795    2054.871    1621.345    -9999.25    
123.63      540.841     -9999.25    2.437       3.469       -9999.25    -9999.25    -9999.25    -9999.25    -9999.25    -9999.25    44.401      2.076       2.584       -9999.25    -9999.25    -9999.25    -9999.25    -9999.25    -9999.25    18.917      
123.7       -9999.25    128.171     -9999.25    -9999.25    171.782     186.945     100.427     101.021     24.297      81.063      -9999.25    -9999.25    -9999.25    477.587     141.323     3.516       1619.03     1712.695    1747.75     -9999.25    
123.73      455.557     -9999.25    2.417       3.539       -9999.25    -9999.25    -9999.25    -9999.25    -9999.25    -9999.25    43.149      1.983       2.473       -9999.25    -9999.25    -9999.25    -9999.25    -9999.25    -9999.25    21.112      
