~Version Information Section
VERS.                                         2.0:CWLS log ASCII Standart – VERSION 2.0
WRAP.                                          NO:One line per depth step
~Well Information Section
STRT.M                                        1.0:Начальная глубина
STOP.M                                      208.3:Конечная глубина
STEP.M                                          0:Шаг квантования по глубине
NULL.                                    -9999.25:Признак "Нет данных"
WELL.                                       131Мх:Скважина
~Parameter Information Section
~Curve Information Section
DEPTH.M                                          :Глубина
БК.Омм                                           :BK     (БК)
DСР.мм                                           :DS  (ДС)
ГК.гамма                                         :GK          (ГК)
А0.4М0.1N.Омм.ohmm                               :GZ1   ГЗ1(A0.4M0.1N)
А1.0М0.1N.Омм.ohmm                               :GZ2   ГЗ2(A1.0M0.1N)
А2.0М0.5N.Омм.ohmm                               :GZ3   ГЗ3(A2.0M0.5N)
А4.0М0.5N.Oмм.ohmm                               :GZ4   ГЗ4(A4.0M0.5N)
А8.0М1.0N.Омм.ohmm                               :GZ5   ГЗ5(A8.0M0.5N)
N0.5M2.0A.Омм.ohmm                               :GZK   ГЗK(N0.5M2.0A)
ИК.мСм/м                                         :IK
НГК.усл.ед                                       :NGK     (НГК)
ПС.mv                                            :PS       (ПС)
П.%                                              :п
PZ.Омм                                           :PZ    (КС)
R.Омм                                            :RS (Резистивиметр)
U1.мВ                                            :U1
U2.mV                                            :U2
U3.мВ                                            :U3
W.г/см3                                          :ГГКп
~ASCII LOG DATA
# ...
115.3       28.979      133.715     4.347       -9999.25    -9999.25    -9999.25    -9999.25    -9999.25    -9999.25    21.442      1.234       185.658     29.112      45.689      1.12        1278.452    1308.987    1359.151    2.498       
115.35      -9999.25    -9999.25    -9999.25    32.383      28.076      32.407      24.247      9.37        48.462      -9999.25    -9999.25    -9999.25    -9999.25    -9999.25    -9999.25    -9999.25    -9999.25    -9999.25    -9999.25    
115.4       27.205      132.656     4.385       -9999.25    -9999.25    -9999.25    -9999.25    -9999.25    -9999.25    21.717      1.228       184.066     28.842      45.689      1.12        1278.452    1308.987    1356.051    2.484       
115.45      -9999.25    -9999.25    -9999.25    33.158      29.008      36.001      27.493      10.843      53.977      -9999.25    -9999.25    -9999.25    -9999.25    -9999.25    -9999.25    -9999.25    -9999.25    -9999.25    -9999.25    
115.5       24.048      133.42      4.308       -9999.25    -9999.25    -9999.25    -9999.25    -9999.25    -9999.25    21.932      1.184       182.219     28.534      45.866      1.12        1306.585    1321.719    1347.772    2.492       
115.55      -9999.25    -9999.25    -9999.25    35.158      30.616      40.412      31.53       12.298      57.657      -9999.25    -9999.25    -9999.25    -9999.25    -9999.25    -9999.25    -9999.25    -9999.25    -9999.25    -9999.25    
115.6       23.732      132.849     4.192       -9999.25    -9999.25    -9999.25    -9999.25    -9999.25    -9999.25    22.096      1.158       180.035     28.927      46.265      1.12        1336.396    1332.616    1329.064    2.485       
115.65      -9999.25    -9999.25    -9999.25    38.457      32.969      44.201      35.455      13.626      58.385      -9999.25    -9999.25    -9999.25    -9999.25    -9999.25    -9999.25    -9999.25    -9999.25    -9999.25    -9999.25    
115.7       30.543      134.324     4.04        -9999.25    -9999.25    -9999.25    -9999.25    -9999.25    -9999.25    22.34       1.15        177.466     29.383      46.863      1.12        1371.471    1340.362    1300.908    2.476       
115.75      -9999.25    -9999.25    -9999.25    42.673      35.002      46.248      37.751      14.64       58.385      -9999.25    -9999.25    -9999.25    -9999.25    -9999.25    -9999.25    -9999.25    -9999.25    -9999.25    -9999.25    
115.8       35.706      135.164     3.912       -9999.25    -9999.25    -9999.25    -9999.25    -9999.25    -9999.25    22.709      1.145       174.465     28.996      47.573      1.12        1404.344    1342.185    1300.908    2.47        
115.85      -9999.25    -9999.25    -9999.25    47.598      36.318      46.248      37.751      15.178      58.385      -9999.25    -9999.25    -9999.25    -9999.25    -9999.25    -9999.25    -9999.25    -9999.25    -9999.25    -9999.25    
115.9       33.008      132.984     3.693       -9999.25    -9999.25    -9999.25    -9999.25    -9999.25    -9999.25    23.213      1.159       171.142     28.159      48.375      1.12        1353.299    1332.249    1301.697    2.479       
115.95      -9999.25    -9999.25    -9999.25    51.614      36.837      46.248      37.751      15.321      55.762      -9999.25    -9999.25    -9999.25    -9999.25    -9999.25    -9999.25    -9999.25    -9999.25    -9999.25    -9999.25    
116.0       32.47       130.288     3.505       -9999.25    -9999.25    -9999.25    -9999.25    -9999.25    -9999.25    23.835      1.21        167.662     26.869      49.25       1.12        1290.523    1315.289    1330.861    2.481       
116.05      -9999.25    -9999.25    -9999.25    54.81       36.852      45.631      37.686      15.321      50.41       -9999.25    -9999.25    -9999.25    -9999.25    -9999.25    -9999.25    -9999.25    -9999.25    -9999.25    -9999.25    
116.1       46.924      131.011     3.333       -9999.25    -9999.25    -9999.25    -9999.25    -9999.25    -9999.25    24.466      1.254       164.134     26.471      50.141      1.12        1289.768    1315.289    1359.963    2.473       
116.15      -9999.25    -9999.25    -9999.25    56.886      36.852      42.532      35.572      15.213      43.595      -9999.25    -9999.25    -9999.25    -9999.25    -9999.25    -9999.25    -9999.25    -9999.25    -9999.25    -9999.25    
116.2       58.554      132.68      3.201       -9999.25    -9999.25    -9999.25    -9999.25    -9999.25    -9999.25    25.049      1.298       160.691     26.367      51.048      1.12        1289.768    1317.956    1352.143    2.465       
116.25      -9999.25    -9999.25    -9999.25    57.747      36.891      37.921      32.12       14.867      37.022      -9999.25    -9999.25    -9999.25    -9999.25    -9999.25    -9999.25    -9999.25    -9999.25    -9999.25    -9999.25    
116.3       49.608      132.119     3.241       -9999.25    -9999.25    -9999.25    -9999.25    -9999.25    -9999.25    25.585      1.339       157.432     26.19       51.924      1.12        1360.104    1346.166    1346.266    2.496       
116.35      -9999.25    -9999.25    -9999.25    57.747      36.32       33.155      28.21       14.325      31.616      -9999.25    -9999.25    -9999.25    -9999.25    -9999.25    -9999.25    -9999.25    -9999.25    -9999.25    -9999.25    
116.4       42.019      129.782     3.24        -9999.25    -9999.25    -9999.25    -9999.25    -9999.25    -9999.25    26.023      1.352       154.339     26.037      52.631      1.12        1353.08     1341.387    1346.266    2.501       
116.45      -9999.25    -9999.25    -9999.25    57.747      36.061      29.011      24.971      13.858      27.648      -9999.25    -9999.25    -9999.25    -9999.25    -9999.25    -9999.25    -9999.25    -9999.25    -9999.25    -9999.25    
116.5       47.658      131.156     3.145       -9999.25    -9999.25    -9999.25    -9999.25    -9999.25    -9999.25    26.274      1.353       151.382     25.235      53.056      1.12        1353.08     1341.387    1348.246    2.493       
116.55      -9999.25    -9999.25    -9999.25    57.43       35.711      26.007      22.638      13.697      25.139      -9999.25    -9999.25    -9999.25    -9999.25    -9999.25    -9999.25    -9999.25    -9999.25    -9999.25    -9999.25    
116.6       55.747      132.006     3.361       -9999.25    -9999.25    -9999.25    -9999.25    -9999.25    -9999.25    26.319      1.387       148.634     24.462      53.215      1.12        1363.505    1346.331    1340.008    2.524       
116.65      -9999.25    -9999.25    -9999.25    56.606      35.581      23.723      20.72       13.697      23.813      -9999.25    -9999.25    -9999.25    -9999.25    -9999.25    -9999.25    -9999.25    -9999.25    -9999.25    -9999.25    
116.7       53.983      131.0       3.773       -9999.25    -9999.25    -9999.25    -9999.25    -9999.25    -9999.25    26.206      1.405       146.178     23.996      53.215      1.12        1413.404    1366.31     1328.335    2.517       
116.75      -9999.25    -9999.25    -9999.25    54.781      35.581      21.932      19.103      13.697      23.813      -9999.25    -9999.25    -9999.25    -9999.25    -9999.25    -9999.25    -9999.25    -9999.25    -9999.25    -9999.25    
116.8       45.363      130.358     3.919       -9999.25    -9999.25    -9999.25    -9999.25    -9999.25    -9999.25    26.036      1.427       144.1       23.535      53.215      1.12        1429.057    1370.491    1328.335    2.474       
116.85      -9999.25    -9999.25    -9999.25    51.866      35.581      20.628      17.872      13.835      23.813      -9999.25    -9999.25    -9999.25    -9999.25    -9999.25    -9999.25    -9999.25    -9999.25    -9999.25    -9999.25    
116.9       42.514      130.168     4.114       -9999.25    -9999.25    -9999.25    -9999.25    -9999.25    -9999.25    25.892      1.441       142.478     24.477      53.168      1.12        1335.332    1335.337    1335.057    2.465       
116.95      -9999.25    -9999.25    -9999.25    47.887      35.619      19.86       16.968      14.527      23.813      -9999.25    -9999.25    -9999.25    -9999.25    -9999.25    -9999.25    -9999.25    -9999.25    -9999.25    -9999.25    
