~Version Information Section
VERS.                                         2.0:CWLS log ASCII Standart – VERSION 2.0
WRAP.                                          NO:One line per depth step
~Well Information Section
STRT.M                                        0.7:Начальная глубина
STOP.M                                      200.1:Конечная глубина
STEP.M                                          0:Шаг квантования по глубине
NULL.                                    -9999.25:Признак "Нет данных"
WELL.                                       111Мх:Скважина
~Parameter Information Section
~Curve Information Section
DEPTH.M                                          :Глубина
DСР.mm                                           :Dср
ГК.1/min                                         :GK
ИК.mSim/m                                        :IK
N0.5M2.0A.Омм                                    :N0
НГК.усл.ед                                       :NGK
PZ.Ohm*M                                         :PZ
R.Ohm*M                                          :R
PS.mV                                            :ПС
U1.mV                                            :U1
U2.                                              :U2
U3.mV                                            :U3
А0.4М0.1N.Омм                                    :А0
А1.0М0.1N.Омм                                    :А1
А2.0М0.5N.Омм                                    :А2
А4.0М0.5N.Oмм                                    :А4
А8.0М1.0N.Омм                                    :А8
BK.Ohm*M                                         :БК
ГГК.1/min                                        :ГГК
КП.%                                             :Кп
ННКМ.усл.ед                                      :ННКм
~ASCII LOG DATA
# ...
157.5       131.971     6.778       15.448      31.267      1.427       33.8        1.06        389.189     1106.0      1119.0      1219.339    22.115      19.635      14.916      9.842       14.18       23.623      2.287       33.736      1.945       
157.6       132.917     6.835       15.642      30.897      1.32        33.8        1.06        388.326     1101.2      1125.0      1286.516    22.118      19.236      15.349      9.721       16.402      25.362      2.283       34.088      1.971       
157.7       132.002     5.894       15.93       29.46       1.209       33.8        1.06        387.218     1096.4      1134.0      1356.968    21.949      18.653      15.478      9.6         19.186      26.557      2.27        33.626      2.014       
157.8       131.855     5.837       16.309      26.955      1.416       33.8        1.06        385.862     1080.618    1140.0      1405.832    21.733      17.739      15.478      9.479       22.681      26.181      2.261       33.196      2.048       
157.9       132.003     5.722       16.778      23.643      1.456       33.8        1.06        384.014     1054.887    1154.999    1418.957    21.396      16.46       15.439      9.358       27.024      25.055      2.272       32.835      2.035       
158.0       131.625     6.023       17.24       19.906      1.307       34.3        1.06        381.797     1029.15     1182.0      1398.865    20.82       15.33       15.414      9.236       32.284      22.562      2.289       33.371      2.007       
158.1       131.607     6.144       17.624      16.785      1.333       36.8        1.06        379.21      1004.465    1206.002    1360.769    20.658      14.726      15.583      9.115       38.77       19.83       2.305       33.955      1.981       
158.2       131.613     6.47        17.955      14.965      1.359       41.4        1.06        376.376     980.836     1226.999    1304.878    20.842      14.541      15.738      8.994       47.086      18.645      2.295       34.163      1.948       
158.3       131.418     6.454       18.293      14.293      1.235       47.1        1.06        373.296     970.585     1254.001    1251.516    20.842      14.541      15.738      9.002       57.29       19.354      2.276       34.077      1.918       
158.4       131.665     6.374       18.733      14.063      1.341       53.0        1.06        370.093     966.251     1272.0      1210.627    20.842      14.541      15.738      9.138       67.871      26.667      2.265       33.485      1.999       
158.5       131.637     5.76        19.369      13.885      1.391       59.4        1.06        366.766     953.266     1284.0      1203.228    21.752      15.098      16.097      9.274       76.529      52.221      2.283       32.757      2.133       
158.6       131.788     5.146       20.371      13.801      1.404       66.1        1.06        362.824     938.587     1299.001    1231.185    24.833      16.795      17.225      9.411       81.684      92.419      2.327       31.92       2.29        
158.7       131.792     3.747       21.781      14.142      1.307       72.8        1.06        358.389     922.859     1314.0      1281.147    32.848      19.721      19.069      9.547       83.49       124.088     2.378       30.031      2.459       
158.8       131.589     3.411       23.375      14.696      1.445       79.9        1.06        353.461     912.763     1329.0      1331.117    49.688      23.361      21.186      9.683       83.719      139.401     2.412       28.031      2.612       
158.9       131.558     2.899       25.12       15.003      1.395       87.2        1.06        348.533     913.84      1352.999    1376.66     70.778      26.771      23.134      9.819       82.435      140.672     2.425       26.454      2.737       
159.0       131.488     3.155       26.844      15.325      1.424       94.5        1.06        343.605     926.987     1371.0      1398.594    88.339      29.63       24.712      9.956       77.137      130.881     2.43        24.876      2.784       
159.1       131.41      3.667       28.083      16.215      1.304       100.4       1.06        339.786     942.774     1386.001    1400.779    104.375     32.222      26.047      10.688      67.063      126.768     2.443       23.252      2.858       
159.2       131.807     4.061       28.885      18.238      1.332       106.2       1.06        336.829     964.656     1395.0      1389.12     119.587     34.723      27.661      12.152      54.123      119.123     2.469       21.962      2.918       
159.3       131.751     4.454       29.333      21.68       1.47        110.6       1.06        334.365     991.594     1398.0      1365.183    131.382     37.508      29.916      14.066      40.355      90.552      2.49        21.007      2.96        
159.4       131.279     4.182       29.234      26.696      1.734       114.6       1.06        332.024     1020.682    1392.0      1329.105    140.879     43.595      33.056      16.164      27.357      77.974      2.491       20.417      2.977       
159.5       131.13      4.128       28.759      33.049      1.612       117.8       1.06        329.806     1046.356    1386.0      1290.177    150.063     54.931      37.566      18.151      16.622      124.754     2.48        19.79       2.937       
159.6       131.017     3.61        28.128      39.855      1.536       120.2       1.06        326.973     1067.604    1380.0      1251.193    159.052     70.835      43.674      22.95       9.153       219.1       2.453       18.704      2.985       
159.7       130.761     3.588       27.225      46.512      1.88        122.3       1.06        323.523     1073.015    1380.0      1238.654    170.136     92.038      51.373      34.056      4.96        287.242     2.44        17.654      3.118       
159.8       130.606     3.533       26.126      53.713      1.929       122.3       1.06        319.827     1059.626    1364.49     1241.19     188.702     119.184     61.494      52.293      3.116       305.197     2.435       16.913      3.24        
159.9       130.951     3.974       25.086      60.096      1.947       122.3       1.06        315.885     1032.016    1338.56     1278.264    217.171     148.788     74.997      77.004      2.419       286.823     2.447       16.211      3.319       
160.0       131.386     4.416       23.991      62.571      1.793       122.3       1.06        311.573     996.304     1307.753    1321.107    235.741     167.139     86.686      97.742      2.121       235.286     2.468       15.339      3.396       
160.1       131.507     6.4         22.77       62.571      1.941       122.3       1.06        307.014     956.52      1276.946    1372.003    237.474     170.915     90.728      104.693     1.968       220.702     2.477       14.1        3.443       
160.2       131.87      6.797       21.64       62.047      1.979       122.3       1.06        302.579     951.789     1252.386    1402.799    237.474     170.915     90.728      104.693     1.872       238.59      2.472       13.116      3.409       
160.3       131.953     6.278       20.523      58.446      1.909       117.9       1.06        298.514     955.168     1256.471    1436.4      226.743     164.283     90.64       104.096     1.799       178.017     2.462       13.028      3.487       
160.4       132.121     6.214       19.303      50.437      2.229       111.2       1.06        294.694     968.278     1290.336    1455.999    197.046     145.015     85.497      96.226      1.732       76.868      2.455       13.997      3.537       
160.5       132.281     5.894       18.137      38.914      2.131       103.8       1.06        291.491     989.49      1297.143    1475.6      152.623     115.172     72.048      77.472      1.66        31.82       2.454       15.742      3.183       
160.6       132.252     6.067       16.967      26.396      2.215       95.7        1.06        289.027     1022.0      1303.948    1492.401    100.632     77.651      52.346      51.382      1.582       22.817      2.445       17.95       2.77        
