~Version Information Section
VERS.                                         2.0:CWLS log ASCII Standart – VERSION 2.0
WRAP.                                          NO:One line per depth step
~Well Information Section
STRT.M                                       1.07:Начальная глубина
STOP.M                                     192.17:Конечная глубина
STEP.M                                          0:Шаг квантования по глубине
NULL.                                    -9999.25:Признак "Нет данных"
WELL.                                        151К:Скважина
~Parameter Information Section
~Curve Information Section
DEPTH.M                                          :Глубина
BK.Ohm*M                                         :BK     (БК)
DS.mm                                            :DS  (ДС)
GGK.g/cm3                                        :GGKp
ГК.mcr/h                                         :GK          (ГК)
GZ1.Ohm*M                                        :GZ1   ГЗ1(A0.4M0.1N)
GZ2.Ohm*M                                        :GZ2   ГЗ2(A1.0M0.1N)
GZ3.Ohm*M                                        :GZ3   ГЗ3(A2.0M0.5N)
GZ4.Ohm*M                                        :GZ4   ГЗ4(A4.0M0.5N)
GZ5.Ohm*M                                        :GZ5   ГЗ5(A8.0M0.5N)
GZR.                                             :GZR   ГЗK(N0.5M2.0A)
ИК.Ohm*M                                         :IK
НГК.ue                                           :NGK     (НГК)
NNKM.                                            :NNKm  (ННКм)
PS.mv                                            :PS       (ПС)
PZ.Ohm*M                                         :PZ    (КС)
RS.Ohm*M                                         :RS (Резистивиметр)
W.%                                              :W
~ASCII LOG DATA
# ...
105.37      28.615      152.665     2.142       9.127       -9999.25    -9999.25    -9999.25    -9999.25    -9999.25    -9999.25    21.952      0.935       1.281       474.481     34.203      1.138       28.896      
105.4       -9999.25    -9999.25    -9999.25    -9999.25    26.549      17.919      31.901      7.476       12.653      68.665      -9999.25    -9999.25    -9999.25    -9999.25    -9999.25    -9999.25    -9999.25    
105.47      21.24       152.659     2.149       9.251       -9999.25    -9999.25    -9999.25    -9999.25    -9999.25    -9999.25    22.782      0.941       1.235       476.114     35.898      1.141       28.936      
105.5       -9999.25    -9999.25    -9999.25    -9999.25    23.967      15.112      29.435      6.478       13.636      83.856      -9999.25    -9999.25    -9999.25    -9999.25    -9999.25    -9999.25    -9999.25    
105.57      18.84       152.64      2.156       9.86        -9999.25    -9999.25    -9999.25    -9999.25    -9999.25    -9999.25    23.496      0.925       1.191       478.478     37.615      1.145       28.87       
105.6       -9999.25    -9999.25    -9999.25    -9999.25    21.421      14.269      28.517      6.182       17.019      117.505     -9999.25    -9999.25    -9999.25    -9999.25    -9999.25    -9999.25    -9999.25    
105.67      18.588      152.502     2.165       10.469      -9999.25    -9999.25    -9999.25    -9999.25    -9999.25    -9999.25    23.992      0.888       1.182       480.515     39.318      1.136       28.967      
105.7       -9999.25    -9999.25    -9999.25    -9999.25    19.724      13.965      28.826      6.799       22.221      154.785     -9999.25    -9999.25    -9999.25    -9999.25    -9999.25    -9999.25    -9999.25    
105.77      18.485      152.594     2.176       11.023      -9999.25    -9999.25    -9999.25    -9999.25    -9999.25    -9999.25    24.398      0.867       1.187       481.54      41.367      1.141       29.294      
105.8       -9999.25    -9999.25    -9999.25    -9999.25    19.964      14.589      31.536      9.032       27.23       252.555     -9999.25    -9999.25    -9999.25    -9999.25    -9999.25    -9999.25    -9999.25    
105.87      18.447      152.76      2.188       10.607      -9999.25    -9999.25    -9999.25    -9999.25    -9999.25    -9999.25    24.88       0.911       1.208       481.197     44.404      1.153       29.85       
105.9       -9999.25    -9999.25    -9999.25    -9999.25    20.86       16.532      39.185      12.591      31.736      360.357     -9999.25    -9999.25    -9999.25    -9999.25    -9999.25    -9999.25    -9999.25    
105.97      19.611      151.495     2.201       10.19       -9999.25    -9999.25    -9999.25    -9999.25    -9999.25    -9999.25    25.505      1.022       1.258       479.749     50.433      1.153       30.51       
106.0       -9999.25    -9999.25    -9999.25    -9999.25    21.331      21.728      50.385      17.114      36.586      415.464     -9999.25    -9999.25    -9999.25    -9999.25    -9999.25    -9999.25    -9999.25    
106.07      22.566      150.221     2.213       9.7         -9999.25    -9999.25    -9999.25    -9999.25    -9999.25    -9999.25    26.328      1.128       1.316       477.635     59.909      1.145       31.002      
106.1       -9999.25    -9999.25    -9999.25    -9999.25    26.186      31.629      58.229      23.583      39.729      462.395     -9999.25    -9999.25    -9999.25    -9999.25    -9999.25    -9999.25    -9999.25    
106.17      24.725      149.429     2.226       8.807       -9999.25    -9999.25    -9999.25    -9999.25    -9999.25    -9999.25    27.423      1.214       1.463       474.837     72.069      1.138       29.921      
106.2       -9999.25    -9999.25    -9999.25    -9999.25    35.055      39.358      63.274      31.213      42.456      484.529     -9999.25    -9999.25    -9999.25    -9999.25    -9999.25    -9999.25    -9999.25    
106.27      28.864      147.235     2.238       7.914       -9999.25    -9999.25    -9999.25    -9999.25    -9999.25    -9999.25    28.917      1.282       1.66        470.982     85.521      1.136       27.692      
106.3       -9999.25    -9999.25    -9999.25    -9999.25    44.03       40.461      64.51       34.832      44.565      456.167     -9999.25    -9999.25    -9999.25    -9999.25    -9999.25    -9999.25    -9999.25    
106.37      64.134      144.906     2.249       7.095       -9999.25    -9999.25    -9999.25    -9999.25    -9999.25    -9999.25    31.156      1.342       1.863       466.236     118.633     1.134       25.244      
106.4       -9999.25    -9999.25    -9999.25    -9999.25    54.589      39.906      60.253      34.127      46.117      415.071     -9999.25    -9999.25    -9999.25    -9999.25    -9999.25    -9999.25    -9999.25    
106.47      155.288     144.124     2.259       6.025       -9999.25    -9999.25    -9999.25    -9999.25    -9999.25    -9999.25    33.822      1.36        1.929       461.238     170.145     1.133       22.932      
106.5       -9999.25    -9999.25    -9999.25    -9999.25    76.248      40.314      55.938      33.261      47.245      359.079     -9999.25    -9999.25    -9999.25    -9999.25    -9999.25    -9999.25    -9999.25    
106.57      196.559     143.821     2.268       4.858       -9999.25    -9999.25    -9999.25    -9999.25    -9999.25    -9999.25    37.09       1.326       1.897       456.552     218.65      1.132       20.709      
106.6       -9999.25    -9999.25    -9999.25    -9999.25    112.865     42.937      52.129      33.293      45.632      275.776     -9999.25    -9999.25    -9999.25    -9999.25    -9999.25    -9999.25    -9999.25    
106.67      201.943     143.513     2.277       3.69        -9999.25    -9999.25    -9999.25    -9999.25    -9999.25    -9999.25    40.584      1.293       1.848       452.285     256.132     1.131       19.695      
106.7       -9999.25    -9999.25    -9999.25    -9999.25    147.108     51.09       48.594      34.894      42.911      209.992     -9999.25    -9999.25    -9999.25    -9999.25    -9999.25    -9999.25    -9999.25    
106.77      231.561     145.257     2.283       3.37        -9999.25    -9999.25    -9999.25    -9999.25    -9999.25    -9999.25    44.171      1.273       1.818       448.603     279.1       1.13        19.592      
106.8       -9999.25    -9999.25    -9999.25    -9999.25    169.03      62.382      46.806      37.488      41.19       166.707     -9999.25    -9999.25    -9999.25    -9999.25    -9999.25    -9999.25    -9999.25    
106.87      249.478     147.484     2.287       3.146       -9999.25    -9999.25    -9999.25    -9999.25    -9999.25    -9999.25    48.828      1.269       1.802       445.935     292.985     1.131       19.684      
106.9       -9999.25    -9999.25    -9999.25    -9999.25    185.848     77.443      46.402      39.6        39.875      149.304     -9999.25    -9999.25    -9999.25    -9999.25    -9999.25    -9999.25    -9999.25    
106.97      253.653     149.202     2.289       2.923       -9999.25    -9999.25    -9999.25    -9999.25    -9999.25    -9999.25    53.709      1.264       1.784       443.718     300.01      1.132       19.727      
107.0       -9999.25    -9999.25    -9999.25    -9999.25    198.7       100.968     46.463      40.988      39.257      138.879     -9999.25    -9999.25    -9999.25    -9999.25    -9999.25    -9999.25    -9999.25    
107.07      252.373     150.379     2.288       2.783       -9999.25    -9999.25    -9999.25    -9999.25    -9999.25    -9999.25    58.018      1.268       1.769       441.423     304.146     1.132       19.817      
107.1       -9999.25    -9999.25    -9999.25    -9999.25    205.563     149.845     47.801      42.972      39.07       128.319     -9999.25    -9999.25    -9999.25    -9999.25    -9999.25    -9999.25    -9999.25    
107.17      244.814     150.483     2.285       2.631       -9999.25    -9999.25    -9999.25    -9999.25    -9999.25    -9999.25    61.399      1.29        1.755       438.94      307.586     1.131       19.977      
