~Version Information Section
VERS.                                         2.0:CWLS log ASCII Standart – VERSION 2.0
WRAP.                                          NO:One line per depth step
~Well Information Section
STRT.M                                       -0.5:Начальная глубина
STOP.M                                      184.3:Конечная глубина
STEP.M                                          0:Шаг квантования по глубине
NULL.                                    -9999.25:Признак "Нет данных"
WELL.                                       133Мх:Скважина
~Parameter Information Section
~Curve Information Section
DEPTH.M                                          :Глубина
DS.mm                                            :DS  (ДС)
GGK.g/cm3                                        :GGKp
ГК.mcr/h                                         :GK          (ГК)
GZ1.Ohm*M                                        :GZ1   ГЗ1(A0.4M0.1N)
GZ2.Ohm*M                                        :GZ2   ГЗ2(A1.0M0.1N)
GZ3.Ohm*M                                        :GZ3   ГЗ3(A2.0M0.5N)
GZ4.Ohm*M                                        :GZ4   ГЗ4(A4.0M0.5N)
GZ5.Ohm*M                                        :GZ5   ГЗ5(A8.0M0.5N)
GZR.Ohm*M                                        :GZK   ГЗK(N0.5M2.0A)
ИК.Ohm*M                                         :IK
НГК.ue                                           :NGK     (НГК)
NNKM.                                            :NNKm  (ННКм)
PS.mv                                            :PS       (ПС)
PZ.Ohm*M                                         :PZ    (КС)
RS.Ohm*M                                         :RS (Резистивиметр)
U1.mV                                            :U1
U2.mV                                            :U2
U3.mV                                            :U3
BK.Ohm*M                                         :БК
ПОРИСТОСТЬ.                                      :Пористость ННК
~ASCII LOG DATA
# ...
143.5       125.915     2.372       5.963       98.184      38.785      24.802      27.254      40.838      14.643      26.463      1.663       2.861       53.475      30.68       1.182       500.0       1328.0      2094.0      48.444      30.364      
143.6       125.985     2.363       5.461       98.853      45.628      27.929      31.413      50.499      17.479      26.592      1.719       2.934       53.996      32.382      1.182       504.0       1311.999    2092.0      50.812      27.592      
143.7       126.061     2.361       5.341       100.255     52.941      32.956      38.073      63.617      21.655      26.592      1.771       3.012       55.031      33.452      1.182       490.0       1310.0      2092.0      53.884      25.747      
143.8       126.025     2.36        5.574       101.558     60.804      40.16       47.517      80.979      27.01       26.592      1.826       3.09        56.727      33.767      1.182       488.261     1312.0      2088.0      39.107      23.374      
143.9       125.861     2.367       6.032       102.018     71.14       50.11       59.993      103.108     33.285      26.57       1.887       3.143       59.263      33.8        1.182       480.056     1312.001    2085.365    31.696      22.09       
144.0       125.676     2.383       6.804       106.783     83.628      63.356      76.759      127.869     40.911      26.432      1.94        3.166       62.779      33.169      1.182       473.39      1302.726    2076.985    37.773      21.634      
144.1       125.568     2.394       7.724       120.215     98.971      79.608      98.075      146.317     49.175      26.117      1.953       3.168       67.318      31.133      1.182       461.423     1292.014    2073.529    53.903      21.507      
144.2       125.541     2.393       8.318       140.673     117.235     93.975      118.066     157.194     54.642      25.718      1.954       3.167       72.818      27.32       1.178       456.817     1288.89     2067.22     56.752      20.993      
144.3       125.512     2.383       8.176       155.941     129.148     100.594     128.91      159.502     56.109      25.262      1.999       3.191       79.099      22.206      1.178       464.551     1287.175    2062.392    54.648      20.633      
144.4       125.412     2.36        8.039       159.415     131.578     101.613     131.403     159.502     56.109      24.723      2.065       3.265       85.916      17.025      1.178       476.584     1286.523    2059.902    80.373      20.332      
144.5       125.274     2.346       8.181       159.415     131.578     101.613     131.403     159.502     55.31       24.092      2.121       3.325       93.017      12.692      1.178       479.45      1282.837    2059.598    132.321     20.804      
144.6       125.202     2.362       8.188       154.772     127.106     97.218      127.213     150.299     51.392      23.397      2.128       3.346       100.17      9.48        1.178       472.62      1279.703    2060.879    97.19       21.345      
144.7       125.279     2.382       7.805       140.101     114.43      84.377      112.481     130.052     42.971      22.677      2.073       3.303       107.164     7.454       1.178       465.874     1280.296    2063.13     109.997     22.031      
144.8       125.519     2.388       7.566       116.586     93.464      64.229      86.807      107.482     31.642      21.922      1.938       3.2         113.8       6.348       1.178       469.099     1283.186    2065.048    209.347     22.544      
144.9       125.822     2.373       7.694       85.491      66.399      42.542      57.686      82.875      21.371      21.123      1.783       3.066       119.862     5.728       1.178       475.332     1284.809    2064.327    89.536      22.783      
145.0       126.043     2.333       7.813       57.834      43.331      25.588      33.725      58.371      14.487      20.29       1.704       2.89        125.133     5.32        1.178       474.724     1283.952    2061.45     37.73       23.52       
145.1       126.147     2.294       8.141       43.051      30.581      15.1        18.139      37.44       10.756      19.426      1.691       2.707       129.446     5.024       1.178       470.419     1282.092    2058.75     28.582      25.042      
145.2       126.197     2.277       8.441       35.436      24.841      9.901       10.082      22.284      9.556       18.47       1.687       2.536       132.73      4.797       1.178       468.213     1280.527    2058.361    23.314      26.192      
145.3       126.291     2.275       8.887       30.254      22.264      7.597       6.655       12.471      9.447       17.475      1.597       2.396       135.015     4.598       1.178       469.581     1279.509    2059.643    19.959      28.506      
145.4       126.479     2.279       8.94        26.275      21.133      6.683       5.248       7.71        9.447       16.558      1.49        2.316       136.441     4.396       1.178       469.986     1278.432    2059.427    19.843      30.54       
145.5       126.662     2.281       9.139       23.622      20.393      6.262       4.599       5.758       9.447       15.788      1.41        2.279       137.212     4.212       1.178       467.608     1277.592    2057.356    19.763      31.574      
145.6       126.692     2.272       9.216       22.159      19.458      6.131       4.242       4.953       9.718       15.162      1.396       2.258       137.528     4.082       1.178       464.867     1277.065    2055.45     19.794      32.553      
145.7       126.585     2.255       9.444       21.424      18.547      6.131       4.031       4.508       10.255      14.659      1.409       2.248       137.559     4.003       1.178       463.319     1276.082    2054.499    19.851      33.019      
145.8       126.483     2.237       9.239       21.068      17.881      6.131       3.898       4.269       10.774      14.285      1.407       2.25        137.427     3.963       1.178       462.345     1274.558    2053.556    19.846      33.243      
145.9       126.467     2.227       9.222       20.944      17.43       6.152       3.796       4.093       11.248      14.027      1.423       2.257       137.206     3.949       1.178       460.533     1273.399    2051.87     19.819      33.479      
146.0       126.52      2.233       9.125       20.932      17.009      6.29        3.705       3.95        11.664      13.863      1.465       2.252       136.94      3.946       1.178       458.633     1273.208    2050.342    20.096      33.532      
146.1       126.587     2.252       9.166       20.932      16.37       6.548       3.62        3.829       12.047      13.77       1.522       2.24        136.657     3.945       1.178       458.902     1274.025    2050.648    20.363      33.555      
146.2       126.619     2.273       8.935       20.932      15.498      6.895       3.547       3.709       12.409      13.731      1.53        2.226       136.373     3.945       1.178       462.05      1275.048    2053.12     20.378      33.625      
146.3       126.612     2.29        8.434       20.988      14.781      7.431       3.485       3.576       12.738      13.722      1.468       2.22        136.109     3.95        1.178       464.783     1275.243    2055.122    20.325      33.5        
146.4       126.585     2.304       8.173       21.098      14.391      8.231       3.438       3.418       13.046      13.722      1.416       2.211       135.884     3.965       1.178       464.586     1274.585    2054.828    20.212      33.534      
146.5       126.564     2.31        8.126       21.257      14.188      9.313       3.409       3.257       13.333      13.726      1.425       2.207       135.721     3.985       1.178       462.827     1273.997    2053.391    20.323      33.394      
146.6       126.561     2.3         8.517       21.563      14.062      10.836      3.326       3.127       13.552      13.746      1.462       2.21        135.643     4.007       1.178       462.895     1274.666    2053.474    20.516      33.393      
