~Version Information Section
VERS.                                         2.0:CWLS log ASCII Standart – VERSION 2.0
WRAP.                                          NO:One line per depth step
~Well Information Section
STRT.M                                        7.7:Начальная глубина
STOP.M                                      168.6:Конечная глубина
STEP.M                                          0:Шаг квантования по глубине
NULL.                                    -9999.25:Признак "Нет данных"
WELL.                                       137Мх:Скважина
~Parameter Information Section
~Curve Information Section
DEPTH.M                                          :Глубина
ГК.мкР/ч                                         :GK
U1.                                              :U1
U12.                                             :U12
U2.                                              :U2
W.усл.ед                                         :W
ЗОНД.                                            :Зонд N0
НГК.                                             :НГК
ННКМ.усл.ед                                      :ННКм
ПЛОТНОСТЬ.г/см3                                  :плотность
РЕЗИСТИВИМЕТР.Ом                                 :Резистивиметр
~ASCII LOG DATA
# ...
105.3       8.11        137.903     137.756     139.848     28.786      40.416      1.256       1.347       2.378       0.671       
105.4       8.046       205.218     138.994     114.98      27.722      41.288      1.251       1.44        2.367       0.675       
105.5       8.339       245.381     146.314     109.356     27.853      41.261      1.237       1.421       2.349       0.669       
105.6       8.424       258.39      159.717     122.977     28.157      40.904      1.218       1.371       2.346       0.662       
105.7       8.702       193.281     164.065     157.367     28.41       40.329      1.205       1.409       2.357       0.657       
105.8       8.905       185.74      178.92      175.376     28.805      39.464      1.204       1.484       2.373       0.652       
105.9       8.8         193.392     188.598     199.857     29.285      38.487      1.22        1.442       2.386       0.639       
106.0       8.637       158.669     182.591     247.19      29.215      37.326      1.254       1.421       2.386       0.62        
106.1       8.663       130.192     164.325     255.585     29.475      36.06       1.248       1.347       2.381       0.606       
106.2       8.949       150.336     149.483     202.189     29.789      35.05       1.2         1.317       2.375       0.599       
106.3       9.534       161.471     142.928     154.227     30.103      34.489      1.156       1.306       2.372       0.598       
106.4       9.561       197.086     141.985     125.397     30.203      34.326      1.139       1.303       2.368       0.598       
106.5       9.212       257.18      146.653     115.697     30.634      34.395      1.139       1.322       2.36        0.601       
106.6       9.015       312.981     162.095     117.655     31.359      34.657      1.148       1.322       2.348       0.609       
106.7       9.038       282.382     187.561     179.364     32.035      34.951      1.171       1.183       2.329       0.619       
106.8       9.365       207.201     210.429     253.442     31.826      35.077      1.19        1.217       2.314       0.626       
106.9       9.844       174.009     211.434     262.724     31.957      35.144      1.191       1.268       2.298       0.628       
107.0       9.689       182.807     190.575     207.208     32.193      35.24       1.195       1.252       2.3         0.633       
107.1       9.3         162.355     175.844     206.132     31.937      35.318      1.208       1.235       2.315       0.642       
107.2       9.301       145.152     180.299     242.741     31.365      35.438      1.231       1.268       2.34        0.649       
107.3       9.358       131.199     203.941     317.035     31.252      35.566      1.261       1.285       2.361       0.648       
107.4       9.187       131.939     204.176     315.973     30.19       35.465      1.271       1.338       2.367       0.645       
107.5       9.254       114.701     177.19      273.724     28.566      35.098      1.239       1.338       2.362       0.642       
107.6       9.329       114.018     143.48      200.968     27.421      34.637      1.222       1.349       2.344       0.641       
107.7       9.288       147.869     130.268     138.891     27.244      34.299      1.215       1.343       2.325       0.641       
107.8       8.939       173.989     159.313     168.696     27.131      34.192      1.202       1.312       2.309       0.641       
107.9       9.029       189.18      185.903     201.094     27.065      34.194      1.204       1.309       2.303       0.642       
108.0       9.427       193.44      210.038     236.086     27.193      34.113      1.215       1.296       2.306       0.642       
108.1       9.776       205.826     202.112     202.345     27.05       33.762      1.245       1.297       2.319       0.639       
108.2       9.431       195.004     186.34      178.479     26.589      33.101      1.271       1.302       2.335       0.638       
108.3       9.11        183.669     173.814     165.846     26.432      32.226      1.298       1.326       2.346       0.636       
108.4       9.066       195.03      172.38      154.571     26.823      31.255      1.326       1.375       2.347       0.635       
108.5       9.054       200.411     165.346     137.488     27.545      30.466      1.323       1.399       2.334       0.635       
108.6       9.217       169.208     146.842     130.851     28.569      30.168      1.297       1.422       2.318       0.634       
108.7       9.074       129.713     124.953     124.029     29.652      30.169      1.258       1.35        2.309       0.633       
108.8       8.907       110.602     116.372     124.187     30.086      30.285      1.24        1.314       2.309       0.633       
108.9       8.72        119.782     115.878     113.712     30.186      30.369      1.246       1.304       2.319       0.633       
109.0       8.611       130.392     120.737     112.447     29.988      30.08       1.253       1.3         2.33        0.633       
109.1       8.295       154.681     145.871     138.053     29.331      29.38       1.227       1.319       2.343       0.634       
109.2       8.107       192.648     191.278     190.528     28.556      28.443      1.161       1.33        2.355       0.635       
109.3       8.006       193.26      191.776     190.926     28.227      27.587      1.11        1.363       2.36        0.635       
109.4       8.013       172.956     170.333     168.306     28.175      27.021      1.101       1.351       2.36        0.635       
109.5       8.155       131.738     126.949     122.667     28.441      26.687      1.099       1.329       2.35        0.637       
109.6       8.852       141.436     128.729     120.159     28.99       26.423      1.087       1.322       2.326       0.637       
109.7       9.884       173.362     137.78      114.063     29.387      26.101      1.07        1.313       2.312       0.631       
109.8       10.261      196.806     148.988     116.99      29.798      25.784      1.084       1.289       2.318       0.627       
109.9       10.155      189.542     155.08      132.527     29.937      25.563      1.134       1.254       2.346       0.626       
110.0       10.234      181.913     163.48      150.106     29.42       25.3        1.194       1.309       2.38        0.626       
110.1       10.427      186.787     172.236     159.633     29.017      25.03       1.221       1.337       2.395       0.63        
110.2       10.447      204.165     181.348     161.109     28.702      24.912      1.232       1.298       2.386       0.635       
110.3       10.378      194.63      183.063     174.922     28.135      24.881      1.243       1.29        2.371       0.635       
110.4       10.087      176.02      184.452     198.557     28.103      24.868      1.25        1.221       2.363       0.635       
110.5       9.749       187.697     189.959     199.323     28.203      24.83       1.252       1.24        2.362       0.64        
110.6       9.59        200.441     190.152     186.465     27.731      24.521      1.265       1.332       2.362       0.653       
110.7       9.132       214.251     185.033     159.985     27.575      23.733      1.268       1.331       2.358       0.656       
110.8       8.928       201.369     170.198     145.285     27.649      22.705      1.271       1.325       2.36        0.643       
110.9       8.991       200.092     155.404     123.296     27.083      21.811      1.26        1.354       2.354       0.633       
111.0       9.253       219.717     166.965     128.688     26.561      21.216      1.238       1.384       2.355       0.63        
111.1       9.415       215.669     170.99      137.892     26.709      21.006      1.215       1.364       2.333       0.629       
111.2       9.151       187.945     167.481     150.908     27.226      21.024      1.21        1.339       2.308       0.629       
111.3       9.094       152.665     150.099     149.163     27.91       21.136      1.211       1.317       2.286       0.629       
