~Version Information Section
VERS.                                         2.0:CWLS log ASCII Standart – VERSION 2.0
WRAP.                                          NO:One line per depth step
~Well Information Section
STRT.M                                        1.0:Начальная глубина
STOP.M                                      192.9:Конечная глубина
STEP.M                                          0:Шаг квантования по глубине
NULL.                                    -9999.25:Признак "Нет данных"
WELL.                                       123Мх:Скважина
~Parameter Information Section
~Curve Information Section
DEPTH.M                                          :Глубина
BK.lgОмм                                         :BK     (БК)
ПРОФ_СР.мм                                       :DS  (ДС)
ГК.мкР/час                                       :GK          (ГК)
ГЗ1.Омм                                          :GZ1   ГЗ1(A0.4M0.1N)
ГЗ2.Омм                                          :GZ2   ГЗ2(A1.0M0.1N)
ГЗ3.Омм                                          :GZ3   ГЗ3(A2.0M0.5N)
ГЗ4.Oмм                                          :GZ4   ГЗ4(A4.0M0.5N)
ГЗ5.Oмм                                          :GZ5   ГЗ5(A8.0M0.5N)
ГЗК.Омм                                          :GZK   ГЗK(N0.5M2.0A)
ИК.мСм/м                                         :IK
НГК.усл.ед.                                      :NGK     (НГК)
PS.мВ                                            :PS       (ПС)
PZ.Омм                                           :PZ    (КС)
RIS.Омм                                          :RS (Резистивиметр)
U1.мВ                                            :U1
U2.мВ                                            :U2
U3.mv                                            :U3
W.                                               :W
П.%                                              :п
ННКМ.усл.ед                                      :ННКм
~ASCII LOG DATA
# ...
90.6        26.122      131.562     6.873       67.32       12.92       28.801      23.536      25.334      22.119      10.713      1.101       235.486     28.631      1.381       429.339     411.609     553.265     2.385       24.372      0.239       
90.7        22.233      133.978     6.89        65.16       14.96       28.801      21.203      25.001      22.119      10.681      1.128       235.486     30.511      1.392       511.102     371.381     406.721     2.377       25.179      0.222       
90.8        23.227      133.606     6.788       62.28       17.0        29.468      18.869      23.334      21.786      10.698      1.157       235.486     32.391      1.403       570.509     291.233     241.436     2.384       25.919      0.211       
90.9        26.424      131.785     6.561       59.04       18.7        30.801      18.203      21.334      21.119      10.78       1.164       235.863     34.271      1.41        560.432     241.737     151.4       2.386       26.686      0.205       
91.0        32.961      131.953     6.109       57.24       20.4        33.468      18.536      20.334      21.119      10.865      1.167       236.24      35.023      1.414       501.636     236.801     147.976     2.388       27.034      0.202       
91.1        34.198      131.414     6.157       56.16       22.44       35.468      19.203      20.001      21.786      10.918      1.184       236.617     35.399      1.416       541.858     363.699     294.854     2.4         26.927      0.203       
91.2        31.046      131.756     5.979       54.72       25.5        37.468      19.869      20.334      22.453      10.986      1.208       236.995     35.023      1.416       731.325     579.476     507.956     2.392       26.981      0.21        
91.3        32.285      132.603     6.15        53.28       28.9        38.134      20.536      20.334      23.786      10.987      1.193       237.749     33.895      1.416       979.629     734.89      614.33      2.378       26.631      0.216       
91.4        31.405      131.576     6.174       51.48       31.62       38.134      20.869      20.334      25.119      11.005      1.177       238.503     32.015      1.416       1148.136    748.184     554.15      2.377       26.911      0.218       
91.5        32.509      132.094     6.225       50.04       32.64       36.801      20.536      20.334      28.119      11.005      1.165       239.257     30.887      1.415       1231.32     737.801     500.192     2.382       26.803      0.21        
91.6        31.915      131.521     6.351       48.96       31.96       34.801      19.536      20.001      30.786      11.022      1.161       239.635     29.383      1.413       1298.84     839.096     614.068     2.387       27.675      0.209       
91.7        30.974      131.617     6.487       48.24       30.6        33.468      18.869      19.667      32.453      10.951      1.084       240.012     27.879      1.411       1347.999    1032.971    869.225     2.383       27.988      0.213       
91.8        30.549      132.052     6.547       47.52       29.24       32.801      18.536      19.334      31.119      10.952      1.062       240.389     26.751      1.408       1329.348    1079.877    938.8       2.394       28.531      0.21        
91.9        29.785      132.016     6.408       46.8        28.56       32.801      18.536      19.001      28.453      10.885      1.067       240.766     25.999      1.405       1241.067    979.539     823.842     2.4         28.27       0.206       
92.0        30.479      131.631     6.113       46.44       27.88       32.801      18.536      19.334      26.119      10.885      1.137       240.766     25.247      1.404       1044.105    734.497     560.662     2.403       28.331      0.21        
92.1        31.915      132.138     5.847       46.8        26.86       32.801      18.536      20.001      24.119      10.899      1.213       240.766     24.871      1.403       805.012     486.493     327.623     2.406       28.386      0.209       
92.2        34.041      131.716     5.766       47.52       25.84       32.801      18.536      21.001      22.453      10.935      1.203       240.766     24.871      1.403       664.908     415.523     320.299     2.418       28.502      0.208       
92.3        39.994      131.06      5.534       48.24       24.82       32.801      18.536      21.334      21.119      10.916      1.274       240.766     24.871      1.403       666.934     527.943     513.623     2.418       28.319      0.214       
92.4        42.756      131.255     5.768       48.96       24.14       33.468      18.869      21.334      20.453      10.934      1.241       241.143     24.871      1.403       714.398     665.1       704.769     2.406       27.723      0.212       
92.5        43.251      131.309     5.83        49.32       23.8        34.134      19.536      21.334      19.786      10.882      1.251       241.52      24.871      1.403       667.949     647.2       697.014     2.408       27.16       0.213       
92.6        42.267      129.681     6.295       49.68       23.8        35.468      20.203      21.001      19.119      10.731      1.182       241.897     24.871      1.403       529.134     476.637     493.726     2.421       26.265      0.216       
92.7        30.832      130.294     6.504       49.68       23.46       37.468      20.536      20.667      18.453      10.646      1.125       242.275     24.871      1.403       446.379     392.768     412.275     2.417       26.058      0.219       
92.8        26.002      130.595     6.903       49.68       23.12       39.468      20.869      20.334      17.786      10.486      1.136       242.652     24.871      1.403       420.541     393.626     447.749     2.417       26.476      0.222       
92.9        23.988      130.795     6.812       49.68       22.78       43.468      21.203      20.334      16.786      10.392      1.133       243.029     25.247      1.403       465.696     435.639     496.248     2.419       27.259      0.224       
93.0        22.594      131.628     6.385       49.68       22.78       47.468      21.869      20.334      15.786      10.329      1.172       243.406     25.623      1.403       530.937     436.477     442.141     2.41        28.084      0.215       
93.1        22.803      133.363     5.722       49.68       22.78       52.134      22.203      20.334      15.119      10.253      1.16        243.783     25.999      1.403       666.307     426.517     330.91      2.403       28.881      0.204       
93.2        25.003      132.069     5.406       49.68       22.78       54.801      22.869      20.334      14.786      10.283      1.118       244.16      25.999      1.403       845.834     444.756     264.054     2.405       29.646      0.2         
93.3        27.479      131.993     5.424       49.68       22.78       56.134      24.203      20.334      14.786      10.299      1.088       244.537     25.999      1.403       957.901     466.444     248.75      2.403       30.067      0.197       
93.4        34.041      131.463     5.499       49.68       22.78       56.134      25.536      20.334      14.786      10.314      1.105       245.292     25.623      1.403       951.69      463.258     244.527     2.399       30.533      0.205       
93.5        30.832      131.513     5.426       49.68       22.78       54.801      26.203      20.334      14.786      10.283      1.14        246.046     25.247      1.402       841.858     442.139     255.989     2.387       30.637      0.206       
93.6        27.29       131.563     5.311       49.68       22.78       53.468      25.536      20.334      14.786      10.283      1.153       247.177     24.871      1.4         769.081     461.789     315.08      2.387       30.378      0.202       
93.7        29.648      130.867     5.366       49.68       22.78       51.468      24.536      20.334      15.119      10.237      1.138       248.686     24.871      1.398       740.959     521.241     415.545     2.393       29.584      0.204       
