~Version Information Section
VERS.                                         2.0:CWLS log ASCII Standart – VERSION 2.0
WRAP.                                          NO:One line per depth step
~Well Information Section
STRT.M                                        0.4:Начальная глубина
STOP.M                                      203.0:Конечная глубина
STEP.M                                          0:Шаг квантования по глубине
NULL.                                    -9999.25:Признак "Нет данных"
WELL.                                       128Мх:Скважина
~Parameter Information Section
~Curve Information Section
DEPTH.M                                          :Глубина
BK.Ohm*M                                         :BK     (БК)
DS.mm                                            :DS  (ДС)
GGK.g/cm3                                        :GGKp
ГК.mcr/h                                         :GK          (ГК)
ИК.Ohm*M                                         :IK
НГК.mcR/H                                        :NGK
NNKM.                                            :NNKm  (ННКм)
PS.mv                                            :PS       (ПС)
PZ.Ohm*M                                         :PZ    (КС)
RS.Ohm*M                                         :RS (Резистивиметр)
U1.mV                                            :U1
U2.mV                                            :U2
U3.mV                                            :U3
W.%                                              :W
~ASCII LOG DATA
# ...
108.4       -9999.25    -9999.25    -9999.25    4.177       -9999.25    1.052       1.821       -9999.25    -9999.25    1.1         -9999.25    -9999.25    -9999.25    35.207      
108.6       -9999.25    -9999.25    -9999.25    4.308       -9999.25    1.054       1.77        -9999.25    -9999.25    1.1         -9999.25    -9999.25    -9999.25    33.937      
108.8       -9999.25    -9999.25    -9999.25    4.066       -9999.25    1.04        1.697       -9999.25    -9999.25    1.1         -9999.25    -9999.25    -9999.25    33.199      
109.0       -9999.25    -9999.25    -9999.25    4.021       -9999.25    1.034       1.774       -9999.25    -9999.25    1.1         -9999.25    -9999.25    -9999.25    30.923      
109.2       -9999.25    -9999.25    -9999.25    4.602       -9999.25    0.962       1.809       -9999.25    -9999.25    1.1         -9999.25    -9999.25    -9999.25    39.116      
109.4       -9999.25    -9999.25    -9999.25    4.995       -9999.25    0.979       1.732       -9999.25    -9999.25    1.1         -9999.25    -9999.25    -9999.25    36.863      
109.6       -9999.25    -9999.25    -9999.25    4.663       -9999.25    0.854       1.674       -9999.25    -9999.25    1.1         -9999.25    -9999.25    -9999.25    35.27       
109.8       -9999.25    -9999.25    -9999.25    4.411       -9999.25    0.944       1.685       -9999.25    -9999.25    1.1         -9999.25    -9999.25    -9999.25    34.608      
110.0       -9999.25    -9999.25    -9999.25    4.183       -9999.25    0.997       1.655       -9999.25    -9999.25    1.1         -9999.25    -9999.25    -9999.25    39.042      
110.2       -9999.25    -9999.25    -9999.25    3.435       -9999.25    1.045       1.637       -9999.25    -9999.25    1.1         -9999.25    -9999.25    -9999.25    31.931      
110.4       -9999.25    -9999.25    -9999.25    2.961       -9999.25    0.956       1.703       -9999.25    -9999.25    1.1         -9999.25    -9999.25    -9999.25    35.551      
110.6       -9999.25    -9999.25    -9999.25    3.374       -9999.25    0.929       1.72        -9999.25    -9999.25    1.092       -9999.25    -9999.25    -9999.25    37.224      
110.8       -9999.25    -9999.25    -9999.25    3.934       -9999.25    1.087       1.668       -9999.25    -9999.25    1.084       -9999.25    -9999.25    -9999.25    36.598      
111.0       -9999.25    -9999.25    -9999.25    4.075       -9999.25    0.884       1.669       -9999.25    -9999.25    1.08        -9999.25    -9999.25    -9999.25    33.808      
111.2       -9999.25    -9999.25    -9999.25    4.012       -9999.25    0.91        1.666       -9999.25    -9999.25    1.08        -9999.25    -9999.25    -9999.25    36.903      
111.4       -9999.25    -9999.25    -9999.25    4.148       -9999.25    0.894       1.699       -9999.25    -9999.25    1.08        -9999.25    -9999.25    -9999.25    37.133      
111.6       -9999.25    -9999.25    -9999.25    4.161       -9999.25    0.981       1.643       -9999.25    -9999.25    1.08        -9999.25    -9999.25    -9999.25    34.976      
111.8       -9999.25    -9999.25    2.204       3.972       -9999.25    0.869       1.626       -9999.25    -9999.25    1.08        -9999.25    -9999.25    -9999.25    37.836      
112.0       -9999.25    96.984      2.192       3.97        -9999.25    1.031       1.66        -9999.25    -9999.25    1.072       -9999.25    -9999.25    -9999.25    33.083      
112.2       -9999.25    97.084      2.186       3.776       -9999.25    0.935       1.692       -9999.25    -9999.25    1.064       -9999.25    -9999.25    -9999.25    34.516      
112.4       -9999.25    97.122      2.212       3.366       -9999.25    1.033       1.762       -9999.25    -9999.25    1.06        -9999.25    -9999.25    -9999.25    35.6        
112.6       -9999.25    97.22       2.225       3.253       -9999.25    0.936       1.781       -9999.25    -9999.25    1.06        -9999.25    -9999.25    -9999.25    35.688      
112.8       -9999.25    97.269      2.244       3.329       -9999.25    0.95        1.715       -9999.25    0.0         1.06        -9999.25    -9999.25    -9999.25    34.88       
113.0       -9999.25    97.321      2.273       3.123       -9999.25    0.88        1.756       -9999.25    0.0         1.06        -9999.25    -9999.25    -9999.25    35.223      
113.2       -9999.25    97.355      2.28        3.171       -9999.25    0.885       1.813       -9999.25    0.0         1.06        -9999.25    -9999.25    -9999.25    35.244      
113.4       -9999.25    97.471      2.306       3.357       -9999.25    1.003       1.845       -9999.25    0.0         1.06        -9999.25    -9999.25    -9999.25    35.634      
113.6       -9999.25    97.564      2.282       3.244       -9999.25    1.009       1.843       -9999.25    0.0         1.06        -9999.25    -9999.25    -9999.25    29.179      
113.8       -9999.25    97.602      2.243       3.884       -9999.25    0.91        1.986       -9999.25    0.0         1.06        -9999.25    -9999.25    -9999.25    34.03       
114.0       -9999.25    97.473      2.248       4.419       -9999.25    0.813       1.8         -9999.25    0.0         1.06        -9999.25    -9999.25    -9999.25    36.338      
114.2       -9999.25    97.416      2.236       3.891       -9999.25    1.074       1.616       -9999.25    0.0         1.06        -9999.25    -9999.25    -9999.25    38.29       
114.4       -9999.25    97.423      2.194       3.741       -9999.25    0.834       1.63        -9999.25    0.0         1.06        -9999.25    -9999.25    -9999.25    34.442      
114.6       -9999.25    97.448      2.153       2.977       -9999.25    0.988       1.685       -9999.25    0.0         1.06        -9999.25    -9999.25    -9999.25    33.578      
114.8       -9999.25    97.405      2.152       3.052       -9999.25    0.956       1.763       -9999.25    0.0         1.06        -9999.25    -9999.25    -9999.25    34.486      
115.0       -9999.25    97.354      2.143       3.437       -9999.25    0.97        1.795       -9999.25    0.0         1.06        -9999.25    -9999.25    -9999.25    33.805      
115.2       18.88       97.316      2.148       3.634       -9999.25    1.063       1.804       -9999.25    0.0         1.06        -9999.25    -9999.25    -9999.25    32.394      
115.4       23.823      97.323      2.145       3.667       -9999.25    1.057       1.737       -9999.25    0.0         1.06        -9999.25    -9999.25    -9999.25    33.506      
115.6       15.849      97.034      2.143       3.077       -9999.25    0.985       1.729       -9999.25    0.0         1.06        -9999.25    -9999.25    -9999.25    35.774      
115.8       14.454      96.755      2.164       3.2         -9999.25    1.068       1.732       172.48      0.0         1.06        -9999.25    -9999.25    -9999.25    35.192      
116.0       12.388      96.712      2.157       3.447       -9999.25    0.93        1.722       169.4       0.0         1.06        -9999.25    -9999.25    -9999.25    37.068      
116.2       14.355      96.721      2.151       4.048       -9999.25    0.954       1.76        163.24      0.0         1.06        -9999.25    -9999.25    -9999.25    38.143      
116.4       13.932      96.811      2.209       4.08        -9999.25    1.08        1.8         161.959     0.0         1.06        -9999.25    -9999.25    -9999.25    30.835      
116.6       15.849      96.977      2.358       3.418       -9999.25    1.365       1.822       158.829     0.0         1.06        -9999.25    -9999.25    -9999.25    24.651      
116.8       17.219      97.105      2.502       2.193       -9999.25    1.607       2.149       154.665     0.0         1.06        -9999.25    -9999.25    -9999.25    19.793      
117.0       8.913       97.146      2.458       1.746       -9999.25    1.605       2.568       150.082     0.0         1.06        -9999.25    -9999.25    -9999.25    20.088      
117.2       5.598       97.174      2.312       2.266       -9999.25    1.294       2.616       145.82      0.0         1.06        -9999.25    -9999.25    -9999.25    23.307      
