~Version Information Section
VERS.                                         2.0:CWLS log ASCII Standart – VERSION 2.0
WRAP.                                          NO:One line per depth step
~Well Information Section
STRT.M                                        0.2:Начальная глубина
STOP.M                                      176.0:Конечная глубина
STEP.M                                          0:Шаг квантования по глубине
NULL.                                    -9999.25:Признак "Нет данных"
WELL.                                       112Мх:Скважина
~Parameter Information Section
~Curve Information Section
DEPTH.M                                          :Глубина
BK.Ohm*M                                         :BK     (БК)
DS.mm                                            :DS  (ДС)
GGK.g/cm3                                        :GGKp
ГК.mcr/h                                         :GK          (ГК)
GZ1.Ohm*M                                        :GZ1   ГЗ1(A0.4M0.1N)
GZ2.Ohm*M                                        :GZ2   ГЗ2(A1.0M0.1N)
GZ3.Ohm*M                                        :GZ3   ГЗ3(A2.0M0.5N)
GZ4.Ohm*M                                        :GZ4   ГЗ4(A4.0M0.5N)
GZ5.Ohm*M                                        :GZ5   ГЗ5(A8.0M0.5N)
GZR.Ohm*M                                        :GZK   ГЗK(N0.5M2.0A)
ИК.Ohm*M                                         :IK
НГК.ue                                           :NGK     (НГК)
NNKM.                                            :NNKm  (ННКм)
PS.mv                                            :PS       (ПС)
PZ.Ohm*M                                         :PZ    (КС)
U1.mV                                            :U1
U2.mV                                            :U2
U3.mV                                            :U3
КП.%                                             :Кп
~ASCII LOG DATA
# ...
95.4        210.037     135.747     2.453       3.116       177.472     121.667     72.534      49.06       32.894      39.696      37.351      2.074       2.909       339.1       109.08      618.768     2697.411    343.708     34.236      
95.5        117.321     136.044     2.434       3.673       148.927     103.64      63.018      38.723      26.478      31.1        35.8        2.059       2.778       340.6       108.24      562.871     2682.462    343.708     36.803      
95.6        64.567      135.835     2.411       3.824       124.653     89.483      54.118      30.451      21.266      24.966      34.135      1.992       2.654       341.98      107.72      459.156     2660.305    363.444     37.086      
95.7        58.478      135.87      2.398       3.824       104.967     79.084      46.631      24.358      17.229      20.789      32.535      1.824       2.533       343.26      107.56      393.115     2632.066    374.302     36.035      
95.8        71.926      136.172     2.393       3.593       89.593      71.581      40.759      20.063      14.21       18.052      31.296      1.584       2.479       344.46      107.56      361.477     2598.272    339.292     34.778      
95.9        88.457      136.197     2.396       3.678       77.693      65.917      36.281      16.973      12.0        16.355      30.133      1.386       2.461       345.6       107.56      361.477     2598.272    339.292     34.207      
96.0        106.188     136.146     2.398       3.709       68.301      61.123      32.818      14.54       10.391      15.443      29.319      1.304       2.472       346.72      107.56      372.715     2603.207    339.358     35.379      
96.1        108.855     136.889     2.39        4.016       60.598      56.627      30.079      12.473      9.243       15.13       28.69       1.327       2.454       347.84      107.68      426.323     2646.415    374.089     37.3        
96.2        90.42       137.871     2.384       4.34        54.264      52.38       27.934      10.681      8.467       15.13       27.926      1.295       2.358       348.9       108.04      479.931     2689.623    408.82      37.083      
96.3        53.515      137.285     2.381       4.98        49.164      48.65       26.372      9.175       7.993       15.149      27.101      1.266       2.278       349.76      108.56      455.644     2712.383    441.528     35.458      
96.4        37.601      136.642     2.387       5.58        45.173      45.601      25.425      7.949       7.779       15.366      26.356      1.236       2.229       350.24      109.28      444.781     2684.528    438.893     34.198      
96.5        34.918      136.555     2.393       5.713       42.227      43.326      25.088      6.914       7.738       16.356      25.956      1.264       2.229       350.36      110.16      444.781     2623.082    329.263     35.125      
96.6        40.156      137.093     2.396       5.564       40.437      41.906      25.088      5.955       7.738       18.878      25.831      1.262       2.296       350.36      111.16      455.245     2593.037    286.678     40.068      
96.7        45.971      137.351     2.395       5.389       39.753      41.284      25.102      4.964       7.752       23.434      25.934      1.234       2.231       350.22      112.24      410.844     2593.037    286.678     43.788      
96.8        40.68       137.129     2.395       5.509       39.753      41.142      25.263      3.856       7.859       30.463      26.101      1.214       2.108       349.68      113.72      366.443     2603.955    331.555     43.896      
96.9        31.136      137.787     2.411       5.543       39.775      41.142      25.981      2.628       8.182       40.048      26.302      1.196       2.041       348.7       115.6       345.922     2614.873    376.433     38.631      
97.0        27.724      134.51      2.441       4.958       40.044      41.168      27.695      1.388       8.767       51.791      26.58       1.186       1.99        347.46      118.04      345.922     2641.696    442.906     30.324      
97.1        27.063      135.142     2.478       4.118       41.359      41.399      30.505      0.305       9.645       65.094      27.077      1.216       2.278       346.18      122.0       360.579     2691.952    541.193     25.332      
97.2        40.087      135.107     2.505       3.605       44.735      42.151      34.531      -0.423      10.831      79.408      28.121      1.238       2.575       345.0       128.64      358.292     2724.315    611.802     22.256      
97.3        117.905     135.023     2.52        3.24        50.578      43.507      39.82       -0.685      12.331      94.396      29.872      1.292       2.84        343.98      137.36      350.126     2728.05     638.125     23.349      
97.4        239.536     134.974     2.519       3.276       59.327      45.405      46.377      -0.685      14.143      110.074     32.445      1.294       3.1         343.12      148.2       325.744     2708.581    647.845     25.01       
97.5        227.519     134.033     2.513       2.929       71.072      47.903      54.319      -0.638      16.242      126.556     35.703      1.369       3.065       342.38      160.72      271.901     2636.437    553.261     24.824      
97.6        239.732     134.036     2.512       3.031       85.458      51.41       63.818      -0.152      18.571      143.335     39.02       1.449       3.02        341.74      173.08      271.901     2581.805    445.166     23.113      
97.7        250.871     134.117     2.52        2.962       102.662     56.844      74.904      1.846       21.009      158.574     41.481      1.632       2.991       341.18      183.04      281.152     2561.888    310.286     19.916      
97.8        242.488     134.396     2.526       3.216       122.961     65.771      87.191      6.55        23.321      169.305     43.411      1.692       3.126       340.66      190.92      415.474     2555.331    241.542     18.707      
97.9        338.823     134.36      2.53        3.309       145.998     79.867      99.487      14.531      25.138      173.575     45.501      1.784       3.352       340.14      196.52      416.934     2555.331    241.542     18.583      
98.0        679.111     134.364     2.529       3.456       170.544     99.973      109.464     25.686      26.113      173.539     47.05       1.844       3.419       339.62      200.04      348.164     2577.749    316.233     19.506      
98.1        1287.097    134.351     2.528       3.387       194.119     125.575     114.712     38.632      26.322      172.746     47.937      1.964       3.41        339.08      202.28      337.146     2600.167    390.924     20.568      
98.2        1778.107    134.423     2.518       3.515       212.372     153.77      115.848     50.499      26.296      167.82      48.471      2.037       3.365       338.52      204.16      337.146     2639.488    452.221     21.388      
98.3        2078.736    134.25      2.501       3.298       221.752     178.984     115.572     58.277      25.957      154.848     48.897      2.092       3.313       338.0       204.16      470.313     2721.008    480.08      22.889      
98.4        2472.249    133.813     2.477       3.289       223.829     195.42      113.197     61.197      24.717      136.082     48.986      2.158       3.257       337.56      204.16      542.309     2783.266    510.422     24.938      
98.5        2236.984    134.272     2.451       3.232       223.423     201.586     105.803     61.159      22.536      115.115     49.146      2.213       3.146       337.2       203.2       522.005     2792.449    547.607     26.992      
98.6        1029.729    134.237     2.423       3.389       219.936     201.514     93.705      60.592      19.779      95.116      49.024      2.235       2.957       336.92      199.6       522.005     2783.241    568.41      29.298      
98.7        425.939     133.621     2.399       3.409       209.207     200.366     79.669      57.664      16.865      77.923      48.839      2.206       2.787       336.7       193.4       522.137     2675.927    379.277     31.02       
