~Version Information Section
VERS.                                         2.0:CWLS log ASCII Standart – VERSION 2.0
WRAP.                                          NO:One line per depth step
~Well Information Section
STRT.M                                        0.6:Начальная глубина
STOP.M                                      205.9:Конечная глубина
STEP.M                                          0:Шаг квантования по глубине
NULL.                                    -9999.25:Признак "Нет данных"
WELL.                                       106Мх:Скважина
~Parameter Information Section
~Curve Information Section
DEPTH.M                                          :Глубина
BK.Ohm*M                                         :BK     (БК)
DS.mm                                            :DS  (ДС)
GGK.g/cm3                                        :GGKp
ГК.mcr/h                                         :GK          (ГК)
GZ1.Ohm*M                                        :GZ1   ГЗ1(A0.4M0.1N)
GZ2.Ohm*M                                        :GZ2   ГЗ2(A1.0M0.1N)
GZ3.Ohm*M                                        :GZ3   ГЗ3(A2.0M0.5N)
U2.mV                                            :U2
U3.mV                                            :U3
КП.%                                             :Кп
GZ4.Ohm*M                                        :GZ4   ГЗ4(A4.0M0.5N)
GZ5.Ohm*M                                        :GZ5   ГЗ5(A8.0M0.5N)
GZR.Ohm*M                                        :GZK   ГЗK(N0.5M2.0A)
ИК.Ohm*M                                         :IK
НГК.u.e.                                         :NGK
NNKM.                                            :NNKm  (ННКм)
PS.mv                                            :PS       (ПС)
PZ.Ohm*M                                         :PZ    (КС)
RS.Ohm*M                                         :RS (Резистивиметр)
U1.mV                                            :U1
~ASCII LOG DATA
# ...
87.0        17.179      149.665     2.243       8.232       10.836      10.661      11.989      233.417     355.049     38.971      19.895      15.979      10.153      14.097      1.087       1.766       775.133     21.393      1.1         324.386     
87.1        17.418      139.482     2.237       8.121       10.965      10.428      12.346      241.843     371.419     36.51       18.058      16.392      10.272      13.961      1.117       1.84        776.16      21.259      1.1         313.087     
87.2        17.579      137.901     2.243       8.004       11.271      10.409      12.842      250.27      385.571     34.907      17.157      16.942      10.407      13.996      1.136       1.841       776.16      21.23       1.1         308.392     
87.3        16.943      131.807     2.251       7.991       11.902      10.953      13.399      257.567     383.347     33.45       17.386      17.586      10.541      14.054      1.123       1.846       776.16      21.23       1.1         323.389     
87.4        16.52       128.617     2.261       7.967       12.634      11.691      13.856      262.624     375.431     33.077      17.863      18.264      10.642      14.257      1.07        1.871       776.16      21.274      1.1         346.488     
87.5        17.14       128.937     2.273       8.129       13.222      11.652      14.227      269.603     375.125     32.568      19.536      18.922      10.682      14.539      1.065       1.904       776.16      21.422      1.1         367.486     
87.6        18.923      128.819     2.274       7.913       13.568      11.325      14.474      280.75      386.069     32.413      22.289      19.534      10.778      14.877      1.065       1.966       776.16      21.659      1.1         374.441     
87.7        19.099      130.698     2.27        8.002       13.977      11.259      14.52       291.896     398.447     32.618      23.989      20.125      10.907      15.183      1.08        1.99        776.16      21.941      1.1         375.712     
87.8        19.275      134.033     2.261       8.036       14.703      11.474      14.401      301.399     404.267     33.386      24.406      20.759      11.184      15.533      1.032       1.928       776.16      22.193      1.1         389.451     
87.9        16.827      131.62      2.251       8.154       15.595      11.933      14.504      306.798     415.908     34.531      24.45       21.508      11.486      16.028      1.039       1.897       776.16      22.385      1.1         418.593     
88.0        15.171      129.096     2.239       8.16        16.483      12.287      14.584      333.36      436.023     34.677      24.457      22.422      11.943      16.362      1.073       1.914       775.818     22.548      1.1         471.982     
88.1        16.711      129.019     2.232       7.873       17.197      12.307      14.775      418.24      460.026     34.279      24.817      23.519      12.617      16.568      1.129       1.969       775.133     22.711      1.1         517.608     
88.2        19.143      128.983     2.23        7.646       18.127      12.409      15.233      421.181     462.346     32.907      25.791      24.802      13.411      17.056      1.182       2.08        773.422     22.889      1.1         534.568     
88.3        29.377      128.993     2.236       7.451       19.623      13.665      15.869      372.238     443.644     32.073      27.607      26.276      14.328      17.428      1.2         2.178       771.369     23.052      1.1         516.102     
88.4        26.546      129.596     2.243       7.347       21.787      15.478      16.725      337.264     418.16      32.278      30.223      27.935      15.169      17.991      1.185       2.219       768.973     23.215      1.1         494.081     
88.5        19.815      130.1       2.247       7.249       24.415      17.361      17.908      337.264     402.089     33.373      33.552      29.742      15.987      18.649      1.164       2.18        766.92      23.393      1.1         492.806     
88.6        20.559      129.396     2.247       7.034       27.335      19.21       19.317      352.709     391.937     33.885      37.619      31.613      16.527      19.102      1.163       2.111       764.867     23.615      1.1         506.822     
88.7        22.284      130.302     2.238       6.905       30.67       21.428      20.393      344.789     377.047     33.394      42.116      33.407      16.704      19.432      1.222       2.127       762.471     23.852      1.1         523.473     
88.8        25.235      130.227     2.226       6.694       33.851      23.507      21.25       327.818     358.559     32.387      46.426      34.931      16.533      19.824      1.293       2.186       760.418     24.104      1.1         535.274     
88.9        28.249      130.434     2.218       6.693       36.418      24.703      21.768      317.151     345.482     32.171      50.015      35.981      15.909      20.128      1.346       2.215       758.707     24.37       1.1         543.157     
89.0        30.339      130.478     2.214       6.337       37.581      25.272      21.764      317.151     346.462     31.777      52.42       36.496      14.909      20.467      1.338       2.231       758.022     24.711      1.1         550.901     
89.1        42.658      130.567     2.209       6.29        37.581      25.119      21.173      337.787     364.447     31.383      53.144      36.537      13.706      20.765      1.313       2.28        757.68      25.111      1.1         558.571     
89.2        55.463      130.084     2.209       5.91        37.457      24.481      20.413      360.634     396.741     30.699      51.833      36.113      12.504      20.846      1.277       2.333       757.68      25.541      1.1         566.553     
89.3        59.293      130.966     2.21        5.982       36.106      23.735      19.402      396.212     429.239     30.416      48.747      35.204      11.288      21.069      1.291       2.321       757.338     25.911      1.1         574.963     
89.4        55.847      130.524     2.209       6.138       33.849      23.05       18.159      431.791     441.504     30.515      44.811      33.801      10.163      21.069      1.268       2.295       756.653     26.193      1.1         586.174     
89.5        50.933      128.344     2.21        6.466       30.815      21.772      16.964      425.781     423.594     30.739      40.765      32.042      9.219       21.016      1.295       2.307       755.284     26.4        1.1         617.973     
89.6        51.523      128.359     2.217       6.513       27.616      20.595      15.806      393.162     388.948     30.157      36.954      30.068      8.38        20.71       1.266       2.328       753.916     26.622      1.1         645.907     
89.7        51.761      128.04      2.223       6.583       24.616      19.949      14.799      367.886     359.932     29.343      33.838      28.021      7.801       20.335      1.26        2.293       752.205     26.919      1.1         648.333     
89.8        39.628      128.304     2.23        6.861       22.108      19.399      14.047      342.611     342.655     29.075      31.572      26.046      7.504       19.749      1.235       2.238       750.836     27.289      1.1         610.807     
89.9        36.728      128.95      2.239       7.047       19.829      18.923      13.533      319.975     332.395     29.954      29.742      24.262      7.403       19.197      1.241       2.154       749.467     27.63       1.1         574.224     
90.0        33.189      129.122     2.245       7.142       17.829      18.466      13.094      319.975     322.402     31.09       28.026      22.742      7.339       18.629      1.256       2.087       748.44      27.837      1.1         591.387     
90.1        28.314      129.265     2.249       7.182       16.08       17.897      12.649      332.944     325.921     31.235      26.415      21.493      7.283       17.991      1.232       2.092       747.413     27.837      1.1         636.547     
