~Version Information Section
VERS.                                         2.0:CWLS log ASCII Standart – VERSION 2.0
WRAP.                                          NO:One line per depth step
~Well Information Section
STRT.M                                        0.1:Начальная глубина
STOP.M                                      202.9:Конечная глубина
STEP.M                                          0:Шаг квантования по глубине
NULL.                                    -9999.25:Признак "Нет данных"
WELL.                                       155Мх:Скважина
~Parameter Information Section
~Curve Information Section
DEPTH.M                                          :Глубина
BK.Ohm*M                                         :BK     (БК)
DS.mm                                            :DS  (ДС)
GGK.g/cm3                                        :GGKp
ГК.mcr/h                                         :GK          (ГК)
GZ1.Ohm*M                                        :GZ1   ГЗ1(A0.4M0.1N)
GZ2.Ohm*M                                        :GZ2   ГЗ2(A1.0M0.1N)
GZ3.Ohm*M                                        :GZ3   ГЗ3(A2.0M0.5N)
GZ4.Ohm*M                                        :GZ4   ГЗ4(A4.0M0.5N)
GZ5.Ohm*M                                        :GZ5   ГЗ5(A8.0M0.5N)
GZR.                                             :GZR   ГЗK(N0.5M2.0A)
ИК.Ohm*M                                         :IK
НГК.ue                                           :NGK     (НГК)
NNKM.                                            :NNKm  (ННКм)
PS.mv                                            :PS       (ПС)
PZ.Ohm*M                                         :PZ    (КС)
RS.Ohm*M                                         :RS (Резистивиметр)
W.%                                              :W
~ASCII LOG DATA
# ...
81.5        42.438      159.404     2.037       5.075       69.128      54.268      44.839      40.825      40.06       42.357      34.115      0.935       1.094       46.51       53.242      1.213       29.75       
81.6        41.709      158.198     2.03        4.965       71.17       54.694      45.807      42.177      40.762      41.286      34.072      0.973       1.094       47.986      53.651      1.212       29.903      
81.7        40.823      157.571     2.029       4.961       72.921      55.203      46.575      43.216      41.786      39.989      34.18       1.004       1.096       49.41       53.999      1.213       30.262      
81.8        39.792      157.121     2.035       5.026       74.388      55.779      47.001      43.946      42.793      38.997      34.265      1.013       1.097       50.514      54.315      1.215       30.193      
81.9        38.629      158.438     2.047       5.117       74.534      54.777      47.444      44.637      43.167      39.346      34.53       0.998       1.101       51.064      55.051      1.217       30.488      
82.0        37.486      160.464     2.064       5.182       73.824      54.49       47.958      45.485      43.468      40.153      34.554      0.981       1.104       50.853      56.053      1.218       29.788      
82.1        38.498      160.762     2.082       5.189       75.445      56.394      48.609      46.433      43.368      41.769      34.691      0.979       1.133       50.181      56.677      1.218       28.135      
82.2        42.561      160.964     2.101       5.137       77.732      59.081      49.187      47.396      42.9        43.047      34.826      0.997       1.162       49.532      56.991      1.217       26.894      
82.3        44.639      160.749     2.117       5.041       80.774      61.936      49.387      48.159      42.346      42.598      34.544      1.025       1.23        49.132      57.617      1.217       26.272      
82.4        44.906      160.705     2.128       4.912       82.315      61.6        48.714      48.266      41.18       41.122      34.485      1.047       1.272       48.859      58.021      1.216       25.328      
82.5        41.502      160.522     2.135       4.774       80.199      58.219      47.619      47.406      39.893      39.443      34.615      1.055       1.26        48.795      57.582      1.217       25.34       
82.6        38.113      161.213     2.138       4.665       77.006      55.254      45.629      45.724      38.534      37.498      34.589      1.049       1.211       49.134      56.843      1.219       25.965      
82.7        37.317      161.807     2.139       4.594       74.288      53.056      42.747      43.473      37.709      35.037      34.509      1.028       1.164       50.151      55.747      1.222       26.027      
82.8        37.554      162.899     2.14        4.544       72.701      51.516      40.784      41.224      37.437      33.398      34.467      1.001       1.166       51.881      55.19       1.223       26.353      
82.9        36.907      163.373     2.143       4.52        70.786      50.564      40.159      39.784      37.859      32.803      34.252      0.98        1.164       54.05       55.607      1.22        27.284      
83.0        36.578      163.682     2.15        4.503       68.799      50.296      40.413      39.852      38.748      32.838      34.021      0.971       1.16        56.17       56.281      1.217       27.858      
83.1        36.757      163.075     2.163       4.441       66.735      50.731      42.75       42.073      39.579      33.055      33.844      0.981       1.147       57.584      57.13       1.216       27.978      
83.2        37.431      161.315     2.18        4.296       66.442      54.888      46.863      46.096      40.434      32.039      33.448      0.999       1.139       58.101      57.745      1.216       26.947      
83.3        41.594      160.946     2.199       4.121       72.64       64.928      51.94       50.595      41.216      30.237      33.127      1.012       1.2         57.829      58.355      1.215       25.128      
83.4        55.598      161.127     2.218       3.987       81.332      75.552      56.475      54.179      41.82       29.062      32.637      1.024       1.272       57.129      59.074      1.215       23.462      
83.5        65.921      161.332     2.236       3.926       88.81       79.855      58.863      56.674      42.332      28.235      32.304      1.06        1.394       56.197      60.356      1.215       22.436      
83.6        62.305      161.337     2.252       3.952       96.356      79.966      58.877      56.732      42.094      27.351      32.053      1.122       1.453       55.099      61.252      1.216       21.886      
83.7        57.147      161.341     2.266       4.108       103.916     79.103      56.983      53.676      41.132      25.434      31.763      1.166       1.496       53.882      60.996      1.219       22.494      
83.8        52.615      161.364     2.275       4.431       108.818     74.655      53.154      49.355      39.402      22.831      31.623      1.166       1.489       52.889      60.525      1.225       23.607      
83.9        43.669      161.364     2.277       4.851       107.452     67.259      46.866      44.132      37.655      19.9        31.222      1.127       1.459       52.737      59.783      1.233       24.494      
84.0        34.075      161.349     2.27        5.276       96.929      57.963      40.426      37.473      36.947      16.474      30.921      1.08        1.439       53.773      58.778      1.233       25.587      
84.1        25.397      161.244     2.257       5.6         75.921      47.153      35.822      31.64       36.54       14.985      30.589      1.032       1.367       55.677      57.916      1.23        26.441      
84.2        20.053      161.082     2.239       5.754       56.845      36.794      33.233      29.185      36.005      15.781      29.966      0.99        1.311       57.446      53.763      1.225       26.951      
84.3        17.508      161.102     2.225       5.669       43.876      33.309      32.66       30.108      36.017      18.421      28.782      0.972       1.197       58.668      47.709      1.218       27.254      
84.4        16.387      161.184     2.218       5.351       36.743      40.401      35.471      33.856      36.519      22.165      27.825      0.976       1.121       59.758      44.239      1.212       26.883      
84.5        21.252      161.214     2.222       4.924       37.55       49.858      40.354      39.396      37.481      24.591      27.044      1.0         1.111       61.515      42.435      1.207       25.974      
84.6        36.039      161.411     2.233       4.537       40.893      55.263      46.024      45.126      39.938      26.703      26.401      1.028       1.168       64.563      42.068      1.206       25.084      
84.7        51.862      163.262     2.247       4.29        45.904      57.593      49.729      48.325      42.871      28.102      26.086      1.049       1.292       68.94       41.868      1.206       24.471      
84.8        52.706      164.548     2.259       4.193       56.944      57.593      50.007      48.496      46.904      27.662      25.949      1.056       1.357       74.482      41.101      1.206       24.29       
84.9        51.08       167.247     2.265       4.261       70.996      55.741      49.627      47.817      52.965      27.215      26.15       1.046       1.411       80.121      40.364      1.206       24.788      
85.0        47.983      171.44      2.266       4.454       84.608      51.857      50.025      47.442      54.694      27.486      26.397      1.038       1.409       84.14       40.305      1.214       24.95       
85.1        42.585      174.842     2.263       4.721       88.646      48.377      53.395      48.006      54.454      28.817      26.351      1.059       1.403       84.652      43.39       1.221       24.772      
