~Version Information Section
VERS.                                         2.0:CWLS log ASCII Standart – VERSION 2.0
WRAP.                                          NO:One line per depth step
~Well Information Section
STRT.M                                        1.0:Начальная глубина
STOP.M                                      208.3:Конечная глубина
STEP.M                                          0:Шаг квантования по глубине
NULL.                                    -9999.25:Признак "Нет данных"
WELL.                                       131Мх:Скважина
~Parameter Information Section
~Curve Information Section
DEPTH.M                                          :Глубина
БК.Омм                                           :BK     (БК)
DСР.мм                                           :DS  (ДС)
ГК.гамма                                         :GK          (ГК)
А0.4М0.1N.Омм.ohmm                               :GZ1   ГЗ1(A0.4M0.1N)
А1.0М0.1N.Омм.ohmm                               :GZ2   ГЗ2(A1.0M0.1N)
А2.0М0.5N.Омм.ohmm                               :GZ3   ГЗ3(A2.0M0.5N)
А4.0М0.5N.Oмм.ohmm                               :GZ4   ГЗ4(A4.0M0.5N)
А8.0М1.0N.Омм.ohmm                               :GZ5   ГЗ5(A8.0M0.5N)
N0.5M2.0A.Омм.ohmm                               :GZK   ГЗK(N0.5M2.0A)
ИК.мСм/м                                         :IK
НГК.усл.ед                                       :NGK     (НГК)
ПС.mv                                            :PS       (ПС)
П.%                                              :п
PZ.Омм                                           :PZ    (КС)
R.Омм                                            :RS (Резистивиметр)
U1.мВ                                            :U1
U2.mV                                            :U2
U3.мВ                                            :U3
W.г/см3                                          :ГГКп
~ASCII LOG DATA
# ...
72.8        33.794      133.401     3.713       -9999.25    -9999.25    -9999.25    -9999.25    -9999.25    -9999.25    20.581      1.328       89.337      36.072      46.355      1.12        1650.0      1702.8      1647.0      2.226       
72.85       -9999.25    -9999.25    -9999.25    38.848      27.633      30.134      5.193       8.883       22.576      -9999.25    -9999.25    -9999.25    -9999.25    -9999.25    -9999.25    -9999.25    -9999.25    -9999.25    -9999.25    
72.9        32.072      133.662     3.674       -9999.25    -9999.25    -9999.25    -9999.25    -9999.25    -9999.25    20.676      1.279       85.452      36.083      47.196      1.12        1650.0      1702.8      1620.0      2.234       
72.95       -9999.25    -9999.25    -9999.25    38.961      27.947      34.021      5.204       9.124       22.576      -9999.25    -9999.25    -9999.25    -9999.25    -9999.25    -9999.25    -9999.25    -9999.25    -9999.25    -9999.25    
73.0        30.781      134.437     3.724       -9999.25    -9999.25    -9999.25    -9999.25    -9999.25    -9999.25    20.715      1.298       81.7        36.041      47.859      1.12        1650.0      1702.8      1701.0      2.232       
73.05       -9999.25    -9999.25    -9999.25    39.126      28.425      37.663      5.253       9.372       22.569      -9999.25    -9999.25    -9999.25    -9999.25    -9999.25    -9999.25    -9999.25    -9999.25    -9999.25    -9999.25    
73.1        32.139      134.906     3.67        -9999.25    -9999.25    -9999.25    -9999.25    -9999.25    -9999.25    20.724      1.28        78.214      35.835      48.389      1.12        1725.0      1702.8      1701.0      2.24        
73.15       -9999.25    -9999.25    -9999.25    39.61       29.084      40.154      5.323       9.602       22.521      -9999.25    -9999.25    -9999.25    -9999.25    -9999.25    -9999.25    -9999.25    -9999.25    -9999.25    -9999.25    
73.2        33.897      134.313     3.601       -9999.25    -9999.25    -9999.25    -9999.25    -9999.25    -9999.25    20.722      1.278       75.242      35.73       48.89       1.12        1725.0      1702.8      1809.0      2.231       
73.25       -9999.25    -9999.25    -9999.25    40.851      29.701      41.402      5.415       9.778       22.4        -9999.25    -9999.25    -9999.25    -9999.25    -9999.25    -9999.25    -9999.25    -9999.25    -9999.25    -9999.25    
73.3        33.707      134.772     3.59        -9999.25    -9999.25    -9999.25    -9999.25    -9999.25    -9999.25    20.741      1.264       72.97       35.805      49.319      1.12        1675.0      1702.8      1755.0      2.2         
73.35       -9999.25    -9999.25    -9999.25    42.605      30.214      41.43       5.523       9.871       22.18       -9999.25    -9999.25    -9999.25    -9999.25    -9999.25    -9999.25    -9999.25    -9999.25    -9999.25    -9999.25    
73.4        33.432      134.96      3.633       -9999.25    -9999.25    -9999.25    -9999.25    -9999.25    -9999.25    20.754      1.289       71.502      34.819      49.688      1.12        1675.0      1702.8      1701.0      2.196       
73.45       -9999.25    -9999.25    -9999.25    44.697      30.638      41.43       5.667       9.895       21.837      -9999.25    -9999.25    -9999.25    -9999.25    -9999.25    -9999.25    -9999.25    -9999.25    -9999.25    -9999.25    
73.5        33.927      135.557     3.597       -9999.25    -9999.25    -9999.25    -9999.25    -9999.25    -9999.25    20.726      1.307       70.854      33.461      50.11       1.12        1775.0      1728.6      1701.0      2.2         
73.55       -9999.25    -9999.25    -9999.25    46.722      30.891      41.43       5.825       9.895       21.4        -9999.25    -9999.25    -9999.25    -9999.25    -9999.25    -9999.25    -9999.25    -9999.25    -9999.25    -9999.25    
73.6        34.361      135.528     3.55        -9999.25    -9999.25    -9999.25    -9999.25    -9999.25    -9999.25    20.666      1.349       70.724      32.332      50.597      1.12        1850.0      1728.6      1701.0      2.192       
73.65       -9999.25    -9999.25    -9999.25    47.525      30.891      40.333      5.998       9.87        20.862      -9999.25    -9999.25    -9999.25    -9999.25    -9999.25    -9999.25    -9999.25    -9999.25    -9999.25    -9999.25    
73.7        35.927      135.719     3.664       -9999.25    -9999.25    -9999.25    -9999.25    -9999.25    -9999.25    20.595      1.356       70.724      31.457      51.083      1.12        1750.0      1728.6      1782.0      2.211       
73.75       -9999.25    -9999.25    -9999.25    47.525      30.891      38.454      6.201       9.771       20.304      -9999.25    -9999.25    -9999.25    -9999.25    -9999.25    -9999.25    -9999.25    -9999.25    -9999.25    -9999.25    
73.8        47.982      135.622     3.583       -9999.25    -9999.25    -9999.25    -9999.25    -9999.25    -9999.25    20.534      1.441       70.886      31.735      51.616      1.12        1700.0      1728.6      1782.0      2.225       
73.85       -9999.25    -9999.25    -9999.25    47.525      30.783      36.688      6.443       9.578       19.753      -9999.25    -9999.25    -9999.25    -9999.25    -9999.25    -9999.25    -9999.25    -9999.25    -9999.25    -9999.25    
73.9        72.725      135.438     3.463       -9999.25    -9999.25    -9999.25    -9999.25    -9999.25    -9999.25    20.461      1.466       71.63       32.208      52.17       1.12        1725.0      1702.8      1782.0      2.228       
73.95       -9999.25    -9999.25    -9999.25    46.695      30.523      35.203      6.771       9.326       19.207      -9999.25    -9999.25    -9999.25    -9999.25    -9999.25    -9999.25    -9999.25    -9999.25    -9999.25    -9999.25    
74.0        77.016      135.677     3.491       -9999.25    -9999.25    -9999.25    -9999.25    -9999.25    -9999.25    20.342      1.456       73.226      32.476      52.684      1.12        1800.0      1754.4      1836.0      2.269       
74.05       -9999.25    -9999.25    -9999.25    44.565      30.143      33.939      7.244       9.07        18.663      -9999.25    -9999.25    -9999.25    -9999.25    -9999.25    -9999.25    -9999.25    -9999.25    -9999.25    -9999.25    
74.1        53.869      135.587     3.552       -9999.25    -9999.25    -9999.25    -9999.25    -9999.25    -9999.25    20.175      1.403       75.679      32.135      53.114      1.12        1850.0      1780.2      1755.0      2.338       
74.15       -9999.25    -9999.25    -9999.25    41.468      29.576      32.863      7.965       8.837       18.156      -9999.25    -9999.25    -9999.25    -9999.25    -9999.25    -9999.25    -9999.25    -9999.25    -9999.25    -9999.25    
74.2        37.049      135.033     3.618       -9999.25    -9999.25    -9999.25    -9999.25    -9999.25    -9999.25    19.972      1.392       78.861      31.151      53.469      1.12        1850.0      1780.2      1647.0      2.354       
74.25       -9999.25    -9999.25    -9999.25    37.692      28.838      31.857      8.948       8.641       17.717      -9999.25    -9999.25    -9999.25    -9999.25    -9999.25    -9999.25    -9999.25    -9999.25    -9999.25    -9999.25    
74.3        33.374      135.232     3.75        -9999.25    -9999.25    -9999.25    -9999.25    -9999.25    -9999.25    19.741      1.297       82.413      31.319      53.718      1.12        1825.0      1831.8      1701.0      2.359       
74.35       -9999.25    -9999.25    -9999.25    34.424      28.186      30.76       10.154      8.506       17.379      -9999.25    -9999.25    -9999.25    -9999.25    -9999.25    -9999.25    -9999.25    -9999.25    -9999.25    -9999.25    
74.4        33.112      135.396     3.916       -9999.25    -9999.25    -9999.25    -9999.25    -9999.25    -9999.25    19.466      1.256       85.89       31.733      53.873      1.12        1875.0      1780.2      1809.0      2.336       
74.45       -9999.25    -9999.25    -9999.25    31.802      27.482      29.671      11.498      8.427       17.206      -9999.25    -9999.25    -9999.25    -9999.25    -9999.25    -9999.25    -9999.25    -9999.25    -9999.25    -9999.25    
