~Version Information Section
VERS.                                         2.0:CWLS log ASCII Standart – VERSION 2.0
WRAP.                                          NO:One line per depth step
~Well Information Section
STRT.M                                       0.67:Начальная глубина
STOP.M                                     204.27:Конечная глубина
STEP.M                                          0:Шаг квантования по глубине
NULL.                                    -9999.25:Признак "Нет данных"
WELL.                                       110Мх:Скважина
~Parameter Information Section
~Curve Information Section
DEPTH.M                                          :Глубина
БК.Омм                                           :BK     (БК)
DСР.мм                                           :DS  (ДС)
ГК.гамма                                         :GK          (ГК)
А0.4М0.1N.Омм.ohmm                               :GZ1   ГЗ1(A0.4M0.1N)
А1.0М0.1N.Омм.ohmm                               :GZ2   ГЗ2(A1.0M0.1N)
А2.0М0.5N.Омм.ohmm                               :GZ3   ГЗ3(A2.0M0.5N)
А4.0М0.5N.Oмм.ohmm                               :GZ4   ГЗ4(A4.0M0.5N)
А8.0М1.0N.Омм.ohmm                               :GZ5   ГЗ5(A8.0M0.5N)
N0.5M2.0A.Омм.ohmm                               :GZK   ГЗK(N0.5M2.0A)
ИК.мСм/м                                         :IK
НГК.усл.ед                                       :NGK     (НГК)
ПС.mv                                            :PS       (ПС)
КС.Омм                                           :PZ    (КС)
R.Омм                                            :RS (Резистивиметр)
W_SI.%                                           :п
ННКМ.имп/1,25с                                   :ННКм
ПЛОТНОСТЬГГК.г/см3                               :плотностьГГК
~ASCII LOG DATA
# ...
153.77      25.748      122.27      9.461       -9999.25    -9999.25    -9999.25    -9999.25    -9999.25    -9999.25    19.673      1.323       350.058     26.78       0.96        26.987      1.609       2.475       
153.8       -9999.25    -9999.25    -9999.25    37.263      28.718      28.227      28.214      26.67       29.2        -9999.25    -9999.25    -9999.25    -9999.25    -9999.25    -9999.25    -9999.25    -9999.25    
153.87      26.672      122.275     8.782       -9999.25    -9999.25    -9999.25    -9999.25    -9999.25    -9999.25    19.745      1.324       349.974     27.136      0.96        27.233      1.733       2.482       
153.9       -9999.25    -9999.25    -9999.25    36.952      27.717      27.192      26.875      26.407      27.757      -9999.25    -9999.25    -9999.25    -9999.25    -9999.25    -9999.25    -9999.25    -9999.25    
153.97      26.317      122.264     8.275       -9999.25    -9999.25    -9999.25    -9999.25    -9999.25    -9999.25    19.754      1.321       349.876     27.424      0.96        27.459      1.793       2.483       
154.0       -9999.25    -9999.25    -9999.25    36.694      27.159      25.717      25.467      26.108      26.312      -9999.25    -9999.25    -9999.25    -9999.25    -9999.25    -9999.25    -9999.25    -9999.25    
154.07      25.027      122.266     8.343       -9999.25    -9999.25    -9999.25    -9999.25    -9999.25    -9999.25    19.754      1.336       349.784     27.414      0.96        27.522      1.737       2.478       
154.1       -9999.25    -9999.25    -9999.25    36.913      27.667      25.021      24.413      26.058      25.565      -9999.25    -9999.25    -9999.25    -9999.25    -9999.25    -9999.25    -9999.25    -9999.25    
154.17      23.73       122.298     8.289       -9999.25    -9999.25    -9999.25    -9999.25    -9999.25    -9999.25    19.767      1.32        349.708     27.168      0.96        27.484      1.7         2.467       
154.2       -9999.25    -9999.25    -9999.25    37.924      28.406      24.863      24.28       25.697      25.254      -9999.25    -9999.25    -9999.25    -9999.25    -9999.25    -9999.25    -9999.25    -9999.25    
154.27      23.21       122.3       8.395       -9999.25    -9999.25    -9999.25    -9999.25    -9999.25    -9999.25    19.772      1.253       349.62      26.945      0.96        27.643      1.622       2.451       
154.3       -9999.25    -9999.25    -9999.25    37.119      28.185      24.934      25.171      25.336      25.168      -9999.25    -9999.25    -9999.25    -9999.25    -9999.25    -9999.25    -9999.25    -9999.25    
154.37      23.785      122.297     8.809       -9999.25    -9999.25    -9999.25    -9999.25    -9999.25    -9999.25    19.753      1.175       349.5       27.03       0.96        27.962      1.56        2.436       
154.4       -9999.25    -9999.25    -9999.25    35.455      28.085      25.025      26.364      25.258      25.119      -9999.25    -9999.25    -9999.25    -9999.25    -9999.25    -9999.25    -9999.25    -9999.25    
154.47      24.097      122.296     9.134       -9999.25    -9999.25    -9999.25    -9999.25    -9999.25    -9999.25    19.719      1.139       349.357     27.517      0.96        28.484      1.577       2.428       
154.5       -9999.25    -9999.25    -9999.25    35.565      29.05       24.902      27.1        25.419      25.047      -9999.25    -9999.25    -9999.25    -9999.25    -9999.25    -9999.25    -9999.25    -9999.25    
154.57      23.051      122.268     9.119       -9999.25    -9999.25    -9999.25    -9999.25    -9999.25    -9999.25    19.743      1.149       349.174     28.056      0.96        29.13       1.59        2.424       
154.6       -9999.25    -9999.25    -9999.25    36.461      30.011      24.936      27.251      25.531      25.057      -9999.25    -9999.25    -9999.25    -9999.25    -9999.25    -9999.25    -9999.25    -9999.25    
154.67      23.216      122.305     9.176       -9999.25    -9999.25    -9999.25    -9999.25    -9999.25    -9999.25    19.741      1.164       348.94      28.321      0.96        29.42       1.6         2.425       
154.7       -9999.25    -9999.25    -9999.25    36.199      30.141      25.101      27.11       25.673      25.316      -9999.25    -9999.25    -9999.25    -9999.25    -9999.25    -9999.25    -9999.25    -9999.25    
154.77      24.894      122.317     9.463       -9999.25    -9999.25    -9999.25    -9999.25    -9999.25    -9999.25    19.768      1.166       348.681     28.237      0.96        29.577      1.62        2.431       
154.8       -9999.25    -9999.25    -9999.25    35.514      30.076      25.289      26.907      25.739      25.579      -9999.25    -9999.25    -9999.25    -9999.25    -9999.25    -9999.25    -9999.25    -9999.25    
154.87      25.23       122.308     9.626       -9999.25    -9999.25    -9999.25    -9999.25    -9999.25    -9999.25    19.839      1.164       348.433     28.006      0.96        29.414      1.628       2.439       
154.9       -9999.25    -9999.25    -9999.25    36.25       30.251      25.465      26.671      26.116      25.696      -9999.25    -9999.25    -9999.25    -9999.25    -9999.25    -9999.25    -9999.25    -9999.25    
154.97      24.189      122.309     9.426       -9999.25    -9999.25    -9999.25    -9999.25    -9999.25    -9999.25    19.869      1.189       348.187     27.885      0.96        29.049      1.634       2.447       
155.0       -9999.25    -9999.25    -9999.25    37.694      30.546      25.755      26.53       26.838      25.962      -9999.25    -9999.25    -9999.25    -9999.25    -9999.25    -9999.25    -9999.25    -9999.25    
155.07      23.9        122.301     8.944       -9999.25    -9999.25    -9999.25    -9999.25    -9999.25    -9999.25    19.88       1.217       347.895     27.828      0.96        28.805      1.634       2.453       
155.1       -9999.25    -9999.25    -9999.25    38.087      30.893      26.346      26.84       27.183      26.34       -9999.25    -9999.25    -9999.25    -9999.25    -9999.25    -9999.25    -9999.25    -9999.25    
155.17      24.517      122.288     8.728       -9999.25    -9999.25    -9999.25    -9999.25    -9999.25    -9999.25    19.864      1.217       347.382     27.793      0.96        28.784      1.625       2.456       
155.2       -9999.25    -9999.25    -9999.25    37.928      30.786      26.896      27.912      27.446      26.687      -9999.25    -9999.25    -9999.25    -9999.25    -9999.25    -9999.25    -9999.25    -9999.25    
155.27      24.865      122.228     8.761       -9999.25    -9999.25    -9999.25    -9999.25    -9999.25    -9999.25    19.842      1.206       346.35      27.829      0.96        28.421      1.621       2.457       
155.3       -9999.25    -9999.25    -9999.25    37.285      30.695      27.372      29.351      27.84       26.896      -9999.25    -9999.25    -9999.25    -9999.25    -9999.25    -9999.25    -9999.25    -9999.25    
155.37      24.628      122.202     9.044       -9999.25    -9999.25    -9999.25    -9999.25    -9999.25    -9999.25    19.825      1.23        344.605     28.111      0.96        27.828      1.683       2.457       
155.4       -9999.25    -9999.25    -9999.25    37.144      31.273      27.692      30.149      28.084      26.997      -9999.25    -9999.25    -9999.25    -9999.25    -9999.25    -9999.25    -9999.25    -9999.25    
155.47      24.001      122.306     9.408       -9999.25    -9999.25    -9999.25    -9999.25    -9999.25    -9999.25    19.795      1.26        342.095     28.462      0.96        27.281      1.72        2.455       
155.5       -9999.25    -9999.25    -9999.25    38.642      32.148      27.774      29.658      28.177      27.075      -9999.25    -9999.25    -9999.25    -9999.25    -9999.25    -9999.25    -9999.25    -9999.25    
155.57      24.075      122.32      9.501       -9999.25    -9999.25    -9999.25    -9999.25    -9999.25    -9999.25    19.754      1.257       338.911     28.565      0.96        26.855      1.694       2.451       
