~Version Information Section
VERS.                                         2.0:CWLS log ASCII Standart – VERSION 2.0
WRAP.                                          NO:One line per depth step
~Well Information Section
STRT.M                                        0.4:Начальная глубина
STOP.M                                      206.4:Конечная глубина
STEP.M                                          0:Шаг квантования по глубине
NULL.                                    -9999.25:Признак "Нет данных"
WELL.                                       157Мх:Скважина
~Parameter Information Section
~Curve Information Section
DEPTH.M                                          :Глубина
BK.Ohm*M                                         :BK     (БК)
DS.mm                                            :DS  (ДС)
GGK.g/cm3                                        :GGKp
ГК.mcr/h                                         :GK          (ГК)
GZ1.Ohm*M                                        :GZ1   ГЗ1(A0.4M0.1N)
GZ2.Ohm*M                                        :GZ2   ГЗ2(A1.0M0.1N)
GZ3.Ohm*M                                        :GZ3   ГЗ3(A2.0M0.5N)
GZ4.Ohm*M                                        :GZ4   ГЗ4(A4.0M0.5N)
GZ5.Ohm*M                                        :GZ5   ГЗ5(A8.0M0.5N)
GZR.                                             :GZR   ГЗK(N0.5M2.0A)
ИК.Ohm*M                                         :IK
НГК.ue                                           :NGK     (НГК)
NNKM.                                            :NNKm  (ННКм)
PS.mv                                            :PS       (ПС)
PZ.Ohm*M                                         :PZ    (КС)
RS.Ohm*M                                         :RS (Резистивиметр)
W.%                                              :W
~ASCII LOG DATA
# ...
96.6        15.894      154.141     2.393       7.602       30.107      37.236      46.42       47.246      48.888      44.749      19.35       1.565       2.154       224.938     21.631      1.134       27.136      
96.7        13.585      154.222     2.414       8.049       23.965      28.584      40.022      40.223      48.225      38.621      19.221      1.51        2.086       227.08      20.193      1.133       28.72       
96.8        13.303      157.787     2.421       8.645       16.733      17.05       29.64       29.575      46.82       30.824      19.159      1.389       2.012       229.242     20.416      1.133       29.943      
96.9        13.583      156.39      2.419       9.114       14.936      12.663      20.037      19.582      43.07       24.983      19.319      1.325       1.967       231.796     21.745      1.133       30.285      
97.0        14.312      153.342     2.396       9.262       14.393      10.566      15.309      13.576      36.998      23.419      19.671      1.316       1.952       234.52      23.876      1.135       30.564      
97.1        14.899      153.473     2.366       9.253       14.033      9.517       14.252      10.923      30.574      23.671      20.292      1.366       1.951       237.003     25.519      1.137       31.83       
97.2        16.072      152.868     2.337       9.078       13.981      9.429       14.278      9.568       26.531      25.09       21.109      1.397       1.94        238.642     26.128      1.137       32.964      
97.3        20.533      151.861     2.321       8.797       14.173      9.76        14.51       9.395       25.132      26.948      22.036      1.43        1.999       239.013     26.655      1.137       32.548      
97.4        30.33       151.756     2.331       7.596       15.491      11.881      15.178      9.601       24.696      27.845      22.913      1.485       2.117       239.013     27.32       1.138       29.803      
97.5        37.38       151.771     2.359       6.48        18.5        15.945      15.793      10.757      24.306      27.966      23.54       1.613       2.299       238.769     28.142      1.14        26.242      
97.6        37.48       151.651     2.397       5.586       22.617      20.078      16.023      12.383      23.779      27.657      23.92       1.713       2.42        237.157     29.129      1.14        23.615      
97.7        34.132      151.448     2.428       5.576       26.915      22.581      15.972      13.698      23.126      25.93       23.935      1.789       2.493       233.583     30.255      1.139       22.35       
97.8        31.408      151.561     2.444       5.436       30.743      22.983      15.62       14.146      22.327      23.428      23.642      1.785       2.507       228.278     31.177      1.14        22.218      
97.9        27.837      151.795     2.445       5.356       32.31       22.806      14.84       14.068      21.437      20.749      23.081      1.717       2.45        222.256     31.558      1.139       22.024      
98.0        23.393      151.83      2.428       5.412       32.127      21.822      13.862      13.537      20.498      18.461      22.469      1.64        2.39        216.537     31.533      1.139       22.939      
98.1        19.913      151.813     2.398       5.913       30.674      20.549      12.927      12.419      19.607      16.718      22.058      1.546       2.253       211.672     31.334      1.137       25.231      
98.2        18.039      151.844     2.364       6.452       27.106      19.865      12.274      11.275      18.742      15.536      21.734      1.49        2.158       208.336     30.873      1.136       28.12       
98.3        16.846      151.636     2.34        6.925       23.819      19.976      12.137      10.439      17.889      15.07       21.62       1.43        2.03        207.075     30.464      1.137       30.101      
98.4        17.376      151.342     2.326       7.074       21.428      20.775      12.217      10.098      17.169      14.953      21.508      1.397       1.986       207.075     29.962      1.138       30.449      
98.5        18.805      150.891     2.327       7.11        20.298      22.427      12.762      10.062      16.714      14.84       21.419      1.383       1.996       207.075     29.25       1.138       30.075      
98.6        20.629      151.189     2.33        7.125       19.789      23.324      14.151      10.092      16.548      14.719      21.204      1.38        2.038       207.202     28.373      1.138       29.453      
98.7        19.422      151.575     2.328       6.951       19.225      23.264      16.615      10.245      16.524      14.647      20.922      1.373       2.066       208.186     27.614      1.138       29.381      
98.8        16.962      152.208     2.319       6.793       18.572      22.903      19.239      10.436      16.568      14.617      20.687      1.383       2.049       210.87      27.211      1.136       29.889      
98.9        16.632      152.954     2.311       6.956       18.405      22.415      21.07       10.714      16.691      14.568      20.623      1.403       2.023       214.87      27.096      1.137       30.803      
99.0        18.247      153.209     2.307       7.146       18.432      22.285      21.631      11.064      16.926      14.513      20.577      1.436       2.031       219.431     27.007      1.138       32.015      
99.1        20.825      153.418     2.315       6.948       18.548      21.674      21.791      11.49       17.217      14.449      20.497      1.45        2.08        223.684     26.893      1.136       32.886      
99.2        19.358      153.583     2.329       6.481       18.647      21.216      22.107      11.984      17.507      14.454      20.321      1.457       2.143       227.219     26.734      1.137       32.919      
99.3        18.26       153.762     2.343       6.217       19.047      20.864      22.64       12.578      17.834      14.5        20.163      1.448       2.182       229.861     26.597      1.138       31.87       
99.4        18.802      153.824     2.356       6.473       19.567      20.88       23.247      13.16       18.266      14.639      19.983      1.434       2.183       231.343     26.509      1.137       30.151      
99.5        20.946      154.007     2.361       6.812       20.024      20.856      24.013      13.583      18.694      14.823      19.717      1.423       2.181       231.993     26.392      1.137       28.549      
99.6        23.535      154.042     2.366       7.035       20.503      20.78       25.192      13.913      19.011      15.041      19.474      1.413       2.2         232.166     26.129      1.138       27.519      
99.7        20.952      154.137     2.369       7.072       21.035      21.105      26.636      14.387      19.173      15.369      19.127      1.437       2.237       232.166     25.638      1.137       27.497      
99.8        18.539      154.241     2.372       6.936       22.041      21.96       27.771      14.851      19.225      15.746      18.846      1.473       2.26        232.087     25.108      1.135       28.139      
99.9        20.514      154.32      2.375       6.872       22.332      21.477      28.329      15.312      19.233      15.984      18.44       1.538       2.257       231.572     24.719      1.137       28.825      
100.0       21.429      154.352     2.385       6.845       21.964      21.236      28.617      15.544      19.187      16.093      18.096      1.583       2.233       230.546     24.444      1.138       29.085      
100.1       19.301      154.359     2.4         6.897       22.734      22.365      28.474      15.515      19.071      16.02       17.656      1.587       2.221       229.299     23.983      1.139       28.583      
100.2       20.229      154.393     2.414       7.022       22.513      21.977      27.997      15.407      18.943      16.047      17.23       1.562       2.216       227.763     23.318      1.14        27.863      
