~Version Information Section
VERS.                                         2.0:CWLS log ASCII Standart – VERSION 2.0
WRAP.                                          NO:One line per depth step
~Well Information Section
STRT.M                                       -0.1:Начальная глубина
STOP.M                                      197.8:Конечная глубина
STEP.M                                          0:Шаг квантования по глубине
NULL.                                    -9999.25:Признак "Нет данных"
WELL.                                       134Мх:Скважина
~Parameter Information Section
~Curve Information Section
DEPTH.M                                          :Глубина
BK.Ohm*M                                         :BK     (БК)
DS.mm                                            :DS  (ДС)
GGK.g/cm3                                        :GGKp
ГК.mcr/h                                         :GK          (ГК)
GZ1.Ohm*M                                        :GZ1   ГЗ1(A0.4M0.1N)
GZ2.Ohm*M                                        :GZ2   ГЗ2(A1.0M0.1N)
GZ3.Ohm*M                                        :GZ3   ГЗ3(A2.0M0.5N)
GZ4.Ohm*M                                        :GZ4   ГЗ4(A4.0M0.5N)
GZ5.Ohm*M                                        :GZ5   ГЗ5(A8.0M0.5N)
GZR.Ohm*M                                        :GZK   ГЗK(N0.5M2.0A)
ИК.Ohm*M                                         :IK
КП.%                                             :Кп
НГК.ue                                           :NGK     (НГК)
NNKM.                                            :NNKm  (ННКм)
PS.mv                                            :PS       (ПС)
PZ.Ohm*M                                         :PZ    (КС)
RS.Ohm*M                                         :RS (Резистивиметр)
U1.mV                                            :U1
U2.mV                                            :U2
U3.mV                                            :U3
~ASCII LOG DATA
# ...
89.5        60.103      136.516     2.13        3.402       60.788      55.32       31.144      24.448      14.814      24.485      24.504      36.178      1.06        2.074       401.541     37.497      1.06        329.789     268.604     238.551     
89.6        57.07       136.484     2.14        3.731       52.714      52.054      30.247      22.809      14.525      24.161      23.525      35.087      1.053       2.037       401.227     37.497      1.06        312.259     278.443     302.071     
89.7        47.096      137.366     2.155       4.247       46.144      49.227      29.997      21.642      14.21       23.958      22.529      33.884      1.078       2.016       400.998     37.497      1.06        260.247     273.198     325.629     
89.8        32.402      139.166     2.17        4.656       41.24       46.939      29.997      20.969      13.875      23.757      21.581      34.492      1.116       1.976       400.853     37.332      1.06        205.613     248.912     311.862     
89.9        23.331      140.532     2.182       5.185       37.847      44.996      29.997      20.568      13.542      23.538      20.924      36.316      1.093       1.9         400.786     36.952      1.06        189.101     215.962     300.726     
90.0        21.547      139.691     2.186       5.574       35.951      43.463      30.104      20.222      13.244      23.257      20.474      37.553      1.083       1.843       400.786     36.384      1.06        201.891     197.101     234.844     
90.1        23.85       137.868     2.186       5.689       34.732      42.004      30.472      19.865      12.995      22.857      20.213      38.626      1.035       1.82        400.786     35.734      1.06        243.989     192.327     175.204     
90.2        28.531      137.149     2.182       5.507       33.376      40.322      30.83       19.485      12.78       22.254      20.038      38.487      1.017       1.831       400.786     35.076      1.06        302.39      210.341     121.82      
90.3        33.233      137.008     2.184       5.084       31.999      38.522      30.928      19.069      12.559      21.378      19.783      37.95       1.025       1.88        400.792     34.474      1.06        377.099     251.141     154.128     
90.4        38.386      137.097     2.203       4.802       30.668      36.441      30.928      18.524      12.284      20.278      19.363      36.486      1.041       1.94        400.867     33.96       1.06        409.681     298.175     208.5       
90.5        42.537      137.297     2.236       4.531       29.16       33.99       30.808      17.729      11.907      19.078      18.718      34.852      1.043       1.976       401.011     33.546      1.06        405.221     342.84      309.093     
90.6        38.034      138.639     2.271       4.691       27.529      31.491      30.347      16.731      11.41       17.92       17.989      35.823      1.023       1.959       401.237     33.222      1.06        378.708     378.784     433.854     
90.7        27.23       143.262     2.282       4.907       25.958      29.163      29.524      15.646      10.821      16.918      17.413      37.39       0.995       1.873       401.55      32.97       1.06        349.503     402.193     532.656     
90.8        20.201      148.689     2.266       5.44        24.556      27.176      28.474      14.573      10.194      16.115      16.915      38.31       1.035       1.725       401.949     32.768      1.06        310.743     403.543     581.354     
90.9        18.915      147.319     2.233       5.509       23.43       25.769      27.402      13.646      9.594       15.468      16.6        36.924      1.029       1.685       402.426     32.6        1.06        280.121     389.009     557.881     
91.0        20.971      141.445     2.202       5.784       22.643      24.751      26.473      12.897      9.076       14.953      16.47       35.763      1.043       1.801       402.963     32.456      1.06        291.972     370.045     512.345     
91.1        23.861      138.964     2.19        5.566       22.041      23.702      25.625      12.215      8.663       14.569      16.443      35.22       1.031       1.891       403.541     32.333      1.06        331.303     353.005     430.442     
91.2        24.847      139.005     2.2         5.728       21.448      22.61       24.757      11.545      8.358       14.36       16.397      33.821      1.054       1.924       404.138     32.232      1.06        343.487     332.8       334.25      
91.3        24.037      139.101     2.221       5.653       20.854      21.615      23.903      10.914      8.156       14.31       16.281      33.843      1.045       1.942       404.736     32.154      1.06        335.385     318.959     289.778     
91.4        22.587      139.275     2.236       5.871       20.257      20.76       23.181      10.382      8.045       14.31       16.162      35.14       1.013       1.921       405.323     32.101      1.06        338.994     315.678     311.324     
91.5        20.847      139.306     2.239       5.859       19.639      20.034      22.666      9.993       8.008       14.31       16.048      38.619      1.021       1.841       405.901     32.07       1.06        319.976     311.502     361.135     
91.6        19.623      139.335     2.237       5.69        19.035      19.504      22.417      9.797       8.004       14.383      15.991      40.986      1.039       1.764       406.475     32.06       1.06        266.444     303.022     373.193     
91.7        19.139      139.343     2.232       5.614       18.531      19.203      22.37       9.755       8.004       14.645      15.953      43.665      1.081       1.747       407.056     32.06       1.06        233.025     295.331     364.42      
91.8        19.007      139.16      2.229       5.709       18.271      19.104      22.37       9.755       8.037       15.118      15.899      45.247      1.093       1.753       407.659     32.06       1.06        258.231     296.784     372.567     
91.9        19.087      139.089     2.231       5.851       18.227      19.104      22.37       9.755       8.181       15.812      15.888      45.345      1.099       1.749       408.294     32.06       1.06        310.068     303.184     359.837     
92.0        19.338      139.074     2.233       5.873       18.227      19.104      22.533      9.886       8.49        16.739      15.858      44.149      1.06        1.757       408.958     32.07       1.06        380.815     337.328     309.312     
92.1        19.487      139.024     2.238       5.947       18.227      19.227      23.134      10.388      8.962       17.789      15.876      41.954      1.009       1.782       409.64      32.102      1.06        482.371     402.632     299.786     
92.2        19.33       139.081     2.234       5.947       18.476      19.547      24.252      11.419      9.57        18.816      15.965      41.064      1.009       1.799       410.32      32.161      1.06        566.646     449.084     369.06      
92.3        19.343      139.307     2.226       5.829       19.273      19.979      25.771      13.023      10.223      19.637      16.08       40.59       1.083       1.806       410.966     32.254      1.06        595.139     468.335     436.396     
92.4        20.582      139.074     2.211       5.772       20.666      20.639      27.395      15.057      10.772      20.059      16.219      40.443      1.11        1.837       411.554     32.389      1.06        562.744     480.114     422.991     
92.5        23.375      138.866     2.192       5.438       22.694      21.333      28.666      17.218      11.097      20.152      16.338      39.632      1.111       1.892       412.064     32.569      1.06        477.179     461.622     431.598     
92.6        32.036      138.885     2.179       4.976       24.747      21.605      29.153      19.017      11.205      20.152      16.41       36.843      1.074       1.946       412.491     32.799      1.06        388.615     413.181     542.967     
