~Version Information Section
VERS.                                         2.0:CWLS log ASCII Standart – VERSION 2.0
WRAP.                                          NO:One line per depth step
~Well Information Section
STRT.M                                        0.8:Начальная глубина
STOP.M                                      209.6:Конечная глубина
STEP.M                                          0:Шаг квантования по глубине
NULL.                                    -9999.25:Признак "Нет данных"
WELL.                                         5Мх:Скважина
~Parameter Information Section
~Curve Information Section
DEPTH.M                                          :Глубина
BK.Ohm*M                                         :BK     (БК)
DS.mm                                            :DS  (ДС)
ГК.mcr/h                                         :GK          (ГК)
GZ1.Ohm*M                                        :GZ1   ГЗ1(A0.4M0.1N)
GZ2.Ohm*M                                        :GZ2   ГЗ2(A1.0M0.1N)
GZ3.Ohm*M                                        :GZ3   ГЗ3(A2.0M0.5N)
GZ4.Ohm*M                                        :GZ4   ГЗ4(A4.0M0.5N)
GZ5.Ohm*M                                        :GZ5   ГЗ5(A8.0M0.5N)
GZR.Ohm*M                                        :GZK   ГЗK(N0.5M2.0A)
ИК.Ohm*M                                         :IK
НГК.                                             :NNKb  (ННКб)
NNKM.                                            :NNKm  (ННКм)
PS.mv                                            :PS       (ПС)
PZ.Ohm*M                                         :PZ    (КС)
RS.Ohm*M                                         :RS (Резистивиметр)
W.%                                              :W
ГГК.g/cm3                                        :ГГК
SGDT1.1/min                                      :ПЛ1
SGDT2.1/min                                      :ПЛ2
SGDT3.1/min                                      :ПЛ3
SGDT4.1/min                                      :ПЛ4
~ASCII LOG DATA
# ...
137.2       52.602      146.984     4.613       5.413       10.75       9.754       6.484       23.002      8.156       29.236      3.412       2.247       924.211     47.887      0.916       33.548      2.19        17373.781   21875.625   15876.239   4265.527    
137.4       48.529      146.48      4.085       5.671       10.807      10.294      6.484       22.822      8.431       29.424      3.22        2.263       922.369     48.81       0.916       34.439      2.217       15835.79    21716.436   15160.186   4420.352    
137.6       52.119      147.485     4.483       5.74        10.751      10.294      6.564       23.002      9.475       29.619      3.597       2.266       923.486     48.371      0.916       30.458      2.212       15541.878   21972.07    14735.435   4614.834    
137.8       57.677      148.1       4.697       5.727       10.966      10.294      6.644       23.362      10.554      29.79       3.699       2.316       925.077     47.005      0.916       30.173      2.19        16004.688   22067.158   15456.566   4940.898    
138.0       54.075      148.112     4.651       5.844       11.708      10.114      6.644       23.362      10.277      29.668      3.714       2.316       926.761     44.941      0.916       30.237      2.185       15871.247   21706.445   15137.549   4800.0      
138.2       50.933      147.776     4.646       5.91        11.808      10.114      6.724       23.002      8.7         29.644      3.538       2.288       929.175     43.459      0.916       31.649      2.213       16003.019   20427.051   14443.379   4586.309    
138.4       39.994      148.734     5.044       5.898       11.75       9.934       6.804       22.822      7.909       29.193      3.576       2.329       932.552     49.656      0.916       31.673      2.241       14865.089   20112.617   14696.377   4350.146    
138.6       53.58       148.687     5.041       5.632       11.728      9.574       6.564       22.822      7.192       29.224      3.772       2.248       930.901     55.279      0.916       28.644      2.242       14404.796   20710.967   14934.287   4162.344    
138.8       57.943      145.384     4.582       5.531       11.764      9.394       6.324       22.282      6.955       29.137      4.043       2.332       928.398     54.719      0.918       27.445      2.233       14796.631   21435.313   14663.809   3858.985    
139.0       57.148      147.425     4.037       5.308       11.829      9.574       6.084       21.742      7.171       29.011      4.026       2.365       929.166     46.937      0.921       27.919      2.223       14677.596   21755.254   14138.369   3784.98     
139.2       55.463      147.692     4.375       5.347       11.89       9.394       5.924       20.842      7.423       28.508      3.824       2.424       932.507     39.338      0.922       30.573      2.205       15492.331   21759.922   14510.679   3896.572    
139.4       50.933      148.596     4.421       5.747       12.1        9.034       5.844       20.482      7.719       27.722      3.732       2.43        936.662     33.713      0.922       32.095      2.182       15876.655   22060.732   15075.264   3891.836    
139.6       46.559      148.921     4.653       5.596       12.109      8.674       5.844       20.482      8.35        27.215      3.695       2.409       940.051     29.263      0.922       31.877      2.171       16145.993   22127.695   14238.389   3740.244    
139.8       48.753      147.755     4.725       5.322       12.087      8.674       5.844       20.842      8.877       27.041      3.83        2.398       942.737     28.85       0.922       30.058      2.179       15421.641   21272.51    13846.67    3648.105    
140.0       50.582      149.221     4.613       4.918       12.218      8.494       5.604       20.842      7.709       26.816      3.976       2.352       943.041     29.586      0.922       28.1        2.214       14365.369   19726.504   13670.815   3820.84     
140.2       45.604      147.688     4.298       4.812       12.176      8.494       5.444       20.842      6.877       25.917      3.936       2.369       944.621     32.215      0.922       28.859      2.272       13750.766   18862.1     13757.651   3879.219    
140.4       22.856      151.013     4.568       4.851       12.084      8.314       4.724       21.022      7.024       24.966      3.681       2.384       944.884     37.832      0.922       31.383      2.317       12074.339   18883.125   13298.618   3727.93     
140.6       41.495      149.616     4.69        5.484       12.308      8.494       4.164       21.382      7.328       25.345      3.564       2.265       949.735     41.937      0.922       31.29       2.317       11586.546   19394.404   13582.583   3755.918    
140.8       28.314      152.804     5.27        3.853       10.426      7.414       4.244       21.022      7.609       25.649      3.405       2.231       952.502     40.623      0.919       32.019      2.303       11779.463   19366.855   13318.374   3801.924    
141.0       27.861      152.844     5.376       4.135       10.628      7.054       4.404       19.942      7.816       25.95       3.437       2.197       953.769     41.787      0.912       31.362      2.292       12781.967   19003.848   13655.366   3949.726    
141.2       32.137      148.997     5.383       3.757       10.259      6.334       4.644       17.602      8.096       26.488      3.379       2.133       954.693     41.13       0.903       30.819      2.272       12865.824   19756.563   14176.694   4080.0      
141.4       38.815      153.812     5.756       3.594       9.609       5.794       4.724       16.342      8.058       27.245      3.316       2.192       960.024     42.319      0.896       32.463      2.253       13371.425   20749.238   13866.855   3767.871    
141.6       44.259      155.469     4.985       3.58        9.488       5.434       4.724       16.522      7.76        27.796      3.392       2.206       961.898     42.61       0.89        32.066      2.265       13255.831   20431.66    12940.488   3565.947    
141.8       50.816      155.937     4.724       3.718       9.707       5.614       4.644       18.682      7.273       28.205      3.672       2.296       960.91      41.239      0.887       29.507      2.293       12454.775   19327.031   12780.84    3757.656    
142.0       46.666      154.7       4.998       4.123       9.784       6.334       4.484       19.042      7.07        28.112      4.139       2.369       960.671     39.19       0.887       26.813      2.291       11996.415   19059.453   13036.211   3932.49     
142.2       43.853      156.583     4.873       4.529       10.422      7.054       4.164       19.582      6.846       27.891      3.952       2.406       960.69      37.925      0.882       29.127      2.28        12275.76    19245.225   13435.615   3832.793    
142.4       46.026      156.326     4.596       4.579       10.735      7.234       4.964       20.482      5.93        27.298      3.9         2.368       958.012     35.515      0.876       29.334      2.274       12677.829   18783.066   13507.148   3617.959    
142.6       44.771      157.02      4.51        4.457       10.994      7.234       5.204       20.302      5.352       26.633      4.24        2.446       948.909     34.168      0.875       27.043      2.264       12008.408   18420.234   13038.379   3580.781    
142.8       46.238      156.138     4.466       4.641       11.441      7.594       5.364       21.022      4.906       25.996      4.064       2.434       943.614     32.931      0.873       27.622      2.268       12932.852   18950.391   13070.693   3769.189    
143.0       57.28       152.418     4.55        4.743       11.726      7.414       5.604       21.202      5.13        25.685      4.39        2.447       945.3       30.85       0.871       26.342      2.301       12685.55    18846.846   12534.053   3900.0      
143.2       40.179      153.857     4.958       4.808       11.871      8.674       5.924       21.742      4.979       24.995      4.345       2.444       952.192     27.266      0.869       26.405      2.297       11413.609   18538.438   12777.837   4064.804    
