~Version Information Section
VERS.                                         2.0:CWLS log ASCII Standart – VERSION 2.0
WRAP.                                          NO:One line per depth step
~Well Information Section
STRT.M                                        0.0:Начальная глубина
STOP.M                                      133.6:Конечная глубина
STEP.M                                          0:Шаг квантования по глубине
NULL.                                    -9999.25:Признак "Нет данных"
WELL.                                       118Мх:Скважина
~Parameter Information Section
~Curve Information Section
DEPTH.M                                          :Глубина
BK.Ohm*M                                         :BK     (БК)
DS.mm                                            :DS  (ДС)
GGK.g/cm3                                        :GGKp
ГК.mcr/h                                         :GK          (ГК)
GZ1.Ohm*M                                        :GZ1   ГЗ1(A0.4M0.1N)
GZ2.Ohm*M                                        :GZ2   ГЗ2(A1.0M0.1N)
GZ3.Ohm*M                                        :GZ3   ГЗ3(A2.0M0.5N)
GZ4.Ohm*M                                        :GZ4   ГЗ4(A4.0M0.5N)
GZ5.Ohm*M                                        :GZ5   ГЗ5(A8.0M0.5N)
GZR.Ohm*M                                        :GZK   ГЗK(N0.5M2.0A)
ИК.Ohm*M                                         :IK
НГК.усл.ед                                       :NGK
NNKM.                                            :NNKm  (ННКм)
PS.mv                                            :PS       (ПС)
PZ.Ohm*M                                         :PZ    (КС)
RS.Ohm*M                                         :RS (Резистивиметр)
U1.mV                                            :U1
U2.mV                                            :U2
U3.mV                                            :U3
W.%                                              :W
~ASCII LOG DATA
# ...
121.6       151.008     154.834     2.35        3.256       145.339     285.349     201.703     85.04       114.66      253.931     14.064      1.659       2.867       1015.606    467.808     -9999.25    517.978     569.651     328.807     22.476      
121.8       124.738     154.461     2.443       3.198       133.859     267.529     196.823     80.84       111.16      237.431     13.138      1.739       3.112       1021.366    453.896     -9999.25    536.672     543.851     346.055     17.831      
122.0       188.365     154.946     2.508       3.898       122.379     252.949     191.943     74.84       111.16      237.431     12.223      1.779       3.292       1025.926    437.191     -9999.25    606.772     544.711     383.837     16.487      
122.2       264.85      157.935     2.428       5.316       118.279     235.129     185.843     72.44       111.16      237.431     11.28       1.456       3.281       1031.206    417.881     -9999.25    808.66      669.411     493.895     17.162      
122.4       180.302     158.034     2.232       6.757       127.299     222.169     180.963     72.44       111.16      237.431     10.501      1.176       3.066       1036.246    397.362     -9999.25    1264.779    897.309     874.17      22.206      
122.6       19.498      157.913     2.22        7.467       128.939     222.169     183.403     72.44       112.56      -9999.25    9.685       1.123       2.202       1040.566    376.064     -9999.25    1175.983    1003.091    967.804     32.582      
122.8       13.677      156.66      2.425       6.444       137.139     231.889     212.683     73.04       113.96      -9999.25    8.969       1.169       1.987       1045.366    353.987     -9999.25    942.317     864.631     797.788     34.572      
123.0       9.333       157.674     2.579       6.374       151.079     254.569     240.743     -9999.25    114.66      -9999.25    8.499       1.269       2.155       1050.406    331.589     -9999.25    757.253     665.971     589.17      28.544      
123.2       8.531       156.997     2.599       6.828       152.719     282.109     238.303     -9999.25    115.36      -9999.25    8.198       1.254       2.399       1054.486    311.204     -9999.25    686.219     593.731     580.135     27.355      
123.4       14.962      156.473     2.496       6.75        145.339     272.389     230.983     -9999.25    116.06      -9999.25    8.567       1.272       2.278       1057.846    296.567     -9999.25    786.227     657.37      713.19      26.27       
123.6       24.66       157.816     2.453       6.269       142.059     259.429     215.123     -9999.25    117.46      -9999.25    9.399       1.35        2.427       1060.726    292.914     -9999.25    909.605     749.391     766.578     19.932      
123.8       37.239      157.095     2.433       6.552       137.139     257.809     213.903     -9999.25    118.16      -9999.25    10.281      1.334       2.718       1062.886    303.577     -9999.25    934.84      812.171     705.799     20.201      
124.0       32.137      157.972     2.443       7.223       138.779     257.809     216.343     -9999.25    119.56      -9999.25    10.925      1.228       2.592       1065.286    323.988     -9999.25    916.147     878.391     753.437     22.29       
124.2       19.77       158.807     2.43        7.348       144.519     257.809     223.663     -9999.25    120.96      -9999.25    11.278      1.167       2.353       1066.966    345.957     -9999.25    926.428     1007.391    864.316     25.566      
124.4       18.923      155.319     2.369       5.769       151.079     261.049     237.083     -9999.25    121.66      -9999.25    11.524      1.264       2.178       1068.406    361.105     -9999.25    1045.129    1219.809    1101.679    30.699      
124.6       16.331      154.85      2.347       4.421       152.719     280.489     248.063     -9999.25    122.36      -9999.25    12.057      1.581       2.264       1069.846    369.189     -9999.25    1296.557    1464.052    1427.752    28.19       
124.8       142.561     155.571     2.423       4.126       155.999     293.449     251.723     -9999.25    125.86      -9999.25    13.162      1.9         2.929       1071.046    379.233     -9999.25    1514.333    1673.891    1681.543    17.306      
125.0       224.905     154.87      2.556       3.794       156.819     301.549     257.823     -9999.25    127.96      -9999.25    14.562      2.021       3.216       1071.766    405.043     -9999.25    1828.382    1882.011    1813.778    14.063      
125.2       417.83      155.029     2.601       3.739       158.459     304.789     262.703     -9999.25    130.76      -9999.25    15.593      2.027       3.222       1072.246    448.767     -9999.25    2148.972    2040.251    1806.386    13.328      
125.4       776.247     154.906     2.581       3.825       160.099     304.789     263.923     -9999.25    131.46      -9999.25    16.19       2.013       3.318       1072.726    501.085     -9999.25    2143.366    2137.431    1620.766    13.647      
125.6       553.35      154.986     2.594       3.736       -9999.25    304.789     266.363     -9999.25    131.46      -9999.25    16.581      2.059       3.319       1072.726    546.768     -9999.25    1900.35     2021.33     1357.936    13.286      
125.8       417.83      154.922     2.593       3.61        -9999.25    304.789     267.583     -9999.25    131.46      -9999.25    16.643      2.165       3.132       1072.006    576.768     -9999.25    1619.951    1797.731    989.159     12.607      
126.0       177.828     154.448     2.363       3.81        -9999.25    304.789     267.583     -9999.25    131.46      -9999.25    16.59       2.25        3.14        1070.566    593.365     -9999.25    1363.851    1431.365    691.837     12.057      
126.2       112.461     154.394     2.192       4.229       -9999.25    -9999.25    268.803     -9999.25    131.46      -9999.25    16.557      2.206       3.138       1069.126    601.476     -9999.25    999.332     776.911     571.922     13.884      
126.4       95.719      154.155     2.188       3.81        -9999.25    -9999.25    268.803     -9999.25    131.46      -9999.25    16.375      2.156       3.165       1067.686    601.798     -9999.25    684.35      616.951     497.181     13.975      
126.6       98.628      155.548     2.297       3.707       -9999.25    -9999.25    270.023     -9999.25    132.16      -9999.25    16.121      2.141       3.349       1066.246    593.768     -9999.25    662.852     633.291     488.967     13.83       
126.8       100.0       154.517     2.406       3.68        -9999.25    -9999.25    272.463     -9999.25    132.86      -9999.25    15.889      2.171       3.329       1065.286    581.253     -9999.25    770.339     697.791     619.559     14.067      
127.0       107.647     154.534     2.502       3.885       -9999.25    -9999.25    272.463     -9999.25    134.26      -9999.25    15.64       1.981       3.315       1065.046    570.295     -9999.25    937.644     791.531     823.25      13.947      
127.2       90.157      154.576     2.47        4.075       -9999.25    -9999.25    273.683     -9999.25    -9999.25    -9999.25    15.361      1.94        3.036       1065.046    565.998     -9999.25    1098.407    962.671     994.908     15.161      
127.4       73.451      155.232     2.381       3.415       -9999.25    -9999.25    -9999.25    -9999.25    -9999.25    -9999.25    14.736      1.805       3.108       1065.286    567.744     -9999.25    1386.282    1177.673    1199.419    15.996      
127.6       69.183      154.588     2.331       3.323       -9999.25    -9999.25    -9999.25    -9999.25    -9999.25    -9999.25    14.127      1.755       3.017       1066.246    571.369     -9999.25    1399.369    986.749     1132.07     18.71       
127.8       68.234      154.945     2.35        3.805       -9999.25    -9999.25    -9999.25    -9999.25    -9999.25    -9999.25    13.394      1.813       3.134       1067.926    571.53      -9999.25    934.841     837.11      750.97      16.304      
