~Version Information Section
VERS.                                         2.0:CWLS log ASCII Standart – VERSION 2.0
WRAP.                                          NO:One line per depth step
~Well Information Section
STRT.M                                        0.0:Начальная глубина
STOP.M                                      180.0:Конечная глубина
STEP.M                                          0:Шаг квантования по глубине
NULL.                                    -9999.25:Признак "Нет данных"
WELL.                                       120Мх:Скважина
~Parameter Information Section
~Curve Information Section
DEPTH.M                                          :Глубина
BK.Ohm*M                                         :BK     (БК)
DS.mm                                            :DS  (ДС)
GGK.g/cm3                                        :GGKp
ГК.mcr/h                                         :GK          (ГК)
GZ1.Ohm*M                                        :GZ1   ГЗ1(A0.4M0.1N)
GZ2.Ohm*M                                        :GZ2   ГЗ2(A1.0M0.1N)
GZ3.Ohm*M                                        :GZ3   ГЗ3(A2.0M0.5N)
GZ4.Ohm*M                                        :GZ4   ГЗ4(A4.0M0.5N)
GZ5.Ohm*M                                        :GZ5   ГЗ5(A8.0M0.5N)
GZR.Ohm*M                                        :GZK   ГЗK(N0.5M2.0A)
ИК.Ohm*M                                         :IK
НГК.u.e.                                         :NGK
NNKM.                                            :NNKm  (ННКм)
PS.mv                                            :PS       (ПС)
PZ.Ohm*M                                         :PZ    (КС)
RS.Ohm*M                                         :RS (Резистивиметр)
U1.mV                                            :U1
U2.mV                                            :U2
U3.mV                                            :U3
КП.%                                             :Кп
~ASCII LOG DATA
# ...
166.4       8.128       123.425     2.309       6.819       213.0       140.125     141.404     155.667     189.225     200.566     5.358       1.076       2.074       484.726     304.364     -9999.25    972.728     888.817     915.868     29.867      
166.6       8.128       123.354     2.334       7.214       217.0       140.125     138.737     -9999.25    189.225     -9999.25    5.814       1.097       2.069       487.923     303.988     -9999.25    1310.132    1055.34     903.423     32.642      
166.8       9.333       123.703     2.469       6.986       221.0       140.125     134.737     -9999.25    190.558     -9999.25    6.215       1.16        2.205       491.686     308.751     -9999.25    1126.885    957.033     860.915     23.843      
167.0       10.715      123.867     2.439       6.759       221.667     140.125     136.737     -9999.25    193.892     -9999.25    6.446       1.177       2.415       495.286     312.511     -9999.25    983.634     831.929     751.375     18.511      
167.2       11.749      123.999     2.293       7.34        221.0       141.458     140.737     -9999.25    193.225     -9999.25    6.632       1.221       2.327       498.608     314.266     -9999.25    879.454     643.811     539.166     22.197      
167.4       10.233      123.455     2.283       7.746       221.667     142.125     143.404     -9999.25    193.225     -9999.25    6.765       1.155       2.052       501.526     319.78      -9999.25    832.985     407.698     241.321     29.496      
167.6       9.772       123.527     2.312       8.342       223.0       142.125     145.404     -9999.25    193.225     -9999.25    6.641       1.101       1.976       504.166     321.786     -9999.25    683.232     245.164     101.922     34.566      
167.8       8.913       123.543     2.325       7.968       223.0       143.458     146.071     -9999.25    193.225     -9999.25    6.513       1.044       1.952       506.086     320.407     -9999.25    670.883     318.863     187.82      33.185      
168.0       8.511       123.563     2.352       8.109       223.0       144.125     147.404     -9999.25    193.225     -9999.25    6.433       1.031       1.975       507.526     318.402     -9999.25    409.443     305.175     308.876     30.705      
168.2       9.333       123.728     2.435       8.183       225.667     144.125     147.404     -9999.25    193.225     -9999.25    6.344       1.059       1.953       508.764     315.018     -9999.25    298.335     277.709     335.169     32.515      
168.4       10.233      125.128     2.406       7.75        227.0       144.125     148.737     -9999.25    191.892     -9999.25    6.345       1.085       1.938       510.128     310.13      -9999.25    398.894     297.792     285.787     35.92       
168.6       12.303      124.52      2.352       7.76        227.0       144.125     149.404     -9999.25    189.225     -9999.25    6.368       1.109       1.958       511.366     307.748     -9999.25    657.613     546.523     517.95      33.005      
168.8       11.749      124.288     2.272       8.077       227.0       142.125     149.404     -9999.25    184.558     -9999.25    6.401       1.154       1.939       512.768     311.884     -9999.25    761.998     688.956     683.528     32.163      
169.0       11.22       124.093     2.211       8.387       227.0       140.125     149.404     -9999.25    181.892     -9999.25    6.44        1.048       1.93        513.766     315.77      -9999.25    651.059     396.981     314.489     30.564      
169.2       12.303      124.103     2.198       8.278       227.0       140.125     149.404     -9999.25    180.558     -9999.25    6.519       1.041       1.909       514.966     316.271     -9999.25    597.407     206.753     80.555      35.391      
169.4       16.218      123.827     2.342       8.663       -9999.25    140.125     150.737     -9999.25    179.225     -9999.25    6.644       1.089       1.935       516.204     316.647     -9999.25    592.361     268.964     162.014     38.307      
169.6       18.621      123.743     2.382       8.23        -9999.25    140.125     151.404     -9999.25    179.225     -9999.25    6.794       1.093       2.057       517.846     321.41      -9999.25    447.79      342.406     353.183     29.464      
169.8       18.621      123.962     2.298       7.278       -9999.25    140.125     150.071     -9999.25    179.225     -9999.25    7.011       1.169       2.232       520.083     327.3       -9999.25    256.829     208.291     297.283     25.631      
170.0       17.783      124.57      2.357       7.402       -9999.25    -9999.25    149.404     -9999.25    179.225     -9999.25    7.24        1.213       2.288       523.644     329.556     -9999.25    486.774     237.046     166.246     26.329      
170.2       16.982      124.435     2.392       6.686       -9999.25    -9999.25    148.071     -9999.25    179.225     -9999.25    7.519       1.168       2.233       528.128     332.564     -9999.25    647.505     273.764     153.431     30.598      
170.4       18.621      124.383     2.36        6.539       -9999.25    -9999.25    145.404     -9999.25    180.558     -9999.25    7.71        1.322       2.419       532.803     338.706     -9999.25    437.696     308.002     279.726     20.668      
170.6       21.38       124.421     2.384       6.773       -9999.25    -9999.25    145.404     -9999.25    181.892     -9999.25    7.868       1.341       2.358       538.448     343.844     -9999.25    485.893     401.548     387.056     31.451      
170.8       23.442      124.333     2.612       6.035       -9999.25    -9999.25    146.737     -9999.25    183.225     -9999.25    8.101       1.439       2.573       543.728     349.986     -9999.25    468.829     321.115     267.796     21.794      
171.0       29.512      124.566     2.59        5.622       -9999.25    -9999.25    147.404     -9999.25    -9999.25    -9999.25    8.275       1.631       2.744       548.288     353.495     -9999.25    668.527     469.986     371.258     18.231      
171.2       30.903      124.28      2.42        4.451       -9999.25    -9999.25    -9999.25    -9999.25    -9999.25    -9999.25    8.472       1.674       2.702       552.128     357.13      -9999.25    650.553     547.058     533.353     16.914      
171.4       29.512      124.603     2.329       3.804       -9999.25    -9999.25    -9999.25    -9999.25    -9999.25    -9999.25    8.447       1.574       2.64        555.526     364.399     -9999.25    423.689     475.844     712.341     21.75       
171.6       22.387      124.521     2.35        4.037       -9999.25    -9999.25    -9999.25    -9999.25    -9999.25    -9999.25    8.563       1.466       2.558       558.368     365.276     -9999.25    494.532     519.114     750.961     23.46       
171.8       20.417      124.226     2.322       4.53        -9999.25    -9999.25    -9999.25    -9999.25    -9999.25    -9999.25    8.838       1.387       2.439       560.288     360.764     -9999.25    920.946     615.241     485.478     25.109      
172.0       20.417      124.154     2.294       4.626       -9999.25    -9999.25    -9999.25    -9999.25    -9999.25    -9999.25    8.987       1.311       2.539       561.728     363.396     -9999.25    887.996     571.392     455.531     26.273      
172.2       23.442      124.534     2.266       4.349       -9999.25    -9999.25    -9999.25    -9999.25    -9999.25    -9999.25    9.045       1.242       2.369       562.688     361.391     -9999.25    864.978     782.013     789.85      25.757      
172.4       28.184      124.036     2.336       4.499       -9999.25    -9999.25    -9999.25    -9999.25    -9999.25    -9999.25    9.069       1.334       2.422       562.764     357.756     -9999.25    1624.294    1293.784    1083.37     26.201      
172.6       32.359      125.425     2.273       4.767       -9999.25    -9999.25    -9999.25    -9999.25    -9999.25    -9999.25    9.117       1.358       2.513       562.208     360.764     -9999.25    2369.402    1844.598    1477.955    19.974      
