~Version Information Section
VERS.                                         2.0:CWLS log ASCII Standart – VERSION 2.0
WRAP.                                          NO:One line per depth step
~Well Information Section
STRT.M                                       1.07:Начальная глубина
STOP.M                                     192.17:Конечная глубина
STEP.M                                          0:Шаг квантования по глубине
NULL.                                    -9999.25:Признак "Нет данных"
WELL.                                        151К:Скважина
~Parameter Information Section
~Curve Information Section
DEPTH.M                                          :Глубина
BK.Ohm*M                                         :BK     (БК)
DS.mm                                            :DS  (ДС)
GGK.g/cm3                                        :GGKp
ГК.mcr/h                                         :GK          (ГК)
GZ1.Ohm*M                                        :GZ1   ГЗ1(A0.4M0.1N)
GZ2.Ohm*M                                        :GZ2   ГЗ2(A1.0M0.1N)
GZ3.Ohm*M                                        :GZ3   ГЗ3(A2.0M0.5N)
GZ4.Ohm*M                                        :GZ4   ГЗ4(A4.0M0.5N)
GZ5.Ohm*M                                        :GZ5   ГЗ5(A8.0M0.5N)
GZR.                                             :GZR   ГЗK(N0.5M2.0A)
ИК.Ohm*M                                         :IK
НГК.ue                                           :NGK     (НГК)
NNKM.                                            :NNKm  (ННКм)
PS.mv                                            :PS       (ПС)
PZ.Ohm*M                                         :PZ    (КС)
RS.Ohm*M                                         :RS (Резистивиметр)
W.%                                              :W
~ASCII LOG DATA
# ...
116.47      46.099      153.565     2.18        6.747       -9999.25    -9999.25    -9999.25    -9999.25    -9999.25    -9999.25    38.805      0.881       1.352       450.327     58.033      1.143       29.943      
116.5       -9999.25    -9999.25    -9999.25    -9999.25    74.632      80.895      75.653      65.102      34.668      83.909      -9999.25    -9999.25    -9999.25    -9999.25    -9999.25    -9999.25    -9999.25    
116.57      65.57       153.269     2.179       6.809       -9999.25    -9999.25    -9999.25    -9999.25    -9999.25    -9999.25    38.893      0.863       1.387       450.529     59.283      1.144       29.675      
116.6       -9999.25    -9999.25    -9999.25    -9999.25    59.857      58.361      65.267      57.539      39.148      82.786      -9999.25    -9999.25    -9999.25    -9999.25    -9999.25    -9999.25    -9999.25    
116.67      69.586      152.548     2.18        6.941       -9999.25    -9999.25    -9999.25    -9999.25    -9999.25    -9999.25    38.794      0.86        1.372       453.183     61.774      1.143       29.966      
116.7       -9999.25    -9999.25    -9999.25    -9999.25    50.026      44.428      53.318      50.175      42.648      94.17       -9999.25    -9999.25    -9999.25    -9999.25    -9999.25    -9999.25    -9999.25    
116.77      49.377      152.771     2.185       7.073       -9999.25    -9999.25    -9999.25    -9999.25    -9999.25    -9999.25    39.057      0.881       1.306       458.517     64.698      1.153       30.66       
116.8       -9999.25    -9999.25    -9999.25    -9999.25    40.742      36.521      48.359      47.027      46.56       124.02      -9999.25    -9999.25    -9999.25    -9999.25    -9999.25    -9999.25    -9999.25    
116.87      30.387      151.509     2.193       7.332       -9999.25    -9999.25    -9999.25    -9999.25    -9999.25    -9999.25    39.558      0.91        1.228       464.749     67.528      1.16        31.382      
116.9       -9999.25    -9999.25    -9999.25    -9999.25    33.442      34.946      51.235      53.26       52.402      161.402     -9999.25    -9999.25    -9999.25    -9999.25    -9999.25    -9999.25    -9999.25    
116.97      23.836      150.836     2.205       7.687       -9999.25    -9999.25    -9999.25    -9999.25    -9999.25    -9999.25    40.0        0.96        1.192       469.29      70.78       1.151       31.989      
117.0       -9999.25    -9999.25    -9999.25    -9999.25    31.896      41.729      56.379      66.204      60.603      185.456     -9999.25    -9999.25    -9999.25    -9999.25    -9999.25    -9999.25    -9999.25    
117.07      22.339      149.255     2.218       8.042       -9999.25    -9999.25    -9999.25    -9999.25    -9999.25    -9999.25    40.275      1.017       1.189       471.12      75.993      1.144       32.377      
117.1       -9999.25    -9999.25    -9999.25    -9999.25    36.996      50.455      63.656      78.478      73.502      191.788     -9999.25    -9999.25    -9999.25    -9999.25    -9999.25    -9999.25    -9999.25    
117.17      23.882      147.835     2.233       8.125       -9999.25    -9999.25    -9999.25    -9999.25    -9999.25    -9999.25    40.201      1.075       1.237       469.961     85.047      1.143       31.035      
117.2       -9999.25    -9999.25    -9999.25    -9999.25    44.574      56.219      70.723      89.189      90.552      188.812     -9999.25    -9999.25    -9999.25    -9999.25    -9999.25    -9999.25    -9999.25    
117.27      34.652      147.727     2.248       8.064       -9999.25    -9999.25    -9999.25    -9999.25    -9999.25    -9999.25    40.205      1.131       1.353       467.066     107.061     1.142       28.581      
117.3       -9999.25    -9999.25    -9999.25    -9999.25    54.43       60.099      74.945      97.553      113.135     180.645     -9999.25    -9999.25    -9999.25    -9999.25    -9999.25    -9999.25    -9999.25    
117.37      73.326      147.607     2.264       8.003       -9999.25    -9999.25    -9999.25    -9999.25    -9999.25    -9999.25    40.715      1.179       1.49        463.267     141.419     1.141       26.214      
117.4       -9999.25    -9999.25    -9999.25    -9999.25    76.168      64.152      77.206      101.336     131.965     170.663     -9999.25    -9999.25    -9999.25    -9999.25    -9999.25    -9999.25    -9999.25    
117.47      127.001     147.367     2.278       7.738       -9999.25    -9999.25    -9999.25    -9999.25    -9999.25    -9999.25    41.93       1.222       1.577       459.624     174.295     1.141       24.211      
117.5       -9999.25    -9999.25    -9999.25    -9999.25    103.759     68.947      79.79       104.595     142.466     164.815     -9999.25    -9999.25    -9999.25    -9999.25    -9999.25    -9999.25    -9999.25    
117.57      140.916     148.463     2.291       7.078       -9999.25    -9999.25    -9999.25    -9999.25    -9999.25    -9999.25    44.114      1.249       1.591       456.809     200.875     1.134       22.457      
117.6       -9999.25    -9999.25    -9999.25    -9999.25    125.807     74.22       83.973      109.925     146.962     162.764     -9999.25    -9999.25    -9999.25    -9999.25    -9999.25    -9999.25    -9999.25    
117.67      139.56      149.645     2.303       6.419       -9999.25    -9999.25    -9999.25    -9999.25    -9999.25    -9999.25    47.265      1.271       1.611       454.895     221.722     1.128       21.396      
117.7       -9999.25    -9999.25    -9999.25    -9999.25    146.14      82.567      88.593      116.752     151.227     160.806     -9999.25    -9999.25    -9999.25    -9999.25    -9999.25    -9999.25    -9999.25    
117.77      155.475     149.72      2.312       5.945       -9999.25    -9999.25    -9999.25    -9999.25    -9999.25    -9999.25    51.243      1.292       1.66        453.821     236.564     1.127       20.757      
117.8       -9999.25    -9999.25    -9999.25    -9999.25    168.26      93.916      92.705      122.948     157.662     157.79      -9999.25    -9999.25    -9999.25    -9999.25    -9999.25    -9999.25    -9999.25    
117.87      173.39      149.62      2.319       5.782       -9999.25    -9999.25    -9999.25    -9999.25    -9999.25    -9999.25    56.049      1.308       1.716       453.003     245.682     1.133       20.178      
117.9       -9999.25    -9999.25    -9999.25    -9999.25    190.093     111.951     96.481      127.446     165.26      154.343     -9999.25    -9999.25    -9999.25    -9999.25    -9999.25    -9999.25    -9999.25    
117.97      197.711     149.549     2.322       5.619       -9999.25    -9999.25    -9999.25    -9999.25    -9999.25    -9999.25    60.165      1.321       1.737       452.28      250.685     1.136       19.604      
118.0       -9999.25    -9999.25    -9999.25    -9999.25    203.493     151.415     100.647     131.358     171.549     151.88      -9999.25    -9999.25    -9999.25    -9999.25    -9999.25    -9999.25    -9999.25    
118.07      226.894     149.388     2.323       5.511       -9999.25    -9999.25    -9999.25    -9999.25    -9999.25    -9999.25    63.267      1.331       1.729       451.742     253.359     1.137       19.095      
118.1       -9999.25    -9999.25    -9999.25    -9999.25    208.847     200.542     105.597     136.073     177.838     150.574     -9999.25    -9999.25    -9999.25    -9999.25    -9999.25    -9999.25    -9999.25    
118.17      219.72      149.703     2.322       5.613       -9999.25    -9999.25    -9999.25    -9999.25    -9999.25    -9999.25    66.109      1.329       1.713       452.056     255.146     1.137       19.038      
118.2       -9999.25    -9999.25    -9999.25    -9999.25    210.402     239.339     110.306     141.941     183.572     148.272     -9999.25    -9999.25    -9999.25    -9999.25    -9999.25    -9999.25    -9999.25    
118.27      184.521     149.627     2.318       5.714       -9999.25    -9999.25    -9999.25    -9999.25    -9999.25    -9999.25    68.076      1.325       1.703       453.164     255.271     1.135       19.273      
