~Version Information Section
VERS.                                         2.0:CWLS log ASCII Standart – VERSION 2.0
WRAP.                                          NO:One line per depth step
~Well Information Section
STRT.M                                        1.0:Начальная глубина
STOP.M                                      203.4:Конечная глубина
STEP.M                                          0:Шаг квантования по глубине
NULL.                                    -9999.25:Признак "Нет данных"
WELL.                                         3Мх:Скважина
~Parameter Information Section
~Curve Information Section
DEPTH.M                                          :Глубина
BK.Ohm*M                                         :BK
DS.mm                                            :DS  (ДС)
ГК.mcr/h                                         :GK          (ГК)
GZ1.Ohm*M                                        :GZ1   ГЗ1(A0.4M0.1N)
GZ2.Ohm*M                                        :GZ2   ГЗ2(A1.0M0.1N)
GZ3.Ohm*M                                        :GZ3   ГЗ3(A2.0M0.5N)
GZ4.Ohm*M                                        :GZ4   ГЗ4(A4.0M0.5N)
GZ5.Ohm*M                                        :GZ5   ГЗ5(A8.0M0.5N)
U2.mV                                            :U2
U3.mV                                            :U3
W.                                               :W
КП.%                                             :Кп
НГК.усл.ед                                       :ННКб
ННКМ.усл.ед                                      :ННКм
GZR.Ohm*M                                        :GZK   ГЗK(N0.5M2.0A)
ИК.Ohm*M                                         :IK
PS.mv                                            :PS       (ПС)
PZ.Ohm*M                                         :PZ    (КС)
RS.Ohm*M                                         :RS (Резистивиметр)
U1.mV                                            :U1
~ASCII LOG DATA
# ...
71.4        16.331      152.184     4.569       3.177       6.431       5.477       6.425       4.371       562.75      407.014     2.362       42.997      3.247       2.193       5.319       17.778      83.2        21.509      0.985       945.802     
71.5        18.793      152.353     4.653       3.067       6.576       5.477       6.425       4.371       561.209     457.353     2.368       40.662      3.247       2.348       5.319       17.737      82.946      22.313      0.985       771.814     
71.6        23.496      154.46      4.794       3.008       6.624       5.477       6.425       4.371       508.151     462.749     2.378       38.52       3.549       2.326       5.319       17.913      86.302      23.462      0.99        591.978     
71.7        26.669      153.122     4.906       3.027       6.721       5.477       6.425       4.371       429.65      428.204     2.398       35.68       3.549       2.304       5.319       18.152      92.266      24.543      0.99        445.703     
71.8        28.314      153.21      4.873       3.023       6.793       5.477       6.425       4.471       380.834     394.525     2.423       34.982      3.563       2.266       5.319       18.589      98.742      25.421      0.99        377.566     
71.9        30.409      152.888     4.821       3.08        6.866       5.477       6.425       4.671       414.017     407.352     2.441       33.68       3.563       2.227       5.319       18.968      103.688     25.977      0.99        432.629     
72.0        28.774      153.524     4.822       3.148       6.938       5.477       6.525       4.671       525.354     475.089     2.448       33.076      3.452       2.156       5.419       19.358      106.348     26.342      0.99        591.603     
72.1        26.669      153.958     4.859       3.163       6.962       5.477       6.525       4.671       660.019     563.656     2.458       33.887      3.452       2.085       5.419       19.701      106.989     26.73       0.99        776.215     
72.2        25.823      155.428     4.93        3.163       6.987       5.477       6.525       4.771       748.278     623.399     2.463       35.698      3.154       2.072       5.519       19.918      106.901     27.144      0.994       894.765     
72.3        25.177      157.477     4.96        3.25        7.059       5.477       6.525       4.771       758.839     631.174     2.463       38.528      3.079       2.056       5.619       20.129      106.628     27.688      0.994       906.958     
72.4        24.099      156.114     4.966       3.337       7.035       5.477       6.725       4.771       709.213     602.234     2.475       40.223      2.864       2.032       5.719       20.261      106.377     28.336      0.999       832.356     
72.5        21.878      154.356     4.878       3.39        7.083       5.577       6.825       4.771       638.946     568.185     2.479       40.788      2.81        2.005       5.719       20.286      105.986     29.352      0.999       719.537     
72.6        20.512      155.704     4.65        3.424       7.107       5.577       6.925       4.871       586.571     559.38      2.489       40.169      3.059       2.05        5.719       20.32       105.57      30.968      1.003       618.489     
72.7        20.941      157.488     4.312       3.578       7.107       5.577       6.925       4.871       564.094     583.218     2.466       40.244      3.121       2.112       5.719       20.331      105.235     33.502      1.003       549.684     
72.8        21.281      155.877     3.989       3.756       7.18        5.577       6.925       4.971       556.603     618.88      2.446       39.501      3.193       2.203       5.719       20.38       105.32      36.65       1.003       510.966     
72.9        21.281      152.936     3.799       3.792       7.204       5.577       6.925       4.971       537.99      628.028     2.427       38.581      3.594       2.328       5.719       20.381      105.581     39.725      1.003       495.442     
73.0        23.442      152.94      3.711       3.795       7.252       5.577       7.025       4.971       496.489     576.51      2.412       37.119      3.693       2.385       5.819       20.439      106.177     41.937      1.003       522.446     
73.1        27.669      152.927     3.663       3.66        7.252       5.577       7.025       5.071       443.212     476.209     2.395       37.298      3.6         2.393       5.819       20.562      106.291     43.249      1.003       582.46      
73.2        30.832      152.874     3.675       3.758       7.373       5.677       7.125       5.071       395.457     365.781     2.403       36.119      3.582       2.389       5.819       20.83       106.123     43.96       1.003       641.234     
73.3        31.333      151.775     3.798       3.767       7.446       5.877       7.125       5.171       368.186     303.334     2.415       34.13       3.943       2.393       5.919       21.044      104.528     44.522      1.003       629.692     
73.4        30.69       151.437     4.063       3.613       7.47        5.977       7.225       5.271       362.327     294.681     2.41        31.996      4.033       2.398       5.919       21.277      100.729     45.05       1.003       563.205     
73.5        31.333      151.443     4.318       3.463       7.398       6.077       7.225       5.371       369.644     318.934     2.413       31.486      4.011       2.389       5.919       21.514      93.026      45.693      1.003       479.235     
73.6        31.696      151.476     4.49        3.197       7.325       6.177       7.225       5.471       372.627     328.607     2.402       31.705      4.005       2.371       5.919       21.689      82.351      46.388      1.003       436.529     
73.7        31.769      151.507     4.476       3.13        7.204       6.177       7.225       5.571       362.358     311.757     2.406       32.072      3.882       2.352       6.019       21.726      70.42       47.114      1.003       424.578     
73.8        33.497      151.552     4.436       3.075       7.132       6.277       7.225       5.571       345.911     277.658     2.412       33.568      3.852       2.336       6.019       21.733      59.946      47.696      1.003       436.985     
73.9        33.574      151.555     4.401       3.294       7.18        6.477       7.225       5.671       346.739     256.997     2.405       35.303      3.569       2.312       6.019       21.677      51.471      48.094      1.003       472.425     
74.0        30.269      151.491     4.473       3.372       7.228       6.577       7.225       5.771       375.576     268.367     2.39        36.454      3.428       2.282       6.119       21.639      44.875      48.244      1.003       530.847     
74.1        26.73       151.525     4.569       3.356       7.132       6.577       7.225       5.771       419.613     314.743     2.382       36.436      3.577       2.29        6.119       21.502      39.864      48.271      1.003       581.939     
74.2        25.177      151.899     4.684       3.626       7.156       6.577       7.225       5.771       444.879     381.382     2.373       35.8        3.614       2.314       6.219       21.281      36.094      48.253      1.008       572.993     
74.3        25.293      152.702     4.764       3.86        7.204       6.577       7.225       5.771       435.209     452.27      2.372       35.64       3.623       2.319       6.319       21.05       33.379      48.141      1.008       490.353     
74.4        26.546      152.648     4.763       3.941       7.421       6.577       7.225       5.771       397.697     510.246     2.409       34.848      3.628       2.321       6.419       20.72       31.218      47.745      1.008       367.418     
74.5        27.733      152.523     4.666       3.999       7.422       6.577       7.325       5.871       354.313     541.631     2.432       33.887      3.498       2.235       6.419       20.465      29.951      47.144      1.008       259.668     
