~Version Information Section
VERS.                                         2.0:CWLS log ASCII Standart – VERSION 2.0
WRAP.                                          NO:One line per depth step
~Well Information Section
STRT.M                                        0.6:Начальная глубина
STOP.M                                      209.2:Конечная глубина
STEP.M                                          0:Шаг квантования по глубине
NULL.                                    -9999.25:Признак "Нет данных"
WELL.                                       107Мх:Скважина
~Parameter Information Section
~Curve Information Section
DEPTH.M                                          :Глубина
PS.mv                                            :PS       (ПС)
PZ.Ohm*M                                         :PZ    (КС)
RS.Ohm*M                                         :RS (Резистивиметр)
U1.mV                                            :U1
U2.mV                                            :U2
U3.mV                                            :U3
КП.%                                             :Кп
BK.Ohm*M                                         :BK     (БК)
DS.mm                                            :DS  (ДС)
GGK.g/cm3                                        :GGKp
ГК.mcr/h                                         :GK          (ГК)
GZ1.Ohm*M                                        :GZ1   ГЗ1(A0.4M0.1N)
GZ2.Ohm*M                                        :GZ2   ГЗ2(A1.0M0.1N)
GZ3.Ohm*M                                        :GZ3   ГЗ3(A2.0M0.5N)
GZ4.Ohm*M                                        :GZ4   ГЗ4(A4.0M0.5N)
GZ5.Ohm*M                                        :GZ5   ГЗ5(A8.0M0.5N)
GZR.Ohm*M                                        :GZK   ГЗK(N0.5M2.0A)
ИК.Ohm*M                                         :IK
НГК.u.e.                                         :NGK
NNKM.                                            :NNKm  (ННКм)
~ASCII LOG DATA
# ...
51.8        864.255     179.031     0.949       -9999.25    -9999.25    -9999.25    33.296      16.634      154.984     2.301       5.361       122.61      83.794      84.582      23.063      29.73       119.0       10.934      0.99        14.042      
51.9        863.752     180.159     0.949       -9999.25    -9999.25    -9999.25    30.09       20.893      155.466     2.242       5.208       123.03      83.794      85.902      23.663      30.01       119.0       11.183      1.003       13.677      
52.0        863.463     181.663     0.949       -9999.25    -9999.25    -9999.25    27.739      20.989      157.168     2.233       4.894       123.45      83.794      86.342      24.263      30.15       120.04      11.589      0.942       13.395      
52.1        863.375     185.047     0.949       -9999.25    -9999.25    -9999.25    25.004      24.889      156.455     2.261       4.714       123.45      83.274      88.982      24.983      30.29       123.16      11.976      0.925       13.44       
52.2        863.501     189.183     0.949       -9999.25    -9999.25    -9999.25    22.382      26.977      154.544     2.315       4.527       123.87      83.274      90.742      25.343      30.43       124.2       12.295      0.9         13.476      
52.3        863.828     195.199     0.949       -9999.25    -9999.25    -9999.25    19.65       25.003      154.731     2.4         4.278       124.29      82.754      93.382      26.063      30.57       125.24      12.564      0.967       14.013      
52.4        864.381     203.471     0.949       -9999.25    -9999.25    -9999.25    16.858      29.785      154.508     2.461       4.184       125.13      82.234      96.462      25.943      30.57       136.68      12.767      1.071       14.55       
52.5        865.211     214.375     0.949       -9999.25    -9999.25    -9999.25    15.189      29.923      154.828     2.501       4.487       125.55      81.714      99.102      25.823      28.61       146.04      12.862      1.218       15.583      
52.6        866.417     226.031     0.949       -9999.25    -9999.25    -9999.25    13.587      38.815      154.933     2.483       4.569       125.97      79.634      98.222      25.703      27.35       150.2       12.886      1.405       16.875      
52.7        868.027     238.439     0.949       -9999.25    -9999.25    -9999.25    12.71       143.549     154.453     2.481       4.387       126.81      79.114      96.022      25.463      26.93       150.2       12.886      1.577       18.424      
52.8        870.038     249.719     0.949       -9999.25    -9999.25    -9999.25    12.068      283.792     154.443     2.485       3.858       132.27      77.554      94.262      25.343      26.09       150.2       12.707      1.741       20.575      
52.9        872.376     257.615     0.949       -9999.25    -9999.25    -9999.25    12.395      282.488     154.375     2.501       3.584       132.69      77.034      92.502      25.103      26.09       149.16      12.505      1.839       22.322      
53.0        874.966     262.879     0.949       -9999.25    -9999.25    -9999.25    12.227      253.513     154.398     2.518       3.272       133.53      76.514      91.182      24.983      26.09       148.12      12.295      1.975       23.801      
53.1        877.757     264.383     0.949       -9999.25    -9999.25    -9999.25    12.015      240.991     154.421     2.499       3.06        133.11      76.514      91.182      24.743      26.09       146.04      12.014      2.101       24.511      
53.2        880.648     263.631     0.949       -9999.25    -9999.25    -9999.25    13.243      238.232     154.4       2.519       2.968       132.69      76.514      90.742      24.503      26.09       143.96      11.815      2.227       25.1        
53.3        883.565     260.999     0.949       -9999.25    -9999.25    -9999.25    15.538      229.087     154.411     2.511       2.936       132.27      76.514      88.542      24.143      26.09       143.96      11.672      2.297       25.536      
53.4        886.456     256.111     0.949       -9999.25    -9999.25    -9999.25    18.054      194.536     154.482     2.54        2.622       131.01      76.514      88.542      24.023      26.09       142.92      11.65       2.337       25.353      
53.5        889.323     249.343     0.949       -9999.25    -9999.25    -9999.25    18.902      142.561     154.432     2.573       2.631       129.75      76.514      87.662      23.543      26.09       140.84      11.5        2.313       25.207      
53.6        892.164     243.327     0.949       -9999.25    -9999.25    -9999.25    18.749      81.47       154.388     2.529       2.661       129.33      76.514      87.222      23.303      25.81       138.76      11.272      2.158       24.76       
53.7        895.005     237.687     0.949       -9999.25    -9999.25    -9999.25    17.664      34.674      154.337     2.442       3.01        128.07      76.514      86.782      23.063      25.81       137.72      11.163      1.944       24.313      
53.8        897.871     232.047     0.949       -9999.25    -9999.25    -9999.25    17.995      25.763      154.244     2.302       2.992       126.39      76.514      86.342      22.943      25.81       134.6       10.968      1.709       21.782      
53.9        900.788     227.535     0.949       -9999.25    -9999.25    -9999.25    22.366      33.729      154.589     2.253       3.093       125.55      76.514      85.902      22.943      25.67       132.52      10.764      1.656       19.252      
54.0        903.679     223.775     0.949       -9999.25    -9999.25    -9999.25    27.964      50.466      153.7       2.277       3.265       123.03      74.954      85.902      22.823      25.53       131.48      10.648      1.652       19.204      
54.1        906.495     220.015     0.949       -9999.25    -9999.25    -9999.25    32.919      73.451      152.985     2.361       3.488       122.61      74.434      85.462      22.703      25.39       128.36      10.598      1.699       19.144      
54.2        909.16      216.255     0.949       -9999.25    -9999.25    -9999.25    34.309      47.424      152.962     2.429       3.704       122.61      73.914      85.022      22.703      25.25       127.32      10.567      1.619       19.515      
54.3        911.675     213.247     0.949       -9999.25    -9999.25    -9999.25    35.354      23.388      153.741     2.424       4.02        122.61      73.914      85.022      22.703      24.97       126.28      10.583      1.518       19.995      
54.4        914.063     211.367     0.949       -9999.25    -9999.25    -9999.25    35.084      23.281      153.911     2.425       4.159       122.61      72.874      85.022      22.703      24.83       126.28      10.614      1.364       18.788      
54.5        916.326     210.239     0.949       -9999.25    -9999.25    -9999.25    33.162      24.547      152.893     2.384       4.091       122.61      71.314      84.582      22.703      24.69       126.28      10.665      1.21        16.617      
54.6        918.438     209.487     0.949       -9999.25    -9999.25    -9999.25    31.069      26.73       153.261     2.368       3.517       122.61      70.794      84.142      22.823      24.69       126.28      10.68       1.068       15.661      
54.7        920.475     208.735     0.949       -9999.25    -9999.25    -9999.25    30.205      25.645      153.982     2.297       3.066       122.19      69.754      84.142      22.823      24.69       127.32      10.647      0.993       15.441      
54.8        922.486     208.359     0.949       -9999.25    -9999.25    -9999.25    30.946      28.51       154.422     2.285       2.814       122.19      69.754      84.142      22.823      24.69       128.36      10.631      0.967       15.393      
54.9        924.548     207.983     0.949       -9999.25    -9999.25    -9999.25    30.281      34.834      154.693     2.293       2.731       121.77      69.754      84.582      22.823      24.69       128.36      10.549      0.981       15.603      
