~Version Information Section
VERS.                                         2.0:CWLS log ASCII Standart – VERSION 2.0
WRAP.                                          NO:One line per depth step
~Well Information Section
STRT.M                                        1.0:Начальная глубина
STOP.M                                      203.4:Конечная глубина
STEP.M                                          0:Шаг квантования по глубине
NULL.                                    -9999.25:Признак "Нет данных"
WELL.                                         3Мх:Скважина
~Parameter Information Section
~Curve Information Section
DEPTH.M                                          :Глубина
BK.Ohm*M                                         :BK
DS.mm                                            :DS  (ДС)
ГК.mcr/h                                         :GK          (ГК)
GZ1.Ohm*M                                        :GZ1   ГЗ1(A0.4M0.1N)
GZ2.Ohm*M                                        :GZ2   ГЗ2(A1.0M0.1N)
GZ3.Ohm*M                                        :GZ3   ГЗ3(A2.0M0.5N)
GZ4.Ohm*M                                        :GZ4   ГЗ4(A4.0M0.5N)
GZ5.Ohm*M                                        :GZ5   ГЗ5(A8.0M0.5N)
U2.mV                                            :U2
U3.mV                                            :U3
W.                                               :W
КП.%                                             :Кп
НГК.усл.ед                                       :ННКб
ННКМ.усл.ед                                      :ННКм
GZR.Ohm*M                                        :GZK   ГЗK(N0.5M2.0A)
ИК.Ohm*M                                         :IK
PS.mv                                            :PS       (ПС)
PZ.Ohm*M                                         :PZ    (КС)
RS.Ohm*M                                         :RS (Резистивиметр)
U1.mV                                            :U1
~ASCII LOG DATA
# ...
145.0       25.177      163.467     6.596       2.705       6.938       6.077       7.225       5.071       359.661     140.493     2.452       37.796      2.926       1.942       6.219       21.488      235.442     29.21       0.981       1122.989    
145.1       21.727      163.794     6.522       2.806       7.059       6.177       7.225       5.071       339.114     143.239     2.464       37.938      3.093       2.006       6.219       21.048      234.745     29.262      0.981       1103.659    
145.2       19.275      164.266     6.305       2.889       7.108       6.177       7.225       5.171       323.63      183.649     2.481       38.07       3.093       2.069       6.219       20.555      234.012     29.28       0.981       913.11      
145.3       20.091      164.581     6.128       3.082       7.108       6.177       7.225       5.271       327.023     258.816     2.495       38.059      3.298       2.137       6.019       20.087      232.888     29.063      0.981       651.381     
145.4       23.55       163.602     6.085       3.242       7.253       6.177       7.225       5.271       353.184     345.301     2.498       36.782      3.298       2.205       6.019       19.764      232.41      28.623      0.981       458.749     
145.5       23.442      165.097     6.256       3.092       7.301       6.177       7.225       5.271       385.339     410.036     2.481       35.516      3.098       2.07        6.019       19.494      231.981     28.079      0.981       382.545     
145.6       25.645      165.866     6.45        2.937       7.349       6.177       7.225       5.371       396.627     420.87      2.456       36.178      3.098       1.935       6.019       19.292      231.634     27.531      0.985       378.536     
145.7       36.058      166.083     6.523       2.763       7.277       6.177       7.225       5.371       395.055     387.687     2.441       38.66       2.785       1.93        6.019       19.269      230.75      26.901      0.985       418.286     
145.8       27.733      166.87      6.461       2.512       7.204       6.177       7.225       5.371       409.956     348.075     2.435       41.267      2.707       1.925       6.019       19.35       229.869     26.301      0.985       506.873     
145.9       22.233      167.204     6.423       2.299       7.059       6.277       7.225       5.371       448.382     329.217     2.432       41.945      2.721       1.934       6.019       19.412      229.883     25.925      0.985       627.28      
146.0       20.989      166.262     6.428       2.198       6.963       6.277       7.225       5.371       482.093     327.185     2.431       41.901      2.721       1.945       6.019       19.412      230.876     25.893      0.985       715.313     
146.1       20.749      166.544     6.467       2.164       6.89        6.277       7.225       5.371       499.01      339.053     2.435       41.69       2.755       1.949       6.019       19.229      232.192     26.124      0.985       739.928     
146.2       21.528      166.885     6.42        2.212       6.866       6.277       7.225       5.371       524.014     380.913     2.428       39.454      2.763       1.954       6.019       19.07       232.626     26.482      0.985       734.107     
146.3       22.439      166.696     6.516       2.271       6.866       6.277       7.225       5.371       568.308     449.018     2.405       37.012      2.945       1.916       6.019       18.837      232.27      26.845      0.985       732.819     
146.4       22.856      167.614     6.768       2.318       6.89        6.077       7.225       5.371       595.346     500.304     2.392       37.164      2.982       1.87        6.019       18.857      231.815     27.15       0.985       715.811     
146.5       24.155      167.735     7.12        2.318       6.842       5.877       7.225       5.371       574.567     499.811     2.399       40.083      2.647       1.874       6.019       18.816      231.435     27.245      0.985       663.091     
146.6       23.878      167.667     7.28        2.236       6.818       5.777       7.325       5.371       541.001     471.552     2.402       43.161      2.563       1.89        6.019       18.837      230.928     27.199      0.985       622.95      
146.7       20.701      166.959     7.165       2.333       6.866       5.777       7.325       5.371       553.883     469.353     2.402       43.634      2.667       1.921       6.019       18.953      230.369     27.028      0.985       657.077     
146.8       19.588      165.494     6.978       2.449       6.914       5.777       7.325       5.371       628.308     516.646     2.411       42.579      2.693       1.957       6.019       18.914      230.336     26.935      0.985       766.468     
146.9       19.364      165.347     6.812       2.536       6.939       5.777       7.325       5.371       705.366     581.575     2.431       41.257      2.827       1.974       6.019       18.894      230.956     26.958      0.985       858.656     
147.0       19.999      165.217     6.805       2.527       6.938       5.777       7.325       5.371       723.727     620.899     2.426       39.866      2.917       1.992       6.019       18.798      231.681     27.182      0.985       854.61      
147.1       22.699      165.492     6.761       2.415       6.89        5.777       7.325       5.371       652.14      604.068     2.399       39.018      2.861       1.973       6.019       18.798      231.992     27.573      0.985       727.122     
147.2       23.933      165.717     6.692       2.376       6.866       5.777       7.325       5.271       519.538     537.105     2.37        38.773      2.847       1.932       6.019       18.801      231.851     28.161      0.985       531.292     
147.3       24.044      165.353     6.523       2.445       6.842       5.777       7.325       5.271       381.239     446.092     2.351       38.726      2.878       1.931       6.019       19.01       231.359     28.911      0.985       348.975     
147.4       23.768      165.689     6.369       2.56        6.914       5.777       7.325       5.271       289.896     365.265     2.345       39.08       2.898       1.958       6.019       19.21       230.957     29.709      0.985       247.827     
147.5       23.659      165.936     6.157       2.657       6.963       5.777       7.225       5.271       265.506     313.18      2.355       39.418      2.957       1.997       6.019       19.391      230.658     30.415      0.985       250.998     
147.6       24.266      165.221     5.949       2.643       6.987       5.877       7.225       5.271       288.985     288.166     2.393       39.631      2.996       2.044       6.019       19.597      231.005     30.807      0.99        325.366     
147.7       24.099      164.422     5.738       2.536       6.963       5.877       7.225       5.271       331.177     280.224     2.423       39.642      3.103       2.097       6.019       19.744      231.675     30.894      0.99        422.392     
147.8       23.714      164.731     5.695       2.464       6.938       5.977       7.225       5.271       366.571     284.844     2.47        38.471      3.21        2.165       6.019       19.764      232.808     30.486      0.99        490.153     
147.9       24.831      163.045     5.787       2.454       6.963       5.977       7.125       5.271       392.867     309.438     2.506       36.685      3.383       2.195       6.019       19.764      233.308     29.777      0.99        513.546     
148.0       26.73       162.825     6.028       2.488       7.059       5.977       7.125       5.371       422.142     362.908     2.512       35.176      3.498       2.189       6.019       19.744      232.831     28.882      0.99        509.666     
148.1       27.99       163.471     6.259       2.357       7.011       5.977       7.025       5.371       469.816     438.085     2.493       34.923      3.278       2.131       6.019       19.786      231.492     28.222      0.99        522.258     
