~Version Information Section
VERS.                                         2.0:CWLS log ASCII Standart – VERSION 2.0
WRAP.                                          NO:One line per depth step
~Well Information Section
STRT.M                                        0.4:Начальная глубина
STOP.M                                      190.1:Конечная глубина
STEP.M                                          0:Шаг квантования по глубине
NULL.                                    -9999.25:Признак "Нет данных"
WELL.                                       135Мх:Скважина
~Parameter Information Section
~Curve Information Section
DEPTH.M                                          :Глубина
DS.mm                                            :DS  (ДС)
GGK.g/cm3                                        :GGKp
ГК.mcr/h                                         :GK          (ГК)
GZ1.Ohm*M                                        :GZ1   ГЗ1(A0.4M0.1N)
GZ2.Ohm*M                                        :GZ2   ГЗ2(A1.0M0.1N)
GZ3.Ohm*M                                        :GZ3   ГЗ3(A2.0M0.5N)
GZ4.Ohm*M                                        :GZ4   ГЗ4(A4.0M0.5N)
GZ5.Ohm*M                                        :GZ5   ГЗ5(A8.0M0.5N)
GZR.Ohm*M                                        :GZK   ГЗK(N0.5M2.0A)
ИК.Ohm*M                                         :IK
НГК.ue                                           :NGK     (НГК)
NNKM.                                            :NNKm  (ННКм)
PS.mv                                            :PS       (ПС)
PZ.Ohm*M                                         :PZ    (КС)
RS.Ohm*M                                         :RS (Резистивиметр)
U1.mV                                            :U1
U2.mV                                            :U2
U3.mV                                            :U3
BK.Ohm*M                                         :БК
ПОРИСТОСТЬ.                                      :Пористость ННК
~ASCII LOG DATA
# ...
118.8       131.686     2.194       5.528       79.776      67.704      45.336      51.415      22.653      58.494      32.417      1.671       2.402       440.855     17.1        1.32        216.0       149.333     196.0       32.977      30.364      
118.9       131.686     2.201       5.638       79.262      69.187      49.572      53.008      23.916      57.895      32.322      1.633       2.408       439.231     17.364      1.32        216.0       157.333     196.0       33.892      30.54       
119.0       131.754     2.224       5.693       78.91       71.088      55.027      54.781      25.179      56.366      32.207      1.618       2.438       437.659     18.072      1.32        216.0       160.0       196.0       36.438      30.223      
119.1       131.825     2.244       5.438       78.71       72.828      61.666      56.718      31.842      54.459      32.102      1.672       2.468       436.217     18.528      1.32        218.667     157.333     196.0       40.406      28.767      
119.2       131.843     2.256       5.073       78.576      73.434      68.871      57.927      36.562      52.819      31.996      1.678       2.541       434.985     18.936      1.32        221.333     154.667     201.333     44.945      27.99       
119.3       131.843     2.264       5.102       78.499      72.36       74.619      57.631      39.85       51.69       31.911      1.684       2.54        434.03      19.164      1.32        224.0       146.667     206.667     44.284      27.627      
119.4       131.934     2.302       5.405       78.482      69.282      76.941      55.889      41.631      50.519      31.833      1.712       2.522       433.359     19.2        1.32        224.0       141.333     212.0       40.741      26.926      
119.5       131.849     2.341       5.799       78.482      64.516      75.77       52.97       42.411      48.701      31.753      1.768       2.539       432.991     19.536      1.32        224.0       138.667     212.0       30.121      26.456      
119.6       131.796     2.357       5.874       78.608      59.363      72.111      49.782      42.68       46.027      31.625      1.757       2.57        432.853     19.764      1.32        224.0       141.333     212.0       27.285      26.276      
119.7       131.793     2.349       5.894       79.118      55.049      67.234      47.181      42.267      42.682      31.472      1.674       2.557       432.84      19.8        1.32        226.667     144.0       212.0       36.591      26.932      
119.8       131.846     2.327       6.077       79.713      52.116      62.678      44.501      41.197      38.652      31.287      1.613       2.499       432.944     19.8        1.32        237.725     144.0       209.333     55.366      28.034      
119.9       131.846     2.307       6.237       80.033      50.605      59.352      40.793      40.009      33.585      31.065      1.589       2.411       433.115     20.808      1.32        244.827     146.667     204.0       29.465      28.793      
120.0       131.858     2.29        6.221       79.967      50.151      57.312      36.033      38.57       27.473      30.823      1.573       2.344       433.265     21.492      1.32        249.264     149.333     198.667     25.085      29.652      
120.1       131.873     2.291       6.269       78.942      50.116      56.302      30.635      36.688      21.008      30.607      1.526       2.31        433.331     21.936      1.32        234.015     152.0       190.667     25.416      29.932      
120.2       131.873     2.296       6.253       76.926      50.143      55.877      24.87       35.001      15.278      30.413      1.495       2.296       433.286     22.5        1.32        222.723     149.333     182.667     26.111      29.96       
120.3       131.938     2.298       6.323       74.331      50.178      55.542      20.0        33.509      11.136      30.211      1.487       2.3         433.076     23.772      1.32        192.443     144.0       152.611     24.471      29.901      
120.4       131.963     2.296       6.299       71.444      50.195      55.106      18.337      32.436      8.824       29.999      1.487       2.324       432.606     24.492      1.32        173.457     136.0       127.888     22.378      29.993      
120.5       131.923     2.286       6.341       68.822      50.238      54.593      16.675      32.163      7.772       29.803      1.542       2.349       431.866     24.6        1.32        148.881     128.0       101.519     23.361      30.189      
120.6       131.786     2.274       6.338       66.863      50.272      54.076      15.012      32.163      7.366       29.651      1.594       2.372       430.754     24.6        1.32        143.291     102.486     97.205      18.768      30.24       
120.7       131.64      2.265       6.272       65.476      50.43       53.674      13.349      32.329      7.293       29.574      1.612       2.383       429.18      24.6        1.32        137.873     79.983      93.192      20.371      30.385      
120.8       131.555     2.254       6.124       64.44       50.868      53.443      11.686      32.72       7.491       29.565      1.582       2.371       427.247     24.6        1.32        138.045     60.145      93.492      21.131      30.99       
120.9       131.394     2.245       6.456       63.679      51.455      53.353      10.024      33.111      8.096       29.565      1.557       2.346       425.059     24.6        1.32        138.409     60.873      93.978      20.393      31.489      
121.0       131.389     2.24        6.828       63.179      51.969      53.337      10.33       33.324      9.405       29.587      1.537       2.325       422.633     24.6        1.32        137.212     59.02       93.082      19.712      32.087      
121.1       131.389     2.23        7.039       62.993      52.205      53.349      10.635      33.245      11.899      29.67       1.542       2.322       420.039     24.6        1.32        135.929     56.995      92.035      19.081      31.572      
121.2       131.493     2.216       6.971       62.994      52.183      53.432      10.941      33.123      15.488      29.785      1.614       2.312       417.369     24.6        1.32        134.454     54.584      90.803      26.319      30.905      
121.3       131.517     2.214       6.623       63.104      51.978      53.66       11.247      32.977      19.841      29.897      1.713       2.316       414.708     24.264      1.32        134.549     56.134      90.809      28.824      29.92       
121.4       131.574     2.219       6.532       63.176      51.388      54.067      12.187      32.832      24.726      29.98       1.773       2.349       412.146     24.036      1.32        135.32      59.035      91.999      31.128      29.549      
121.5       131.555     2.223       6.484       62.944      50.386      54.662      13.126      32.697      29.365      30.046      1.765       2.375       409.766     24.0        1.32        143.096     69.482      101.012     29.242      29.753      
121.6       131.534     2.23        6.402       62.497      49.256      55.363      14.066      32.669      33.151      30.128      1.786       2.42        407.51      24.0        1.32        156.689     90.205      120.365     29.245      29.763      
121.7       131.487     2.242       6.342       62.02       48.273      56.041      15.006      32.669      36.128      30.254      1.789       2.472       405.411     24.336      1.32        170.59      117.735     144.052     31.731      29.646      
121.8       131.465     2.257       6.109       61.784      47.766      56.706      15.946      32.91       38.462      30.396      1.748       2.478       403.567     24.9        1.32        177.511     137.767     162.467     36.209      29.61       
121.9       131.343     2.27        5.854       61.448      47.658      57.381      16.885      33.788      40.85       30.538      1.671       2.468       401.937     25.836      1.32        175.949     140.835     166.038     34.934      29.817      
