~Version Information Section
VERS.                                         2.0:CWLS log ASCII Standart – VERSION 2.0
WRAP.                                          NO:One line per depth step
~Well Information Section
STRT.M                                        0.6:Начальная глубина
STOP.M                                      208.2:Конечная глубина
STEP.M                                          0:Шаг квантования по глубине
NULL.                                    -9999.25:Признак "Нет данных"
WELL.                                       156Мх:Скважина
~Parameter Information Section
~Curve Information Section
DEPTH.M                                          :Глубина
БК.Ом                                            :BK     (БК)
DСР.мм                                           :DS  (ДС)
ПЛОТНОСТЬ.г/см^3                                 :GGKp
ГК.мкР/час                                       :GK          (ГК)
А0.4М0.1N.Ом                                     :GZ1   ГЗ1(A0.4M0.1N)
А1.0М0.1N.Ом                                     :GZ2   ГЗ2(A1.0M0.1N)
А2.0М0.5N.Ом                                     :GZ3   ГЗ3(A2.0M0.5N)
А4.0М0.5N.Oм                                     :GZ4   ГЗ4(A4.0M0.5N)
А8.0М1.0N.Ом                                     :GZ5   ГЗ5(A8.0M0.5N)
N0.5M2.0A.Ом                                     :GZR   ГЗK(N0.5M2.0A)
ИК.мСм/м                                         :IK
НГК.усл.ед                                       :NGK     (НГК)
ННКМ.усл.ед                                      :NNKm  (ННКм)
ПС.mv                                            :PS       (ПС)
N11.0M0.5A.Ом                                    :PZ    (КС)
РЕЗИСТИВИМЕТР.Ом                                 :RS (Резистивиметр)
КПSIO.%                                          :W
~ASCII LOG DATA
# ...
11.7        -9999.25    157.94      2.018       6.003       -9999.25    -9999.25    -9999.25    14.796      -9999.25    24.399      -9999.25    1.042       1.03        11.513      -9999.25    1.31        34.61       
11.8        -9999.25    158.735     2.009       6.232       -9999.25    -9999.25    -9999.25    13.414      -9999.25    20.197      -9999.25    1.028       1.005       11.248      -9999.25    1.31        35.315      
11.9        -9999.25    159.829     2.009       6.565       -9999.25    -9999.25    -9999.25    12.568      -9999.25    16.361      -9999.25    1.003       0.975       10.982      -9999.25    1.31        36.096      
12.0        -9999.25    161.882     2.017       7.088       -9999.25    -9999.25    -9999.25    11.889      -9999.25    13.639      -9999.25    0.979       0.946       10.716      -9999.25    1.31        36.857      
12.1        -9999.25    162.256     2.025       7.438       -9999.25    -9999.25    -9999.25    11.212      -9999.25    12.257      -9999.25    0.961       0.921       10.45       -9999.25    1.31        37.315      
12.2        -9999.25    162.305     2.03        7.668       -9999.25    -9999.25    -9999.25    10.606      -9999.25    11.858      -9999.25    0.946       0.919       10.185      -9999.25    1.31        37.766      
12.3        -9999.25    169.559     2.028       7.823       -9999.25    -9999.25    -9999.25    10.304      -9999.25    11.899      -9999.25    0.945       0.922       8.159       -9999.25    1.31        38.205      
12.4        -9999.25    168.406     2.02        7.785       -9999.25    -9999.25    -9999.25    10.556      -9999.25    12.061      -9999.25    0.96        0.924       7.993       -9999.25    1.31        38.515      
12.5        -9999.25    165.983     2.006       7.634       -9999.25    -9999.25    -9999.25    11.502      -9999.25    12.321      -9999.25    0.972       0.92        7.826       -9999.25    1.31        38.851      
12.6        -9999.25    167.401     1.992       7.822       -9999.25    -9999.25    -9999.25    13.203      -9999.25    12.874      -9999.25    0.98        0.914       7.66        -9999.25    1.31        39.139      
12.7        -9999.25    173.836     1.982       7.989       -9999.25    -9999.25    -9999.25    15.729      -9999.25    14.099      -9999.25    0.993       0.899       7.494       -9999.25    1.31        39.051      
12.8        -9999.25    170.099     1.976       8.137       -9999.25    -9999.25    -9999.25    19.055      -9999.25    16.423      -9999.25    1.01        0.873       7.328       -9999.25    1.31        38.697      
12.9        -9999.25    174.263     1.975       8.366       -9999.25    -9999.25    -9999.25    23.176      -9999.25    20.025      -9999.25    1.028       0.882       7.162       -9999.25    1.31        37.819      
13.0        -9999.25    175.811     1.981       8.447       -9999.25    -9999.25    -9999.25    27.666      -9999.25    24.65       -9999.25    1.044       0.893       6.996       -9999.25    1.31        36.511      
13.1        -9999.25    174.274     1.992       8.184       24.847      -9999.25    -9999.25    31.78       -9999.25    29.845      -9999.25    1.062       0.91        6.83        -9999.25    1.31        35.117      
13.2        -9999.25    172.982     2.009       7.779       29.806      -9999.25    -9999.25    35.032      -9999.25    34.898      -9999.25    1.079       0.942       6.664       -9999.25    1.31        33.741      
13.3        -9999.25    174.798     2.03        7.041       33.751      -9999.25    -9999.25    37.388      -9999.25    39.326      -9999.25    1.09        0.998       6.498       -9999.25    1.31        32.494      
13.4        -9999.25    173.615     2.058       6.275       36.292      -9999.25    -9999.25    39.067      -9999.25    42.937      -9999.25    1.09        1.046       6.332       -9999.25    1.31        31.672      
13.5        -9999.25    168.346     2.09        5.428       38.864      -9999.25    -9999.25    39.777      -9999.25    45.657      -9999.25    1.084       1.089       6.178       31.513      1.31        31.245      
13.6        -9999.25    158.779     2.121       4.614       43.446      -9999.25    -9999.25    38.997      -9999.25    47.478      -9999.25    1.063       1.124       6.025       33.653      1.31        31.242      
13.7        -9999.25    156.126     2.148       4.121       49.409      31.801      -9999.25    36.57       -9999.25    48.335      -9999.25    1.02        1.147       5.872       35.779      1.31        31.596      
13.8        -9999.25    156.384     2.167       4.013       50.961      33.182      -9999.25    32.807      -9999.25    48.541      -9999.25    0.973       1.156       5.719       37.837      1.31        32.135      
13.9        -9999.25    157.272     2.175       3.866       46.01       29.892      -9999.25    28.199      -9999.25    48.183      -9999.25    0.942       1.149       5.565       39.67       1.31        32.752      
14.0        -9999.25    159.162     2.172       3.7         38.422      25.077      -9999.25    23.278      -9999.25    46.69       -9999.25    0.93        1.149       5.412       40.607      1.31        33.34       
14.1        -9999.25    159.836     2.161       3.684       33.394      22.925      -9999.25    19.017      -9999.25    43.461      -9999.25    0.928       1.163       5.259       39.915      1.31        33.857      
14.2        -9999.25    160.492     2.149       3.669       31.361      23.649      -9999.25    16.235      -9999.25    38.89       -9999.25    0.933       1.164       5.105       38.248      1.31        34.309      
14.3        -9999.25    161.572     2.137       3.744       28.866      23.927      -9999.25    14.877      -9999.25    34.044      -9999.25    0.935       1.165       4.952       37.163      1.31        34.763      
14.4        -9999.25    165.518     2.13        3.912       25.523      22.954      -9999.25    14.161      -9999.25    29.84       -9999.25    0.93        1.15        4.799       37.247      1.31        35.059      
14.5        -9999.25    164.61      2.127       4.301       23.215      22.173      -9999.25    13.519      -9999.25    26.942      -9999.25    0.916       1.117       4.645       37.718      1.31        35.136      
14.6        -9999.25    157.281     2.128       4.671       22.332      21.837      -9999.25    13.186      5.911       25.556      -9999.25    0.909       1.087       4.492       37.508      1.31        35.027      
14.7        -9999.25    157.169     2.129       4.961       21.535      21.17       -9999.25    13.539      6.159       25.138      -9999.25    0.912       1.073       4.339       36.508      1.31        34.86       
14.8        -9999.25    159.07      2.13        5.163       20.656      20.855      -9999.25    14.647      6.46        24.427      -9999.25    0.921       1.049       4.185       35.373      1.31        34.67       
14.9        -9999.25    163.02      2.132       5.341       21.019      22.654      13.869      16.182      6.936       22.739      -9999.25    0.938       1.041       4.032       34.636      1.31        34.734      
15.0        -9999.25    161.989     2.133       5.436       23.465      26.703      16.075      17.663      7.655       20.546      -9999.25    0.953       1.057       3.879       34.441      1.31        34.76       
15.1        -9999.25    158.669     2.133       5.455       26.203      29.888      18.511      18.735      8.499       18.522      -9999.25    0.968       1.046       3.726       34.641      1.31        34.701      
15.2        -9999.25    157.763     2.135       5.382       26.659      29.131      20.801      19.211      9.304       17.105      -9999.25    0.978       1.03        3.572       34.973      1.31        34.647      
15.3        -9999.25    161.357     2.136       5.229       25.486      25.948      22.463      18.964      9.972       16.163      -9999.25    0.976       1.026       3.419       35.14       1.31        34.497      
