~Version Information Section
VERS.                                         2.0:CWLS log ASCII Standart – VERSION 2.0
WRAP.                                          NO:One line per depth step
~Well Information Section
STRT.M                                       0.67:Начальная глубина
STOP.M                                     204.27:Конечная глубина
STEP.M                                          0:Шаг квантования по глубине
NULL.                                    -9999.25:Признак "Нет данных"
WELL.                                       110Мх:Скважина
~Parameter Information Section
~Curve Information Section
DEPTH.M                                          :Глубина
БК.Омм                                           :BK     (БК)
DСР.мм                                           :DS  (ДС)
ГК.гамма                                         :GK          (ГК)
А0.4М0.1N.Омм.ohmm                               :GZ1   ГЗ1(A0.4M0.1N)
А1.0М0.1N.Омм.ohmm                               :GZ2   ГЗ2(A1.0M0.1N)
А2.0М0.5N.Омм.ohmm                               :GZ3   ГЗ3(A2.0M0.5N)
А4.0М0.5N.Oмм.ohmm                               :GZ4   ГЗ4(A4.0M0.5N)
А8.0М1.0N.Омм.ohmm                               :GZ5   ГЗ5(A8.0M0.5N)
N0.5M2.0A.Омм.ohmm                               :GZK   ГЗK(N0.5M2.0A)
ИК.мСм/м                                         :IK
НГК.усл.ед                                       :NGK     (НГК)
ПС.mv                                            :PS       (ПС)
КС.Омм                                           :PZ    (КС)
R.Омм                                            :RS (Резистивиметр)
W_SI.%                                           :п
ННКМ.имп/1,25с                                   :ННКм
ПЛОТНОСТЬГГК.г/см3                               :плотностьГГК
~ASCII LOG DATA
# ...
187.07      107.603     121.674     5.191       -9999.25    -9999.25    -9999.25    -9999.25    -9999.25    -9999.25    46.157      1.674       335.66      251.266     1.033       22.482      2.097       2.339       
187.1       -9999.25    -9999.25    -9999.25    301.275     177.911     152.869     125.543     137.311     49.917      -9999.25    -9999.25    -9999.25    -9999.25    -9999.25    -9999.25    -9999.25    -9999.25    
187.17      97.72       121.702     4.96        -9999.25    -9999.25    -9999.25    -9999.25    -9999.25    -9999.25    44.819      1.653       336.64      242.4       1.027       22.074      2.142       2.341       
187.2       -9999.25    -9999.25    -9999.25    282.159     161.944     144.089     127.74      133.651     44.147      -9999.25    -9999.25    -9999.25    -9999.25    -9999.25    -9999.25    -9999.25    -9999.25    
187.27      86.154      121.501     4.843       -9999.25    -9999.25    -9999.25    -9999.25    -9999.25    -9999.25    42.992      1.606       337.617     233.836     0.995       21.687      2.144       2.342       
187.3       -9999.25    -9999.25    -9999.25    264.965     150.411     135.892     127.987     126.035     41.297      -9999.25    -9999.25    -9999.25    -9999.25    -9999.25    -9999.25    -9999.25    -9999.25    
187.37      89.264      121.277     5.074       -9999.25    -9999.25    -9999.25    -9999.25    -9999.25    -9999.25    41.059      1.59        338.787     221.91      0.966       21.322      2.135       2.344       
187.4       -9999.25    -9999.25    -9999.25    264.869     149.778     131.651     127.444     121.985     41.632      -9999.25    -9999.25    -9999.25    -9999.25    -9999.25    -9999.25    -9999.25    -9999.25    
187.47      125.162     121.121     5.446       -9999.25    -9999.25    -9999.25    -9999.25    -9999.25    -9999.25    38.827      1.614       340.33      212.31      0.96        21.286      2.155       2.349       
187.5       -9999.25    -9999.25    -9999.25    276.763     153.922     131.914     129.716     122.909     41.873      -9999.25    -9999.25    -9999.25    -9999.25    -9999.25    -9999.25    -9999.25    -9999.25    
187.57      151.291     120.85      5.662       -9999.25    -9999.25    -9999.25    -9999.25    -9999.25    -9999.25    36.086      1.655       342.417     207.676     0.96        21.524      2.172       2.354       
187.6       -9999.25    -9999.25    -9999.25    284.69      154.569     134.47      135.529     127.219     42.161      -9999.25    -9999.25    -9999.25    -9999.25    -9999.25    -9999.25    -9999.25    -9999.25    
187.67      169.063     120.291     5.477       -9999.25    -9999.25    -9999.25    -9999.25    -9999.25    -9999.25    33.863      1.663       345.212     203.091     0.96        21.411      2.129       2.361       
187.7       -9999.25    -9999.25    -9999.25    281.425     156.148     143.408     138.609     132.249     43.275      -9999.25    -9999.25    -9999.25    -9999.25    -9999.25    -9999.25    -9999.25    -9999.25    
187.77      180.942     121.07      5.236       -9999.25    -9999.25    -9999.25    -9999.25    -9999.25    -9999.25    32.401      1.649       348.749     200.6       0.96        20.923      2.117       2.371       
187.8       -9999.25    -9999.25    -9999.25    293.945     168.392     160.014     129.601     128.968     48.778      -9999.25    -9999.25    -9999.25    -9999.25    -9999.25    -9999.25    -9999.25    -9999.25    
187.87      182.919     121.818     5.181       -9999.25    -9999.25    -9999.25    -9999.25    -9999.25    -9999.25    30.66       1.656       352.846     201.684     0.96        20.398      2.194       2.384       
187.9       -9999.25    -9999.25    -9999.25    328.324     183.008     178.0       107.868     122.321     62.694      -9999.25    -9999.25    -9999.25    -9999.25    -9999.25    -9999.25    -9999.25    -9999.25    
187.97      200.555     122.486     5.316       -9999.25    -9999.25    -9999.25    -9999.25    -9999.25    -9999.25    28.746      1.706       357.182     202.368     0.96        19.808      2.229       2.4         
188.0       -9999.25    -9999.25    -9999.25    367.462     207.93      182.515     83.401      116.702     73.731      -9999.25    -9999.25    -9999.25    -9999.25    -9999.25    -9999.25    -9999.25    -9999.25    
188.07      224.392     122.81      5.575       -9999.25    -9999.25    -9999.25    -9999.25    -9999.25    -9999.25    27.247      1.764       361.408     200.951     0.96        19.603      2.245       2.419       
188.1       -9999.25    -9999.25    -9999.25    414.234     236.689     162.988     70.671      110.687     71.349      -9999.25    -9999.25    -9999.25    -9999.25    -9999.25    -9999.25    -9999.25    -9999.25    
188.17      238.706     123.074     5.72        -9999.25    -9999.25    -9999.25    -9999.25    -9999.25    -9999.25    25.831      1.791       365.108     199.389     0.96        19.585      2.284       2.441       
188.2       -9999.25    -9999.25    -9999.25    341.846     197.672     138.726     71.536      100.471     59.66       -9999.25    -9999.25    -9999.25    -9999.25    -9999.25    -9999.25    -9999.25    -9999.25    
188.27      235.608     123.279     5.534       -9999.25    -9999.25    -9999.25    -9999.25    -9999.25    -9999.25    24.302      1.773       367.746     195.397     0.96        19.585      2.334       2.464       
188.3       -9999.25    -9999.25    -9999.25    153.625     112.834     105.127     70.374      87.566      42.616      -9999.25    -9999.25    -9999.25    -9999.25    -9999.25    -9999.25    -9999.25    -9999.25    
188.37      151.417     123.426     5.255       -9999.25    -9999.25    -9999.25    -9999.25    -9999.25    -9999.25    22.738      1.733       368.868     184.395     0.96        19.64       2.345       2.489       
188.4       -9999.25    -9999.25    -9999.25    57.608      61.963      61.298      57.883      76.217      27.981      -9999.25    -9999.25    -9999.25    -9999.25    -9999.25    -9999.25    -9999.25    -9999.25    
188.47      51.543      124.654     5.667       -9999.25    -9999.25    -9999.25    -9999.25    -9999.25    -9999.25    21.474      1.69        368.348     141.175     0.959       20.251      2.339       2.508       
188.5       -9999.25    -9999.25    -9999.25    46.996      42.626      36.18       38.626      62.039      21.576      -9999.25    -9999.25    -9999.25    -9999.25    -9999.25    -9999.25    -9999.25    -9999.25    
188.57      19.622      127.319     6.353       -9999.25    -9999.25    -9999.25    -9999.25    -9999.25    -9999.25    20.412      1.604       366.258     85.276      0.958       21.191      2.194       2.517       
188.6       -9999.25    -9999.25    -9999.25    39.287      32.583      28.133      24.862      46.175      21.677      -9999.25    -9999.25    -9999.25    -9999.25    -9999.25    -9999.25    -9999.25    -9999.25    
188.67      17.116      127.76      7.407       -9999.25    -9999.25    -9999.25    -9999.25    -9999.25    -9999.25    19.558      1.496       362.861     53.612      0.967       22.172      2.005       2.522       
188.7       -9999.25    -9999.25    -9999.25    30.753      27.542      23.593      19.968      28.947      23.693      -9999.25    -9999.25    -9999.25    -9999.25    -9999.25    -9999.25    -9999.25    -9999.25    
188.77      16.129      124.719     7.876       -9999.25    -9999.25    -9999.25    -9999.25    -9999.25    -9999.25    19.038      1.356       358.729     37.378      0.975       23.321      1.778       2.523       
188.8       -9999.25    -9999.25    -9999.25    27.164      27.663      20.939      19.461      27.655      24.601      -9999.25    -9999.25    -9999.25    -9999.25    -9999.25    -9999.25    -9999.25    -9999.25    
188.87      15.305      123.832     8.6         -9999.25    -9999.25    -9999.25    -9999.25    -9999.25    -9999.25    18.742      1.256       354.566     31.595      0.989       24.63       1.704       2.519       
