~Version Information Section
VERS.                                         2.0:CWLS log ASCII Standart – VERSION 2.0
WRAP.                                          NO:One line per depth step
~Well Information Section
STRT.M                                       -2.2:Начальная глубина
STOP.M                                      205.6:Конечная глубина
STEP.M                                          0:Шаг квантования по глубине
NULL.                                    -9999.25:Признак "Нет данных"
WELL.                                       108Мх:Скважина
~Parameter Information Section
~Curve Information Section
DEPTH.M                                          :Глубина
BK.Ohm*M                                         :BK     (БК)
DS.mm                                            :DS  (ДС)
GGK.g/cm3                                        :GGKp
ГК.mcr/h                                         :GK          (ГК)
GZ1.Ohm*M                                        :GZ1   ГЗ1(A0.4M0.1N)
GZ2.Ohm*M                                        :GZ2   ГЗ2(A1.0M0.1N)
GZ3.Ohm*M                                        :GZ3   ГЗ3(A2.0M0.5N)
GZ4.Ohm*M                                        :GZ4   ГЗ4(A4.0M0.5N)
GZ5.Ohm*M                                        :GZ5   ГЗ5(A8.0M0.5N)
GZR.Ohm*M                                        :GZK   ГЗK(N0.5M2.0A)
ИК.Ohm*M                                         :IK
НГК.ue                                           :NGK     (НГК)
NNKM.                                            :NNKm  (ННКм)
PS.mv                                            :PS       (ПС)
PZ.Ohm*M                                         :PZ    (КС)
RS.Ohm*M                                         :RS (Резистивиметр)
U1.mV                                            :U1
U2.mV                                            :U2
U3.mV                                            :U3
КП.%                                             :Кп
~ASCII LOG DATA
# ...
19.8        -9999.25    100.06      -9999.25    -9999.25    132.785     8.381       60.292      603.477     10.418      723.765     -9999.25    -9999.25    -9999.25    1291.731    34.642      11.022      162.189     248.446     117.189     -9999.25    
19.83       73910.781   -9999.25    1.861       4.13        -9999.25    -9999.25    -9999.25    -9999.25    -9999.25    -9999.25    28.787      3.349       2.64        -9999.25    -9999.25    -9999.25    -9999.25    -9999.25    -9999.25    10.608      
19.9        -9999.25    100.112     -9999.25    -9999.25    132.785     8.381       60.292      603.477     10.418      723.765     -9999.25    -9999.25    -9999.25    1296.217    32.634      11.022      162.189     257.286     117.189     -9999.25    
19.93       733.935     -9999.25    1.856       4.66        -9999.25    -9999.25    -9999.25    -9999.25    -9999.25    -9999.25    28.582      3.27        2.665       -9999.25    -9999.25    -9999.25    -9999.25    -9999.25    -9999.25    10.706      
20.0        -9999.25    100.081     -9999.25    -9999.25    132.785     8.381       60.292      603.477     10.418      723.765     -9999.25    -9999.25    -9999.25    1300.229    30.128      11.022      162.189     266.126     117.189     -9999.25    
20.03       2663.565    -9999.25    1.822       5.109       -9999.25    -9999.25    -9999.25    -9999.25    -9999.25    -9999.25    28.685      3.243       2.667       -9999.25    -9999.25    -9999.25    -9999.25    -9999.25    -9999.25    10.862      
20.1        -9999.25    100.136     -9999.25    -9999.25    132.785     8.381       60.292      603.477     10.418      723.765     -9999.25    -9999.25    -9999.25    1302.499    27.104      11.022      162.189     274.966     117.189     -9999.25    
20.13       5220.931    -9999.25    1.795       5.204       -9999.25    -9999.25    -9999.25    -9999.25    -9999.25    -9999.25    28.647      3.307       2.622       -9999.25    -9999.25    -9999.25    -9999.25    -9999.25    -9999.25    11.387      
20.2        -9999.25    100.126     -9999.25    -9999.25    132.785     8.381       60.292      603.477     10.418      723.765     -9999.25    -9999.25    -9999.25    1304.029    24.07       11.022      162.189     283.806     117.189     -9999.25    
20.23       2665.216    -9999.25    1.778       5.019       -9999.25    -9999.25    -9999.25    -9999.25    -9999.25    -9999.25    28.819      3.379       2.592       -9999.25    -9999.25    -9999.25    -9999.25    -9999.25    -9999.25    11.99       
20.3        -9999.25    100.145     -9999.25    -9999.25    132.785     8.381       60.292      603.477     10.418      723.765     -9999.25    -9999.25    -9999.25    1304.795    21.019      11.022      162.189     292.646     117.189     -9999.25    
20.33       2763.858    -9999.25    1.728       4.603       -9999.25    -9999.25    -9999.25    -9999.25    -9999.25    -9999.25    28.84       3.497       2.655       -9999.25    -9999.25    -9999.25    -9999.25    -9999.25    -9999.25    11.381      
20.4        -9999.25    100.095     -9999.25    -9999.25    132.785     8.381       60.292      603.477     10.418      723.765     -9999.25    -9999.25    -9999.25    1304.857    18.465      11.022      162.189     301.486     117.189     -9999.25    
20.43       3367.26     -9999.25    1.698       4.267       -9999.25    -9999.25    -9999.25    -9999.25    -9999.25    -9999.25    28.824      3.665       2.797       -9999.25    -9999.25    -9999.25    -9999.25    -9999.25    -9999.25    10.111      
20.5        -9999.25    100.142     -9999.25    -9999.25    132.785     8.381       60.292      603.477     10.418      723.765     -9999.25    -9999.25    -9999.25    1304.919    16.404      11.022      162.189     310.326     117.189     -9999.25    
20.53       2733.046    -9999.25    1.713       3.983       -9999.25    -9999.25    -9999.25    -9999.25    -9999.25    -9999.25    36.649      3.878       2.893       -9999.25    -9999.25    -9999.25    -9999.25    -9999.25    -9999.25    8.414       
20.6        -9999.25    100.125     -9999.25    -9999.25    132.785     8.381       60.292      603.477     10.418      723.765     -9999.25    -9999.25    -9999.25    1304.164    14.78       11.022      162.189     310.326     117.189     -9999.25    
20.63       3143.26     -9999.25    1.749       3.615       -9999.25    -9999.25    -9999.25    -9999.25    -9999.25    -9999.25    46.711      4.099       2.942       -9999.25    -9999.25    -9999.25    -9999.25    -9999.25    -9999.25    7.41        
20.7        -9999.25    100.14      -9999.25    -9999.25    132.785     8.381       60.292      603.477     10.418      723.765     -9999.25    -9999.25    -9999.25    1302.941    13.561      11.022      162.189     319.166     117.189     -9999.25    
20.73       3550.795    -9999.25    1.789       3.229       -9999.25    -9999.25    -9999.25    -9999.25    -9999.25    -9999.25    28.991      4.294       2.967       -9999.25    -9999.25    -9999.25    -9999.25    -9999.25    -9999.25    6.601       
20.8        -9999.25    100.113     -9999.25    -9999.25    132.785     8.381       60.292      603.477     10.418      723.765     -9999.25    -9999.25    -9999.25    1301.988    12.694      11.022      162.189     328.006     117.189     -9999.25    
20.83       2711.246    -9999.25    1.845       3.001       -9999.25    -9999.25    -9999.25    -9999.25    -9999.25    -9999.25    29.078      4.411       2.925       -9999.25    -9999.25    -9999.25    -9999.25    -9999.25    -9999.25    6.596       
20.9        -9999.25    100.143     -9999.25    -9999.25    132.785     8.381       60.292      603.477     10.418      723.765     -9999.25    -9999.25    -9999.25    1300.874    12.171      11.022      162.189     336.846     117.189     -9999.25    
20.93       4899.7      -9999.25    1.932       3.043       -9999.25    -9999.25    -9999.25    -9999.25    -9999.25    -9999.25    28.908      4.435       2.871       -9999.25    -9999.25    -9999.25    -9999.25    -9999.25    -9999.25    7.102       
21.0        -9999.25    100.092     -9999.25    -9999.25    132.785     8.381       60.292      603.477     10.418      723.765     -9999.25    -9999.25    -9999.25    1299.978    11.953      11.022      162.189     345.686     117.189     -9999.25    
21.03       7816.866    -9999.25    1.998       3.254       -9999.25    -9999.25    -9999.25    -9999.25    -9999.25    -9999.25    28.856      4.444       2.889       -9999.25    -9999.25    -9999.25    -9999.25    -9999.25    -9999.25    7.53        
21.1        -9999.25    100.094     -9999.25    -9999.25    132.785     8.381       60.292      603.477     10.418      723.765     -9999.25    -9999.25    -9999.25    1298.647    11.494      11.022      162.189     354.526     117.189     -9999.25    
21.13       2159.501    -9999.25    2.014       3.42        -9999.25    -9999.25    -9999.25    -9999.25    -9999.25    -9999.25    28.857      4.544       3.025       -9999.25    -9999.25    -9999.25    -9999.25    -9999.25    -9999.25    7.414       
21.2        -9999.25    100.138     -9999.25    -9999.25    132.785     8.381       60.292      603.477     10.418      723.765     -9999.25    -9999.25    -9999.25    1299.978    10.799      11.022      162.189     363.366     117.189     -9999.25    
21.23       32402.035   -9999.25    2.029       3.302       -9999.25    -9999.25    -9999.25    -9999.25    -9999.25    -9999.25    28.935      4.678       3.105       -9999.25    -9999.25    -9999.25    -9999.25    -9999.25    -9999.25    7.337       
21.3        -9999.25    100.093     -9999.25    -9999.25    132.785     8.381       60.292      603.477     10.418      723.765     -9999.25    -9999.25    -9999.25    1303.732    9.91        11.022      162.189     363.366     117.189     -9999.25    
21.33       74249.508   -9999.25    2.037       3.186       -9999.25    -9999.25    -9999.25    -9999.25    -9999.25    -9999.25    29.077      4.762       3.047       -9999.25    -9999.25    -9999.25    -9999.25    -9999.25    -9999.25    7.613       
