~Version Information Section
VERS.                                         2.0:CWLS log ASCII Standart – VERSION 2.0
WRAP.                                          NO:One line per depth step
~Well Information Section
STRT.M                                        0.6:Начальная глубина
STOP.M                                      208.2:Конечная глубина
STEP.M                                          0:Шаг квантования по глубине
NULL.                                    -9999.25:Признак "Нет данных"
WELL.                                       156Мх:Скважина
~Parameter Information Section
~Curve Information Section
DEPTH.M                                          :Глубина
БК.Ом                                            :BK     (БК)
DСР.мм                                           :DS  (ДС)
ПЛОТНОСТЬ.г/см^3                                 :GGKp
ГК.мкР/час                                       :GK          (ГК)
А0.4М0.1N.Ом                                     :GZ1   ГЗ1(A0.4M0.1N)
А1.0М0.1N.Ом                                     :GZ2   ГЗ2(A1.0M0.1N)
А2.0М0.5N.Ом                                     :GZ3   ГЗ3(A2.0M0.5N)
А4.0М0.5N.Oм                                     :GZ4   ГЗ4(A4.0M0.5N)
А8.0М1.0N.Ом                                     :GZ5   ГЗ5(A8.0M0.5N)
N0.5M2.0A.Ом                                     :GZR   ГЗK(N0.5M2.0A)
ИК.мСм/м                                         :IK
НГК.усл.ед                                       :NGK     (НГК)
ННКМ.усл.ед                                      :NNKm  (ННКм)
ПС.mv                                            :PS       (ПС)
N11.0M0.5A.Ом                                    :PZ    (КС)
РЕЗИСТИВИМЕТР.Ом                                 :RS (Резистивиметр)
КПSIO.%                                          :W
~ASCII LOG DATA
# ...
133.8       36.016      152.632     2.225       8.281       35.98       37.341      37.387      50.421      92.785      33.651      29.863      1.153       1.215       68.635      50.465      1.31        28.339      
133.9       29.034      152.636     2.234       8.253       36.738      40.431      41.036      61.211      111.457     36.519      29.891      1.129       1.179       70.169      50.496      1.31        28.903      
134.0       27.067      154.828     2.245       8.327       35.528      40.647      47.431      77.158      131.567     43.219      29.92       1.103       1.142       71.899      50.658      1.31        29.428      
134.1       25.929      154.924     2.262       8.388       33.295      41.269      55.766      96.324      151.44      52.806      30.02       1.08        1.101       73.257      50.781      1.312       29.747      
134.2       24.273      155.179     2.284       8.365       34.874      45.955      64.944      115.527     170.981     66.037      30.245      1.064       1.118       74.23       50.652      1.317       29.615      
134.3       25.027      155.588     2.305       8.334       42.411      52.977      74.508      131.907     188.857     84.899      30.648      1.08        1.142       75.049      50.339      1.324       29.059      
134.4       31.632      155.536     2.322       8.213       54.018      57.833      83.409      142.844     205.182     107.924     31.281      1.135       1.171       75.783      50.677      1.331       28.057      
134.5       33.861      155.882     2.339       7.933       70.459      60.63       90.287      147.222     219.765     130.011     32.11       1.2         1.206       76.387      52.827      1.34        26.738      
134.6       28.764      155.919     2.348       7.57        95.688      64.18       95.021      146.764     229.667     146.969     33.117      1.271       1.254       76.724      58.03       1.346       25.393      
134.7       37.783      154.689     2.344       7.015       130.181     70.468      98.936      143.56      231.944     157.829     34.321      1.335       1.321       76.849      66.572      1.346       24.153      
134.8       94.516      153.548     2.33        6.484       167.043     81.755      102.446     138.621     226.35      162.197     35.821      1.374       1.386       76.881      77.878      1.342       23.223      
134.9       203.742     153.856     2.313       6.08        194.531     96.9        104.291     131.699     215.925     160.17      37.604      1.385       1.445       76.624      93.953      1.335       22.563      
135.0       251.56      153.911     2.297       5.873       206.453     112.978     103.15      122.59      203.497     153.908     39.429      1.386       1.498       75.829      118.302     1.327       22.108      
135.1       241.985     153.951     2.287       5.835       205.463     131.767     98.439      111.392     189.996     145.658     40.944      1.377       1.531       74.705      148.061     1.319       21.89       
135.2       247.016     153.814     2.289       6.041       196.762     157.282     90.841      99.349      175.082     135.703     41.886      1.373       1.528       73.757      172.253     1.313       21.908      
135.3       290.687     152.292     2.301       6.247       181.514     182.442     82.06       88.071      158.666     123.097     42.327      1.374       1.527       73.016      181.909     1.311       21.918      
135.4       318.438     151.362     2.314       6.436       159.391     193.762     73.277      77.863      141.443     107.752     42.456      1.375       1.529       71.837      178.046     1.31        21.914      
135.5       245.025     151.003     2.322       6.553       137.728     191.245     64.656      68.435      126.13      91.529      42.372      1.369       1.525       70.211      167.287     1.31        21.909      
135.6       153.533     151.029     2.322       6.608       120.775     179.691     56.646      60.332      113.468     77.589      42.035      1.356       1.522       68.589      153.954     1.31        21.836      
135.7       114.206     150.62      2.311       6.665       105.034     160.356     50.444      54.763      103.265     67.638      41.448      1.334       1.516       67.182      140.203     1.31        21.811      
135.8       89.223      151.634     2.293       6.743       88.575      137.583     46.692      51.653      94.352      60.839      40.649      1.3         1.495       66.455      127.995     1.31        21.953      
135.9       71.533      152.287     2.275       6.869       77.998      125.647     45.063      49.953      86.609      55.55       39.69       1.269       1.447       66.206      117.311     1.31        22.266      
136.0       55.419      151.754     2.263       7.021       78.756      131.332     45.527      48.835      79.737      51.404      38.61       1.244       1.406       65.893      107.316     1.31        22.729      
136.1       54.894      152.647     2.256       7.234       83.97       139.17      48.005      47.532      73.602      48.806      37.576      1.23        1.37        65.634      98.32       1.31        23.156      
136.2       58.506      152.918     2.253       7.36        85.777      134.836     51.054      45.051      68.498      47.165      36.627      1.231       1.324       65.562      91.607      1.31        23.441      
136.3       42.397      152.545     2.254       7.25        82.224      117.516     53.31       40.964      64.591      45.6        35.843      1.248       1.285       65.558      87.422      1.31        23.599      
136.4       40.488      153.298     2.256       7.056       74.854      95.035      55.264      36.116      61.149      43.704      35.17       1.258       1.301       65.56       83.923      1.31        23.792      
136.5       55.679      152.827     2.256       6.945       65.948      75.224      57.433      31.776      57.329      41.481      34.682      1.256       1.325       65.591      79.334      1.31        23.983      
136.6       75.429      152.768     2.252       7.031       58.044      62.337      59.093      28.734      54.036      38.769      34.334      1.238       1.339       65.555      73.682      1.31        24.319      
136.7       72.066      152.898     2.247       7.237       53.139      56.562      59.712      27.437      52.912      35.298      34.032      1.196       1.367       65.347      68.411      1.31        24.775      
136.8       56.345      152.503     2.242       7.723       50.166      53.839      61.311      28.539      54.16       31.499      33.677      1.146       1.352       65.068      65.219      1.31        25.488      
136.9       40.661      152.663     2.234       8.213       47.404      52.238      66.751      32.435      56.217      28.21       33.192      1.106       1.305       64.849      64.286      1.31        26.367      
137.0       32.019      153.589     2.223       8.609       46.202      55.686      76.785      38.389      58.14       26.286      32.652      1.08        1.252       64.724      64.254      1.31        27.337      
137.1       33.941      153.391     2.216       8.757       49.338      67.995      89.767      44.503      60.011      26.426      32.097      1.068       1.221       64.754      63.865      1.31        28.111      
137.2       38.162      153.182     2.211       8.93        56.518      83.572      102.249     49.043      62.132      29.464      31.668      1.073       1.191       64.883      62.939      1.309       28.654      
137.3       38.528      153.701     2.206       9.159       61.02       88.781      110.728     50.793      65.191      35.743      31.359      1.08        1.197       65.133      62.173      1.309       28.829      
137.4       36.356      154.344     2.202       9.222       59.054      79.273      111.705     49.401      69.42       43.964      31.154      1.091       1.203       65.564      61.821      1.31        28.654      
