~Version Information Section
VERS.                                         2.0:CWLS log ASCII Standart – VERSION 2.0
WRAP.                                          NO:One line per depth step
~Well Information Section
STRT.M                                        0.1:Начальная глубина
STOP.M                                      202.9:Конечная глубина
STEP.M                                          0:Шаг квантования по глубине
NULL.                                    -9999.25:Признак "Нет данных"
WELL.                                       155Мх:Скважина
~Parameter Information Section
~Curve Information Section
DEPTH.M                                          :Глубина
BK.Ohm*M                                         :BK     (БК)
DS.mm                                            :DS  (ДС)
GGK.g/cm3                                        :GGKp
ГК.mcr/h                                         :GK          (ГК)
GZ1.Ohm*M                                        :GZ1   ГЗ1(A0.4M0.1N)
GZ2.Ohm*M                                        :GZ2   ГЗ2(A1.0M0.1N)
GZ3.Ohm*M                                        :GZ3   ГЗ3(A2.0M0.5N)
GZ4.Ohm*M                                        :GZ4   ГЗ4(A4.0M0.5N)
GZ5.Ohm*M                                        :GZ5   ГЗ5(A8.0M0.5N)
GZR.                                             :GZR   ГЗK(N0.5M2.0A)
ИК.Ohm*M                                         :IK
НГК.ue                                           :NGK     (НГК)
NNKM.                                            :NNKm  (ННКм)
PS.mv                                            :PS       (ПС)
PZ.Ohm*M                                         :PZ    (КС)
RS.Ohm*M                                         :RS (Резистивиметр)
W.%                                              :W
~ASCII LOG DATA
# ...
122.2       24.236      175.257     2.283       7.683       22.015      15.079      22.989      8.789       17.86       108.85      22.397      0.89        1.095       84.531      29.611      1.206       31.132      
122.3       23.235      175.966     2.296       7.396       21.416      13.133      27.711      11.502      20.007      144.844     23.399      0.887       1.137       86.609      30.516      1.206       31.373      
122.4       22.042      174.333     2.31        6.963       21.991      14.996      33.155      16.021      22.603      182.903     24.738      0.909       1.178       88.438      31.501      1.206       30.468      
122.5       26.257      176.935     2.324       6.315       25.474      20.204      37.724      23.041      25.312      204.756     26.411      0.942       1.23        89.9        32.89       1.206       29.223      
122.6       47.518      174.149     2.336       5.481       33.837      24.936      43.086      31.287      27.837      214.266     29.17       0.986       1.255       90.894      35.782      1.206       27.283      
122.7       106.667     174.896     2.345       4.592       48.61       28.239      47.704      36.652      29.84       212.412     32.004      1.057       1.365       91.702      41.106      1.206       24.732      
122.8       195.407     170.367     2.349       3.788       70.237      31.572      48.442      37.925      31.787      194.792     35.428      1.141       1.468       92.659      47.444      1.206       22.327      
122.9       236.988     170.093     2.349       3.172       102.706     35.829      47.408      37.092      33.519      168.151     39.147      1.219       1.614       93.716      55.703      1.207       21.227      
123.0       240.727     176.007     2.345       2.776       145.496     42.356      46.412      35.644      33.96       149.558     42.99       1.27        1.67        93.988      69.882      1.214       21.31       
123.1       238.293     172.756     2.342       2.593       181.689     50.008      45.43       33.536      33.495      136.135     48.098      1.292       1.705       91.983      93.07       1.258       22.227      
123.2       237.442     166.819     2.338       2.552       216.828     60.051      44.863      32.031      33.237      122.652     52.751      1.264       1.688       86.566      125.927     1.309       22.79       
123.3       236.684     160.895     2.335       2.582       249.896     76.746      44.802      31.832      33.15       113.597     56.227      1.184       1.637       78.195      168.918     1.338       23.328      
123.4       235.121     160.069     2.331       2.62        255.191     104.625     45.499      32.495      33.534      107.752     59.93       1.109       1.602       68.91       203.294     1.354       24.014      
123.5       229.768     160.04      2.325       2.672       242.849     150.417     46.818      34.449      34.262      104.001     63.694      1.093       1.595       60.822      239.999     1.364       23.85       
123.6       224.827     160.377     2.319       2.74        231.421     198.972     48.974      38.444      35.484      103.917     65.364      1.124       1.623       54.671      281.422     1.37        22.777      
123.7       224.05      161.066     2.315       2.82        226.908     238.451     51.636      44.123      37.279      106.839     65.867      1.139       1.636       49.812      292.214     1.372       22.063      
123.8       218.012     161.198     2.317       2.908       229.143     272.899     54.589      51.826      39.571      109.997     67.732      1.14        1.627       45.978      284.086     1.374       21.572      
123.9       203.815     161.126     2.325       3.002       228.89      297.281     58.802      60.383      42.857      113.189     68.729      1.175       1.634       43.503      275.388     1.375       20.86       
124.0       195.077     161.136     2.34        3.108       228.6       317.304     64.028      66.792      47.379      116.036     69.19       1.232       1.654       42.487      269.384     1.376       19.571      
124.1       212.484     161.086     2.358       3.258       234.059     344.405     69.973      70.685      52.621      118.518     70.028      1.261       1.689       42.216      264.238     1.378       18.916      
124.2       253.219     161.122     2.377       3.465       247.255     373.485     78.472      77.697      58.945      126.759     69.387      1.242       1.707       41.842      257.986     1.38        19.057      
124.3       222.547     161.075     2.396       3.695       262.867     371.869     89.258      94.326      64.213      146.869     69.137      1.204       1.71        41.221      251.415     1.379       19.209      
124.4       112.529     161.047     2.412       3.876       232.43      326.735     103.415     119.778     68.589      174.975     68.526      1.189       1.695       40.637      241.517     1.378       18.655      
124.5       70.389      161.005     2.425       3.939       187.067     309.377     123.436     148.91      70.846      197.076     67.358      1.225       1.645       40.474      229.979     1.378       18.501      
124.6       100.796     160.968     2.432       3.843       186.721     333.935     145.554     175.477     70.925      208.234     65.72       1.299       1.614       40.822      214.146     1.377       18.417      
124.7       213.76      160.951     2.431       3.62        213.852     362.118     172.563     186.637     70.649      208.978     64.416      1.373       1.66        41.686      200.252     1.365       17.694      
124.8       372.196     160.958     2.421       3.374       254.975     380.228     201.064     174.518     68.062      192.09      63.123      1.407       1.743       42.895      195.008     1.336       17.741      
124.9       226.358     160.975     2.403       3.238       280.0       357.266     210.677     149.495     65.398      163.77      61.843      1.394       1.77        44.5        191.551     1.312       18.762      
125.0       114.839     161.008     2.384       3.287       268.524     282.223     197.854     123.006     64.957      140.001     60.972      1.342       1.72        46.743      184.532     1.321       19.996      
125.1       69.169      160.924     2.367       3.515       242.241     210.418     168.779     99.615      62.394      119.134     60.147      1.254       1.596       50.087      172.516     1.347       21.286      
125.2       59.186      163.9       2.358       3.862       208.48      174.485     133.409     78.539      56.383      102.636     58.558      1.147       1.522       54.346      158.615     1.363       22.944      
125.3       54.265      164.761     2.356       4.228       173.977     149.602     108.229     59.976      45.795      95.317      57.61       1.042       1.419       58.049      151.142     1.356       23.765      
125.4       55.648      164.224     2.358       4.54        158.574     144.508     96.706      48.183      35.651      91.566      55.997      0.98        1.389       59.313      154.857     1.322       23.766      
125.5       70.551      162.411     2.357       4.789       162.734     152.166     89.976      41.943      29.544      88.653      54.13       0.985       1.374       57.746      158.1       1.285       23.624      
125.6       89.305      160.416     2.347       4.999       174.095     151.304     81.359      37.06       26.138      84.083      53.005      1.019       1.388       55.114      155.874     1.265       23.988      
125.7       90.203      160.716     2.324       5.198       175.677     129.555     71.455      32.293      24.157      78.598      52.249      1.023       1.399       53.317      153.804     1.259       24.122      
125.8       58.568      161.482     2.289       5.404       166.365     106.087     63.799      28.039      22.806      74.319      51.741      0.991       1.395       52.901      149.036     1.25        24.493      
