~Version Information Section
VERS.                                         2.0:CWLS log ASCII Standart – VERSION 2.0
WRAP.                                          NO:One line per depth step
~Well Information Section
STRT.M                                        0.6:Начальная глубина
STOP.M                                      143.2:Конечная глубина
STEP.M                                          0:Шаг квантования по глубине
NULL.                                    -9999.25:Признак "Нет данных"
WELL.                                       116Мх:Скважина
~Parameter Information Section
~Curve Information Section
DEPTH.M                                          :Глубина
BK.lgОмм                                         :BK     (БК)
ПРОФ_СР.мм                                       :DS  (ДС)
ГК.мкР/час                                       :GK          (ГК)
ГЗ1.Омм                                          :GZ1   ГЗ1(A0.4M0.1N)
ГЗ2.Омм                                          :GZ2   ГЗ2(A1.0M0.1N)
ГЗ3.Омм                                          :GZ3   ГЗ3(A2.0M0.5N)
ГЗ4.Oмм                                          :GZ4   ГЗ4(A4.0M0.5N)
ГЗ5.Oмм                                          :GZ5   ГЗ5(A8.0M0.5N)
ГЗК.Омм                                          :GZK   ГЗK(N0.5M2.0A)
ИК.мСм/м                                         :IK
НГК.усл.ед.                                      :NGK     (НГК)
ПС.мВ                                            :PS       (ПС)
PZ.Омм                                           :PZ    (КС)
RIS.Омм                                          :RS (Резистивиметр)
U1.мВ                                            :U1
U2.mV                                            :U2
U3.мВ                                            :U3
W.г/см3                                          :ГГКп
П.%                                              :п
ННКМ.усл.ед                                      :ННКм
~ASCII LOG DATA
# ...
93.4        47.206      159.328     6.333       33.674      49.628      53.371      49.187      28.387      83.341      20.768      1.095       351.348     110.741     1.125       510.0       620.0       950.0       2.35        31.683      2.039       
93.5        48.753      159.225     6.336       33.298      48.995      52.763      48.56       28.294      83.134      20.734      1.06        355.113     111.111     1.125       490.0       630.0       940.0       2.349       30.673      2.039       
93.6        49.888      159.059     6.124       32.971      48.39       52.235      47.939      28.218      82.96       20.676      1.081       359.447     111.496     1.125       480.0       630.0       930.0       2.355       29.723      2.047       
93.7        51.404      158.92      5.891       32.694      47.843      51.787      47.338      28.156      82.808      20.652      1.127       363.782     111.822     1.125       450.0       620.0       930.0       2.359       29.168      2.063       
93.8        54.576      159.022     5.784       32.462      47.339      51.435      46.755      28.108      82.667      20.62       1.165       367.547     112.104     1.125       440.0       580.0       930.0       2.368       28.765      2.113       
93.9        52.966      158.992     5.706       32.266      46.878      51.163      46.202      28.07       82.526      20.582      1.171       370.399     112.37      1.125       430.0       560.0       950.0       2.387       28.63       2.154       
94.0        47.863      158.926     5.671       32.1        46.475      50.891      45.693      28.042      82.378      20.582      1.139       372.566     112.711     1.125       410.0       560.0       950.0       2.368       28.9        2.152       
94.1        43.853      158.84      5.897       31.956      46.143      50.635      45.242      28.023      82.224      20.562      1.087       374.277     113.096     1.125       390.0       560.0       940.0       2.362       29.719      2.138       
94.2        44.055      159.154     6.276       31.831      45.855      50.411      44.845      28.011      82.07       20.536      1.037       375.646     113.496     1.125       400.0       560.0       940.0       2.36        30.498      2.118       
94.3        45.186      159.21      6.551       31.725      45.639      50.203      44.509      28.005      81.922      20.498      1.025       376.901     113.822     1.125       380.0       560.0       930.0       2.358       31.287      2.124       
94.4        46.774      159.237     6.671       31.638      45.481      49.995      44.23       28.002      81.792      20.399      1.043       378.27      114.089     1.125       370.0       640.0       857.841     2.367       31.744      2.139       
94.5        46.666      159.317     6.752       31.571      45.351      49.851      44.0        28.0        81.686      20.297      1.06        380.095     114.296     1.125       360.0       640.0       823.63      2.378       32.08       2.16        
94.6        47.206      159.384     6.858       31.524      45.265      49.755      43.808      28.0        81.607      20.242      1.077       382.262     114.504     1.125       360.0       630.0       806.192     2.386       32.078      2.17        
94.7        49.431      159.128     6.874       31.495      45.222      49.691      43.651      28.0        81.553      20.193      1.093       384.658     114.696     1.125       350.0       620.0       797.67      2.388       31.829      2.14        
94.8        51.168      158.987     6.819       31.483      45.193      49.659      43.514      28.0        81.522      20.062      1.117       386.939     114.874     1.125       350.0       610.0       789.488     2.4         31.06       2.124       
94.9        52.119      158.955     6.668       31.483      45.179      49.659      43.386      28.001      81.505      19.978      1.161       389.107     114.963     1.125       350.0       600.0       779.798     2.392       30.162      2.14        
95.0        55.59       158.927     6.32        31.483      45.179      49.659      43.261      28.002      81.498      19.949      1.193       391.16      114.963     1.125       350.0       600.0       759.02      2.387       29.132      2.162       
95.1        57.28       159.008     5.968       31.483      45.179      49.659      43.142      28.006      81.496      19.892      1.221       393.099     114.933     1.125       370.0       610.0       745.05      2.405       28.516      2.183       
95.2        62.517      159.056     5.95        31.491      45.179      49.659      43.034      28.011      81.495      19.83       1.214       394.924     114.785     1.125       390.0       620.0       735.114     2.424       28.103      2.196       
95.3        55.847      159.072     6.291       31.521      45.207      49.675      42.95       28.02       81.495      19.68       1.182       396.522     114.607     1.125       420.0       630.0       713.926     2.436       28.809      2.201       
95.4        56.624      159.231     6.619       31.578      45.265      49.723      42.893      28.033      81.495      19.637      1.128       398.004     114.444     1.125       520.0       630.0       714.12      2.439       29.4        2.208       
95.5        57.943      159.419     6.778       31.673      45.366      49.803      42.87       28.05       81.495      19.547      1.084       399.145     114.296     1.125       580.0       630.0       729.497     2.418       29.72       2.209       
95.6        46.989      159.395     6.892       31.813      45.51       49.915      42.87       28.071      81.495      19.237      1.084       399.944     114.074     1.125       590.0       640.0       788.73      2.392       30.025      2.202       
95.7        46.345      159.204     6.997       32.002      45.711      50.059      42.87       28.097      81.495      19.006      1.094       400.514     113.763     1.125       550.0       650.0       869.852     2.394       30.321      2.173       
95.8        41.783      159.053     6.88        32.245      45.913      50.203      42.87       28.13       81.495      18.921      1.089       401.313     113.348     1.125       540.0       650.0       891.889     2.402       30.572      2.125       
95.9        40.365      159.181     6.534       32.535      46.115      50.315      42.886      28.172      81.496      18.624      1.067       402.681     112.919     1.125       520.0       670.0       891.889     2.394       30.812      2.082       
96.0        40.365      158.983     6.379       32.86       46.287      50.395      42.941      28.226      81.498      18.366      1.062       404.279     112.489     1.125       520.0       670.0       846.848     2.395       30.683      2.06        
96.1        39.628      159.036     6.534       33.194      46.431      50.443      43.03       28.294      81.503      18.094      1.074       405.762     112.074     1.125       520.0       690.0       769.201     2.381       30.624      2.01        
96.2        36.559      159.104     6.814       33.502      46.518      50.459      43.152      28.375      81.515      18.039      1.087       406.788     111.585     1.125       520.0       690.0       769.201     2.365       30.537      1.972       
96.3        35.075      158.812     6.63        33.737      46.575      50.459      43.293      28.466      81.538      17.845      1.109       407.815     110.993     1.125       520.0       680.0       779.474     2.358       30.502      1.998       
96.4        35.075      158.792     6.277       33.87       46.604      50.459      43.44       28.561      81.578      17.796      1.127       409.07      110.326     1.125       610.0       680.0       855.529     2.36        30.348      2.014       
96.5        35.481      158.779     5.984       33.901      46.619      50.459      43.584      28.653      81.638      17.567      1.129       410.781     109.689     1.125       640.0       680.0       936.283     2.374       30.348      2.01        
