~Version Information Section
VERS.                                         2.0:CWLS log ASCII Standart – VERSION 2.0
WRAP.                                          NO:One line per depth step
~Well Information Section
STRT.M                                        0.6:Начальная глубина
STOP.M                                      191.4:Конечная глубина
STEP.M                                          0:Шаг квантования по глубине
NULL.                                    -9999.25:Признак "Нет данных"
WELL.                                       129Мх:Скважина
~Parameter Information Section
~Curve Information Section
DEPTH.M                                          :Глубина
BK.lgОмм                                         :BK     (БК)
ПРОФ_СР.мм                                       :DS  (ДС)
ГК.имп/мин                                       :GK          (ГК)
ГЗ1.Омм                                          :GZ1   ГЗ1(A0.4M0.1N)
ГЗ2.Омм                                          :GZ2   ГЗ2(A1.0M0.1N)
ГЗ3.Омм                                          :GZ3   ГЗ3(A2.0M0.5N)
ГЗ4.Oмм                                          :GZ4   ГЗ4(A4.0M0.5N)
ГЗ5.Oмм                                          :GZ5   ГЗ5(A8.0M0.5N)
ГЗК.Омм                                          :GZK   ГЗK(N0.5M2.0A)
ИК.мСм/м                                         :IK
НГК.усл.ед                                       :NNKb  (ННКб)
ННКМ.усл.ед                                      :NNKm  (ННКм)
PZ.Омм                                           :PZ    (КС)
РЕЗ.Омм                                          :RS (Резистивиметр)
U1.мВ                                            :U1
U2.mV                                            :U2
U3.мВ                                            :U3
КП.%                                             :Кп
ПС.                                              :ПС
~ASCII LOG DATA
# ...
129.8       29.42       132.489     5.146       12.439      7.151       44.813      -0.052      25.222      10.604      17.164      4.134       2.422       25.2        1.12        1032.0      1328.0      840.0       26.307      -56.68      
129.9       29.739      132.636     5.626       10.195      5.747       42.734      -0.143      24.111      10.474      17.115      4.156       2.416       22.405      1.12        1040.001    1333.334    842.667     27.085      -59.28      
130.0       31.62       132.673     5.722       8.266       4.49        40.741      -0.22       22.911      10.307      17.115      4.267       2.416       19.853      1.12        1042.667    1338.666    842.666     27.831      -62.32      
130.1       31.061      132.803     5.722       6.455       3.267       38.866      -0.269      21.667      10.026      17.081      4.315       2.429       17.625      1.12        1045.333    1344.0      853.334     28.064      -65.84      
130.2       32.864      132.909     5.632       4.883       2.185       37.122      -0.284      20.556      9.654       17.019      4.323       2.464       15.802      1.12        1045.333    1344.0      863.999     28.414      -70.24      
130.3       35.477      133.012     5.453       3.783       1.424       35.533      -0.284      19.533      9.289       16.952      4.149       2.502       14.476      1.12        1045.333    1341.333    880.0       29.412      -75.76      
130.4       39.463      133.115     5.626       3.412       1.172       34.168      -0.275      18.689      9.031       16.952      3.749       2.518       13.682      1.12        1045.333    1338.667    893.334     29.174      -81.6       
130.5       39.609      133.154     5.798       3.412       1.172       33.076      -0.255      17.978      8.94        16.792      3.846       2.523       13.338      1.12        1042.667    1336.0      896.0       28.834      -87.88      
130.6       38.945      133.194     5.466       3.757       1.411       32.293      -0.238      17.489      8.94        16.792      3.986       2.473       13.32       1.12        1045.333    1322.666    896.0       29.093      -94.48      
130.7       38.078      133.249     5.299       4.619       1.994       31.805      -0.231      17.178      8.985       16.792      3.877       2.42        13.32       1.12        1055.999    1312.001    890.667     29.243      -100.72     
130.8       38.226      133.251     5.606       5.727       2.721       31.576      -0.231      17.044      9.128       16.792      3.718       2.409       13.32       1.12        1056.0      1314.667    890.667     29.278      -106.28     
130.9       38.374      133.345     5.76        6.827       3.421       31.531      -0.231      17.0        9.306       16.636      3.769       2.402       13.32       1.12        1050.666    1325.334    898.667     29.763      -111.56     
131.0       38.726      133.533     6.451       7.748       3.985       31.531      -0.232      17.0        9.542       16.636      3.765       2.415       13.434      1.12        1029.334    1346.666    906.666     30.074      -115.72     
131.1       38.607      133.54      6.323       8.406       4.371       31.591      -0.232      16.956      9.846       16.636      3.661       2.398       13.478      1.12        1010.666    1354.668    898.666     30.512      -118.96     
131.2       36.994      133.818     5.683       8.721       4.532       31.683      -0.197      16.822      10.209      16.636      3.555       2.356       13.478      1.12        997.334     1378.666    877.335     31.298      -121.64     
131.3       35.38       133.985     5.733       8.721       4.532       31.766      -0.062      16.556      10.558      16.376      3.346       2.306       13.478      1.12        992.0       1400.0      856.0       31.389      -124.08     
131.4       33.729      134.544     5.933       8.635       4.436       31.825      0.27        16.2        10.846      16.273      3.303       2.262       13.284      1.12        997.334     1424.001    861.334     31.205      -126.24     
131.5       33.024      134.628     5.747       8.159       4.08        31.871      0.867       15.8        11.111      16.273      3.275       2.233       12.81       1.12        1007.999    1437.333    871.999     31.398      -128.64     
131.6       32.319      134.54      5.376       7.378       3.524       31.921      1.771       15.444      11.375      16.109      3.194       2.208       12.089      1.12        1018.667    1431.999    877.333     31.413      -131.04     
131.7       27.315      134.465     5.555       6.422       2.864       31.972      2.944       15.178      11.655      16.109      3.119       2.152       11.272      1.12        1021.334    1421.334    869.334     31.921      -133.4      
131.8       25.656      134.85      5.645       5.423       2.206       32.007      4.306       15.089      11.91       15.911      3.156       2.101       10.576      1.12        1013.333    1410.667    869.333     33.053      -135.36     
131.9       23.997      134.385     5.979       4.592       1.7         32.007      5.733       15.089      12.105      15.938      3.167       2.101       10.179      1.12        1042.669    1408.0      882.668     33.017      -136.96     
132.0       27.974      134.369     6.202       4.139       1.492       31.989      7.142       15.178      12.244      15.938      3.125       2.095       10.179      1.12        1061.332    1418.666    895.999     33.205      -138.12     
132.1       27.751      134.735     5.894       4.09        1.492       31.886      8.489       15.444      12.34       15.911      3.059       2.084       10.179      1.12        1074.665    1432.001    902.366     34.597      -138.96     
132.2       27.527      134.333     5.741       4.09        1.582       31.665      9.745       15.8        12.484      15.815      2.922       2.06        10.179      1.12        1045.335    1450.666    855.094     34.947      -139.52     
132.3       26.283      134.517     6.125       4.384       1.922       31.315      10.859      16.244      12.702      15.702      2.973       2.032       10.184      1.12        1016.0      1464.0      791.848     34.159      -139.96     
132.4       26.445      134.305     6.125       4.853       2.388       30.824      11.75       16.733      13.033      15.702      3.202       2.061       10.637      1.12        1005.333    1386.66     726.481     34.913      -140.28     
132.5       27.508      134.361     6.586       5.504       3.038       30.199      12.332      17.311      13.41       15.746      3.042       2.119       11.528      1.12        1005.332    1304.007    706.76      35.934      -140.56     
132.6       28.033      134.363     6.47        6.3         3.88        29.456      12.581      17.978      13.801      15.658      2.804       2.117       12.762      1.12        1045.336    1216.0      689.98      34.98       -140.76     
132.7       26.748      134.413     5.894       7.166       4.859       28.633      12.581      18.867      14.127      15.658      2.917       2.097       14.263      1.12        1074.665    1218.667    676.961     33.88       -140.88     
132.8       24.562      134.584     6.106       7.965       5.84        27.756      12.549      20.022      14.39       15.633      3.058       2.095       15.97       1.12        1104.0      1221.333    689.417     33.863      -140.96     
132.9       23.855      134.302     6.317       8.685       6.784       26.841      12.39       21.533      14.616      15.677      2.943       2.097       17.778      1.12        1058.663    1236.055    714.898     33.919      -141.0      
133.0       24.958      134.239     5.885       9.489       7.799       25.908      12.215      23.311      14.822      15.677      2.916       2.113       19.536      1.12        1010.671    1234.146    726.035     33.292      -141.0      
133.1       26.082      134.248     5.453       10.423      8.874       25.001      12.166      25.267      14.964      15.541      3.19        2.118       21.086      1.12        949.332     1232.237    711.457     33.345      -141.0      
