~Version Information Section
VERS.                                         2.0:CWLS log ASCII Standart – VERSION 2.0
WRAP.                                          NO:One line per depth step
~Well Information Section
STRT.M                                        0.1:Начальная глубина
STOP.M                                      167.0:Конечная глубина
STEP.M                                          0:Шаг квантования по глубине
NULL.                                    -9999.25:Признак "Нет данных"
WELL.                                        143К:Скважина
~Parameter Information Section
~Curve Information Section
DEPTH.M                                          :Глубина
БК.Омм                                           :BK     (БК)
DСР.мм                                           :DS  (ДС)
ПЛОТНОСТЬ.г/см^3                                 :GGKp
ГК.гамма                                         :GK          (ГК)
ИК.мСм/м                                         :IK
НГК.усл.ед                                       :NGK     (НГК)
ННКМ.усл.ед                                      :NNKm  (ННКм)
ПС.mv                                            :PS       (ПС)
N11.0M0.5A.Омм                                   :PZ    (КС)
R.Омм                                            :RS (Резистивиметр)
КП.%                                             :W
А0.4М0.1N.Омм                                    :GZ1   ГЗ1(A0.4M0.1N)
А1.0М0.1N.Омм                                    :GZ2   ГЗ2(A1.0M0.1N)
А2.0М0.5N.Омм                                    :GZ3   ГЗ3(A2.0M0.5N)
А4.0М0.5N.Oмм                                    :GZ4   ГЗ4(A4.0M0.5N)
А8.0М1.0N.Омм                                    :GZ5   ГЗ5(A8.0M0.5N)
N0.5M2.0A.Омм                                    :GZR   ГЗK(N0.5M2.0A)
~ASCII LOG DATA
# ...
122.2       14.563      221.516     2.36        8.964       14.856      1.016       1.832       64.484      18.058      1.08        29.827      14.607      20.161      8.564       3.777       6.108       9.374       
122.3       14.311      220.782     2.356       8.829       14.12       0.992       1.811       64.864      17.268      1.08        31.056      14.146      19.667      8.521       3.427       5.234       9.701       
122.4       14.179      221.499     2.347       8.697       13.537      0.989       1.808       65.215      16.617      1.08        32.018      13.894      19.16       8.521       3.208       4.712       10.107      
122.5       14.009      221.059     2.335       8.567       13.088      0.994       1.804       65.548      16.12       1.08        32.607      13.734      18.361      8.521       3.057       4.355       10.475      
122.6       13.869      222.22      2.325       8.402       12.753      1.003       1.808       65.869      15.753      1.081       32.965      13.626      17.373      8.631       2.941       4.116       10.773      
122.7       13.923      222.467     2.32        8.34        12.511      1.021       1.821       66.175      15.456      1.082       33.247      13.553      16.285      8.959       2.848       3.946       10.983      
122.8       14.151      222.987     2.319       8.506       12.341      1.04        1.838       66.43       15.209      1.085       33.289      13.499      15.172      9.457       2.776       3.822       11.141      
122.9       14.028      223.268     2.319       8.554       12.228      1.056       1.844       66.676      15.04       1.088       33.213      13.513      14.353      10.011      2.728       3.732       11.295      
123.0       13.832      223.174     2.317       8.561       12.161      1.064       1.848       66.911      14.959      1.092       33.112      13.589      14.01       10.586      2.709       3.657       11.472      
123.1       13.388      223.651     2.312       8.795       12.128      1.073       1.842       67.13       14.938      1.096       32.953      13.627      13.855      11.276      2.709       3.573       11.689      
123.2       13.181      223.935     2.306       8.897       12.118      1.089       1.833       67.325      14.922      1.1         32.674      13.627      13.677      12.177      2.709       3.5         11.916      
123.3       12.873      224.315     2.301       8.767       12.118      1.099       1.818       67.49       14.891      1.105       32.455      13.71       13.539      13.37       2.717       3.428       12.106      
123.4       12.793      224.005     2.297       8.729       12.119      1.102       1.819       67.624      14.874      1.11        32.245      13.9        13.488      14.631      2.762       3.364       12.247      
123.5       12.861      224.023     2.293       8.751       12.125      1.098       1.833       67.728      14.877      1.117       32.083      14.131      13.458      15.631      2.866       3.314       12.339      
123.6       13.029      223.692     2.293       8.73        12.14       1.086       1.842       67.801      14.888      1.123       32.008      14.378      13.428      16.27       3.004       3.249       12.382      
123.7       13.242      223.534     2.295       8.65        12.157      1.072       1.847       67.85       14.898      1.13        31.902      14.58       13.416      16.49       3.163       3.186       12.402      
123.8       13.522      223.343     2.299       8.541       12.169      1.069       1.852       67.891      14.905      1.134       31.855      14.665      13.416      16.49       3.339       3.136       12.418      
123.9       13.704      223.697     2.303       8.488       12.176      1.071       1.848       67.969      14.898      1.138       31.965      14.671      13.396      16.479      3.506       3.073       12.423      
124.0       13.652      223.838     2.304       8.415       12.177      1.072       1.838       68.047      14.882      1.139       32.079      14.643      13.366      16.18       3.659       3.007       12.423      
124.1       13.442      224.138     2.301       8.202       12.177      1.069       1.835       68.125      14.861      1.14        32.067      14.591      13.355      15.607      3.821       2.956       12.423      
124.2       13.361      224.115     2.294       8.125       12.177      1.065       1.833       68.203      14.84       1.14        32.029      14.582      13.366      15.081      4.027       2.906       12.45       
124.3       13.526      223.774     2.285       8.161       12.174      1.062       1.824       68.281      14.813      1.14        31.927      14.624      13.384      14.638      4.294       2.854       12.517      
124.4       13.691      223.76      2.279       8.162       12.162      1.066       1.818       68.359      14.772      1.14        31.698      14.614      13.372      14.271      4.643       2.816       12.612      
124.5       13.628      223.614     2.282       8.127       12.141      1.075       1.814       68.419      14.73       1.14        31.524      14.538      13.351      13.971      5.111       2.774       12.734      
124.6       13.385      223.513     2.291       8.044       12.112      1.083       1.812       68.46       14.684      1.14        31.612      14.465      13.343      13.721      5.701       2.733       12.889      
124.7       13.212      224.008     2.307       7.966       12.078      1.096       1.812       68.483      14.621      1.14        31.876      14.359      13.32       13.486      6.375       2.699       13.066      
124.8       13.176      223.471     2.322       7.888       12.04       1.116       1.818       68.487      14.543      1.14        32.255      14.216      13.283      13.252      7.11        2.662       13.265      
124.9       13.256      222.943     2.332       8.075       12.002      1.121       1.821       68.473      14.46       1.14        32.733      14.056      13.236      13.039      7.924       2.63        13.515      
125.0       13.365      222.909     2.336       8.249       11.965      1.108       1.822       68.44       14.362      1.14        33.131      13.889      13.158      12.848      8.791       2.588       13.833      
125.1       13.422      222.794     2.334       8.415       11.927      1.097       1.82        68.389      14.258      1.14        33.514      13.714      13.055      12.656      9.691       2.554       14.201      
125.2       13.232      222.566     2.327       8.669       11.889      1.086       1.816       68.32       14.168      1.141       33.75       13.569      12.92       12.474      10.679      2.512       14.607      
125.3       12.86       222.465     2.318       8.936       11.849      1.065       1.815       68.232      14.103      1.142       33.773      13.518      12.818      12.351      11.849      2.474       15.07       
125.4       12.583      221.463     2.309       8.848       11.809      1.049       1.818       68.125      14.071      1.145       33.745      13.518      12.799      12.282      13.113      2.435       15.646      
125.5       12.55       221.358     2.302       8.844       11.772      1.041       1.816       68.0        14.064      1.149       33.783      13.518      12.798      12.229      14.196      2.413       16.362      
125.6       12.665      220.941     2.296       8.963       11.744      1.041       1.814       67.875      14.047      1.154       33.791      13.475      12.727      12.177      14.95       2.376       17.018      
125.7       12.693      220.986     2.292       8.981       11.731      1.04        1.814       67.75       14.022      1.16        34.011      13.384      12.57       12.124      15.282      2.343       17.405      
125.8       12.66       221.138     2.295       8.943       11.73       1.032       1.816       67.625      14.003      1.166       34.212      13.302      12.397      12.056      15.323      2.301       17.591      
