~Version Information Section
VERS.                                         2.0:CWLS log ASCII Standart – VERSION 2.0
WRAP.                                          NO:One line per depth step
~Well Information Section
STRT.M                                        0.0:Начальная глубина
STOP.M                                      166.2:Конечная глубина
STEP.M                                          0:Шаг квантования по глубине
NULL.                                    -9999.25:Признак "Нет данных"
WELL.                                         1Мх:Скважина
~Parameter Information Section
~Curve Information Section
DEPTH.M                                          :Глубина
BK.lgОмм                                         :BK
ПРОФ_СР.мм                                       :ПРОФ_СР
GGKP.имп/мин                                     :GGKp
ГК.мкР/час                                       :GK
ИК.мСм/м                                         :IK
PS.мВ                                            :PS
PZ.Омм                                           :PZ
RIS.Омм                                          :RIS
U1.мВ                                            :U1
U2.мВ                                            :U2
U3.mv                                            :U3
WS.%                                             :WS
ГЗ1.Омм                                          :ГЗ1
ГЗ2.Омм                                          :ГЗ2
ГЗ3.Омм                                          :ГЗ3
ГЗ4.Oмм                                          :ГЗ4
ГЗК.Омм                                          :ГЗК
НГК.усл.ед                                       :ННКб
ННКМ.усл.ед                                      :ННКм
ГЗ5.Oмм                                          :ГЗ5
ПЛ1.имп/мин                                      :ПЛ1
ПЛ2.имп/мин                                      :ПЛ2
ПЛ3.имп/мин                                      :ПЛ3
ПЛ4.имп/мин                                      :ПЛ4
~ASCII LOG DATA
# ...
67.5        45.923      153.084     2.286       5.757       33.847      108.816     75.682      1.055       1856.627    1250.645    876.963     30.597      5.811       8.278       4.477       4.225       11.519      3.545       2.275       3.471       11760.0     21840.0     15140.0     3980.0      
67.6        47.613      153.07      2.284       5.92        34.222      106.939     84.418      1.055       1751.418    1209.369    878.925     30.284      5.756       8.478       4.477       6.225       11.719      3.604       2.282       6.071       12840.0     22980.0     15840.0     3920.0      
67.7        54.024      153.014     2.286       5.773       34.607      105.282     95.841      1.055       1649.484    1185.382    903.759     29.377      5.787       3.213       4.477       8.725       12.419      3.761       2.315       7.971       13560.0     23980.0     16460.0     4300.0      
67.8        79.655      152.972     2.266       5.428       35.095      103.726     104.878     1.055       1548.322    1176.396    949.378     28.504      7.928       4.034       4.277       9.625       14.019      3.954       2.365       9.671       16800.0     24700.0     16620.0     4540.0      
67.9        159.508     153.699     2.253       4.901       35.776      102.312     111.017     1.055       1399.888    1139.302    977.758     27.719      11.235      6.355       4.477       11.825      16.319      4.129       2.416       12.971      14160.0     24980.0     16980.0     4580.0      
68.0        226.724     153.818     2.244       4.177       36.196      101.148     114.25      1.055       1294.047    1090.217    963.962     27.118      15.151      8.482       14.077      13.725      17.419      4.291       2.465       14.971      17160.0     25380.0     16540.0     4420.0      
68.1        262.961     153.317     2.244       3.37        36.196      100.312     113.82      1.055       1380.831    1120.569    960.796     26.374      20.566      10.005      16.177      13.925      20.619      4.421       2.512       20.271      17280.0     25480.0     16080.0     4280.0      
68.2        236.875     153.108     2.249       2.87        35.814      100.033     109.045     1.055       1581.211    1205.251    974.864     25.779      23.804      12.445      17.677      14.325      22.219      4.544       2.55        21.071      16200.0     23960.0     15320.0     4020.0      
68.3        216.557     152.922     2.273       2.505       35.229      100.527     101.159     1.055       1894.666    1355.941    1024.337    24.938      27.041      13.897      18.977      21.225      26.419      4.69        2.59        35.771      18600.0     23080.0     14660.0     3880.0      
68.4        209.114     152.688     2.287       2.394       33.847      101.943     88.946      1.055       2340.674    1689.944    1277.404    24.224      30.728      17.087      20.877      25.725      29.519      4.867       2.633       37.171      17400.0     23280.0     14460.0     3940.0      
68.5        217.222     153.141     2.323       2.5         33.273      104.309     77.945      1.055       2896.163    2181.95     1708.718    24.255      34.74       22.067      22.577      28.025      30.719      5.099       2.693       38.371      15000.0     22800.0     14640.0     4180.0      
68.6        205.719     153.744     2.36        2.798       31.972      107.56      68.736      1.055       3339.191    2620.43     2123.323    24.508      38.733      28.98       24.377      29.025      36.019      5.239       2.763       38.571      15240.0     23020.0     14880.0     4400.0      
68.7        176.268     153.458     2.383       3.197       31.145      111.64      61.283      1.055       3653.484    2984.777    2498.51     25.036      31.564      31.524      24.577      31.425      37.419      5.245       2.831       39.071      16920.0     23520.0     15020.0     4140.0      
68.8        151.783     153.618     2.385       3.597       30.295      116.575     55.187      1.055       3748.743    3147.078    2687.353    25.692      31.412      36.611      27.677      39.025      38.419      5.053       2.884       39.971      13560.0     23920.0     15680.001   4300.0      
68.9        156.415     154.561     2.379       3.817       29.209      122.253     50.262      1.055       3664.22     3050.297    2580.529    26.207      30.425      43.154      28.177      40.625      38.619      4.702       2.857       41.371      14520.0     23980.0     15699.999   4040.0      
69.0        164.132     152.368     2.383       3.968       28.054      128.477     45.773      1.055       3456.029    2796.664    2305.624    27.533      27.522      45.296      29.177      41.125      38.819      4.36        2.758       39.671      15360.0     23640.0     15879.999   3700.0      
69.1        149.188     153.234     2.39        3.819       27.337      135.032     41.804      1.065       3192.902    2505.266    2005.04     28.86       27.933      49.72       33.977      42.125      39.119      4.066       2.64        36.471      15720.0     23180.0     15560.001   3380.0      
69.2        108.526     153.978     2.387       3.931       26.176      141.715     37.927      1.065       2910.55     2215.13     1718.679    29.84       23.084      43.483      35.877      45.925      39.319      3.937       2.562       12.471      14880.0     23140.0     15540.0     3540.0      
69.3        74.225      153.853     2.37        4.119       25.082      148.262     34.033      1.065       2782.011    2120.173    1647.605    30.718      17.573      34.08       41.577      45.725      39.719      3.81        2.527       10.871      15840.0     22860.0     15040.0     3520.0      
69.4        42.961      154.114     2.369       4.476       23.876      154.327     30.173      1.065       2775.329    2178.516    1744.985    30.647      10.147      21.2        13.377      45.425      19.119      3.622       2.477       10.071      14040.0     22620.0     14720.0     3600.0      
69.5        30.063      157.64      2.36        4.868       22.871      159.475     26.446      1.065       2762.521    2215.814    1812.609    31.028      6.256       16.331      9.777       44.025      11.619      3.413       2.408       9.971       13800.0     22740.0     14280.0     3960.0      
69.6        26.132      161.015     2.347       5.377       22.029      163.435     22.991      1.065       2723.524    2220.066    1844.896    32.056      5.827       15.54       9.977       27.925      10.019      3.234       2.317       9.671       14400.0     22840.0     14320.0     4140.0      
69.7        29.551      159.251     2.32        5.54        21.439      166.336     19.923      1.065       2574.257    2134.183    1806.653    32.75       5.716       14.646      9.977       16.225      9.619       3.173       2.223       9.271       14160.0     22260.0     13980.0     4060.0      
69.8        30.833      154.625     2.28        5.625       20.977      168.268     17.853      1.065       2261.101    1895.376    1630.607    33.444      5.859       13.315      9.777       11.225      9.319       3.156       2.167       9.171       13800.0     23140.0     14320.0     4060.0      
69.9        27.318      154.633     2.248       5.676       20.579      169.554     16.648      1.065       1880.737    1563.878    1350.018    32.965      3.945       10.272      9.677       10.625      8.619       3.149       2.155       9.071       12480.0     23360.0     14880.0     4000.0      
70.0        23.217      155.025     2.25        5.605       20.264      170.405     16.26       1.065       1515.088    1229.258    1056.396    32.08       3.249       9.667       9.577       10.325      7.919       3.133       2.138       8.971       12000.0     23580.0     15200.0     3940.0      
70.1        28.05       160.167     2.233       5.417       20.285      171.103     16.273      1.065       1189.618    918.822     775.034     32.033      3.679       10.126      9.377       9.325       7.819       3.134       2.093       8.771       11760.0     24080.0     15300.0     4160.0      
