~Version Information Section
VERS.                                         2.0:CWLS log ASCII Standart – VERSION 2.0
WRAP.                                          NO:One line per depth step
~Well Information Section
STRT.M                                       -2.2:Начальная глубина
STOP.M                                      205.6:Конечная глубина
STEP.M                                          0:Шаг квантования по глубине
NULL.                                    -9999.25:Признак "Нет данных"
WELL.                                       108Мх:Скважина
~Parameter Information Section
~Curve Information Section
DEPTH.M                                          :Глубина
BK.Ohm*M                                         :BK     (БК)
DS.mm                                            :DS  (ДС)
GGK.g/cm3                                        :GGKp
ГК.mcr/h                                         :GK          (ГК)
GZ1.Ohm*M                                        :GZ1   ГЗ1(A0.4M0.1N)
GZ2.Ohm*M                                        :GZ2   ГЗ2(A1.0M0.1N)
GZ3.Ohm*M                                        :GZ3   ГЗ3(A2.0M0.5N)
GZ4.Ohm*M                                        :GZ4   ГЗ4(A4.0M0.5N)
GZ5.Ohm*M                                        :GZ5   ГЗ5(A8.0M0.5N)
GZR.Ohm*M                                        :GZK   ГЗK(N0.5M2.0A)
ИК.Ohm*M                                         :IK
НГК.ue                                           :NGK     (НГК)
NNKM.                                            :NNKm  (ННКм)
PS.mv                                            :PS       (ПС)
PZ.Ohm*M                                         :PZ    (КС)
RS.Ohm*M                                         :RS (Резистивиметр)
U1.mV                                            :U1
U2.mV                                            :U2
U3.mV                                            :U3
КП.%                                             :Кп
~ASCII LOG DATA
# ...
53.4        -9999.25    132.91      -9999.25    -9999.25    132.785     8.381       60.292      16545.443   209.069     723.765     -9999.25    -9999.25    -9999.25    568.241     279.617     7.522       1196.287    902.219     972.053     -9999.25    
53.43       285.845     -9999.25    2.127       2.909       -9999.25    -9999.25    -9999.25    -9999.25    -9999.25    -9999.25    18.994      7.218       5.255       -9999.25    -9999.25    -9999.25    -9999.25    -9999.25    -9999.25    2.279       
53.5        -9999.25    132.809     -9999.25    -9999.25    132.785     8.381       60.292      16545.443   209.069     723.765     -9999.25    -9999.25    -9999.25    552.539     240.533     7.522       1503.571    923.737     817.101     -9999.25    
53.53       494.796     -9999.25    2.143       3.141       -9999.25    -9999.25    -9999.25    -9999.25    -9999.25    -9999.25    18.96       7.181       5.152       -9999.25    -9999.25    -9999.25    -9999.25    -9999.25    -9999.25    1.967       
53.6        -9999.25    133.127     -9999.25    -9999.25    132.785     8.381       60.292      16545.443   209.069     723.765     -9999.25    -9999.25    -9999.25    547.871     200.123     7.522       1715.618    966.655     709.996     -9999.25    
53.63       155.029     -9999.25    2.167       3.589       -9999.25    -9999.25    -9999.25    -9999.25    -9999.25    -9999.25    18.927      6.999       4.999       -9999.25    -9999.25    -9999.25    -9999.25    -9999.25    -9999.25    1.713       
53.7        -9999.25    133.278     -9999.25    -9999.25    132.785     8.381       60.292      16545.443   209.069     723.765     -9999.25    -9999.25    -9999.25    536.601     159.494     7.522       1759.937    995.253     662.286     -9999.25    
53.73       122.671     -9999.25    2.225       4.157       -9999.25    -9999.25    -9999.25    -9999.25    -9999.25    -9999.25    18.894      6.878       4.785       -9999.25    -9999.25    -9999.25    -9999.25    -9999.25    -9999.25    1.97        
53.8        -9999.25    134.039     -9999.25    -9999.25    132.785     8.381       60.292      16545.443   209.069     723.765     -9999.25    -9999.25    -9999.25    527.651     119.657     7.522       1621.539    990.648     672.238     -9999.25    
53.83       116.707     -9999.25    2.285       4.647       -9999.25    -9999.25    -9999.25    -9999.25    -9999.25    -9999.25    18.909      6.915       4.521       -9999.25    -9999.25    -9999.25    -9999.25    -9999.25    -9999.25    2.468       
53.9        -9999.25    136.65      -9999.25    -9999.25    132.785     8.381       60.292      16545.443   209.069     723.765     -9999.25    -9999.25    -9999.25    533.438     82.739      7.522       1355.926    955.609     735.228     -9999.25    
53.93       138.731     -9999.25    2.313       4.64        -9999.25    -9999.25    -9999.25    -9999.25    -9999.25    -9999.25    18.958      7.272       4.536       -9999.25    -9999.25    -9999.25    -9999.25    -9999.25    -9999.25    2.618       
54.0        -9999.25    136.302     -9999.25    -9999.25    132.785     8.381       60.292      16545.443   209.069     723.765     -9999.25    -9999.25    -9999.25    566.959     50.098      7.522       1054.548    915.85      831.791     -9999.25    
54.03       181.63      -9999.25    2.302       4.284       -9999.25    -9999.25    -9999.25    -9999.25    -9999.25    -9999.25    18.815      7.722       5.005       -9999.25    -9999.25    -9999.25    -9999.25    -9999.25    -9999.25    2.034       
54.1        -9999.25    136.95      -9999.25    -9999.25    132.785     8.381       60.292      16545.443   209.069     723.765     -9999.25    -9999.25    -9999.25    629.297     23.284      8.428       844.242     894.635     991.413     -9999.25    
54.13       239.594     -9999.25    2.25        3.799       -9999.25    -9999.25    -9999.25    -9999.25    -9999.25    -9999.25    18.586      8.206       5.322       -9999.25    -9999.25    -9999.25    -9999.25    -9999.25    -9999.25    1.203       
54.2        -9999.25    134.471     -9999.25    -9999.25    132.785     8.381       60.292      16545.443   209.069     723.765     -9999.25    -9999.25    -9999.25    712.583     2.655       8.437       866.813     902.144     1114.098    -9999.25    
54.23       316.056     -9999.25    2.201       3.461       -9999.25    -9999.25    -9999.25    -9999.25    -9999.25    -9999.25    18.108      8.45        5.276       -9999.25    -9999.25    -9999.25    -9999.25    -9999.25    -9999.25    0.56        
54.3        -9999.25    134.077     -9999.25    -9999.25    132.785     8.381       60.292      16545.443   209.069     723.765     -9999.25    -9999.25    -9999.25    797.482     -11.804     8.446       1131.823    934.732     1203.208    -9999.25    
54.33       416.919     -9999.25    2.195       3.305       -9999.25    -9999.25    -9999.25    -9999.25    -9999.25    -9999.25    17.382      8.599       5.209       -9999.25    -9999.25    -9999.25    -9999.25    -9999.25    -9999.25    0.186       
54.4        -9999.25    133.552     -9999.25    -9999.25    132.785     8.381       60.292      16545.443   209.069     723.765     -9999.25    -9999.25    -9999.25    840.631     -20.865     8.455       1476.462    977.378     1212.411    -9999.25    
54.43       376.096     -9999.25    2.211       3.305       -9999.25    -9999.25    -9999.25    -9999.25    -9999.25    -9999.25    16.713      8.627       5.114       -9999.25    -9999.25    -9999.25    -9999.25    -9999.25    -9999.25    0.034       
54.5        -9999.25    133.394     -9999.25    -9999.25    132.785     8.381       60.292      16545.443   209.069     723.765     -9999.25    -9999.25    -9999.25    843.542     -25.384     8.464       1734.859    1031.864    1240.507    -9999.25    
54.53       81.353      -9999.25    2.249       3.384       -9999.25    -9999.25    -9999.25    -9999.25    -9999.25    -9999.25    16.253      8.532       4.983       -9999.25    -9999.25    -9999.25    -9999.25    -9999.25    -9999.25    0.091       
54.6        -9999.25    133.901     -9999.25    -9999.25    132.785     8.381       60.292      16545.443   209.069     723.765     -9999.25    -9999.25    -9999.25    842.895     -26.129     8.473       1858.149    1104.389    1245.948    -9999.25    
54.63       77.547      -9999.25    2.313       3.611       -9999.25    -9999.25    -9999.25    -9999.25    -9999.25    -9999.25    16.088      8.154       4.805       -9999.25    -9999.25    -9999.25    -9999.25    -9999.25    -9999.25    0.531       
54.7        -9999.25    134.255     -9999.25    -9999.25    132.785     8.381       60.292      16545.443   209.069     723.765     -9999.25    -9999.25    -9999.25    828.88      -23.66      7.576       1828.988    1184.471    1248.404    -9999.25    
54.73       73.921      -9999.25    2.368       4.212       -9999.25    -9999.25    -9999.25    -9999.25    -9999.25    -9999.25    16.244      7.596       4.434       -9999.25    -9999.25    -9999.25    -9999.25    -9999.25    -9999.25    1.271       
54.8        -9999.25    133.441     -9999.25    -9999.25    132.785     8.381       60.292      16545.443   209.069     723.765     -9999.25    -9999.25    -9999.25    813.558     -18.696     7.576       1629.501    1233.064    1252.104    -9999.25    
54.83       70.465      -9999.25    2.405       5.157       -9999.25    -9999.25    -9999.25    -9999.25    -9999.25    -9999.25    16.642      7.054       4.147       -9999.25    -9999.25    -9999.25    -9999.25    -9999.25    -9999.25    2.066       
54.9        -9999.25    133.896     -9999.25    -9999.25    132.785     8.381       60.292      16545.443   209.069     723.765     -9999.25    -9999.25    -9999.25    802.64      -11.617     7.576       1361.291    1229.006    1281.094    -9999.25    
54.93       59.909      -9999.25    2.402       5.924       -9999.25    -9999.25    -9999.25    -9999.25    -9999.25    -9999.25    17.056      6.752       4.034       -9999.25    -9999.25    -9999.25    -9999.25    -9999.25    -9999.25    2.553       
