~Version Information Section
VERS.                                         2.0:CWLS log ASCII Standart – VERSION 2.0
WRAP.                                          NO:One line per depth step
~Well Information Section
STRT.M                                        0.0:Начальная глубина
STOP.M                                      208.6:Конечная глубина
STEP.M                                          0:Шаг квантования по глубине
NULL.                                    -9999.25:Признак "Нет данных"
WELL.                                       140Мх:Скважина
~Parameter Information Section
~Curve Information Section
DEPTH.M                                          :Глубина
GZ1.ohmm                                         :Подошвенный градиент-зонд А0.4М0.1N
GZ2.ohmm                                         :Подошвенный градиент-зонд А1.0М0.1N
GZ3.ohmm                                         :Подошвенный градиент-зонд А2.0М0.5N
GZ5.ohmm                                         :Подошвенный градиент-зонд А8.0М1.0N
GZ3R.GZ3R                                        :GZ3R
GZ4.ohmm                                         :Подошвенный градиент-зонд А4.0М0.5N
GGK.g/cc                                         :Плотностной гамма-гамма каротаж
ГК.ur/h                                          :Гамма каротаж
ИК.ohmm                                          :Индукционный каротаж (сопротивление),
BK.ohmm                                          :Боковой каротаж
NKTS.ue                                          :Нейтронный каротаж по тепловым нейтронам (малый зонд)
WNK.De                                           :Водородосодержание по НК
НГК.ue                                           :Нейтронный каротаж по тепловым нейтронам (большой зонд)
PZ.ohmm                                          :Потенциал-зонд ИММ 0,5А; В4 0,25М
-.                                               :-      SP mv)
DS1.m                                            :Профиль 1 сечения ствола скважины по профилеметрии
DS.m                                             :Кавернометрия
DS2.m                                            :Профиль 2 сечения ствола скважины по профилеметрии
~ASCII LOG DATA
# ...
142.0       -9999.25    -9999.25    -9999.25    -9999.25    -9999.25    -9999.25    2.444       8.221       14.353      45.505      1.645       29.922      2.479       55.708      3624.604    0.153       0.15        0.147       
142.1       93.793      83.81       76.88       67.473      36.326      49.883      -9999.25    -9999.25    -9999.25    -9999.25    -9999.25    -9999.25    -9999.25    -9999.25    -9999.25    -9999.25    -9999.25    -9999.25    
142.2       -9999.25    -9999.25    -9999.25    -9999.25    -9999.25    -9999.25    2.414       8.404       14.014      33.629      1.532       30.972      2.311       50.539      3627.936    0.153       0.15        0.147       
142.3       90.336      101.425     78.27       63.989      39.211      61.198      -9999.25    -9999.25    -9999.25    -9999.25    -9999.25    -9999.25    -9999.25    -9999.25    -9999.25    -9999.25    -9999.25    -9999.25    
142.4       -9999.25    -9999.25    -9999.25    -9999.25    -9999.25    -9999.25    2.412       9.109       13.762      28.957      1.478       30.986      2.26        51.244      3630.895    0.153       0.15        0.147       
142.5       78.301      89.454      78.897      61.503      36.871      62.15       -9999.25    -9999.25    -9999.25    -9999.25    -9999.25    -9999.25    -9999.25    -9999.25    -9999.25    -9999.25    -9999.25    -9999.25    
142.6       -9999.25    -9999.25    -9999.25    -9999.25    -9999.25    -9999.25    2.408       8.615       13.631      30.264      1.493       35.231      2.156       48.98       3631.202    0.153       0.15        0.147       
142.7       66.552      67.13       58.253      53.833      29.417      45.514      -9999.25    -9999.25    -9999.25    -9999.25    -9999.25    -9999.25    -9999.25    -9999.25    -9999.25    -9999.25    -9999.25    -9999.25    
142.8       -9999.25    -9999.25    -9999.25    -9999.25    -9999.25    -9999.25    2.428       7.973       13.531      29.519      1.595       37.414      2.373       49.078      3626.765    0.153       0.15        0.147       
142.9       57.974      54.27       45.836      43.948      27.226      35.928      -9999.25    -9999.25    -9999.25    -9999.25    -9999.25    -9999.25    -9999.25    -9999.25    -9999.25    -9999.25    -9999.25    -9999.25    
143.0       -9999.25    -9999.25    -9999.25    -9999.25    -9999.25    -9999.25    2.469       8.405       13.563      39.687      1.581       30.508      2.534       46.859      3625.006    0.153       0.15        0.147       
143.1       50.091      45.322      41.337      39.245      27.059      32.549      -9999.25    -9999.25    -9999.25    -9999.25    -9999.25    -9999.25    -9999.25    -9999.25    -9999.25    -9999.25    -9999.25    -9999.25    
143.2       -9999.25    -9999.25    -9999.25    -9999.25    -9999.25    -9999.25    2.478       8.124       13.584      33.887      1.595       32.99       2.402       44.881      3614.505    0.155       0.151       0.147       
143.3       47.224      47.157      43.927      43.401      30.37       35.825      -9999.25    -9999.25    -9999.25    -9999.25    -9999.25    -9999.25    -9999.25    -9999.25    -9999.25    -9999.25    -9999.25    -9999.25    
143.4       -9999.25    -9999.25    -9999.25    -9999.25    -9999.25    -9999.25    2.488       7.843       13.576      39.307      1.64        32.97       2.491       46.381      3603.858    0.154       0.151       0.148       
143.5       56.475      57.916      48.7        49.109      35.171      39.735      -9999.25    -9999.25    -9999.25    -9999.25    -9999.25    -9999.25    -9999.25    -9999.25    -9999.25    -9999.25    -9999.25    -9999.25    
143.6       -9999.25    -9999.25    -9999.25    -9999.25    -9999.25    -9999.25    2.446       8.265       13.512      34.22       1.647       34.08       2.39        45.89       3600.786    0.155       0.152       0.149       
143.7       51.382      53.83       49.938      54.445      36.623      43.956      -9999.25    -9999.25    -9999.25    -9999.25    -9999.25    -9999.25    -9999.25    -9999.25    -9999.25    -9999.25    -9999.25    -9999.25    
143.8       -9999.25    -9999.25    -9999.25    -9999.25    -9999.25    -9999.25    2.396       8.458       13.404      39.402      1.62        33.332      2.334       42.028      3598.275    0.154       0.151       0.149       
143.9       58.095      51.028      49.334      58.054      35.605      53.283      -9999.25    -9999.25    -9999.25    -9999.25    -9999.25    -9999.25    -9999.25    -9999.25    -9999.25    -9999.25    -9999.25    -9999.25    
144.0       -9999.25    -9999.25    -9999.25    -9999.25    -9999.25    -9999.25    2.371       8.668       13.249      28.934      1.522       33.221      2.326       41.317      3601.331    0.154       0.151       0.148       
144.1       56.343      47.189      59.512      53.154      35.892      64.05       -9999.25    -9999.25    -9999.25    -9999.25    -9999.25    -9999.25    -9999.25    -9999.25    -9999.25    -9999.25    -9999.25    -9999.25    
144.2       -9999.25    -9999.25    -9999.25    -9999.25    -9999.25    -9999.25    2.391       9.089       13.177      32.308      1.558       32.619      2.351       45.803      3603.582    0.153       0.151       0.148       
144.3       76.946      60.37       54.244      47.942      30.747      52.678      -9999.25    -9999.25    -9999.25    -9999.25    -9999.25    -9999.25    -9999.25    -9999.25    -9999.25    -9999.25    -9999.25    -9999.25    
144.4       -9999.25    -9999.25    -9999.25    -9999.25    -9999.25    -9999.25    2.441       8.877       13.133      32.366      1.55        33.138      2.324       46.458      3603.513    0.154       0.151       0.148       
144.5       49.471      34.076      42.545      40.932      25.726      43.61       -9999.25    -9999.25    -9999.25    -9999.25    -9999.25    -9999.25    -9999.25    -9999.25    -9999.25    -9999.25    -9999.25    -9999.25    
144.6       -9999.25    -9999.25    -9999.25    -9999.25    -9999.25    -9999.25    2.44        9.317       13.087      29.252      1.57        34.711      2.293       46.75       3597.686    0.154       0.15        0.147       
144.7       53.501      36.803      34.174      40.745      22.301      32.805      -9999.25    -9999.25    -9999.25    -9999.25    -9999.25    -9999.25    -9999.25    -9999.25    -9999.25    -9999.25    -9999.25    -9999.25    
144.8       -9999.25    -9999.25    -9999.25    -9999.25    -9999.25    -9999.25    2.465       9.084       13.063      37.307      1.639       35.075      2.424       44.295      3590.85     0.153       0.15        0.147       
144.9       48.355      34.312      34.819      39.735      25.39       32.547      -9999.25    -9999.25    -9999.25    -9999.25    -9999.25    -9999.25    -9999.25    -9999.25    -9999.25    -9999.25    -9999.25    -9999.25    
145.0       -9999.25    -9999.25    -9999.25    -9999.25    -9999.25    -9999.25    2.442       9.422       12.865      37.02       1.586       30.919      2.503       38.396      3590.275    0.154       0.151       0.148       
145.1       50.6        42.006      39.422      42.817      33.556      39.161      -9999.25    -9999.25    -9999.25    -9999.25    -9999.25    -9999.25    -9999.25    -9999.25    -9999.25    -9999.25    -9999.25    -9999.25    
145.2       -9999.25    -9999.25    -9999.25    -9999.25    -9999.25    -9999.25    2.44        9.551       12.686      25.439      1.583       30.766      2.499       41.879      3589.715    0.154       0.151       0.147       
145.3       60.246      61.557      44.294      47.652      38.325      44.465      -9999.25    -9999.25    -9999.25    -9999.25    -9999.25    -9999.25    -9999.25    -9999.25    -9999.25    -9999.25    -9999.25    -9999.25    
145.4       -9999.25    -9999.25    -9999.25    -9999.25    -9999.25    -9999.25    2.445       8.966       12.628      32.79       1.593       30.002      2.656       41.37       3590.053    0.153       0.15        0.147       
