~Version Information Section
VERS.                                         2.0:CWLS log ASCII Standart – VERSION 2.0
WRAP.                                          NO:One line per depth step
~Well Information Section
STRT.M                                        0.0:Начальная глубина
STOP.M                                      166.2:Конечная глубина
STEP.M                                          0:Шаг квантования по глубине
NULL.                                    -9999.25:Признак "Нет данных"
WELL.                                         1Мх:Скважина
~Parameter Information Section
~Curve Information Section
DEPTH.M                                          :Глубина
BK.lgОмм                                         :BK
ПРОФ_СР.мм                                       :ПРОФ_СР
GGKP.имп/мин                                     :GGKp
ГК.мкР/час                                       :GK
ИК.мСм/м                                         :IK
PS.мВ                                            :PS
PZ.Омм                                           :PZ
RIS.Омм                                          :RIS
U1.мВ                                            :U1
U2.мВ                                            :U2
U3.mv                                            :U3
WS.%                                             :WS
ГЗ1.Омм                                          :ГЗ1
ГЗ2.Омм                                          :ГЗ2
ГЗ3.Омм                                          :ГЗ3
ГЗ4.Oмм                                          :ГЗ4
ГЗК.Омм                                          :ГЗК
НГК.усл.ед                                       :ННКб
ННКМ.усл.ед                                      :ННКм
ГЗ5.Oмм                                          :ГЗ5
ПЛ1.имп/мин                                      :ПЛ1
ПЛ2.имп/мин                                      :ПЛ2
ПЛ3.имп/мин                                      :ПЛ3
ПЛ4.имп/мин                                      :ПЛ4
~ASCII LOG DATA
# ...
37.8        28.071      161.654     2.204       5.632       16.052      109.859     12.66       1.106       808.82      710.201     683.938     36.448      1.189       6.573       6.177       6.625       6.119       2.582       1.818       4.971       21720.0     25460.0     17320.0     4160.0      
37.9        32.524      160.56      2.213       5.503       16.115      109.213     13.262      1.106       699.255     621.006     613.952     35.965      1.479       6.766       6.077       6.625       6.019       2.772       1.884       4.971       21120.0     24760.0     16380.0     4000.0      
38.0        32.223      158.732     2.215       5.449       16.024      108.554     13.754      1.106       645.981     541.341     532.358     35.863      1.179       6.693       5.977       6.525       5.919       2.834       1.953       4.971       18960.0     23520.0     16059.999   4160.0      
38.1        26.919      158.763     2.22        5.718       15.859      107.527     14.177      1.106       687.156     489.78      439.312     35.977      1.01        6.645       5.977       6.425       5.819       2.751       1.978       4.971       19080.0     23660.0     16100.001   4300.0      
38.2        21.778      159.289     2.214       5.994       15.608      105.791     14.469      1.106       745.914     461.127     362.419     37.133      0.894       6.572       5.977       6.325       5.819       2.578       1.949       4.971       17880.0     23400.0     15320.0     4240.0      
38.3        20.223      161.73      2.201       6.094       15.4        103.272     14.251      1.106       762.001     415.705     282.793     38.045      0.928       6.524       5.977       6.225       5.719       2.414       1.888       4.971       15600.0     23040.0     15020.0     4220.0      
38.4        20.566      161.815     2.207       6.174       15.156      100.011     13.632      1.106       735.419     353.51      200.427     38.336      0.986       6.524       5.877       6.225       5.619       2.343       1.841       4.971       16200.0     22680.0     15020.0     4100.0      
38.5        20.342      161.09      2.201       6.292       14.96       96.098      12.909      1.106       744.646     385.667     233.212     38.54       0.899       6.452       5.777       6.125       5.619       2.318       1.817       4.971       16080.0     22840.0     15140.0     3860.0      
38.6        19.409      162.122     2.205       6.074       14.808      91.5        12.416      1.106       695.064     423.55      309.473     38.203      0.826       6.355       5.777       6.025       5.619       2.372       1.797       4.971       18000.0     22660.0     15220.0     3860.0      
38.7        19.066      163.238     2.208       5.894       14.745      86.484      12.16       1.106       663.55      472.363     401.61      37.889      0.793       6.331       5.677       6.025       5.619       2.444       1.787       4.971       17520.0     22680.0     15220.0     4040.0      
38.8        20.463      162.558     2.209       5.904       14.667      81.464      12.005      1.106       650.103     532.098     509.613     37.551      0.875       6.186       5.677       5.925       5.619       2.522       1.79        4.971       17640.0     22620.0     15140.0     4280.0      
38.9        23.692      161.817     2.226       5.892       14.808      77.009      12.04       1.106       650.684     593.333     629.215     37.503      1.029       6.186       5.577       5.925       5.619       2.574       1.805       4.971       16680.0     22680.0     14960.0     4360.0      
39.0        27.459      160.029     2.234       5.807       14.848      73.402      12.415      1.106       552.616     556.522     672.867     37.78       1.272       6.548       5.477       5.925       5.619       2.605       1.837       4.971       15960.0     23200.0     15020.0     4340.0      
39.1        28.757      157.79      2.226       5.825       14.903      70.906      12.907      1.106       503.173     522.391     673.779     38.058      1.295       6.573       5.377       5.925       5.619       2.59        1.882       4.971       17040.0     23080.0     14880.0     4340.0      
39.2        27.014      156.227     2.223       5.793       14.792      69.694      13.353      1.106       502.353     490.939     631.948     38.442      1.238       6.597       5.377       5.825       5.619       2.529       1.923       4.971       17040.0     23420.0     14900.0     4320.0      
39.3        23.308      156.181     2.201       5.769       14.59       69.902      13.687      1.106       550.158     462.169     547.377     38.866      1.184       6.548       5.377       5.725       5.619       2.44        1.942       4.971       17640.0     24000.0     15699.999   4000.0      
39.4        20.397      157.11      2.181       6.031       14.37       71.272      13.709      1.106       618.607     456.109     470.219     39.287      1.063       6.572       5.377       5.725       5.619       2.325       1.916       5.071       15600.0     24280.0     16119.999   3980.0      
39.5        18.827      158.837     2.17        6.05        14.231      73.567      13.562      1.106       707.693     472.759     400.482     40.062      1.039       6.572       5.377       5.725       5.519       2.222       1.862       5.071       15600.0     24460.0     16260.0     4240.0      
39.6        18.102      160.48      2.148       6.287       14.012      76.227      13.166      1.106       770.756     472.572     340.0       40.879      0.981       6.5         5.377       5.725       5.519       2.133       1.796       5.071       15480.0     24600.0     16560.0     4260.0      
39.7        17.851      160.963     2.145       6.57        13.979      78.957      12.707      1.106       807.797     455.547     288.774     41.182      0.943       6.5         5.377       5.725       5.419       2.117       1.735       5.071       17760.0     24480.0     16860.0     4080.0      
39.8        17.728      161.486     2.155       6.91        13.937      81.3        12.245      1.106       782.388     437.384     283.547     41.304      0.952       6.476       5.377       5.725       5.319       2.138       1.685       5.071       16680.0     24420.0     16380.0     4440.0      
39.9        17.527      161.257     2.168       6.872       13.958      82.772      11.832      1.106       726.553     407.479     278.434     40.673      0.918       6.452       5.377       5.725       5.319       2.157       1.655       5.071       22320.0     24700.0     16700.0     4560.0      
40.0        17.366      161.368     2.186       6.964       14.021      82.994      11.491      1.106       640.294     365.835     273.438     40.083      0.909       6.379       5.377       5.725       5.319       2.153       1.663       5.071       17880.0     24920.0     16780.0     4660.0      
40.1        17.558      162.285     2.195       6.965       14.092      82.305      11.285      1.106       553.164     342.685     288.718     40.019      0.904       6.403       5.377       5.725       5.319       2.15        1.694       5.071       19560.0     24860.0     16800.0     4620.0      
40.2        18.185      163.117     2.198       7.019       14.193      80.898      11.159      1.106       465.158     338.028     324.279     39.709      0.914       6.427       5.377       5.725       5.319       2.185       1.727       5.071       17040.0     24920.0     17200.0     4860.0      
40.3        18.769      162.302     2.201       7.136       14.281      79.366      11.092      1.106       423.082     326.648     324.753     39.448      0.899       6.403       5.377       5.725       5.319       2.264       1.739       5.071       18720.0     24720.0     17060.0     4600.0      
40.4        19.188      161.39      2.206       7.292       14.339      78.04       11.139      1.106       426.933     308.543     290.14      39.69       0.962       6.331       5.377       5.725       5.319       2.319       1.734       4.971       19320.0     24200.0     16380.0     4580.0      
