~Version Information Section
VERS.                                         2.0:CWLS log ASCII Standart – VERSION 2.0
WRAP.                                          NO:One line per depth step
~Well Information Section
STRT.M                                        0.4:Начальная глубина
STOP.M                                      191.4:Конечная глубина
STEP.M                                          0:Шаг квантования по глубине
NULL.                                    -9999.25:Признак "Нет данных"
WELL.                                       113Мх:Скважина
~Parameter Information Section
~Curve Information Section
DEPTH.M                                          :Глубина
БК.Омм                                           :BK     (БК)
DСР.мм                                           :DS  (ДС)
GGKP.g/cm3                                       :GGKp
ГК.гамма                                         :GK          (ГК)
А0.4М0.1N.Омм                                    :GZ1   ГЗ1(A0.4M0.1N)
А1.0М0.1N.Омм                                    :GZ2   ГЗ2(A1.0M0.1N)
А2.0М0.5N.Омм                                    :GZ3   ГЗ3(A2.0M0.5N)
А4.0М0.5N.Oмм                                    :GZ4   ГЗ4(A4.0M0.5N)
А8.0М1.0N.Омм                                    :GZ5   ГЗ5(A8.0M0.5N)
N0.5M2.0A.Омм                                    :GZK   ГЗK(N0.5M2.0A)
ИК.мСм/м                                         :IK
НГК.усл.ед                                       :NNKb  (ННКб)
ННКМ.усл.ед                                      :NNKm  (ННКм)
ПС.мВ                                            :PS       (ПС)
PZ.Омм                                           :PZ    (КС)
R.Омм                                            :RS (Резистивиметр)
U1.мВ                                            :U1
U2.mV                                            :U2
U3.мВ                                            :U3
КП.%                                             :Кп
~ASCII LOG DATA
# ...
141.2       35.083      131.777     2.333       5.546       36.086      29.426      28.759      22.143      21.631      33.586      22.995      2.567       1.684       155.894     59.701      1.12        295.124     267.156     293.455     30.955      
141.4       35.383      136.195     2.337       5.335       36.209      29.426      28.759      22.143      21.698      33.644      23.32       2.525       1.663       156.445     60.405      1.12        279.871     185.389     208.491     31.096      
141.6       40.935      136.461     2.326       5.223       37.813      30.112      29.309      22.989      22.207      34.113      24.226      2.469       1.643       157.098     60.972      1.12        373.997     164.157     109.964     30.949      
141.8       44.197      136.014     2.309       5.522       41.013      32.192      31.264      24.785      23.114      34.852      24.779      2.545       1.663       157.803     61.245      1.12        381.528     191.776     176.798     30.914      
142.0       45.601      136.023     2.29        5.564       43.884      34.764      33.663      26.501      23.909      35.236      24.919      2.634       1.662       158.47      61.04       1.12        214.035     204.989     274.118     30.071      
142.2       47.149      136.846     2.284       5.394       45.082      36.991      35.172      27.184      24.081      35.237      24.76       2.682       1.703       159.007     60.377      1.12        293.639     235.095     274.173     29.355      
142.4       44.958      136.65      2.296       5.566       45.06       37.778      35.359      27.201      23.875      34.786      24.188      2.728       1.745       159.364     59.297      1.12        495.773     247.002     186.701     29.171      
142.6       40.876      136.205     2.318       5.585       44.148      37.725      35.05       26.603      22.837      33.774      23.366      2.724       1.681       159.555     57.915      1.12        577.441     247.035     123.656     28.136      
142.8       40.667      135.852     2.358       5.482       41.43       36.591      33.306      24.597      21.231      32.348      22.769      2.769       1.689       159.633     56.418      1.12        499.783     239.565     134.324     28.115      
143.0       41.468      136.542     2.381       5.659       37.489      33.921      30.54       21.998      19.545      30.434      22.3        2.828       1.75        159.656     54.958      1.12        286.61      208.145     179.316     29.237      
143.2       37.279      136.43      2.363       6.318       34.111      31.493      28.282      20.05       18.15       28.533      21.576      2.526       1.673       159.661     53.691      1.12        213.567     202.227     252.511     30.268      
143.4       31.552      136.059     2.326       6.58        32.196      30.146      27.402      19.455      17.365      27.462      20.975      2.261       1.577       159.661     52.751      1.12        191.729     208.305     349.533     32.151      
143.6       31.076      135.882     2.293       6.419       31.912      29.983      27.388      19.455      17.167      27.172      20.721      2.252       1.552       159.66      52.171      1.12        213.744     206.315     283.264     32.57       
143.8       31.68       137.108     2.281       6.031       31.912      29.987      27.5        19.654      17.163      27.062      20.641      2.345       1.551       159.651     51.863      1.12        249.557     183.668     202.499     31.992      
144.0       32.504      136.744     2.277       6.049       32.368      30.337      28.266      20.216      17.203      26.972      20.63       2.411       1.566       159.614     51.655      1.12        332.8       204.388     176.648     31.524      
144.2       34.689      137.344     2.281       6.215       33.291      30.701      29.313      20.639      17.3        26.882      20.754      2.402       1.599       159.506     51.383      1.12        277.169     199.346     213.037     30.944      
144.4       35.036      137.58      2.281       6.0         33.456      30.711      30.007      20.728      17.368      26.69       20.817      2.434       1.607       159.269     50.979      1.12        180.999     177.603     247.035     31.571      
144.6       33.313      138.148     2.28        5.939       33.324      30.353      30.307      20.722      17.413      26.315      20.643      2.405       1.579       158.855     50.485      1.12        135.574     155.6       202.133     32.014      
144.8       31.863      138.616     2.29        5.957       32.309      29.247      30.493      20.713      17.485      25.814      20.513      2.292       1.591       158.275     50.016      1.12        156.861     193.634     251.775     33.022      
145.0       30.74       137.939     2.303       6.151       31.562      28.522      30.67       20.713      17.693      25.484      20.464      2.256       1.586       157.605     49.677      1.12        216.877     235.643     308.174     33.985      
145.2       30.483      138.683     2.304       6.354       31.54       28.47       31.045      21.024      18.101      25.365      20.388      2.216       1.558       156.973     49.493      1.12        275.076     256.715     335.668     33.708      
145.4       31.229      138.226     2.291       6.28        31.703      28.552      31.781      21.933      18.572      25.32       20.392      2.283       1.576       156.488     49.417      1.12        299.689     253.42      314.931     33.079      
145.6       32.559      137.915     2.301       6.245       32.998      29.433      32.271      23.076      18.731      25.194      20.324      2.472       1.599       156.204     49.37       1.12        277.776     251.064     323.842     30.991      
145.8       34.282      136.192     2.335       5.736       34.693      30.507      32.292      23.66       18.686      24.597      20.165      2.684       1.681       156.147     49.267      1.12        225.743     268.942     436.57      30.248      
146.0       34.876      136.655     2.354       5.785       35.224      30.752      31.83       23.714      18.197      23.163      19.859      2.659       1.699       156.369     49.028      1.12        364.476     329.171     437.058     29.302      
146.2       33.864      136.953     2.352       6.061       35.149      30.681      30.574      23.46       17.321      21.292      19.34       2.561       1.658       156.988     48.608      1.12        505.929     331.557     345.345     29.516      
146.4       32.687      136.751     2.355       6.395       33.832      29.946      29.084      22.751      16.556      19.709      18.793      2.646       1.667       158.122     48.046      1.12        465.138     270.135     245.913     30.185      
146.6       30.524      136.572     2.356       5.953       31.354      29.121      27.84       22.085      16.153      18.832      18.099      2.494       1.665       159.798     47.466      1.12        212.393     190.956     222.634     30.853      
146.8       27.452      136.257     2.332       6.095       28.631      28.281      27.17       21.677      16.013      18.634      17.398      2.287       1.588       161.907     47.007      1.12        219.762     166.514     173.004     32.528      
147.0       25.525      135.713     2.299       6.018       26.517      27.339      26.873      21.399      15.982      18.634      16.828      2.147       1.528       164.269     46.742      1.12        226.338     154.169     148.541     33.615      
147.2       24.353      137.008     2.291       6.251       25.173      26.17       26.54       21.095      15.978      18.871      16.365      2.136       1.509       166.741     46.638      1.12        208.145     155.233     157.772     34.347      
147.4       23.947      138.513     2.3         6.549       24.382      24.872      26.211      20.763      15.969      19.503      16.06       2.136       1.503       169.285     46.655      1.12        247.536     160.572     147.48      33.953      
