~Version Information Section
VERS.                                         2.0:CWLS log ASCII Standart – VERSION 2.0
WRAP.                                          NO:One line per depth step
~Well Information Section
STRT.M                                        0.5:Начальная глубина
STOP.M                                      201.9:Конечная глубина
STEP.M                                          0:Шаг квантования по глубине
NULL.                                    -9999.25:Признак "Нет данных"
WELL.                                       138Мх:Скважина
~Parameter Information Section
~Curve Information Section
DEPTH.M                                          :Глубина
БК.Омм                                           :BK     (БК)
DСР.мм                                           :DS  (ДС)
W.g/cm3                                          :GGKp
ГК.гамма                                         :GK          (ГК)
А0.4М0.1N.Омм.ohmm                               :GZ1   ГЗ1(A0.4M0.1N)
А1.0М0.1N.Омм.ohmm                               :GZ2   ГЗ2(A1.0M0.1N)
А2.0М0.5N.Омм.ohmm                               :GZ3   ГЗ3(A2.0M0.5N)
А4.0М0.5N.Oмм.ohmm                               :GZ4   ГЗ4(A4.0M0.5N)
А8.0М1.0N.Омм.ohmm                               :GZ5   ГЗ5(A8.0M0.5N)
N0.5M2.0A.Омм.ohmm                               :GZK   ГЗK(N0.5M2.0A)
ИК.мСм/м                                         :IK
ННКМ.усл.ед                                      :NNKm  (ННКм)
ПС.мВ                                            :PS       (ПС)
КС.Омм                                           :PZ    (КС)
R.Омм                                            :RS (Резистивиметр)
U1.мВ                                            :U1
U2.mV                                            :U2
U3.мВ                                            :U3
КП.%                                             :Кп
НГК.усл.ед                                       :NGK
~ASCII LOG DATA
# ...
195.7       20.336      126.448     2.103       6.727       -9999.25    -9999.25    -9999.25    -9999.25    -9999.25    -9999.25    11.254      1.588       219.816     41.608      -9999.25    1048.828    652.393     415.21      32.388      1.081       
195.8       20.534      126.537     2.107       6.958       -9999.25    -9999.25    -9999.25    -9999.25    -9999.25    -9999.25    11.35       1.602       219.848     40.768      -9999.25    881.304     595.886     418.291     30.937      1.096       
195.9       19.289      126.564     2.111       7.272       -9999.25    -9999.25    -9999.25    -9999.25    -9999.25    -9999.25    11.41       1.625       219.88      39.976      -9999.25    695.069     532.171     422.925     28.996      1.115       
196.0       18.757      126.581     2.118       7.572       -9999.25    -9999.25    -9999.25    -9999.25    -9999.25    -9999.25    11.412      1.646       219.896     39.216      -9999.25    590.777     499.226     443.085     27.635      1.107       
196.1       16.914      126.393     2.12        7.309       -9999.25    -9999.25    -9999.25    -9999.25    -9999.25    -9999.25    11.357      1.649       219.896     38.528      -9999.25    748.392     592.115     514.181     27.884      1.061       
196.2       16.228      126.092     2.118       7.061       -9999.25    -9999.25    -9999.25    -9999.25    -9999.25    -9999.25    11.329      1.643       219.896     37.896      -9999.25    921.907     829.792     594.467     27.177      1.075       
196.3       21.261      126.269     2.113       6.708       -9999.25    -9999.25    -9999.25    -9999.25    -9999.25    -9999.25    11.362      1.638       219.88      37.304      -9999.25    1079.254    1037.89     648.069     27.137      1.067       
196.4       24.126      126.272     2.105       6.609       -9999.25    -9999.25    -9999.25    -9999.25    -9999.25    -9999.25    11.463      1.622       219.768     36.736      -9999.25    1037.884    1058.729    639.565     30.391      1.089       
196.5       23.184      126.231     2.098       6.553       -9999.25    -9999.25    -9999.25    -9999.25    -9999.25    -9999.25    11.623      1.549       219.56      36.192      -9999.25    924.29      847.755     565.806     34.579      1.072       
196.6       20.904      126.137     2.096       6.567       -9999.25    -9999.25    -9999.25    -9999.25    -9999.25    -9999.25    11.77       1.506       219.256     35.616      -9999.25    797.204     635.843     470.721     37.099      1.075       
196.7       20.511      126.104     2.098       6.422       -9999.25    -9999.25    -9999.25    -9999.25    -9999.25    -9999.25    11.86       1.555       218.856     35.024      -9999.25    699.981     518.315     386.828     35.755      1.074       
196.8       21.138      126.052     2.098       6.741       -9999.25    -9999.25    -9999.25    -9999.25    -9999.25    -9999.25    11.919      1.577       218.376     34.456      -9999.25    633.878     487.8       354.346     34.31       1.059       
196.9       21.483      126.025     2.1         7.233       -9999.25    -9999.25    -9999.25    -9999.25    -9999.25    -9999.25    11.971      1.556       217.896     33.952      -9999.25    560.525     515.047     368.732     33.531      1.05        
197.0       20.717      125.929     2.099       7.793       -9999.25    -9999.25    -9999.25    -9999.25    -9999.25    -9999.25    12.033      1.544       217.416     33.56       -9999.25    480.357     516.298     385.174     33.501      1.057       
197.1       19.428      125.931     2.092       7.777       -9999.25    -9999.25    -9999.25    -9999.25    -9999.25    -9999.25    12.079      1.54        216.936     33.32       -9999.25    425.344     513.192     403.68      32.582      1.067       
197.2       19.851      125.866     2.086       7.301       -9999.25    -9999.25    -9999.25    -9999.25    -9999.25    -9999.25    12.167      1.558       216.456     33.288      -9999.25    407.259     482.846     409.856     31.667      1.053       
197.3       22.219      125.84      2.087       6.909       -9999.25    -9999.25    -9999.25    -9999.25    -9999.25    -9999.25    12.276      1.581       215.944     33.288      -9999.25    407.259     478.488     412.945     32.568      1.02        
197.4       25.605      125.809     2.091       6.823       -9999.25    -9999.25    -9999.25    -9999.25    -9999.25    -9999.25    12.412      1.569       215.352     33.288      -9999.25    -9999.25    -9999.25    -9999.25    34.605      1.013       
197.5       29.652      125.829     2.101       7.296       -9999.25    -9999.25    -9999.25    -9999.25    -9999.25    -9999.25    12.607      1.554       214.68      33.288      -9999.25    -9999.25    -9999.25    -9999.25    36.036      1.017       
197.6       32.245      125.839     2.111       7.645       -9999.25    -9999.25    -9999.25    -9999.25    -9999.25    -9999.25    12.822      1.56        213.96      33.504      -9999.25    -9999.25    -9999.25    -9999.25    35.382      1.039       
197.7       33.931      125.707     2.115       7.508       -9999.25    -9999.25    -9999.25    -9999.25    -9999.25    -9999.25    13.065      1.573       213.224     33.992      -9999.25    -9999.25    -9999.25    -9999.25    34.739      1.035       
197.8       38.401      125.519     2.114       7.213       -9999.25    -9999.25    -9999.25    -9999.25    -9999.25    -9999.25    13.338      1.593       212.536     34.752      -9999.25    -9999.25    -9999.25    -9999.25    33.859      1.04        
197.9       46.902      125.255     2.113       7.068       -9999.25    -9999.25    -9999.25    -9999.25    -9999.25    -9999.25    13.621      1.66        211.928     35.784      -9999.25    -9999.25    -9999.25    -9999.25    32.718      1.064       
198.0       56.092      124.805     2.117       7.061       -9999.25    -9999.25    -9999.25    -9999.25    -9999.25    -9999.25    13.928      1.768       211.4       37.04       -9999.25    -9999.25    -9999.25    -9999.25    31.103      1.096       
198.1       71.496      124.228     2.123       7.035       -9999.25    -9999.25    -9999.25    -9999.25    -9999.25    -9999.25    14.286      1.84        210.952     38.472      -9999.25    -9999.25    -9999.25    -9999.25    29.497      1.076       
198.2       99.513      123.827     2.134       6.944       -9999.25    -9999.25    -9999.25    -9999.25    -9999.25    -9999.25    14.713      1.876       210.6       40.04       -9999.25    -9999.25    -9999.25    -9999.25    27.251      1.048       
198.3       98.979      123.768     2.149       7.298       -9999.25    -9999.25    -9999.25    -9999.25    -9999.25    -9999.25    15.26       1.932       210.312     41.712      -9999.25    -9999.25    -9999.25    -9999.25    25.548      0.991       
198.4       -9999.25    124.063     2.161       7.467       -9999.25    -9999.25    -9999.25    -9999.25    -9999.25    -9999.25    15.845      1.992       210.088     43.592      -9999.25    -9999.25    -9999.25    -9999.25    24.139      1.037       
198.5       -9999.25    123.991     2.167       7.758       -9999.25    -9999.25    -9999.25    -9999.25    -9999.25    -9999.25    16.407      2.034       209.944     45.792      -9999.25    -9999.25    -9999.25    -9999.25    23.717      1.084       
198.6       -9999.25    122.474     2.174       7.569       -9999.25    -9999.25    -9999.25    -9999.25    -9999.25    -9999.25    16.959      2.071       209.864     48.36       -9999.25    -9999.25    -9999.25    -9999.25    23.309      1.165       
198.7       -9999.25    122.416     2.175       7.57        -9999.25    -9999.25    -9999.25    -9999.25    -9999.25    -9999.25    17.487      2.124       209.816     51.376      -9999.25    -9999.25    -9999.25    -9999.25    23.082      1.2         
198.8       -9999.25    121.05      2.17        -9999.25    -9999.25    -9999.25    -9999.25    -9999.25    -9999.25    -9999.25    17.977      2.182       209.8       54.936      -9999.25    -9999.25    -9999.25    -9999.25    22.418      1.241       
