~Version Information Section
VERS.                                         2.0:CWLS log ASCII Standart – VERSION 2.0
WRAP.                                          NO:One line per depth step
~Well Information Section
STRT.M                                        0.6:Начальная глубина
STOP.M                                      191.4:Конечная глубина
STEP.M                                          0:Шаг квантования по глубине
NULL.                                    -9999.25:Признак "Нет данных"
WELL.                                       129Мх:Скважина
~Parameter Information Section
~Curve Information Section
DEPTH.M                                          :Глубина
BK.lgОмм                                         :BK     (БК)
ПРОФ_СР.мм                                       :DS  (ДС)
ГК.имп/мин                                       :GK          (ГК)
ГЗ1.Омм                                          :GZ1   ГЗ1(A0.4M0.1N)
ГЗ2.Омм                                          :GZ2   ГЗ2(A1.0M0.1N)
ГЗ3.Омм                                          :GZ3   ГЗ3(A2.0M0.5N)
ГЗ4.Oмм                                          :GZ4   ГЗ4(A4.0M0.5N)
ГЗ5.Oмм                                          :GZ5   ГЗ5(A8.0M0.5N)
ГЗК.Омм                                          :GZK   ГЗK(N0.5M2.0A)
ИК.мСм/м                                         :IK
НГК.усл.ед                                       :NNKb  (ННКб)
ННКМ.усл.ед                                      :NNKm  (ННКм)
PZ.Омм                                           :PZ    (КС)
РЕЗ.Омм                                          :RS (Резистивиметр)
U1.мВ                                            :U1
U2.mV                                            :U2
U3.мВ                                            :U3
КП.%                                             :Кп
ПС.                                              :ПС
~ASCII LOG DATA
# ...
109.4       1.053       95.101      1.898       0.078       0.147       -9999.25    5.906       -0.572      0.217       67.577      3.074       2.227       -9999.25    1.12        -9999.25    -9999.25    -9999.25    31.029      -9999.25    
109.5       1.083       95.143      2.362       0.079       0.15        0.428       5.91        -0.597      0.214       65.88       2.739       2.019       -9999.25    1.12        -9999.25    -9999.25    -9999.25    31.022      -9999.25    
109.6       1.111       95.067      2.509       0.079       0.15        0.434       5.918       -0.616      0.207       63.715      2.577       1.872       -9999.25    1.12        -9999.25    -9999.25    -9999.25    31.029      -9999.25    
109.7       1.145       95.036      2.803       0.079       0.15        0.434       5.936       -0.626      0.199       64.0        2.617       1.816       -9999.25    1.12        -9999.25    -9999.25    -9999.25    31.469      -9999.25    
109.8       1.21        95.005      2.796       0.078       0.147       0.434       5.967       -0.629      0.191       65.587      2.67        1.762       -9999.25    1.12        -9999.25    -9999.25    -9999.25    32.137      -9999.25    
109.9       1.333       94.97       2.784       0.077       0.14        0.428       6.01        -0.629      0.182       63.715      2.568       1.719       -9999.25    1.12        -9999.25    -9999.25    -9999.25    32.809      -9999.25    
110.0       1.47        94.879      3.091       0.074       0.13        0.415       6.058       -0.627      0.175       63.715      2.381       1.729       -9999.25    1.12        -9999.25    -9999.25    -9999.25    34.164      -9999.25    
110.1       1.576       94.827      3.245       0.071       0.12        0.397       6.101       -0.621      0.171       62.224      2.299       1.721       -9999.25    1.12        -9999.25    -9999.25    -9999.25    35.32       -9999.25    
110.2       1.622       94.839      4.573       0.067       0.111       0.38        6.128       -0.609      0.171       65.88       2.275       1.625       -9999.25    1.12        -9999.25    -9999.25    -9999.25    35.451      -9999.25    
110.3       1.594       94.851      4.838       0.063       0.102       0.366       6.142       -0.591      0.173       65.587      2.367       1.548       -9999.25    1.12        -9999.25    -9999.25    -9999.25    35.52       -9999.25    
110.4       1.562       94.815      4.224       0.06        0.096       0.355       6.15        -0.567      0.179       65.88       2.37        1.557       -9999.25    1.12        -9999.25    -9999.25    -9999.25    35.817      -9999.25    
110.5       1.538       94.839      4.259       0.057       0.092       0.345       6.162       -0.538      0.187       63.715      2.281       1.598       -9999.25    1.12        -9999.25    -9999.25    -9999.25    35.457      -9999.25    
110.6       1.56        94.824      4.435       0.057       0.092       0.334       6.184       -0.506      0.195       64.0        2.308       1.653       -9999.25    1.12        -9999.25    -9999.25    -9999.25    34.86       -9999.25    
110.7       1.582       94.866      4.214       0.057       0.092       0.324       6.22        -0.473      0.201       63.715      2.422       1.682       -9999.25    1.12        -9999.25    -9999.25    -9999.25    34.899      -9999.25    
110.8       1.596       94.87       3.994       0.057       0.096       0.314       6.266       -0.442      0.204       65.88       2.389       1.696       -9999.25    1.12        -9999.25    -9999.25    -9999.25    35.014      -9999.25    
110.9       1.605       94.876      3.638       0.059       0.102       0.307       6.319       -0.417      0.205       65.587      2.309       1.704       -9999.25    1.12        -9999.25    -9999.25    -9999.25    34.346      -9999.25    
111.0       1.597       94.904      3.283       0.061       0.111       0.301       6.37        -0.4        0.205       65.587      2.337       1.704       -9999.25    1.12        -9999.25    -9999.25    -9999.25    33.17       -9999.25    
111.1       1.6         94.931      3.603       0.064       0.121       0.295       6.412       -0.391      0.203       63.715      2.383       1.675       -9999.25    1.12        -9999.25    -9999.25    -9999.25    32.32       -9999.25    
111.2       1.615       94.96       3.763       0.066       0.131       0.285       6.435       -0.391      0.199       67.577      2.443       1.654       -9999.25    1.12        -9999.25    -9999.25    -9999.25    31.523      -9999.25    
111.3       1.642       94.957      4.867       0.069       0.142       0.27        6.438       -0.391      0.191       69.377      2.511       1.668       -9999.25    1.12        -9999.25    -9999.25    -9999.25    31.884      -9999.25    
111.4       1.633       95.012      5.043       0.072       0.15        0.249       6.438       -0.396      0.178       65.587      2.552       1.696       -9999.25    1.12        -9999.25    -9999.25    -9999.25    32.761      -9999.25    
111.5       1.602       95.03       4.819       0.074       0.156       0.225       6.425       -0.407      0.164       71.613      2.548       1.743       -9999.25    1.12        -9999.25    -9999.25    -9999.25    33.957      -9999.25    
111.6       1.573       95.04       4.762       0.075       0.159       0.201       6.409       -0.42       0.149       65.587      2.463       1.734       -9999.25    1.12        -9999.25    -9999.25    -9999.25    34.951      -9999.25    
111.7       1.501       95.055      4.646       0.075       0.159       0.177       6.398       -0.436      0.136       65.587      2.342       1.66        -9999.25    1.12        -9999.25    -9999.25    -9999.25    35.937      -9999.25    
111.8       1.439       95.088      4.815       0.075       0.158       0.154       6.391       -0.451      0.126       65.587      2.101       1.611       -9999.25    1.12        -9999.25    -9999.25    -9999.25    35.606      -9999.25    
111.9       1.378       95.132      5.069       0.073       0.156       0.132       6.391       -0.465      0.12        65.587      2.127       1.596       -9999.25    1.12        -9999.25    -9999.25    -9999.25    35.174      -9999.25    
112.0       1.397       95.158      5.222       0.071       0.151       0.111       6.393       -0.475      0.115       65.587      2.216       1.567       -9999.25    1.12        -9999.25    -9999.25    -9999.25    34.161      -9999.25    
112.1       1.387       95.198      5.453       0.068       0.146       0.092       6.409       -0.482      0.112       67.577      2.376       1.542       -9999.25    1.12        -9999.25    -9999.25    -9999.25    32.703      -9999.25    
112.2       1.394       95.235      5.504       0.066       0.143       0.077       6.446       -0.486      0.11        65.88       2.517       1.547       -9999.25    1.12        -9999.25    -9999.25    -9999.25    31.156      -9999.25    
112.3       1.404       95.243      5.53        0.065       0.143       0.069       6.505       -0.488      0.108       65.587      2.61        1.612       -9999.25    1.12        -9999.25    -9999.25    -9999.25    29.806      -9999.25    
112.4       1.467       95.242      4.393       0.064       0.144       0.069       6.578       -0.488      0.107       67.272      2.689       1.736       -9999.25    1.12        -9999.25    -9999.25    -9999.25    29.528      -9999.25    
112.5       1.535       95.294      4.109       0.064       0.147       0.069       6.648       -0.486      0.107       67.272      2.728       1.816       -9999.25    1.12        -9999.25    -9999.25    -9999.25    30.188      -9999.25    
112.6       1.569       95.384      3.597       0.064       0.151       0.077       6.702       -0.481      0.108       64.0        2.692       1.854       -9999.25    1.12        -9999.25    -9999.25    -9999.25    31.521      -9999.25    
112.7       1.516       95.421      3.494       0.064       0.154       0.091       6.731       -0.471      0.109       64.0        2.553       1.81        -9999.25    1.12        -9999.25    -9999.25    -9999.25    33.085      -9999.25    
