~Version Information Section
VERS.                                         2.0:CWLS log ASCII Standart – VERSION 2.0
WRAP.                                          NO:One line per depth step
~Well Information Section
STRT.M                                        0.4:Начальная глубина
STOP.M                                      203.0:Конечная глубина
STEP.M                                          0:Шаг квантования по глубине
NULL.                                    -9999.25:Признак "Нет данных"
WELL.                                       128Мх:Скважина
~Parameter Information Section
~Curve Information Section
DEPTH.M                                          :Глубина
BK.Ohm*M                                         :BK     (БК)
DS.mm                                            :DS  (ДС)
GGK.g/cm3                                        :GGKp
ГК.mcr/h                                         :GK          (ГК)
ИК.Ohm*M                                         :IK
НГК.mcR/H                                        :NGK
NNKM.                                            :NNKm  (ННКм)
PS.mv                                            :PS       (ПС)
PZ.Ohm*M                                         :PZ    (КС)
RS.Ohm*M                                         :RS (Резистивиметр)
U1.mV                                            :U1
U2.mV                                            :U2
U3.mV                                            :U3
W.%                                              :W
~ASCII LOG DATA
# ...
171.4       27.479      130.013     2.305       6.539       12.954      1.061       2.102       313.544     40.954      1.1         336.0       391.999     110.811     31.658      
171.6       28.314      129.487     2.298       6.781       13.041      1.047       2.142       317.659     41.148      1.1         227.063     315.416     89.43       34.552      
171.8       28.119      128.989     2.258       6.609       13.101      1.09        2.159       322.242     41.347      1.1         152.125     274.365     101.457     35.823      
172.0       25.882      127.032     2.246       6.816       13.153      1.07        2.179       326.8       41.569      1.1         101.224     261.737     128.161     37.485      
172.2       24.322      126.342     2.26        6.767       13.233      1.095       2.201       330.644     41.832      1.1         121.723     288.67      159.289     33.344      
172.4       25.823      126.369     2.262       6.443       13.247      1.055       2.167       334.02      42.186      1.1         200.436     322.147     151.407     33.832      
172.6       26.363      126.212     2.294       6.461       13.3        1.178       2.221       337.519     42.742      1.1         159.581     307.518     158.257     36.853      
172.8       26.73       126.464     2.315       6.933       13.266      1.075       2.216       341.51      43.612      1.1         168.452     332.831     197.036     33.908      
173.0       26.977      126.258     2.288       7.022       13.285      1.069       2.161       345.502     44.829      1.1         259.133     363.859     182.365     32.059      
173.2       26.363      125.886     2.267       6.527       13.252      1.023       2.165       348.804     46.305      1.1         302.074     320.964     102.062     34.462      
173.4       26.669      125.833     2.273       6.635       13.228      1.126       2.22        351.588     48.11       1.1         317.333     297.502     79.416      35.282      
173.6       26.363      125.81      2.273       6.735       13.195      1.106       2.171       354.619     51.074      1.1         333.333     271.032     85.847      35.646      
173.8       25.823      125.878     2.262       6.635       13.171      1.035       2.194       358.537     56.825      1.1         346.667     293.857     191.696     32.86       
174.0       25.235      126.077     2.256       6.766       13.19       1.069       2.197       363.834     66.232      1.1         365.334     359.175     177.224     34.786      
174.2       25.293      125.423     2.279       6.754       13.167      1.111       2.153       371.202     78.033      1.1         341.333     389.055     171.024     34.583      
174.4       26.062      125.598     2.27        6.732       13.092      1.178       2.227       381.575     89.481      1.1         336.0       423.978     193.676     31.254      
174.6       33.884      125.926     2.254       7.04        12.968      1.198       2.336       396.162     98.011      1.1         344.0       408.664     129.556     35.59       
174.8       26.182      125.995     2.287       7.097       12.95       1.034       2.226       415.184     99.815      1.1         315.224     356.763     117.875     36.22       
175.0       25.235      127.587     2.304       7.118       12.958      1.013       2.151       435.857     99.438      1.1         241.441     373.311     223.756     36.342      
175.2       24.831      128.925     2.286       7.363       12.931      1.074       2.158       453.893     91.862      1.1         325.062     400.953     222.296     34.757      
175.4       24.946      133.302     2.251       7.105       12.827      1.076       2.126       466.928     78.858      1.1         230.703     373.4       290.584     33.291      
175.6       24.831      129.419     2.212       7.366       12.686      1.084       2.125       476.488     66.968      1.1         175.334     379.5       317.546     33.296      
175.8       25.586      132.627     2.252       6.774       12.634      1.189       2.157       484.422     58.739      1.1         263.585     409.895     256.342     33.656      
176.0       24.266      123.778     2.288       7.358       12.651      1.146       2.163       491.445     52.982      1.1         169.358     326.564     199.667     32.701      
176.2       24.099      123.696     2.33        7.133       12.696      1.145       2.188       497.556     48.314      1.104       63.815      267.173     260.389     32.087      
176.4       24.831      123.822     2.316       7.18        12.774      1.083       2.184       503.247     44.891      1.112       104.189     266.137     169.191     32.661      
176.6       25.41       124.16      2.272       7.405       12.899      1.088       2.229       507.609     43.238      1.12        176.072     280.077     95.149      35.153      
176.8       24.434      123.39      2.258       7.066       13.045      1.086       2.121       508.052     43.028      1.12        157.968     297.546     152.339     34.727      
177.0       25.293      123.128     2.241       6.974       13.401      1.052       2.223       506.672     43.028      1.12        151.755     361.051     301.321     36.518      
177.2       22.646      123.05      2.237       7.939       13.906      1.172       2.245       498.196     43.676      1.12        221.641     410.204     314.481     34.537      
177.4       21.878      123.126     2.189       7.558       14.52       1.227       2.179       484.989     45.558      1.12        223.291     331.908     152.914     30.391      
177.6       14.757      122.694     2.1         5.913       15.637      1.354       2.302       471.215     48.565      1.12        234.249     309.347     106.23      28.092      
177.8       71.779      123.097     2.005       4.792       16.655      1.472       2.63        457.885     52.219      1.12        229.927     297.771     93.778      29.516      
178.0       144.544     122.686     1.996       4.526       18.094      1.642       2.622       444.777     56.021      1.12        148.121     256.946     81.241      28.503      
178.2       221.82      122.786     1.984       4.289       20.131      1.954       2.722       431.594     59.567      1.12        224.0       231.474     80.553      22.532      
178.4       174.582     122.701     2.001       3.534       23.58       2.025       2.948       418.19      62.701      1.12        402.663     301.071     178.416     19.798      
178.6       211.836     122.654     2.011       3.532       29.806      2.327       3.019       404.416     65.425      1.12        554.663     474.661     303.996     15.939      
178.8       209.411     122.627     1.987       3.552       33.897      2.294       3.177       390.938     67.653      1.12        605.333     640.002     464.002     17.257      
179.0       203.236     122.665     2.008       3.442       37.327      2.031       3.048       379.21      69.245      1.12        637.335     674.667     533.336     19.927      
179.2       184.502     122.727     2.029       3.799       40.263      1.777       2.901       370.684     70.262      1.12        720.0       677.333     573.333     22.701      
179.4       158.125     122.732     2.046       4.006       42.294      1.781       2.832       365.091     70.971      1.12        736.001     738.664     565.333     26.977      
179.6       153.109     122.669     2.051       3.97        43.904      1.769       2.8         361.419     71.588      1.12        698.667     842.665     581.333     24.702      
179.8       171.002     122.796     2.028       3.763       44.976      1.858       2.855       358.561     72.152      1.12        685.333     829.332     605.334     21.331      
180.0       213.796     122.885     1.989       3.708       45.419      2.153       2.959       355.728     72.621      1.12        650.666     824.001     642.668     20.279      
180.2       276.694     122.753     1.97        3.706       45.872      2.341       3.019       352.401     72.97       1.12        658.667     840.0       685.333     16.155      
