~Version Information Section
VERS.                                         2.0:CWLS log ASCII Standart – VERSION 2.0
WRAP.                                          NO:One line per depth step
~Well Information Section
STRT.M                                        0.1:Начальная глубина
STOP.M                                      202.9:Конечная глубина
STEP.M                                          0:Шаг квантования по глубине
NULL.                                    -9999.25:Признак "Нет данных"
WELL.                                       155Мх:Скважина
~Parameter Information Section
~Curve Information Section
DEPTH.M                                          :Глубина
BK.Ohm*M                                         :BK     (БК)
DS.mm                                            :DS  (ДС)
GGK.g/cm3                                        :GGKp
ГК.mcr/h                                         :GK          (ГК)
GZ1.Ohm*M                                        :GZ1   ГЗ1(A0.4M0.1N)
GZ2.Ohm*M                                        :GZ2   ГЗ2(A1.0M0.1N)
GZ3.Ohm*M                                        :GZ3   ГЗ3(A2.0M0.5N)
GZ4.Ohm*M                                        :GZ4   ГЗ4(A4.0M0.5N)
GZ5.Ohm*M                                        :GZ5   ГЗ5(A8.0M0.5N)
GZR.                                             :GZR   ГЗK(N0.5M2.0A)
ИК.Ohm*M                                         :IK
НГК.ue                                           :NGK     (НГК)
NNKM.                                            :NNKm  (ННКм)
PS.mv                                            :PS       (ПС)
PZ.Ohm*M                                         :PZ    (КС)
RS.Ohm*M                                         :RS (Резистивиметр)
W.%                                              :W
~ASCII LOG DATA
# ...
185.1       130.544     157.432     2.306       4.751       285.923     201.454     144.972     115.497     91.201      149.744     74.845      1.12        1.47        17.788      264.592     1.33        23.583      
185.2       126.845     157.526     2.302       4.754       286.747     200.842     141.882     114.562     95.499      150.174     75.586      1.152       1.495       18.712      267.491     1.33        22.659      
185.3       118.593     157.468     2.297       4.756       280.845     194.508     138.38      113.001     102.329     151.753     75.098      1.166       1.499       19.845      268.819     1.33        22.022      
185.4       109.468     157.235     2.294       4.72        269.445     188.67      135.71      111.861     92.601      154.437     74.267      1.161       1.482       21.019      267.988     1.33        21.857      
185.5       112.053     157.209     2.295       4.661       262.573     186.509     133.292     111.508     93.759      157.117     74.477      1.162       1.46        21.884      264.992     1.329       21.706      
185.6       121.157     157.394     2.303       4.618       265.221     185.03      131.62      111.379     96.056      157.619     74.399      1.179       1.434       22.242      262.926     1.328       21.863      
185.7       126.01      157.428     2.319       4.588       270.718     184.781     131.601     112.073     99.398      155.283     74.234      1.208       1.427       22.238      263.934     1.326       22.086      
185.8       126.391     157.448     2.342       4.562       274.952     184.812     133.985     114.799     102.357     150.28      74.477      1.228       1.457       22.147      267.406     1.322       21.92       
185.9       131.596     157.272     2.368       4.574       280.924     186.843     137.322     118.742     106.385     136.072     74.627      1.233       1.491       22.178      273.824     1.322       21.45       
186.0       143.177     157.303     2.394       4.635       295.342     196.061     140.317     122.552     111.322     115.527     75.131      1.241       1.538       22.556      281.507     1.326       20.999      
186.1       148.822     157.516     2.413       4.699       311.618     201.058     142.985     126.039     116.403     92.269      75.838      1.274       1.556       23.149      289.753     1.329       19.836      
186.2       122.933     157.824     2.426       4.72        299.779     194.725     144.568     130.174     122.688     73.531      76.4        1.318       1.619       23.787      296.266     1.332       18.512      
186.3       107.473     157.841     2.432       4.669       275.601     191.047     145.214     134.855     128.309     67.618      76.823      1.358       1.672       24.168      298.643     1.335       17.174      
186.4       130.355     157.827     2.434       4.509       266.211     193.723     145.548     139.125     132.737     68.08       76.705      1.383       1.734       24.632      296.987     1.337       15.986      
186.5       143.366     157.724     2.436       4.322       261.555     196.209     147.42      145.191     138.766     72.206      76.558      1.412       1.753       25.716      296.488     1.34        14.667      
186.6       140.531     157.916     2.441       4.228       260.567     197.516     151.454     153.674     146.825     76.301      77.107      1.463       1.81        27.47       299.691     1.337       14.029      
186.7       140.29      157.986     2.447       4.228       262.25      200.396     156.636     163.446     157.307     80.0        77.053      1.55        1.855       29.38       302.235     1.328       13.515      
186.8       152.914     158.508     2.454       4.311       268.002     206.741     165.134     175.919     170.58      84.979      75.352      1.653       1.913       30.527      306.6       1.336       13.005      
186.9       185.222     159.872     2.459       4.418       278.801     218.255     176.643     191.283     184.702     90.012      74.532      1.759       1.938       30.862      320.969     1.344       12.352      
187.0       244.76      160.351     2.462       4.497       287.059     232.02      189.981     208.229     201.871     89.176      73.975      1.841       1.994       31.408      339.024     1.347       11.888      
187.1       258.586     160.043     2.463       4.502       296.714     252.409     207.867     223.964     217.699     83.477      72.134      1.922       2.039       34.111      355.288     1.352       11.498      
187.2       306.171     160.086     2.464       4.392       315.889     285.999     229.74      237.414     225.489     79.085      70.289      2.003       2.104       39.826      373.945     1.359       11.074      
187.3       398.133     161.509     2.468       4.151       341.787     318.919     253.313     250.124     231.287     74.907      68.474      2.106       2.139       47.086      392.796     1.366       10.404      
187.4       490.089     161.7       2.475       3.826       376.728     352.825     273.513     260.611     236.771     70.306      65.733      2.201       2.191       53.12       411.704     1.376       9.908       
187.5       564.684     161.735     2.483       3.605       415.645     397.148     286.403     265.734     239.446     65.982      62.72       2.279       2.224       56.791      424.558     1.391       9.555       
187.6       587.041     161.786     2.49        3.5         446.502     563.2       294.675     265.827     241.238     61.881      59.249      2.325       2.291       59.15       431.776     1.411       9.278       
187.7       489.116     161.811     2.495       3.469       447.026     700.835     300.823     264.242     243.218     57.052      54.963      2.345       2.331       61.602      435.373     1.431       9.315       
187.8       309.51      161.812     2.495       3.509       424.844     701.059     304.364     262.021     241.196     51.41       50.587      2.3         2.343       64.34       429.392     1.11        9.736       
187.9       300.91      161.892     2.491       3.565       418.909     721.811     306.987     258.443     230.883     46.462      46.419      2.216       2.307       66.766      411.02      1.106       10.274      
188.0       306.221     161.936     2.483       3.603       433.36      760.748     308.52      254.047     213.061     42.22       42.869      2.154       2.245       68.772      380.626     1.273       10.851      
188.1       320.474     161.942     2.471       3.646       465.258     809.641     300.713     240.015     192.004     36.245      39.992      2.124       2.188       70.471      345.866     1.439       11.578      
188.2       264.274     161.98      2.454       3.718       480.607     794.381     274.515     209.067     164.536     29.084      37.406      2.062       2.11        71.975      312.475     1.43        12.602      
188.3       140.5       162.036     2.429       3.92        402.355     505.549     228.171     170.894     142.416     21.98       35.204      1.905       2.031       73.221      280.376     1.429       14.638      
188.4       41.299      162.131     2.396       4.439       271.862     198.046     165.784     131.541     121.392     14.176      33.395      1.678       1.904       74.112      232.838     1.429       17.373      
188.5       23.446      162.398     2.356       5.22        146.965     111.183     107.158     86.681      97.651      9.205       31.977      1.442       1.744       74.565      166.249     1.429       20.737      
188.6       17.724      162.959     2.314       6.012       63.286      72.21       69.654      48.399      77.335      9.126       30.815      1.24        1.536       74.685      97.338      1.43        24.079      
188.7       15.511      163.145     2.28        6.827       39.642      52.632      48.807      29.753      63.233      10.357      29.271      1.088       1.358       74.481      58.256      1.429       27.129      
