~Version Information Section
VERS.                                         2.0:CWLS log ASCII Standart – VERSION 2.0
WRAP.                                          NO:One line per depth step
~Well Information Section
STRT.M                                        0.1:Начальная глубина
STOP.M                                      167.0:Конечная глубина
STEP.M                                          0:Шаг квантования по глубине
NULL.                                    -9999.25:Признак "Нет данных"
WELL.                                        143К:Скважина
~Parameter Information Section
~Curve Information Section
DEPTH.M                                          :Глубина
БК.Омм                                           :BK     (БК)
DСР.мм                                           :DS  (ДС)
ПЛОТНОСТЬ.г/см^3                                 :GGKp
ГК.гамма                                         :GK          (ГК)
ИК.мСм/м                                         :IK
НГК.усл.ед                                       :NGK     (НГК)
ННКМ.усл.ед                                      :NNKm  (ННКм)
ПС.mv                                            :PS       (ПС)
N11.0M0.5A.Омм                                   :PZ    (КС)
R.Омм                                            :RS (Резистивиметр)
КП.%                                             :W
А0.4М0.1N.Омм                                    :GZ1   ГЗ1(A0.4M0.1N)
А1.0М0.1N.Омм                                    :GZ2   ГЗ2(A1.0M0.1N)
А2.0М0.5N.Омм                                    :GZ3   ГЗ3(A2.0M0.5N)
А4.0М0.5N.Oмм                                    :GZ4   ГЗ4(A4.0M0.5N)
А8.0М1.0N.Омм                                    :GZ5   ГЗ5(A8.0M0.5N)
N0.5M2.0A.Омм                                    :GZR   ГЗK(N0.5M2.0A)
~ASCII LOG DATA
# ...
114.8       24.304      230.605     2.289       8.72        17.808      1.032       1.789       66.107      19.499      1.06        31.009      21.21       21.621      20.838      21.681      20.225      15.72       
114.9       22.134      230.638     2.275       8.778       17.565      1.024       1.756       66.191      19.174      1.06        31.559      20.367      21.071      20.345      21.303      19.876      15.72       
115.0       19.772      230.591     2.263       8.747       17.3        1.014       1.726       66.284      18.855      1.06        32.338      19.639      20.594      20.02       21.169      19.683      15.806      
115.1       18.543      230.274     2.253       8.882       17.02       1.002       1.702       66.379      18.533      1.06        33.068      19.022      20.24       19.863      21.167      19.683      16.096      
115.2       18.138      230.357     2.246       9.041       16.734      0.992       1.69        66.469      18.186      1.06        33.657      18.693      20.123      19.826      21.167      19.683      16.549      
115.3       17.836      229.763     2.245       9.171       16.456      0.991       1.686       66.545      17.87       1.06        33.925      18.638      20.072      19.826      21.167      19.62       17.091      
115.4       17.473      229.781     2.247       9.264       16.2        0.998       1.677       66.597      17.637      1.06        33.942      18.638      19.901      19.797      21.21       19.57       17.711      
115.5       17.142      230.157     2.253       9.327       15.969      1.014       1.675       66.617      17.469      1.06        33.824      18.638      19.665      19.692      21.211      19.547      18.268      
115.6       17.03       230.535     2.261       8.812       15.768      1.026       1.681       66.597      17.362      1.06        33.548      18.667      19.439      19.574      21.149      19.547      18.613      
115.7       17.073      230.96      2.27        8.338       15.598      1.029       1.691       66.533      17.285      1.06        33.365      18.766      19.199      19.491      21.129      19.508      18.726      
115.8       17.099      231.977     2.279       8.125       15.458      1.035       1.709       66.426      17.203      1.06        33.46       18.905      18.958      19.348      21.065      19.323      18.726      
115.9       17.186      233.142     2.286       7.895       15.346      1.047       1.729       66.275      17.119      1.06        33.705      19.001      18.722      19.056      20.87       19.001      18.714      
116.0       17.503      233.982     2.29        7.656       15.261      1.063       1.742       66.082      17.038      1.06        33.937      19.028      18.412      18.589      20.471      18.567      18.601      
116.1       17.395      233.95      2.292       7.913       15.197      1.082       1.748       65.854      16.954      1.06        34.18       19.028      17.988      17.938      19.838      18.029      18.364      
116.2       16.958      233.373     2.295       8.112       15.148      1.103       1.751       65.603      16.868      1.06        34.244      18.893      17.516      17.215      19.103      17.41       18.204      
116.3       16.029      233.004     2.301       8.149       15.103      1.103       1.745       65.348      16.768      1.06        34.229      18.548      17.053      16.562      18.346      16.777      18.179      
116.4       15.539      233.372     2.307       8.387       15.053      1.082       1.74        65.106      16.647      1.06        34.053      18.025      16.582      15.99       17.545      16.161      18.179      
116.5       15.273      233.847     2.31        8.692       14.988      1.049       1.736       64.895      16.498      1.06        33.832      17.39       16.153      15.45       16.742      15.611      18.179      
116.6       15.141      233.936     2.307       8.775       14.906      1.022       1.729       64.729      16.332      1.06        33.647      16.849      15.852      14.933      15.986      15.143      18.215      
116.7       14.834      234.524     2.298       8.843       14.807      1.008       1.716       64.62       16.226      1.06        33.91       16.507      15.661      14.484      15.312      14.794      18.357      
116.8       14.357      235.251     2.287       8.895       14.696      1.006       1.701       64.576      16.198      1.06        34.501      16.319      15.542      14.107      14.765      14.56       18.591      
116.9       13.968      235.678     2.276       8.708       14.58       1.011       1.68        64.6        16.198      1.06        35.271      16.253      15.498      13.815      14.349      14.421      18.825      
117.0       13.749      236.642     2.268       8.464       14.471      1.023       1.657       64.695      16.198      1.06        36.126      16.239      15.492      13.645      14.025      14.322      19.007      
117.1       13.653      237.569     2.26        8.329       14.378      1.03        1.637       64.864      16.215      1.06        37.11       16.209      15.485      13.587      13.788      14.251      19.236      
117.2       13.634      238.182     2.25        8.214       14.31       1.032       1.634       65.103      16.245      1.06        37.858      16.201      15.515      13.556      13.637      14.179      19.625      
117.3       13.709      239.69      2.237       8.115       14.27       1.034       1.635       65.406      16.293      1.06        38.145      16.25       15.543      13.51       13.521      14.163      20.158      
117.4       14.03       241.875     2.225       8.036       14.255      1.042       1.638       65.762      16.356      1.06        37.933      16.293      15.542      13.485      13.378      14.163      20.849      
117.5       14.397      242.971     2.218       8.09        14.253      1.054       1.657       66.162      16.384      1.06        37.401      16.293      15.542      13.496      13.201      14.163      21.711      
117.6       14.543      243.547     2.22        8.344       14.253      1.059       1.678       66.595      16.388      1.06        36.806      16.277      15.527      13.532      13.054      14.167      22.744      
117.7       14.38       245.628     2.227       8.528       14.255      1.06        1.687       67.05       16.414      1.06        36.102      16.266      15.53       13.578      12.97       14.179      24.055      
117.8       14.172      250.54      2.238       8.698       14.265      1.069       1.699       67.521      16.437      1.06        35.489      16.272      15.557      13.674      12.931      14.109      25.766      
117.9       14.167      261.197     2.246       8.967       14.276      1.075       1.72        67.997      16.437      1.06        35.234      16.272      15.571      13.86       12.868      14.036      27.631      
118.0       14.316      267.557     2.247       8.931       14.287      1.075       1.728       68.471      16.42       1.06        35.335      16.316      15.52       13.974      12.758      13.972      29.136      
118.1       14.413      263.411     2.243       8.495       14.303      1.087       1.726       68.935      16.382      1.06        35.443      16.392      15.349      13.96       12.64       13.886      30.052      
118.2       14.32       267.228     2.238       8.349       14.338      1.102       1.736       69.382      16.344      1.06        35.542      16.4        15.095      13.936      12.439      13.691      30.363      
118.3       14.07       264.979     2.236       8.251       14.404      1.099       1.749       69.8        16.332      1.06        35.51       16.297      14.786      13.843      12.11       13.681      30.386      
118.4       13.9        255.935     2.241       8.028       14.516      1.094       1.763       70.175      16.364      1.06        35.268      16.154      14.347      13.535      11.638      13.681      30.806      
