~Version Information Section
VERS.                                         2.0:CWLS log ASCII Standart – VERSION 2.0
WRAP.                                          NO:One line per depth step
~Well Information Section
STRT.M                                        7.7:Начальная глубина
STOP.M                                      168.6:Конечная глубина
STEP.M                                          0:Шаг квантования по глубине
NULL.                                    -9999.25:Признак "Нет данных"
WELL.                                       137Мх:Скважина
~Parameter Information Section
~Curve Information Section
DEPTH.M                                          :Глубина
ГК.мкР/ч                                         :GK
U1.                                              :U1
U12.                                             :U12
U2.                                              :U2
W.усл.ед                                         :W
ЗОНД.                                            :Зонд N0
НГК.                                             :НГК
ННКМ.усл.ед                                      :ННКм
ПЛОТНОСТЬ.г/см3                                  :плотность
РЕЗИСТИВИМЕТР.Ом                                 :Резистивиметр
~ASCII LOG DATA
# ...
62.6        6.244       801.448     721.72      650.069     27.52       54.153      1.431       1.52        2.35        0.572       
62.7        5.634       745.39      674.639     610.932     26.985      50.179      1.434       1.519       2.363       0.564       
62.8        5.382       694.19      612.672     544.076     26.27       46.488      1.438       1.65        2.394       0.538       
62.9        5.557       647.848     535.821     449.5       25.608      43.114      1.434       1.683       2.403       0.516       
63.0        6.113       681.256     526.564     410.191     25.273      40.68       1.408       1.629       2.382       0.511       
63.1        6.376       682.776     517.778     392.971     25.006      39.661      1.387       1.629       2.35        0.511       
63.2        6.193       596.905     482.946     393.666     24.922      39.501      1.366       1.628       2.34        0.512       
63.3        6.254       528.164     454.98      394.384     25.314      40.125      1.335       1.602       2.347       0.514       
63.4        6.549       476.553     433.88      395.126     25.525      42.179      1.32        1.566       2.358       0.515       
63.5        7.028       523.362     454.669     397.088     25.392      45.461      1.328       1.545       2.373       0.517       
63.6        7.346       595.957     483.964     396.074     25.317      48.193      1.356       1.529       2.382       0.524       
63.7        7.393       561.522     486.395     436.561     25.032      47.56       1.395       1.543       2.408       0.519       
63.8        7.355       513.579     474.86      456.249     24.615      43.299      1.426       1.548       2.432       0.49        
63.9        7.185       452.13      449.359     455.138     24.334      38.103      1.448       1.608       2.441       0.46        
64.0        6.937       527.814     470.995     425.451     24.362      34.045      1.425       1.635       2.43        0.442       
64.1        6.743       613.597     505.114     417.342     24.304      32.321      1.373       1.711       2.403       0.431       
64.2        6.576       709.478     551.717     430.809     24.666      32.204      1.354       1.699       2.393       0.43        
64.3        6.538       715.482     558.784     442.752     25.332      32.785      1.351       1.652       2.376       0.43        
64.4        6.788       639.336     539.567     468.296     26.08       33.421      1.349       1.588       2.369       0.436       
64.5        7.609       536.995     503.664     480.069     26.679      33.179      1.343       1.491       2.353       0.442       
64.6        8.167       482.595     462.776     447.25      27.168      32.835      1.343       1.449       2.353       0.454       
64.7        8.127       476.136     416.902     369.838     27.331      32.789      1.339       1.421       2.355       0.467       
64.8        8.092       462.266     389.831     333.443     27.111      33.461      1.308       1.488       2.36        0.48        
64.9        8.226       449.0       396.147     355.286     26.942      33.733      1.256       1.504       2.352       0.484       
65.0        8.457       427.712     415.657     407.847     26.882      34.312      1.25        1.387       2.334       0.485       
65.1        8.937       401.898     397.765     396.742     26.7        35.29       1.272       1.383       2.331       0.49        
65.2        8.35        371.559     342.469     321.971     26.854      37.131      1.321       1.361       2.344       0.505       
65.3        7.128       374.876     364.721     367.385     27.126      37.964      1.347       1.373       2.377       0.521       
65.4        6.718       394.493     399.946     418.137     26.926      35.214      1.361       1.403       2.393       0.528       
65.5        6.786       430.41      448.144     474.226     26.361      32.514      1.341       1.46        2.383       0.529       
65.6        6.718       451.983     425.2       405.039     26.171      31.558      1.263       1.536       2.358       0.526       
65.7        5.845       472.468     412.895     361.569     26.317      32.138      1.191       1.502       2.341       0.524       
65.8        4.926       501.354     405.08      331.471     26.787      34.604      1.184       1.485       2.344       0.524       
65.9        4.648       539.73      391.114     289.029     27.141      38.491      1.203       1.565       2.362       0.522       
66.0        4.779       534.765     354.338     237.699     27.615      41.606      1.244       1.582       2.379       0.514       
66.1        5.31        527.962     333.839     211.096     28.093      43.44       1.259       1.524       2.395       0.507       
66.2        5.983       519.32      329.619     209.22      27.864      45.055      1.291       1.515       2.412       0.505       
66.3        6.055       470.741     349.629     277.042     27.565      47.98       1.359       1.505       2.433       0.505       
66.4        5.257       416.492     372.173     354.887     27.614      56.315      1.396       1.535       2.441       0.508       
66.5        4.809       356.571     397.251     442.757     27.444      73.265      1.418       1.653       2.432       0.521       
66.6        5.099       389.084     413.834     446.391     27.433      94.299      1.454       1.6         2.413       0.548       
66.7        6.012       428.771     410.68      404.194     27.316      112.626     1.477       1.521       2.391       0.569       
66.8        6.586       594.025     479.211     395.279     26.613      127.368     1.473       1.471       2.396       0.564       
66.9        6.451       695.186     552.0       446.92      25.654      146.733     1.476       1.458       2.423       0.556       
67.0        5.816       732.253     629.045     559.12      24.342      183.415     1.493       1.785       2.477       0.556       
67.1        5.196       678.8       610.557     571.896     23.326      232.677     1.522       1.785       2.508       0.564       
67.2        4.968       717.313     583.703     503.805     22.337      272.372     1.548       1.867       2.512       0.605       
67.3        5.003       933.882     701.73      541.427     21.854      281.752     1.531       1.848       2.496       0.681       
67.4        5.079       1154.511    855.415     637.62      21.742      256.673     1.5         1.732       2.48        0.729       
67.5        4.763       1379.199    1044.757    792.381     22.049      216.354     1.496       1.813       2.485       0.694       
67.6        3.779       1407.706    1036.46     763.978     22.205      178.131     1.503       1.92        2.493       0.617       
67.7        3.146       1322.065    948.113     680.424     22.883      147.431     1.5         1.787       2.491       0.566       
67.8        3.247       992.019     682.441     471.372     22.911      125.797     1.447       1.686       2.46        0.552       
67.9        3.638       732.414     476.227     311.176     22.926      111.581     1.42        1.701       2.404       0.552       
68.0        4.044       543.251     329.473     199.836     23.791      103.484     1.419       1.708       2.347       0.552       
68.1        4.141       428.213     302.453     237.397     24.401      99.047      1.413       1.687       2.295       0.554       
68.2        4.208       339.496     286.634     269.628     24.669      94.711      1.402       1.684       2.266       0.547       
68.3        4.55        277.099     282.016     296.529     25.707      89.646      1.387       1.499       2.261       0.526       
68.4        5.06        342.743     317.013     297.491     26.16       85.646      1.359       1.519       2.275       0.508       
68.5        5.241       383.536     343.426     307.543     26.083      83.766      1.345       1.601       2.301       0.504       
68.6        5.245       414.534     371.852     333.605     26.21       82.915      1.355       1.566       2.325       0.504       
