~Version Information Section
VERS.                                         2.0:CWLS log ASCII Standart – VERSION 2.0
WRAP.                                          NO:One line per depth step
~Well Information Section
STRT.M                                        0.0:Начальная глубина
STOP.M                                      166.2:Конечная глубина
STEP.M                                          0:Шаг квантования по глубине
NULL.                                    -9999.25:Признак "Нет данных"
WELL.                                         1Мх:Скважина
~Parameter Information Section
~Curve Information Section
DEPTH.M                                          :Глубина
BK.lgОмм                                         :BK
ПРОФ_СР.мм                                       :ПРОФ_СР
GGKP.имп/мин                                     :GGKp
ГК.мкР/час                                       :GK
ИК.мСм/м                                         :IK
PS.мВ                                            :PS
PZ.Омм                                           :PZ
RIS.Омм                                          :RIS
U1.мВ                                            :U1
U2.мВ                                            :U2
U3.mv                                            :U3
WS.%                                             :WS
ГЗ1.Омм                                          :ГЗ1
ГЗ2.Омм                                          :ГЗ2
ГЗ3.Омм                                          :ГЗ3
ГЗ4.Oмм                                          :ГЗ4
ГЗК.Омм                                          :ГЗК
НГК.усл.ед                                       :ННКб
ННКМ.усл.ед                                      :ННКм
ГЗ5.Oмм                                          :ГЗ5
ПЛ1.имп/мин                                      :ПЛ1
ПЛ2.имп/мин                                      :ПЛ2
ПЛ3.имп/мин                                      :ПЛ3
ПЛ4.имп/мин                                      :ПЛ4
~ASCII LOG DATA
# ...
121.5       16.034      161.349     2.345       6.691       12.619      170.504     10.732      1.045       553.23      510.681     569.672     32.197      4.153       6.814       6.477       7.125       7.119       3.01        2.009       5.971       12360.0     20420.0     12120.0     2680.0      
121.6       16.174      161.369     2.35        6.591       12.606      169.981     10.696      1.045       566.867     497.864     524.999     32.391      4.307       6.911       6.577       7.125       7.219       3.028       2.0         5.971       12480.0     20620.0     12120.0     2640.0      
121.7       16.525      161.058     2.338       6.527       12.619      169.44      10.696      1.045       594.055     487.212     474.475     32.493      4.532       7.226       6.777       7.325       7.319       3.045       2.0         5.971       12000.0     20820.0     12300.0     2800.0      
121.8       16.599      161.007     2.323       6.719       12.609      168.857     10.743      1.045       602.87      481.668     458.676     32.804      4.514       7.515       6.877       7.425       7.419       3.025       1.999       6.071       13320.0     20580.0     12580.0     2680.0      
121.9       16.624      161.315     2.323       6.92        12.644      168.366     10.786      1.055       587.02      474.156     467.663     33.165      4.6         7.902       6.977       7.425       7.519       2.978       1.993       6.171       12240.0     20460.0     12680.0     2680.0      
122.0       16.862      161.305     2.326       7.042       12.661      167.894     10.837      1.055       547.86      446.131     457.44      33.418      4.849       8.434       6.977       7.725       7.619       2.956       1.99        6.171       12720.0     20660.0     12880.0     2760.0      
122.1       17.328      161.235     2.325       7.107       12.692      167.477     10.841      1.055       504.564     407.216     425.491     33.539      5.103       8.651       7.077       7.925       7.719       2.962       1.996       6.271       11520.0     20200.0     12960.0     2780.0      
122.2       17.446      161.376     2.32        7.067       12.696      167.222     10.89       1.055       481.408     386.297     404.353     33.556      5.144       8.724       7.277       8.025       7.819       2.954       2.012       6.271       11640.0     20220.0     12980.0     2720.0      
122.3       17.208      161.051     2.315       6.985       12.745      167.163     10.903      1.055       493.121     392.466     400.184     33.663      5.163       8.822       7.377       8.025       7.919       2.921       2.033       6.271       12000.0     20240.0     12800.0     2700.0      
122.4       16.944      160.733     2.326       6.992       12.731      167.269     10.902      1.055       541.473     410.02      388.78      33.666      5.242       8.917       7.477       8.225       8.119       2.91        2.039       6.371       11400.0     20220.0     12720.0     2660.0      
122.5       16.814      161.051     2.339       6.907       12.731      167.565     10.856      1.055       595.672     423.918     372.858     33.425      5.297       8.943       7.677       8.425       8.419       2.92        2.022       6.371       12120.0     20260.0     12660.0     2480.0      
122.6       16.775      161.034     2.346       6.782       12.749      167.796     10.824      1.055       629.869     442.579     383.49      32.883      5.368       8.966       7.777       8.425       8.619       2.906       1.998       6.371       12360.0     20760.0     13160.0     2660.0      
122.7       16.84       161.618     2.345       6.936       12.78       168.065     10.81       1.055       656.122     472.369     415.893     32.759      5.405       9.063       7.877       8.625       8.719       2.9         1.985       6.571       12360.0     21380.0     13880.0     2940.0      
122.8       16.944      162.06      2.333       6.811       12.762      168.306     10.848      1.055       682.326     499.082     438.761     32.789      5.792       9.328       8.077       8.625       9.019       2.952       1.987       6.771       13320.0     22420.0     14700.0     3220.0      
122.9       16.881      161.938     2.328       6.709       12.766      168.419     10.883      1.055       690.681     517.581     456.862     32.306      5.738       9.256       8.177       8.825       9.119       3.025       1.996       6.871       13080.0     23420.0     15060.0     3420.0      
123.0       16.651      161.991     2.329       6.719       12.798      168.404     10.94       1.055       673.391     530.188     480.538     31.722      5.539       9.135       8.277       9.125       9.019       3.062       2.017       6.971       15000.0     24320.0     15100.0     3480.0      
123.1       16.572      161.547     2.318       6.776       12.851      168.269     11.018      1.055       645.741     525.015     482.71      31.599      5.568       9.207       8.377       9.225       8.119       3.026       2.04        7.071       13560.0     24680.0     14300.0     3160.0      
123.2       16.675      161.69      2.309       6.841       12.859      167.947     11.145      1.055       622.031     500.116     452.714     31.673      5.64        9.256       8.577       9.325       7.219       2.979       2.038       7.371       15240.0     24700.0     14000.0     3160.0      
123.3       16.75       161.571     2.293       7.254       12.909      167.618     11.353      1.055       611.18      480.514     425.049     32.163      5.758       9.328       9.077       9.325       6.519       2.973       2.009       7.171       19440.0     24740.0     13980.0     3100.0      
123.4       16.597      161.153     2.289       7.292       12.968      167.264     11.564      1.055       619.862     488.192     431.136     32.514      5.657       9.231       9.077       9.225       6.019       3.004       1.976       6.171       21120.0     24540.0     13740.0     3060.0      
123.5       16.662      161.186     2.3         7.293       13.111      166.948     11.875      1.055       628.964     507.719     460.048     32.819      5.605       9.256       8.977       9.125       5.519       3.018       1.965       4.671       21720.0     24240.0     13880.0     3200.0      
123.6       16.961      160.401     2.309       7.302       13.219      166.745     12.292      1.055       614.748     515.277     489.893     33.162      5.645       9.303       8.277       9.025       5.419       2.993       1.97        3.971       19200.0     23920.0     13980.0     3440.0      
123.7       17.102      160.079     2.317       7.043       13.362      166.601     12.891      1.055       586.966     502.272     497.097     33.317      5.592       9.207       7.577       8.925       5.219       2.952       1.975       3.671       18120.0     23980.0     13920.0     3300.0      
123.8       17.011      159.548     2.322       6.693       13.568      166.5       13.549      1.055       557.359     459.805     455.945     33.105      5.597       9.182       6.877       8.825       4.819       2.922       1.982       3.071       16200.0     23880.0     14020.0     3360.0      
123.9       16.892      159.1       2.326       6.776       13.838      166.463     14.341      1.055       531.084     396.545     377.819     32.739      5.587       9.183       6.577       8.325       4.519       2.88        1.992       2.671       16920.0     23860.0     14140.0     3280.0      
124.0       17.13       158.851     2.335       6.906       14.113      166.424     14.954      1.055       547.546     354.773     305.721     32.764      5.892       9.35        6.377       7.125       4.419       2.868       2.004       2.171       15120.0     24060.0     14260.0     3120.0      
124.1       17.273      158.136     2.336       7.056       14.467      166.378     15.5        1.055       608.939     346.276     254.635     33.022      5.821       9.254       5.777       5.425       4.319       2.899       2.009       2.071       15480.0     23560.0     14160.0     2980.0      
