~Version Information Section
VERS.                                         2.0:CWLS log ASCII Standart – VERSION 2.0
WRAP.                                          NO:One line per depth step
~Well Information Section
STRT.M                                        7.7:Начальная глубина
STOP.M                                      168.6:Конечная глубина
STEP.M                                          0:Шаг квантования по глубине
NULL.                                    -9999.25:Признак "Нет данных"
WELL.                                       137Мх:Скважина
~Parameter Information Section
~Curve Information Section
DEPTH.M                                          :Глубина
ГК.мкР/ч                                         :GK
U1.                                              :U1
U12.                                             :U12
U2.                                              :U2
W.усл.ед                                         :W
ЗОНД.                                            :Зонд N0
НГК.                                             :НГК
ННКМ.усл.ед                                      :ННКм
ПЛОТНОСТЬ.г/см3                                  :плотность
РЕЗИСТИВИМЕТР.Ом                                 :Резистивиметр
~ASCII LOG DATA
# ...
141.9       5.221       158.604     187.409     246.956     16.177      47.399      2.086       2.316       2.541       0.64        
142.0       4.766       208.689     187.666     187.272     16.197      42.667      2.103       2.351       2.533       0.64        
142.1       4.444       248.737     175.994     132.725     15.994      38.074      2.091       2.38        2.534       0.645       
142.2       4.339       222.511     167.161     143.325     15.972      31.222      2.076       2.386       2.554       0.66        
142.3       4.349       210.9       174.602     163.682     15.993      23.462      2.053       2.379       2.58        0.675       
142.4       4.431       213.903     198.317     193.795     16.142      17.647      2.039       2.384       2.588       0.678       
142.5       4.555       314.448     264.108     226.061     16.123      14.181      1.996       2.41        2.571       0.668       
142.6       4.574       449.687     311.467     233.375     15.953      12.233      1.917       2.487       2.541       0.652       
142.7       4.682       619.618     340.393     215.737     15.755      11.22       1.773       2.603       2.508       0.642       
142.8       4.762       717.304     340.339     178.209     15.929      10.866      1.601       2.508       2.504       0.64        
142.9       5.046       734.743     370.308     198.149     16.545      10.866      1.444       2.364       2.485       0.64        
143.0       5.183       679.68      408.342     253.081     18.304      11.25       1.375       2.061       2.452       0.642       
143.1       4.927       632.361     424.421     285.538     20.833      12.358      1.391       1.858       2.387       0.65        
143.2       4.839       649.833     352.895     215.1       23.247      14.28       1.43        1.61        2.317       0.647       
143.3       4.835       660.914     295.339     153.374     24.856      17.438      1.447       1.614       2.267       0.63        
143.4       4.774       665.606     251.754     100.359     25.962      21.998      1.455       1.638       2.242       0.613       
143.5       4.658       589.608     246.272     105.613     25.998      27.305      1.509       1.665       2.252       0.6         
143.6       4.66        482.436     236.247     137.254     25.18       32.045      1.63        1.732       2.28        0.59        
143.7       4.743       344.093     221.678     195.283     24.257      33.989      1.755       1.755       2.324       0.582       
143.8       4.934       250.744     228.562     246.904     23.44       31.829      1.881       1.802       2.379       0.58        
143.9       4.777       216.304     219.927     234.87      21.945      27.16       1.962       2.059       2.436       0.58        
144.0       4.14        267.211     224.986     196.605     20.284      22.415      1.946       2.252       2.488       0.58        
144.1       3.633       344.552     259.26      195.762     18.713      19.25       1.826       2.475       2.514       0.582       
144.2       3.591       484.012     298.779     192.666     17.424      18.148      1.651       2.564       2.499       0.593       
144.3       3.652       567.051     319.089     185.94      16.912      17.905      1.551       2.313       2.443       0.608       
144.4       3.97        593.67      320.19      175.583     17.297      17.39       1.561       2.271       2.38        0.618       
144.5       4.539       447.207     283.028     188.026     18.632      16.289      1.574       1.772       2.332       0.62        
144.6       4.908       304.905     243.561     219.734     19.554      14.693      1.52        1.783       2.315       0.62        
144.7       4.923       166.765     201.79      270.706     20.484      12.796      1.412       1.826       2.332       0.62        
144.8       4.986       145.105     205.528     311.338     21.283      10.919      1.36        1.941       2.368       0.62        
144.9       5.2         154.78      214.056     309.12      22.629      10.088      1.317       2.017       2.41        0.62        
145.0       6.149       171.95      209.973     262.709     24.152      10.129      1.27        1.585       2.427       0.62        
145.1       8.055       158.511     194.242     250.737     25.332      10.961      1.245       1.476       2.412       0.62        
145.2       9.311       114.461     166.864     273.203     26.788      12.616      1.259       1.32        2.385       0.618       
145.3       9.561       108.772     169.907     301.54      27.954      13.68       1.294       1.281       2.358       0.612       
145.4       9.789       148.212     197.618     299.968     28.294      13.597      1.319       1.233       2.367       0.598       
145.5       9.928       210.326     218.892     251.864     27.394      13.14       1.311       1.254       2.392       0.578       
145.6       9.735       249.987     209.062     187.139     27.065      12.932      1.295       1.383       2.414       0.563       
145.7       9.418       245.554     187.793     150.292     26.692      12.9        1.285       1.407       2.433       0.558       
145.8       9.2         235.945     175.451     132.881     26.34       12.919      1.266       1.48        2.428       0.558       
145.9       9.269       221.162     172.037     134.904     26.451      13.089      1.272       1.415       2.418       0.562       
146.0       9.443       215.114     160.741     120.658     26.582      13.196      1.28        1.329       2.418       0.572       
146.1       9.459       190.512     154.209     136.444     26.465      12.877      1.29        1.392       2.421       0.579       
146.2       9.365       147.357     152.441     182.264     26.099      12.601      1.255       1.454       2.423       0.579       
146.3       9.317       134.856     152.909     202.467     26.081      12.91       1.241       1.466       2.404       0.579       
146.4       9.626       163.833     153.704     175.818     26.203      14.032      1.248       1.471       2.376       0.579       
146.5       10.273      187.517     153.953     150.39      26.975      15.498      1.266       1.342       2.354       0.585       
146.6       11.26       164.43      153.329     173.038     27.818      16.423      1.276       1.29        2.341       0.604       
146.7       11.675      180.952     173.518     193.414     28.225      16.366      1.279       1.359       2.341       0.629       
146.8       11.023      187.236     181.525     202.081     28.307      15.756      1.278       1.359       2.342       0.645       
146.9       9.852       183.282     177.35      199.039     27.501      15.409      1.28        1.449       2.336       0.656       
147.0       9.263       118.276     154.591     225.789     26.448      15.146      1.287       1.46        2.332       0.667       
147.1       9.259       88.836      147.116     243.692     25.896      14.916      1.303       1.506       2.337       0.679       
147.2       9.274       119.653     158.603     222.942     25.931      14.882      1.345       1.488       2.347       0.692       
147.3       9.328       149.424     169.4       202.018     25.873      15.66       1.376       1.417       2.356       0.701       
147.4       9.264       178.15      179.509     180.921     26.053      17.395      1.374       1.456       2.361       0.702       
147.5       8.917       225.031     192.356     176.233     26.414      18.751      1.385       1.516       2.354       0.706       
147.6       8.253       315.803     212.307     158.323     26.49       19.575      1.424       1.559       2.345       0.706       
147.7       7.666       351.887     208.036     130.829     25.923      20.016      1.469       1.587       2.337       0.692       
147.8       7.365       289.391     172.438     106.976     25.212      19.028      1.454       1.671       2.334       0.669       
147.9       7.089       199.444     141.625     104.417     24.908      16.94       1.403       1.691       2.346       0.648       
