~Version Information Section
VERS.                                         2.0:CWLS log ASCII Standart – VERSION 2.0
WRAP.                                          NO:One line per depth step
~Well Information Section
STRT.M                                        0.4:Начальная глубина
STOP.M                                      191.4:Конечная глубина
STEP.M                                          0:Шаг квантования по глубине
NULL.                                    -9999.25:Признак "Нет данных"
WELL.                                       113Мх:Скважина
~Parameter Information Section
~Curve Information Section
DEPTH.M                                          :Глубина
БК.Омм                                           :BK     (БК)
DСР.мм                                           :DS  (ДС)
GGKP.g/cm3                                       :GGKp
ГК.гамма                                         :GK          (ГК)
А0.4М0.1N.Омм                                    :GZ1   ГЗ1(A0.4M0.1N)
А1.0М0.1N.Омм                                    :GZ2   ГЗ2(A1.0M0.1N)
А2.0М0.5N.Омм                                    :GZ3   ГЗ3(A2.0M0.5N)
А4.0М0.5N.Oмм                                    :GZ4   ГЗ4(A4.0M0.5N)
А8.0М1.0N.Омм                                    :GZ5   ГЗ5(A8.0M0.5N)
N0.5M2.0A.Омм                                    :GZK   ГЗK(N0.5M2.0A)
ИК.мСм/м                                         :IK
НГК.усл.ед                                       :NNKb  (ННКб)
ННКМ.усл.ед                                      :NNKm  (ННКм)
ПС.мВ                                            :PS       (ПС)
PZ.Омм                                           :PZ    (КС)
R.Омм                                            :RS (Резистивиметр)
U1.мВ                                            :U1
U2.mV                                            :U2
U3.мВ                                            :U3
КП.%                                             :Кп
~ASCII LOG DATA
# ...
160.4       20.243      126.847     2.32        5.987       16.789      14.704      13.963      12.129      1.776       19.194      12.278      2.529       1.657       177.136     51.006      1.12        377.224     300.929     392.892     30.88       
160.6       20.21       126.799     2.325       6.001       16.659      14.684      13.747      11.719      1.77        18.735      12.236      2.46        1.643       176.25      51.0        1.12        307.605     257.483     341.121     30.81       
160.8       20.147      126.783     2.347       6.27        16.567      14.642      13.548      11.283      1.779       18.643      12.222      2.446       1.616       174.921     51.0        1.12        398.904     249.824     246.08      30.777      
161.0       20.393      126.823     2.381       6.286       16.479      14.542      13.295      10.798      1.852       18.658      12.244      2.488       1.613       172.939     51.0        1.12        462.3       270.775     218.419     30.993      
161.2       20.716      126.8       2.394       6.253       16.317      14.318      12.891      10.16       1.966       19.173      12.299      2.465       1.608       170.077     51.002      1.12        413.666     263.704     239.372     30.983      
161.4       20.723      126.857     2.39        6.281       16.013      13.892      12.266      9.312       2.083       20.544      12.442      2.439       1.624       166.166     51.054      1.12        306.644     256.567     262.984     31.057      
161.6       20.188      126.921     2.381       6.41        15.465      13.196      11.416      8.295       2.236       22.456      12.654      2.471       1.626       161.186     51.333      1.12        287.347     254.493     250.599     30.622      
161.8       19.233      127.022     2.357       6.345       14.72       12.214      10.809      7.344       2.797       24.751      13.047      2.521       1.619       155.297     52.176      1.12        311.208     263.201     253.865     30.101      
162.0       18.275      127.084     2.332       6.264       14.038      11.371      10.756      6.507       4.86        28.146      13.688      2.513       1.619       148.824     53.89       1.12        321.004     265.384     275.989     30.674      
162.2       17.476      127.055     2.324       6.452       13.931      11.324      10.915      5.987       9.821       40.005      14.629      2.428       1.599       142.128     56.494      1.12        206.339     259.386     382.019     31.368      
162.4       16.738      127.015     2.33        6.777       14.039      11.568      12.783      5.987       17.618      81.512      15.73       2.343       1.586       135.418     59.842      1.12        220.728     250.45      366.605     32.257      
162.6       17.689      127.087     2.317       6.707       16.437      13.74       16.439      6.523       25.844      155.026     17.533      2.526       1.618       128.599     64.23       1.12        228.858     263.303     503.466     32.48       
162.8       70.046      126.496     2.262       6.037       29.68       18.016      19.557      8.894       30.774      210.438     20.922      2.734       1.711       121.295     70.629      1.12        253.032     307.459     584.12      30.822      
163.0       177.316     126.673     2.174       4.927       60.798      21.681      20.652      12.613      31.704      217.063     26.295      2.971       1.86        113.105     79.778      1.12        251.759     424.635     509.259     30.1        
163.2       241.955     126.488     2.099       4.043       100.088     24.162      20.724      14.828      31.077      208.189     33.087      3.179       1.918       103.945     91.194      1.12        299.402     543.199     360.799     28.665      
163.4       215.87      126.103     2.083       3.709       123.676     29.704      20.771      15.473      28.769      173.556     37.99       3.301       1.984       94.203      103.236     1.12        367.129     643.997     352.509     27.983      
163.6       190.668     125.776     2.101       3.718       129.299     47.411      20.771      15.389      26.509      149.391     41.939      3.331       2.037       84.6        114.672     1.12        507.001     694.401     476.934     27.013      
163.8       189.908     125.872     2.129       3.705       128.719     78.984      21.198      15.107      25.026      136.617     44.935      3.392       2.034       75.828      125.97      1.12        642.203     761.601     628.993     26.46       
164.0       163.927     126.177     2.144       3.588       126.308     111.622     22.312      14.784      24.23       127.777     47.173      3.464       2.002       68.285      138.738     1.12        980.2       918.4       843.264     25.885      
164.2       127.658     126.389     2.14        3.388       125.58      132.273     23.918      14.297      23.986      122.104     49.219      3.357       1.982       62.029      153.444     1.12        1291.159    1147.997    1043.709    25.931      
164.4       110.475     126.239     2.13        3.46        125.565     140.415     27.053      14.013      23.975      120.839     50.649      3.351       1.982       56.93       168.413     1.12        1304.681    1276.8      1181.951    26.633      
164.6       109.713     125.991     2.133       3.507       125.961     143.632     37.329      14.013      24.057      120.839     51.546      3.28        1.954       52.837      180.947     1.12        1284.4      1293.602    1278.725    26.419      
164.8       118.482     126.38      2.151       3.595       130.301     147.461     61.56       14.155      24.385      124.333     52.593      3.308       1.953       49.649      189.497     1.12        1257.359    1338.401    1430.786    27.199      
165.0       150.765     126.654     2.172       3.483       140.973     154.651     99.242      15.458      24.873      134.361     53.918      3.256       1.973       47.298      194.525     1.12        1203.28     1422.4      1527.552    27.921      
165.2       247.892     127.248     2.188       3.423       156.992     163.579     137.29      18.104      25.312      145.859     54.949      3.167       1.961       45.698      197.651     1.12        1406.075    1534.397    1714.172    29.041      
165.4       292.081     126.94      2.194       3.38        171.952     167.482     161.751     20.795      25.564      150.762     56.192      3.091       1.979       44.725      200.144     1.12        1669.71     1651.999    1893.884    29.688      
165.6       246.357     127.533     2.196       3.436       179.831     167.506     168.299     22.351      25.659      150.948     57.051      3.08        1.992       44.213      202.452     1.12        1845.481    1646.399    1963.008    30.003      
165.8       171.711     127.738     2.188       3.271       181.022     164.421     168.197     22.89       25.701      148.993     57.482      3.107       1.985       43.996      204.501     1.12        1899.561    1607.199    1976.832    29.833      
166.0       151.605     126.874     2.177       3.367       180.775     158.169     164.413     23.123      25.876      146.429     57.683      3.118       1.986       43.948      206.11      1.12        1926.6      1596.0      2018.304    29.01       
166.2       143.615     126.858     2.18        3.314       180.527     154.262     159.48      23.259      26.427      146.115     58.246      3.118       1.996       44.0        207.168     1.12        1892.801    1612.799    2080.511    29.232      
166.4       147.818     128.451     2.194       3.037       180.557     153.713     156.637     24.237      27.476      146.245     59.039      3.106       1.945       44.133      207.722     1.12        1913.078    1629.601    2149.631    29.46       
166.6       151.343     129.382     2.203       3.13        182.805     153.789     155.026     29.064      28.707      147.71      59.693      3.028       1.909       44.339      207.96      1.12        1973.923    1595.999    2177.282    29.061      
