~Version Information Section
VERS.                                         2.0:CWLS log ASCII Standart – VERSION 2.0
WRAP.                                          NO:One line per depth step
~Well Information Section
STRT.M                                       -0.3:Начальная глубина
STOP.M                                      200.8:Конечная глубина
STEP.M                                          0:Шаг квантования по глубине
NULL.                                    -9999.25:Признак "Нет данных"
WELL.                                       124Мх:Скважина
~Parameter Information Section
~Curve Information Section
DEPTH.M                                          :Глубина
U1.мВ                                            :U1
U2.                                              :U2
U3.мВ                                            :U3
БЗ.имп/мин                                       :БЗ
ГГКП.имп/мин                                     :ГГКп
ГЗ1.Омм                                          :ГЗ1
ГЗ2.Омм                                          :ГЗ2
ГЗ3.Омм                                          :ГЗ3
ГЗ4.Oмм                                          :ГЗ4
ГЗ5.Oмм                                          :ГЗ5
ГЗК.Омм                                          :ГЗК
КП.%                                             :Кп
МЗ.                                              :МЗ жесткий
НГК.усл.ед                                       :ННКб
ННКМ.усл.ед                                      :ННКм
ПРОФ_СР.мм                                       :ПРОФ_СР
ПС.мВ                                            :ПС
BK.lgОмм                                         :BK
ГК.имп/мин                                       :GK
ИК.мСм/м                                         :IK
PZ.Омм                                           :PZ
RIS.Омм                                          :RIS
~ASCII LOG DATA
# ...
46.1        1382.191406 3446.279785 1437.95105  24600.0     2.472427    9.072       12.766      23.02       14.952      26.888      23.16       23.705608   20527.1425783.487928    2.283921    153.214996  423.191986  47.643097   2.438       24.274202   81.040001   1.06        
46.2        1451.773193 3469.810059 1422.716919 24405.7148442.489733    9.031       12.411      22.959999   14.792      26.688      23.280001   22.275879   19877.1425783.566777    2.35574     153.451996  423.808014  60.813507   2.573       24.021137   80.480003   1.06        
46.3        1520.878784 3470.860596 1373.209351 23244.0     2.510529    9.009       12.056      22.879999   14.632      26.472      23.360001   20.76506    19974.6660163.81100199999999982.440707    153.563004  424.424011  65.313065   2.842       23.520557   80.080002   1.06        
46.4        1572.379883 3473.729248 1340.086914 21862.6660162.527618    8.988       11.74       22.799999   14.472      26.232      23.4        19.422939   19682.6660164.050798    2.475498    154.436005  425.656006  63.386978   2.918       23.140648   79.68       1.06        
46.5        1604.725342 3500.199219 1358.114014 20318.4609382.537578    8.965       11.48       22.74       14.352      26.016001   23.4        19.813353   19440.0     4.245862    2.558658    156.257996  426.888     54.82769    3.072       23.049973   79.199997   1.06        
46.6        1613.238281 3544.124023 1427.044067 18962.6660162.531392    8.942       11.313      22.719999   14.272      25.823999   23.4        21.224718   18920.0     4.169875    2.675281    156.923004  428.119995  48.305882   4.234       22.684481   78.800003   1.06        
46.7        1543.497192 3550.269775 1561.423828 18496.9238282.508587    8.921       11.252      22.700001   14.224      25.672001   23.32       21.702988   18086.1542973.766107    2.629928    158.291     429.967987  55.080776   5.395       22.573364   78.400002   1.06        
46.8        1406.119629 3522.130859 1749.698608 17970.0     2.48502     8.89        11.252      22.700001   14.2        25.552      23.08       22.136257   18061.4277343.570261    2.474432    158.039001  431.81601   47.097729   5.211       22.086269   77.919998   1.06        
46.9        1351.13269  3510.188232 1830.418579 17769.3339842.46481     8.844       11.252      22.700001   14.2        25.48       22.76       23.492268   17808.0     3.305112    2.285301    158.770996  434.895996  32.433964   5.165       21.749533   77.440002   1.06        
47.0        1445.469604 3547.342041 1748.03064  17928.5722662.44862     8.781       11.252      22.700001   14.2        25.431999   22.440001   23.252197   17775.7148443.369303    2.113675    159.602005  437.359985  25.234804   4.989       21.468441   76.800003   1.06        
47.1        1594.029419 3600.619141 1593.023071 17557.1425782.436473    8.692       11.262      22.700001   14.192      25.408001   22.040001   22.935535   17897.1425783.633065    2.246311    157.054993  440.440002  26.791681   4.954       20.956892   76.160004   1.06        
47.2        1653.722046 3622.890625 1521.049072 17278.6660162.423111    8.573       11.351      22.700001   14.176      25.408001   21.719999   23.859303   17928.0     3.493515    2.413273    156.552002  444.135986  31.405085   4.435       20.309105   75.519997   1.06        
47.3        1628.015991 3615.791504 1530.57019  16854.6660162.401708    8.467       11.522      22.719999   14.152      25.408001   21.559999   24.591747   17948.0     3.167884    2.310837    154.242004  448.447998  35.727283   4.422       19.913576   75.040001   1.06        
47.4        1556.112793 3614.125732 1669.494263 16392.8574222.384128    8.383       11.732      22.74       14.128      25.408001   21.48       24.252361   18454.2851563.198586    2.208409    153.889008  450.911987  31.550043   4.397       19.491657   74.559998   1.06        
47.5        1438.016602 3617.893799 1937.812988 16220.0     2.374064    8.321       11.954      22.76       14.104      25.408001   21.360001   23.638355   18981.4277343.253942    2.215406    154.076996  453.376007  31.915375   4.282       19.348722   74.239998   1.06        
47.6        1357.762451 3609.82251  2097.353027 16266.6669922.376337    8.282       12.153      22.799999   14.088      25.424      21.32       23.169476   19186.6660163.183388    2.222404    154.210999  455.223999  42.756294   4.166       19.267822   73.760002   1.06        
47.7        1360.634766 3584.583984 2021.262329 16650.6660162.385599    8.266       12.296      22.860001   14.088      25.448      21.280001   23.283878   20052.0     3.104154    2.27119     154.350006  456.455994  43.351086   4.435       19.389614   73.360001   1.06        
47.8        1446.630859 3542.181885 1709.554932 17615.7148442.397602    8.245       12.385      22.9        14.088      25.48       21.24       24.048672   20661.4277343.090045    2.28609     156.587006  457.071991  42.46196    4.57        19.430304   72.879997   1.06        
47.9        1483.224121 3482.227051 1466.21167  18601.3339842.404423    8.224       12.451      22.959999   14.088      25.528      21.200001   25.430878   21482.6660163.046937    2.184437    158.748993  457.687988  34.914032   5.018       19.472679   72.400002   1.06        
48.0        1470.409668 3404.725098 1291.255981 19722.8574222.40159     8.2         12.495      23.02       14.088      25.591999   21.16       26.513155   22284.2851562.92599     2.091918    159.404007  458.303986  28.707802   5.242       19.471542   71.919998   1.06        
48.1        1443.767822 3359.931641 1239.045654 20737.1425782.387882    8.175       12.513      23.08       14.104      25.68       21.120001   27.244343   22868.5722662.776201    2.017669    159.270004  458.920013  22.646444   4.934       19.471542   71.599998   1.06        
48.2        1452.704834 3365.398193 1241.204712 21107.1425782.364729    8.169       12.513      23.139999   14.136      25.799999   21.120001   26.995508   23178.5722662.711076    1.971798    160.020996  458.920013  22.750975   4.835       19.368584   71.279999   1.06        
48.3        1497.219116 3421.121826 1297.731323 21338.5722662.331977    8.169       12.513      23.219999   14.176      25.952      21.120001   26.198118   22452.8574222.746993    1.982683    158.895004  458.920013  26.485001   4.339       19.068321   70.800003   1.06        
48.4        1511.974976 3463.868164 1357.928101 21250.0     2.293026    8.169       12.503      23.299999   14.224      26.120001   21.120001   25.07604    21700.0     2.957529    2.029493    155.796997  458.920013  30.130058   4.128       18.909311   70.400002   1.06        
48.5        1496.969604 3493.631592 1421.790039 20872.8574222.255286    8.169       12.473      23.42       14.272      26.288      21.120001   24.642204   21262.8574223.072522    2.1086      155.220993  458.920013  33.496544   3.706       18.719582   70.080002   1.06        
48.6        1523.136597 3483.942627 1424.623657 20952.8574222.228377    8.195       12.444      23.540001   14.32       26.440001   21.120001   24.584265   20558.5722663.243402    2.17319     155.085999  458.920013  64.416931   3.571       18.606037   69.839996   1.06        
48.7        1620.239868 3447.778809 1362.758667 21472.3085942.219505    8.258       12.436      23.639999   14.352      26.559999   21.16       24.941952   20730.7695313.27348     2.204483    155.235001  458.920013  88.307983   3.437       18.585978   69.519997   1.06        
48.8        1788.269165 3385.144775 1236.202271 21841.4277342.229931    8.363       12.436      23.74       14.384      26.648001   21.24       25.310818   20871.4277343.24231299999999982.214629    155.738007  458.920013  116.144875  3.373       18.606037   69.360001   1.06        
48.9        1816.489502 3425.330566 1358.44519  22504.6152342.254715    8.5         12.436      23.82       14.416      26.712      21.360001   25.292389   20533.8457033.121366    2.219294    156.384003  458.920013  121.059799  3.341       18.661242   69.040001   1.06        
