~Version Information Section
VERS.                                         2.0:CWLS log ASCII Standart – VERSION 2.0
WRAP.                                          NO:One line per depth step
~Well Information Section
STRT.M                                        0.0:Начальная глубина
STOP.M                                      166.2:Конечная глубина
STEP.M                                          0:Шаг квантования по глубине
NULL.                                    -9999.25:Признак "Нет данных"
WELL.                                         1Мх:Скважина
~Parameter Information Section
~Curve Information Section
DEPTH.M                                          :Глубина
BK.lgОмм                                         :BK
ПРОФ_СР.мм                                       :ПРОФ_СР
GGKP.имп/мин                                     :GGKp
ГК.мкР/час                                       :GK
ИК.мСм/м                                         :IK
PS.мВ                                            :PS
PZ.Омм                                           :PZ
RIS.Омм                                          :RIS
U1.мВ                                            :U1
U2.мВ                                            :U2
U3.mv                                            :U3
WS.%                                             :WS
ГЗ1.Омм                                          :ГЗ1
ГЗ2.Омм                                          :ГЗ2
ГЗ3.Омм                                          :ГЗ3
ГЗ4.Oмм                                          :ГЗ4
ГЗК.Омм                                          :ГЗК
НГК.усл.ед                                       :ННКб
ННКМ.усл.ед                                      :ННКм
ГЗ5.Oмм                                          :ГЗ5
ПЛ1.имп/мин                                      :ПЛ1
ПЛ2.имп/мин                                      :ПЛ2
ПЛ3.имп/мин                                      :ПЛ3
ПЛ4.имп/мин                                      :ПЛ4
~ASCII LOG DATA
# ...
45.9        24.287      159.336     2.217       5.751       16.954      84.079      16.563      1.065       726.242     506.92      408.663     35.638      1.16        6.234       5.377       6.225       5.719       2.629       1.943       4.471       17400.0     21860.0     14100.0     3840.0      
46.0        22.842      160.892     2.197       5.607       16.812      86.801      16.111      1.065       610.135     403.983     326.702     35.231      1.093       6.234       5.277       6.225       5.719       2.642       1.923       4.471       16440.0     21280.0     13980.0     3660.0      
46.1        21.352      163.035     2.203       5.545       16.571      89.544      15.645      1.065       477.372     305.262     263.323     35.059      1.015       6.258       5.177       6.225       5.719       2.665       1.909       4.471       16320.0     21060.0     13920.0     3460.0      
46.2        20.378      165.134     2.212       5.748       16.336      92.298      15.19       1.065       386.352     257.262     248.54      35.681      0.996       6.234       5.077       6.225       5.719       2.643       1.896       4.471       13440.0     20920.0     13720.0     3360.0      
46.3        20.525      165.616     2.205       5.909       16.25       94.836      14.721      1.065       337.084     259.986     282.352     36.692      1.039       6.258       5.077       6.225       5.719       2.594       1.881       4.471       13080.0     21160.0     13700.0     3520.0      
46.4        20.664      166.056     2.21        6.005       16.004      97.175      14.164      1.065       334.7       291.376     332.326     37.659      1.059       6.282       5.077       6.225       5.719       2.559       1.869       4.271       13080.0     21400.0     14000.0     3600.0      
46.5        19.895      166.33      2.239       6.155       15.805      99.259      13.811      1.065       379.199     351.43      398.459     37.537      0.894       6.234       5.077       6.125       5.719       2.54        1.863       4.171       12120.0     21440.0     14000.0     3720.0      
46.6        19.127      166.718     2.244       6.091       15.688      101.154     13.598      1.065       430.891     403.55      449.519     37.059      0.895       6.113       4.977       6.025       5.819       2.494       1.841       4.171       13680.0     21060.0     13880.0     3760.0      
46.7        20.113      167.684     2.25        5.923       15.714      102.872     13.506      1.065       464.531     444.539     499.76      37.123      0.928       6.113       4.877       5.925       5.919       2.462       1.807       4.171       12720.0     21220.0     13480.0     3840.0      
46.8        21.91       168.46      2.229       5.739       15.832      104.363     13.502      1.065       480.117     474.394     549.177     36.715      0.943       6.138       4.877       5.925       5.919       2.492       1.806       4.071       13920.0     20980.0     13880.0     3540.0      
46.9        23.877      167.493     2.233       5.651       15.886      105.591     13.514      1.065       493.106     460.115     526.603     35.958      1.131       6.113       4.877       5.925       6.019       2.601       1.851       3.971       15480.0     20940.0     13640.0     3480.0      
47.0        24.764      167.587     2.244       5.49        15.924      106.753     13.663      1.065       503.502     401.705     432.041     35.384      1.286       6.186       4.877       5.925       6.019       2.716       1.914       3.971       14640.0     20600.0     13820.0     3380.0      
47.1        24.729      167.343     2.239       5.488       15.859      107.8       13.855      1.065       500.122     354.839     356.012     34.84       1.242       6.258       4.877       5.825       5.819       2.774       1.948       3.971       13320.0     20820.0     14200.0     3620.0      
47.2        23.414      166.563     2.221       5.638       15.724      108.733     13.95       1.065       482.968     319.514     298.511     34.797      1.232       6.234       4.877       5.725       5.819       2.749       1.952       3.871       14040.0     21460.0     14400.0     3700.0      
47.3        21.893      167.972     2.21        6.027       15.651      109.458     13.991      1.065       478.494     306.23      275.462     34.735      1.218       6.258       4.877       5.725       5.719       2.664       1.936       3.871       14640.0     21940.0     14420.0     4040.0      
47.4        21.104      167.748     2.203       6.422       15.539      110.013     14.003      1.065       449.603     322.509     327.589     35.024      1.18        6.282       4.977       5.725       5.619       2.586       1.898       3.871       12600.0     22000.0     14580.0     4080.0      
47.5        20.541      168.294     2.199       6.712       15.349      110.477     13.842      1.065       415.508     347.759     388.928     35.915      1.174       6.331       5.077       5.725       5.619       2.523       1.863       3.871       16320.0     22560.0     14120.0     4260.0      
47.6        19.453      168.311     2.181       7.107       15.222      110.821     13.677      1.065       427.454     362.499     398.903     36.113      1.103       6.331       5.177       5.725       5.619       2.514       1.849       3.871       16560.0     22660.0     14200.0     4240.0      
47.7        18.332      169.789     2.19        7.401       15.057      110.854     13.475      1.065       458.103     368.965     388.703     36.049      1.049       6.258       5.277       5.725       5.619       2.538       1.844       3.871       15600.0     22380.0     14200.0     4260.0      
47.8        17.426      172.003     2.203       7.293       14.903      110.654     13.245      1.065       479.873     356.753     343.696     35.711      0.914       6.234       5.377       5.725       5.619       2.566       1.828       3.871       16680.0     22440.0     13860.0     4100.0      
47.9        17.235      172.372     2.224       6.756       14.863      110.219     13.037      1.065       492.766     325.873     263.908     35.246      0.885       6.089       5.377       5.725       5.619       2.58        1.799       3.871       15240.0     22820.0     13740.0     4060.0      
48.0        18.452      173.042     2.258       6.398       14.871      109.608     12.874      1.065       466.382     307.151     265.064     35.403      0.991       6.065       5.377       5.825       5.619       2.609       1.786       3.871       16440.0     23040.0     14000.0     4000.0      
48.1        20.532      172.945     2.28        5.954       14.887      108.87      12.737      1.065       399.506     301.755     352.186     35.382      1.126       6.186       5.377       5.825       5.619       2.687       1.813       3.871       15840.0     23000.0     14300.0     3920.0      
48.2        22.182      173.308     2.304       5.4         14.784      108.143     12.686      1.065       355.693     302.311     412.379     34.985      1.209       6.21        5.477       5.825       5.619       2.813       1.87        3.871       15720.0     22480.0     15060.0     3800.0      
48.3        22.546      173.418     2.32        5.145       14.855      107.619     12.594      1.065       339.655     308.217     436.271     34.721      1.281       6.258       5.477       5.825       5.719       2.909       1.936       3.871       15000.0     22020.0     15160.0     3720.0      
48.4        22.285      173.884     2.306       5.22        14.863      107.512     12.519      1.065       320.824     310.844     458.763     34.48       1.368       6.331       5.477       5.825       5.719       2.907       1.982       3.871       16080.0     21820.0     15180.0     3480.0      
48.5        22.081      174.429     2.293       5.128       14.737      107.73      12.449      1.065       306.603     298.891     434.418     34.636      1.431       6.403       5.377       5.825       5.719       2.835       2.006       3.971       15360.0     21540.0     15480.0     3380.0      
