~Version Information Section
VERS.                                         2.0:CWLS log ASCII Standart – VERSION 2.0
WRAP.                                          NO:One line per depth step
~Well Information Section
STRT.M                                        0.0:Начальная глубина
STOP.M                                      133.6:Конечная глубина
STEP.M                                          0:Шаг квантования по глубине
NULL.                                    -9999.25:Признак "Нет данных"
WELL.                                       118Мх:Скважина
~Parameter Information Section
~Curve Information Section
DEPTH.M                                          :Глубина
BK.Ohm*M                                         :BK     (БК)
DS.mm                                            :DS  (ДС)
GGK.g/cm3                                        :GGKp
ГК.mcr/h                                         :GK          (ГК)
GZ1.Ohm*M                                        :GZ1   ГЗ1(A0.4M0.1N)
GZ2.Ohm*M                                        :GZ2   ГЗ2(A1.0M0.1N)
GZ3.Ohm*M                                        :GZ3   ГЗ3(A2.0M0.5N)
GZ4.Ohm*M                                        :GZ4   ГЗ4(A4.0M0.5N)
GZ5.Ohm*M                                        :GZ5   ГЗ5(A8.0M0.5N)
GZR.Ohm*M                                        :GZK   ГЗK(N0.5M2.0A)
ИК.Ohm*M                                         :IK
НГК.усл.ед                                       :NGK
NNKM.                                            :NNKm  (ННКм)
PS.mv                                            :PS       (ПС)
PZ.Ohm*M                                         :PZ    (КС)
RS.Ohm*M                                         :RS (Резистивиметр)
U1.mV                                            :U1
U2.mV                                            :U2
U3.mV                                            :U3
W.%                                              :W
~ASCII LOG DATA
# ...
83.2        25.003      161.549     2.299       6.525       33.25       31.517      32.141      37.944      44.052      38.609      11.325      1.12        2.012       1201.126    59.311      1.0         672.653     504.606     431.652     32.928      
83.4        28.314      159.462     2.297       6.816       34.076      33.237      31.691      38.389      43.734      39.539      11.444      1.095       2.138       1202.086    59.768      1.001       770.417     498.904     382.14      31.561      
83.6        26.915      159.836     2.301       6.813       35.84       35.13       32.08       39.585      44.347      39.952      11.589      1.068       2.057       1203.286    59.687      1.002       487.647     327.752     346.306     34.056      
83.8        28.184      160.028     2.296       6.369       36.856      37.134      32.748      41.214      45.126      38.504      11.66       1.062       2.05        1204.966    59.445      1.004       483.29      323.762     342.821     30.997      
84.0        32.137      160.04      2.326       6.551       38.506      39.504      33.634      42.593      45.975      36.598      11.81       1.124       2.136       1206.886    59.553      1.005       817.214     403.301     248.005     27.863      
84.2        35.156      160.082     2.398       5.909       41.772      41.904      34.518      43.346      46.441      35.047      11.9        1.144       2.218       1209.286    60.224      1.006       1188.543    365.115     138.043     27.761      
84.4        34.356      160.444     2.411       6.202       45.915      44.882      35.309      44.212      46.747      34.076      11.942      1.17        2.281       1211.686    61.648      1.007       1146.185    327.93      149.322     28.771      
84.6        31.915      163.741     2.371       6.101       45.39       45.999      36.836      45.123      46.832      33.068      11.917      1.2         2.156       1214.086    63.769      1.008       537.807     326.527     304.116     29.969      
84.8        32.434      163.142     2.345       5.906       45.557      49.151      38.528      45.619      46.366      31.688      11.895      1.16        2.119       1216.006    66.321      1.009       447.405     412.081     450.328     30.121      
85.0        32.137      162.731     2.327       6.146       47.465      53.056      38.926      45.292      46.016      31.507      11.837      1.147       2.103       1217.686    69.033      1.009       489.421     377.715     354.875     28.224      
85.2        26.062      161.584     2.33        7.055       43.317      48.991      38.02       43.666      45.761      32.976      11.722      1.104       2.076       1218.886    71.8        1.009       777.434     482.223     331.001     29.897      
85.4        22.751      160.978     2.338       6.516       37.897      44.639      37.088      41.729      45.722      34.917      11.554      0.994       2.068       1219.606    74.082      1.009       798.992     487.581     328.855     32.383      
85.6        24.155      160.621     2.332       6.648       35.096      43.505      38.213      41.92       45.747      35.955      11.448      1.036       2.14        1220.086    73.948      1.009       820.514     603.089     491.35      33.434      
85.8        29.174      160.058     2.327       6.545       37.074      44.452      39.47       42.891      46.849      37.3        11.447      1.149       2.254       1220.566    70.833      1.009       702.252     560.001     496.207     31.922      
86.0        28.379      159.907     2.378       6.41        38.506      42.679      40.82       43.442      48.26       38.341      11.502      1.153       2.193       1220.806    65.918      1.008       720.757     542.239     454.794     31.85       
86.2        27.733      159.853     2.423       6.174       40.467      43.02       42.262      44.468      48.201      37.675      11.515      1.053       2.138       1220.806    61.728      1.007       990.85      749.275     610.154     31.353      
86.4        28.576      159.933     2.425       6.133       41.122      42.355      42.696      44.463      47.467      35.676      11.491      1.118       2.213       1220.566    59.58       1.007       789.665     656.854     617.842     26.773      
86.6        29.107      159.596     2.342       6.074       40.317      41.158      40.357      42.783      46.524      34.26       11.451      1.141       2.171       1219.846    59.311      1.007       352.358     334.269     422.364     26.053      
86.8        28.054      159.516     2.298       6.288       40.398      40.591      37.862      40.735      45.383      34.457      11.396      1.068       2.147       1218.886    59.311      1.007       297.104     247.619     298.353     29.299      
87.0        26.73       159.536     2.311       6.343       39.862      39.665      36.574      39.358      43.552      34.644      11.326      1.066       2.059       1217.926    59.284      1.007       516.861     340.93      278.029     32.748      
87.2        25.645      159.645     2.339       6.213       39.349      41.087      35.82       39.166      42.114      34.091      11.245      1.098       2.051       1216.966    58.935      1.008       599.971     392.125     293.667     31.434      
87.4        26.182      159.515     2.343       6.728       37.43       40.806      34.807      38.38       41.09       33.296      11.194      1.078       2.011       1215.766    57.968      1.009       560.667     456.468     439.569     31.924      
87.6        26.182      159.644     2.324       6.737       36.744      40.07       32.814      37.136      40.588      33.358      11.13       1.041       1.972       1214.326    56.491      1.011       719.213     594.612     563.947     37.2        
87.8        24.378      160.078     2.306       6.396       36.725      38.477      31.723      35.753      39.696      33.308      11.123      0.999       1.933       1213.366    55.014      1.013       570.604     452.674     473.803     32.949      
88.0        23.227      160.374     2.288       6.878       34.318      35.588      31.391      34.712      38.97       33.667      11.077      0.97        1.937       1212.406    54.02       1.014       346.236     332.91      461.693     32.497      
88.2        25.293      159.898     2.296       6.635       34.148      36.124      31.66       34.488      38.702      33.719      11.101      1.081       1.996       1211.446    53.456      1.016       537.535     489.652     535.529     32.013      
88.4        25.704      159.762     2.291       6.611       35.025      36.92       32.37       34.966      38.57       32.694      11.173      1.092       2.006       1210.486    53.0        1.018       654.164     539.403     511.03      26.201      
88.6        25.061      160.315     2.325       6.64        36.642      37.464      33.151      35.186      39.267      33.531      11.228      1.02        1.974       1210.246    52.462      1.02        738.057     686.749     712.984     26.158      
88.8        24.717      160.888     2.364       6.878       35.235      36.029      34.135      35.676      39.912      33.892      11.226      1.031       1.975       1210.246    52.033      1.023       479.81      446.271     483.062     25.077      
89.0        24.604      161.084     2.386       6.435       36.026      38.173      34.591      36.26       40.376      33.321      11.236      1.055       2.087       1210.486    51.818      1.024       396.247     337.328     346.62      28.122      
89.2        28.708      160.887     2.332       6.097       35.973      37.423      34.866      36.812      40.313      31.777      11.283      1.083       2.094       1211.446    51.791      1.026       569.665     506.924     510.288     30.358      
89.4        31.189      160.789     2.297       6.237       38.633      38.765      34.531      36.652      40.17       30.649      11.364      1.115       2.139       1212.646    51.791      1.028       679.646     633.054     653.714     27.924      
