~Version Information Section
VERS.                                         2.0:CWLS log ASCII Standart – VERSION 2.0
WRAP.                                          NO:One line per depth step
~Well Information Section
STRT.M                                        0.0:Начальная глубина
STOP.M                                      211.0:Конечная глубина
STEP.M                                          0:Шаг квантования по глубине
NULL.                                    -9999.25:Признак "Нет данных"
WELL.                                       125Мх:Скважина
~Parameter Information Section
~Curve Information Section
DEPTH.M                                          :Глубина
BK.lgОмм                                         :BK
D.                                               :D sr
GGKP.g/sm3                                       :GGKp
ГК.гамма                                         :GK
ИК.мСм/м                                         :IK
KP.%                                             :Kp
PS.                                              :PS       (ПС)
PZ.Омм                                           :PZ
RIS.Омм                                          :RIS
U1.                                              :U1
U2.                                              :U2
U3.                                              :U3
БЗ.                                              :БЗ (ГГК-1)
ГЗ1.Омм                                          :ГЗ1
ГЗ2.Омм                                          :ГЗ2
ГЗ3.Омм                                          :ГЗ3
ГЗ4.Oмм                                          :ГЗ4
ГЗ5.Oмм                                          :ГЗ5
ГЗК.Омм                                          :ГЗК
ИКБ.мСм/м                                        :ИКБ
МЗ.                                              :МЗ жесткий (ГГК-4)
ННКМ.усл.ед                                      :ННКм
ИКМ.мСм/м                                        :ИКМ
НГК.усл.ед                                       :ННКб
~ASCII LOG DATA
# ...
48.6        -9999.25    143.969     2.405       4.744       -9999.25    28.8        -9999.25    -9999.25    0.932       650.74      376.994     446.837     10754.737   -9999.25    -9999.25    -9999.25    -9999.25    -9999.25    -9999.25    14.727      16168.421   1.001       12.057      2.192       
48.7        -9999.25    144.243     2.425       3.918       -9999.25    27.642      -9999.25    -9999.25    1.011       636.279     375.61      452.594     9827.143    -9999.25    -9999.25    -9999.25    -9999.25    -9999.25    -9999.25    14.921      15830.0     1.056       12.454      2.286       
48.8        -9999.25    145.277     2.442       3.259       -9999.25    26.382      -9999.25    -9999.25    1.092       648.698     361.678     455.287     9313.637    -9999.25    -9999.25    -9999.25    -9999.25    -9999.25    -9999.25    15.174      15663.637   1.106       12.846      2.66        
48.9        -9999.25    145.625     2.448       2.983       -9999.25    26.437      -9999.25    -9999.25    1.009       670.793     346.273     469.659     9040.0      -9999.25    -9999.25    -9999.25    -9999.25    -9999.25    -9999.25    15.449      15560.0     1.134       13.191      3.062       
49.0        -9999.25    144.239     2.446       3.06        -9999.25    26.374      -9999.25    -9999.25    1.009       693.416     330.868     479.754     10444.0     -9999.25    -9999.25    -9999.25    -9999.25    -9999.25    -9999.25    15.718      17520.0     1.337       13.494      2.985       
49.1        -9999.25    143.934     2.437       3.362       -9999.25    26.209      -9999.25    -9999.25    1.009       709.302     315.462     484.032     11148.571   -9999.25    -9999.25    -9999.25    -9999.25    -9999.25    -9999.25    15.969      17574.285   1.281       13.635      2.833       
49.2        -9999.25    143.95      2.429       3.877       -9999.25    25.962      -9999.25    -9999.25    1.008       725.187     313.14      490.237     11006.667   -9999.25    -9999.25    -9999.25    -9999.25    -9999.25    -9999.25    16.196      17481.334   1.193       13.663      2.644       
49.3        -9999.25    144.076     2.44        4.211       -9999.25    26.035      -9999.25    -9999.25    0.71        706.186     323.367     496.442     10417.143   -9999.25    -9999.25    -9999.25    -9999.25    -9999.25    -9999.25    16.395      16538.572   1.036       13.673      2.593       
49.4        -9999.25    144.25      2.462       4.201       -9999.25    24.674      -9999.25    -9999.25    0.412       656.524     331.995     485.86      9396.0      -9999.25    -9999.25    -9999.25    -9999.25    -9999.25    -9999.25    16.582      15466.667   1.1         13.679      2.93        
49.5        -9999.25    144.366     2.486       4.056       -9999.25    22.856      -9999.25    -9999.25    0.115       581.351     311.589     450.263     8375.714    -9999.25    -9999.25    -9999.25    -9999.25    -9999.25    -9999.25    16.755      15251.429   1.189       13.651      3.331       
49.6        -9999.25    144.567     2.51        3.788       -9999.25    21.121      -9999.25    -9999.25    -0.183      508.499     291.181     402.972     8138.667    -9999.25    -9999.25    -9999.25    -9999.25    -9999.25    -9999.25    16.919      15258.667   1.277       13.568      3.858       
49.7        -9999.25    145.421     2.52        3.259       -9999.25    20.85       -9999.25    -9999.25    -0.482      435.649     273.326     355.684     8168.571    -9999.25    -9999.25    -9999.25    -9999.25    -9999.25    -9999.25    17.078      15822.857   1.362       13.428      4.062       
49.8        -9999.25    145.578     2.508       3.128       -9999.25    21.386      -9999.25    -9999.25    -0.698      381.413     255.47      314.555     8626.667    -9999.25    -9999.25    -9999.25    -9999.25    -9999.25    -9999.25    17.247      16594.666   1.426       13.291      3.737       
49.9        -9999.25    145.722     2.481       3.228       -9999.25    22.55       -9999.25    -9999.25    -0.995      364.11      238.802     281.164     9631.429    -9999.25    -9999.25    -9999.25    -9999.25    -9999.25    -9999.25    17.417      17385.715   1.447       13.165      3.52        
50.0        -9999.25    145.832     2.44        3.596       -9999.25    24.595      -9999.25    -9999.25    -1.293      372.319     230.282     272.789     10516.0     -9999.25    -9999.25    -9999.25    -9999.25    -9999.25    -9999.25    17.601      17749.334   1.248       13.122      2.873       
50.1        -9999.25    145.76      2.401       3.844       -9999.25    26.823      -9999.25    -9999.25    -1.49       397.861     221.762     277.719     11200.0     -9999.25    -9999.25    -9999.25    -9999.25    -9999.25    -9999.25    17.807      17212.857   1.2         13.194      2.568       
50.2        -9999.25    146.474     2.378       4.188       -9999.25    28.662      -9999.25    -9999.25    -1.391      418.249     201.348     277.501     11593.333   -9999.25    -9999.25    -9999.25    -9999.25    -9999.25    -9999.25    18.019      16556.0     0.964       13.339      1.992       
50.3        -9999.25    146.886     2.368       4.462       -9999.25    30.399      -9999.25    -9999.25    -1.292      419.579     187.721     266.146     11391.429   -9999.25    -9999.25    -9999.25    -9999.25    -9999.25    -9999.25    18.218      16404.285   0.941       13.569      1.866       
50.4        -9999.25    146.187     2.378       4.295       -9999.25    31.034      -9999.25    -9999.25    -1.185      395.839     175.326     250.505     11156.667   -9999.25    -9999.25    -9999.25    -9999.25    -9999.25    -9999.25    18.429      16768.334   0.949       13.884      1.8         
50.5        -9999.25    146.272     2.404       3.889       -9999.25    30.486      -9999.25    -9999.25    -1.078      372.1       180.484     234.865     10960.0     -9999.25    -9999.25    -9999.25    -9999.25    -9999.25    -9999.25    18.652      16914.285   0.964       14.336      2.021       
50.6        -9999.25    146.32      2.426       3.658       -9999.25    29.18       -9999.25    -9999.25    -0.971      359.452     180.343     227.741     10384.0     -9999.25    -9999.25    -9999.25    -9999.25    -9999.25    -9999.25    18.908      16733.334   0.991       14.997      2.3         
50.7        -9999.25    146.4       2.452       3.368       -9999.25    27.434      -9999.25    -9999.25    -0.864      357.267     178.171     226.471     9694.286    -9999.25    -9999.25    -9999.25    -9999.25    -9999.25    -9999.25    19.228      16094.286   1.07        15.843      2.697       
50.8        -9999.25    146.469     2.476       2.968       -9999.25    25.163      -9999.25    -9999.25    -0.756      363.086     169.212     230.32      9152.0      -9999.25    -9999.25    -9999.25    535.583     -9999.25    -9999.25    19.627      15184.0     1.158       16.861      2.986       
50.9        -9999.25    146.491     2.496       2.835       -9999.25    23.535      45.537      -9999.25    -0.649      378.029     168.312     239.364     8365.714    -9999.25    -9999.25    -9999.25    535.583     -9999.25    -9999.25    20.061      15038.571   1.268       17.693      3.376       
51.0        -9999.25    146.561     2.519       2.7         -9999.25    22.388      45.537      -9999.25    -0.641      401.268     170.746     261.125     8005.333    -9999.25    -9999.25    -9999.25    535.583     -9999.25    -9999.25    20.481      14834.667   1.332       18.157      3.615       
51.1        -9999.25    146.581     2.544       2.728       -9999.25    21.809      45.537      -9999.25    -0.634      424.397     177.248     285.18      7807.143    -9999.25    -9999.25    -9999.25    535.583     -9999.25    -9999.25    20.8        14992.857   1.385       18.375      3.909       
51.2        -9999.25    146.567     2.562       2.768       -9999.25    21.409      45.537      -9999.25    -0.626      444.426     179.824     308.529     7350.0      -9999.25    -9999.25    -9999.25    535.583     -9999.25    -9999.25    20.932      14948.571   1.402       18.267      3.912       
