~Version Information Section
VERS.                                         2.0:CWLS log ASCII Standart – VERSION 2.0
WRAP.                                          NO:One line per depth step
~Well Information Section
STRT.M                                        7.7:Начальная глубина
STOP.M                                      168.6:Конечная глубина
STEP.M                                          0:Шаг квантования по глубине
NULL.                                    -9999.25:Признак "Нет данных"
WELL.                                       137Мх:Скважина
~Parameter Information Section
~Curve Information Section
DEPTH.M                                          :Глубина
ГК.мкР/ч                                         :GK
U1.                                              :U1
U12.                                             :U12
U2.                                              :U2
W.усл.ед                                         :W
ЗОНД.                                            :Зонд N0
НГК.                                             :НГК
ННКМ.усл.ед                                      :ННКм
ПЛОТНОСТЬ.г/см3                                  :плотность
РЕЗИСТИВИМЕТР.Ом                                 :Резистивиметр
~ASCII LOG DATA
# ...
32.1        4.746       425.225     275.433     183.667     31.678      68.366      1.259       1.33        2.166       1.967       
32.2        5.06        422.572     322.012     249.328     32.874      68.349      1.283       1.28        2.149       1.967       
32.3        5.398       467.355     358.388     281.164     33.988      68.708      1.3         1.246       2.148       1.978       
32.4        5.243       534.205     373.058     269.723     34.08       69.865      1.301       1.264       2.157       2.007       
32.5        5.06        618.435     368.459     226.387     33.677      71.269      1.278       1.264       2.164       2.035       
32.6        5.163       697.977     366.295     194.436     33.172      71.777      1.243       1.262       2.174       2.048       
32.7        5.49        627.131     399.195     298.102     32.354      71.124      1.215       1.294       2.19        2.051       
32.8        5.732       539.351     397.11      344.65      31.931      70.079      1.219       1.375       2.205       2.049       
32.9        5.889       434.638     360.04      334.08      32.241      69.165      1.231       1.384       2.224       2.049       
33.0        5.988       426.41      285.778     210.236     32.012      68.027      1.24        1.402       2.237       2.028       
33.1        5.818       385.898     241.934     154.466     31.794      65.777      1.241       1.357       2.236       1.983       
33.2        5.702       315.532     268.076     257.071     31.511      62.267      1.246       1.311       2.216       1.942       
33.3        5.817       233.492     247.969     284.239     30.657      59.056      1.258       1.342       2.204       1.901       
33.4        6.004       227.922     264.109     320.931     29.925      57.136      1.268       1.372       2.198       1.867       
33.5        5.725       296.392     276.928     276.847     30.094      56.257      1.269       1.382       2.202       1.858       
33.6        5.461       453.006     372.243     317.723     30.362      56.059      1.266       1.39        2.206       1.858       
33.7        5.28        596.95      461.754     361.63      31.24       56.835      1.246       1.284       2.2         1.866       
33.8        5.134       643.319     483.166     363.017     32.211      58.448      1.246       1.263       2.173       1.883       
33.9        4.931       592.114     436.478     321.884     32.626      59.275      1.246       1.246       2.132       1.885       
34.0        4.734       501.448     382.898     293.836     32.718      59.071      1.254       1.246       2.114       1.869       
34.1        4.716       460.777     343.983     262.96      33.06       58.877      1.271       1.303       2.109       1.86        
34.2        5.054       470.102     319.734     229.256     33.235      59.26       1.301       1.298       2.119       1.859       
34.3        6.156       436.353     260.46      162.12      32.926      59.956      1.362       1.278       2.119       1.859       
34.4        6.864       354.976     206.896     123.014     32.397      59.569      1.36        1.28        2.108       1.862       
34.5        6.697       282.684     181.23      117.842     31.955      57.487      1.319       1.289       2.099       1.868       
34.6        6.447       267.104     177.748     118.573     31.268      53.981      1.3         1.294       2.115       1.867       
34.7        6.741       334.493     228.824     157.181     30.106      49.491      1.294       1.304       2.165       1.85        
34.8        8.168       361.512     263.626     195.093     28.861      45.467      1.304       1.391       2.207       1.83        
34.9        10.173      348.16      282.153     232.31      27.997      42.363      1.316       1.434       2.222       1.81        
35.0        10.616      338.537     286.186     245.323     27.832      39.617      1.315       1.405       2.202       1.787       
35.1        9.752       399.267     324.373     266.803     28.082      37.371      1.277       1.405       2.17        1.768       
35.2        8.484       502.107     352.318     253.052     28.478      35.663      1.285       1.319       2.141       1.763       
35.3        7.738       601.56      389.582     255.318     29.064      34.19       1.321       1.311       2.135       1.763       
35.4        7.575       697.627     436.166     273.598     29.795      32.983      1.353       1.268       2.144       1.772       
35.5        6.807       705.597     467.728     312.897     29.794      32.294      1.32        1.262       2.152       1.778       
35.6        5.665       600.609     430.553     313.501     29.481      31.865      1.314       1.249       2.152       1.766       
35.7        5.104       409.086     331.983     275.495     29.243      31.258      1.295       1.25        2.135       1.758       
35.8        5.145       300.542     275.833     254.355     29.694      30.576      1.25        1.253       2.124       1.756       
35.9        5.281       274.978     262.103     250.079     30.151      30.181      1.202       1.324       2.124       1.751       
36.0        5.374       315.311     274.256     243.516     30.995      30.096      1.203       1.377       2.139       1.744       
36.1        5.303       364.984     277.214     217.884     32.288      30.084      1.234       1.297       2.141       1.741       
36.2        5.077       391.883     250.128     165.598     33.151      29.994      1.312       1.266       2.137       1.741       
36.3        4.938       361.484     231.086     169.257     33.071      29.882      1.351       1.234       2.123       1.746       
36.4        5.078       273.787     220.089     228.859     32.446      29.826      1.309       1.244       2.135       1.755       
36.5        5.634       221.343     228.4       278.46      31.694      29.786      1.274       1.328       2.165       1.747       
36.6        6.277       229.339     227.127     254.531     30.978      29.693      1.28        1.323       2.199       1.732       
36.7        6.592       296.137     243.847     213.802     30.529      29.394      1.29        1.315       2.215       1.728       
36.8        6.779       302.616     250.891     220.37      30.688      28.491      1.275       1.304       2.207       1.728       
36.9        6.645       248.775     248.259     274.234     31.356      26.696      1.246       1.293       2.2         1.725       
37.0        5.985       210.41      219.251     268.333     31.659      24.497      1.233       1.318       2.194       1.71        
37.1        5.747       246.201     201.123     212.101     31.332      22.401      1.213       1.334       2.191       1.686       
37.2        5.839       364.817     253.568     196.472     31.131      20.521      1.208       1.337       2.181       1.656       
37.3        6.153       515.932     339.159     226.671     31.077      18.703      1.214       1.34        2.176       1.611       
37.4        6.215       699.546     457.894     302.698     31.459      16.66       1.233       1.298       2.164       1.555       
37.5        6.556       818.215     535.008     355.297     32.216      14.681      1.253       1.291       2.163       1.481       
37.6        6.922       848.109     597.051     429.576     32.838      13.084      1.248       1.246       2.162       1.403       
37.7        6.289       785.496     641.448     534.762     32.866      11.789      1.193       1.251       2.164       1.356       
37.8        5.111       749.993     652.401     572.278     32.555      10.947      1.151       1.278       2.175       1.339       
37.9        4.632       741.601     629.912     542.124     31.686      10.682      1.172       1.315       2.193       1.332       
38.0        4.792       757.413     580.391     450.881     30.647      10.752      1.225       1.407       2.217       1.323       
38.1        5.525       766.587     534.706     375.447     30.547      11.041      1.234       1.348       2.23        1.313       
