~Version Information Section
VERS.                                         2.0:CWLS log ASCII Standart – VERSION 2.0
WRAP.                                          NO:One line per depth step
~Well Information Section
STRT.M                                       0.67:Начальная глубина
STOP.M                                     204.27:Конечная глубина
STEP.M                                          0:Шаг квантования по глубине
NULL.                                    -9999.25:Признак "Нет данных"
WELL.                                       110Мх:Скважина
~Parameter Information Section
~Curve Information Section
DEPTH.M                                          :Глубина
БК.Омм                                           :BK     (БК)
DСР.мм                                           :DS  (ДС)
ГК.гамма                                         :GK          (ГК)
А0.4М0.1N.Омм.ohmm                               :GZ1   ГЗ1(A0.4M0.1N)
А1.0М0.1N.Омм.ohmm                               :GZ2   ГЗ2(A1.0M0.1N)
А2.0М0.5N.Омм.ohmm                               :GZ3   ГЗ3(A2.0M0.5N)
А4.0М0.5N.Oмм.ohmm                               :GZ4   ГЗ4(A4.0M0.5N)
А8.0М1.0N.Омм.ohmm                               :GZ5   ГЗ5(A8.0M0.5N)
N0.5M2.0A.Омм.ohmm                               :GZK   ГЗK(N0.5M2.0A)
ИК.мСм/м                                         :IK
НГК.усл.ед                                       :NGK     (НГК)
ПС.mv                                            :PS       (ПС)
КС.Омм                                           :PZ    (КС)
R.Омм                                            :RS (Резистивиметр)
W_SI.%                                           :п
ННКМ.имп/1,25с                                   :ННКм
ПЛОТНОСТЬГГК.г/см3                               :плотностьГГК
~ASCII LOG DATA
# ...
98.27       15.357      130.602     7.047       -9999.25    -9999.25    -9999.25    -9999.25    -9999.25    -9999.25    14.35       1.237       350.402     17.747      0.96        28.232      1.679       2.492       
98.3        -9999.25    -9999.25    -9999.25    20.21       14.102      9.667       9.367       6.15        19.168      -9999.25    -9999.25    -9999.25    -9999.25    -9999.25    -9999.25    -9999.25    -9999.25    
98.37       15.039      130.631     7.141       -9999.25    -9999.25    -9999.25    -9999.25    -9999.25    -9999.25    14.648      1.269       349.4       18.45       0.96        27.853      1.679       2.488       
98.4        -9999.25    -9999.25    -9999.25    19.907      14.483      9.741       9.45        5.965       19.668      -9999.25    -9999.25    -9999.25    -9999.25    -9999.25    -9999.25    -9999.25    -9999.25    
98.47       14.163      130.496     6.847       -9999.25    -9999.25    -9999.25    -9999.25    -9999.25    -9999.25    15.047      1.292       348.359     18.797      0.959       27.463      1.678       2.481       
98.5        -9999.25    -9999.25    -9999.25    21.276      15.711      9.747       9.663       5.718       20.429      -9999.25    -9999.25    -9999.25    -9999.25    -9999.25    -9999.25    -9999.25    -9999.25    
98.57       14.797      130.547     6.562       -9999.25    -9999.25    -9999.25    -9999.25    -9999.25    -9999.25    15.43       1.307       347.196     18.781      0.958       27.858      1.664       2.478       
98.6        -9999.25    -9999.25    -9999.25    21.771      15.993      9.739       9.963       5.495       21.842      -9999.25    -9999.25    -9999.25    -9999.25    -9999.25    -9999.25    -9999.25    -9999.25    
98.67       15.934      130.458     6.568       -9999.25    -9999.25    -9999.25    -9999.25    -9999.25    -9999.25    15.857      1.292       345.794     18.685      0.969       28.586      1.65        2.476       
98.7        -9999.25    -9999.25    -9999.25    20.907      14.879      9.774       10.15       5.582       24.08       -9999.25    -9999.25    -9999.25    -9999.25    -9999.25    -9999.25    -9999.25    -9999.25    
98.77       16.861      130.544     6.781       -9999.25    -9999.25    -9999.25    -9999.25    -9999.25    -9999.25    16.435      1.247       344.063     18.714      0.984       29.03       1.637       2.473       
98.8        -9999.25    -9999.25    -9999.25    20.901      14.175      9.801       11.01       6.707       26.906      -9999.25    -9999.25    -9999.25    -9999.25    -9999.25    -9999.25    -9999.25    -9999.25    
98.87       16.824      130.242     7.022       -9999.25    -9999.25    -9999.25    -9999.25    -9999.25    -9999.25    17.037      1.207       341.994     18.993      1.028       29.302      1.618       2.471       
98.9        -9999.25    -9999.25    -9999.25    21.153      13.327      9.723       14.028      9.098       32.581      -9999.25    -9999.25    -9999.25    -9999.25    -9999.25    -9999.25    -9999.25    -9999.25    
98.97       16.622      129.748     7.027       -9999.25    -9999.25    -9999.25    -9999.25    -9999.25    -9999.25    17.679      1.191       339.681     19.451      1.059       28.873      1.606       2.466       
99.0        -9999.25    -9999.25    -9999.25    20.139      11.645      10.284      20.75       10.882      53.336      -9999.25    -9999.25    -9999.25    -9999.25    -9999.25    -9999.25    -9999.25    -9999.25    
99.07       16.484      130.184     6.991       -9999.25    -9999.25    -9999.25    -9999.25    -9999.25    -9999.25    18.505      1.222       337.257     19.841      1.067       28.023      1.584       2.463       
99.1        -9999.25    -9999.25    -9999.25    18.974      11.971      12.965      33.055      12.354      95.053      -9999.25    -9999.25    -9999.25    -9999.25    -9999.25    -9999.25    -9999.25    -9999.25    
99.17       15.813      130.359     7.011       -9999.25    -9999.25    -9999.25    -9999.25    -9999.25    -9999.25    19.629      1.275       334.887     20.156      1.05        27.0        1.576       2.47        
99.2        -9999.25    -9999.25    -9999.25    20.741      17.05       16.244      52.551      14.977      158.389     -9999.25    -9999.25    -9999.25    -9999.25    -9999.25    -9999.25    -9999.25    -9999.25    
99.27       15.593      129.922     6.955       -9999.25    -9999.25    -9999.25    -9999.25    -9999.25    -9999.25    20.926      1.338       332.797     20.561      1.035       26.061      1.578       2.477       
99.3        -9999.25    -9999.25    -9999.25    25.965      24.073      19.914      81.818      17.4        209.581     -9999.25    -9999.25    -9999.25    -9999.25    -9999.25    -9999.25    -9999.25    -9999.25    
99.37       17.333      130.181     6.858       -9999.25    -9999.25    -9999.25    -9999.25    -9999.25    -9999.25    22.305      1.41        331.123     21.113      1.077       25.091      1.58        2.485       
99.4        -9999.25    -9999.25    -9999.25    35.439      32.602      24.878      113.822     19.004      244.399     -9999.25    -9999.25    -9999.25    -9999.25    -9999.25    -9999.25    -9999.25    -9999.25    
99.47       25.202      130.592     6.707       -9999.25    -9999.25    -9999.25    -9999.25    -9999.25    -9999.25    24.167      1.464       329.873     22.123      1.128       23.259      1.73        2.488       
99.5        -9999.25    -9999.25    -9999.25    41.342      35.633      29.029      136.17      21.603      275.061     -9999.25    -9999.25    -9999.25    -9999.25    -9999.25    -9999.25    -9999.25    -9999.25    
99.57       44.763      130.202     6.59        -9999.25    -9999.25    -9999.25    -9999.25    -9999.25    -9999.25    26.613      1.518       328.997     24.116      1.155       21.073      1.835       2.488       
99.6        -9999.25    -9999.25    -9999.25    50.138      32.647      31.14       135.539     24.427      284.518     -9999.25    -9999.25    -9999.25    -9999.25    -9999.25    -9999.25    -9999.25    -9999.25    
99.67       67.826      129.388     5.99        -9999.25    -9999.25    -9999.25    -9999.25    -9999.25    -9999.25    29.066      1.58        328.467     26.258      1.175       19.197      2.102       2.489       
99.7        -9999.25    -9999.25    -9999.25    73.26       32.279      30.805      112.984     26.474      281.088     -9999.25    -9999.25    -9999.25    -9999.25    -9999.25    -9999.25    -9999.25    -9999.25    
99.77       72.698      129.044     5.483       -9999.25    -9999.25    -9999.25    -9999.25    -9999.25    -9999.25    31.464      1.673       328.241     28.087      1.198       17.923      2.209       2.491       
99.8        -9999.25    -9999.25    -9999.25    99.393      32.823      28.956      85.376      27.462      280.506     -9999.25    -9999.25    -9999.25    -9999.25    -9999.25    -9999.25    -9999.25    -9999.25    
99.87       91.83       127.629     5.285       -9999.25    -9999.25    -9999.25    -9999.25    -9999.25    -9999.25    33.815      1.79        328.192     29.715      1.211       17.459      2.264       2.481       
99.9        -9999.25    -9999.25    -9999.25    123.336     33.937      27.157      71.411      27.637      288.945     -9999.25    -9999.25    -9999.25    -9999.25    -9999.25    -9999.25    -9999.25    -9999.25    
99.97       132.659     125.544     5.548       -9999.25    -9999.25    -9999.25    -9999.25    -9999.25    -9999.25    36.296      1.888       328.271     31.176      1.212       17.256      2.35        2.47        
100.0       -9999.25    -9999.25    -9999.25    123.844     32.68       25.999      81.5        27.492      293.973     -9999.25    -9999.25    -9999.25    -9999.25    -9999.25    -9999.25    -9999.25    -9999.25    
100.07      129.587     125.436     5.643       -9999.25    -9999.25    -9999.25    -9999.25    -9999.25    -9999.25    39.096      1.912       328.543     36.858      1.21        17.53       2.364       2.46        
