~Version Information Section
VERS.                                         2.0:CWLS log ASCII Standart – VERSION 2.0
WRAP.                                          NO:One line per depth step
~Well Information Section
STRT.M                                        2.1:Начальная глубина
STOP.M                                      196.8:Конечная глубина
STEP.M                                          0:Шаг квантования по глубине
NULL.                                    -9999.25:Признак "Нет данных"
WELL.                                       154Мх:Скважина
~Parameter Information Section
~Curve Information Section
DEPTH.M                                          :Глубина
BK.lgОмм                                         :BK     (БК)
DСР.мм                                           :DS  (ДС)
ГГКП.g/cm3                                       :GGKp
ГК.мкР/час                                       :GK          (ГК)
ГЗ1.Омм                                          :GZ1   ГЗ1(A0.4M0.1N)
ГЗ2.Омм                                          :GZ2   ГЗ2(A1.0M0.1N)
ГЗ3.Омм                                          :GZ3   ГЗ3(A2.0M0.5N)
ГЗ4.Oмм                                          :GZ4   ГЗ4(A4.0M0.5N)
ГЗ5.Oмм                                          :GZ5   ГЗ5(A8.0M0.5N)
ГЗК.Омм                                          :GZR   ГЗK(N0.5M2.0A)
ИК.мСм/м                                         :IK
НГК.усл.ед.                                      :NGK     (НГК)
РЕЗ.Омм                                          :RS (Резистивиметр)
W.                                               :W
ННКМ.усл.ед                                      :NNKm  (ННКм)
PS.мB                                            :PS       (ПС)
~ASCII LOG DATA
# ...
98.1        14.9        150.047     2.579       6.184       86.07       26.074      46.302      13.103      12.65       36.84       14.641      0.994       0.975       34.095      1.025       90.041      
98.2        17.089      149.789     2.642       5.824       86.07       26.074      45.862      13.223      12.65       35.8        14.769      0.942       0.975       33.031      1.046       90.144      
98.3        18.974      149.963     2.556       5.612       86.07       25.554      45.862      13.343      12.51       34.76       14.909      0.908       0.975       32.85       1.064       90.273      
98.4        19.988      149.684     2.334       5.577       86.49       25.554      45.862      13.343      12.51       34.76       14.909      0.919       0.975       34.119      1.08        90.402      
98.5        19.818      149.788     2.092       5.533       86.91       25.554      45.862      13.343      12.51       34.76       15.087      0.953       0.975       35.699      1.074       90.505      
98.6        18.093      150.004     1.946       5.727       87.33       25.554      45.862      13.463      12.51       34.76       15.201      0.984       0.975       36.714      1.042       90.557      
98.7        16.657      150.103     1.932       5.557       87.75       25.554      45.862      13.463      12.51       34.76       15.224      1.028       0.975       36.751      1.015       90.557      
98.8        14.502      150.299     2.02        5.214       88.17       26.074      45.422      13.463      12.51       34.76       15.224      1.084       0.975       35.597      0.998       90.507      
98.9        14.017      150.435     2.185       5.127       88.59       26.074      45.422      13.583      12.51       34.76       15.253      1.132       0.975       32.946      1.003       90.456      
99.0        14.291      149.99      2.343       4.868       89.01       26.594      45.422      13.703      12.51       34.76       15.224      1.174       0.975       30.046      1.048       90.352      
99.1        15.689      150.001     2.44        4.619       89.43       26.594      45.422      13.823      12.51       34.76       15.201      1.207       0.975       28.64       1.109       90.199      
99.2        16.973      150.012     2.43        4.667       90.69       27.114      45.422      13.943      12.09       34.76       15.201      1.21        0.975       28.094      1.162       89.994      
99.3        17.887      150.03      2.43        4.754       91.11       27.114      45.422      13.943      12.09       34.76       15.322      1.204       0.975       27.825      1.208       89.761      
99.4        18.674      150.063     2.44        4.862       91.53       27.114      45.422      14.183      12.09       34.76       15.375      1.212       0.975       28.021      1.234       89.529      
99.5        19.616      150.023     2.405       5.115       92.79       27.634      45.422      14.303      12.37       35.8        15.468      1.189       0.975       28.945      1.241       89.27       
99.6        20.505      150.032     2.388       5.36        93.21       27.634      45.862      14.423      12.51       35.8        15.456      1.139       0.975       29.933      1.25        88.962      
99.7        20.995      149.99      2.361       5.523       93.21       27.634      46.302      14.663      12.51       35.8        15.462      1.144       0.975       31.623      1.256       88.678      
99.8        20.871      149.969     2.348       5.772       94.05       27.634      46.742      14.783      12.65       35.8        15.462      1.129       0.975       33.277      1.247       88.341      
99.9        18.646      149.951     2.365       5.876       94.47       27.634      47.182      14.903      12.79       35.8        15.415      1.087       0.975       33.973      1.223       87.982      
100.0       16.223      149.999     2.401       5.804       94.47       28.154      47.622      15.023      12.93       36.84       15.247      1.078       0.975       33.843      1.2         87.647      
100.1       14.259      149.874     2.447       5.828       94.89       28.674      47.622      15.023      13.07       37.88       15.087      1.124       0.975       33.3        1.175       87.311      
100.2       14.115      149.857     2.508       5.771       95.31       29.194      48.062      15.263      13.07       38.92       15.087      1.137       0.975       32.048      1.153       86.979      
100.3       14.104      149.706     2.509       5.683       96.15       29.194      48.062      15.263      13.07       39.96       14.915      1.161       0.975       30.763      1.148       86.694      
100.4       13.955      149.747     2.479       5.565       96.57       29.714      48.062      15.383      13.21       39.96       14.697      1.187       0.975       30.406      1.158       86.358      
100.5       14.365      149.871     2.425       5.655       96.99       30.234      48.502      15.383      13.21       41.0        14.519      1.188       0.975       31.108      1.171       86.1        
100.6       15.145      150.276     2.389       5.7         97.83       31.274      50.702      15.263      13.49       42.04       14.333      1.14        0.975       32.12       1.173       85.865      
100.7       16.063      149.495     2.36        5.856       98.25       32.314      50.702      15.263      13.77       43.08       14.333      1.1         0.975       32.926      1.16        85.559      
100.8       15.981      149.548     2.357       6.019       99.09       34.394      51.582      15.143      13.91       44.12       14.203      1.093       0.975       33.48       1.141       85.275      
100.9       15.277      149.656     2.348       6.214       99.51       34.394      52.022      15.143      14.05       46.2        14.116      1.039       0.975       33.865      1.12        84.988      
101.0       14.486      150.184     2.363       6.55        100.77      35.954      52.022      15.143      14.05       47.24       13.918      0.995       0.975       33.871      1.095       84.654      
101.1       14.202      150.193     2.315       6.611       101.61      36.474      52.462      15.143      14.33       48.28       13.828      1.006       0.975       33.84       1.075       84.37       
101.2       14.235      149.929     2.271       6.576       102.03      37.514      52.902      15.143      14.47       50.36       13.828      1.015       0.975       34.515      1.066       84.087      
101.3       13.964      149.623     2.239       6.6         100.77      39.074      53.342      15.143      14.61       39.187      13.649      0.993       0.975       35.694      1.054       83.829      
101.4       13.132      149.77      2.219       6.653       97.83       41.154      53.342      15.143      14.89       35.8        13.488      1.005       0.975       36.87       1.037       83.646      
101.5       12.563      149.83      2.211       6.477       96.99       43.234      53.342      15.143      15.31       35.8        13.317      1.018       0.975       37.308      1.023       83.439      
101.6       12.365      149.907     2.281       6.507       94.47       44.794      53.782      15.143      15.31       36.84       13.317      1.002       0.975       36.897      1.017       83.286      
101.7       12.888      149.968     2.368       6.668       91.95       45.834      54.662      15.383      15.59       46.2        13.141      1.004       0.975       35.938      1.019       83.18       
101.8       13.148      149.98      2.455       6.729       91.95       45.314      55.102      15.623      15.59       51.4        13.068      1.033       0.975       34.944      1.033       83.026      
101.9       13.671      150.084     2.535       6.857       91.53       44.274      55.542      15.623      16.15       63.88       12.956      1.037       0.975       33.974      1.051       82.845      
102.0       13.681      150.501     2.601       6.91        91.11       44.274      55.542      15.263      16.57       64.92       12.821      1.035       0.975       33.262      1.063       82.665      
