~Version Information Section
VERS.                                         2.0:CWLS log ASCII Standart – VERSION 2.0
WRAP.                                          NO:One line per depth step
~Well Information Section
STRT.M                                       -0.5:Начальная глубина
STOP.M                                      184.3:Конечная глубина
STEP.M                                          0:Шаг квантования по глубине
NULL.                                    -9999.25:Признак "Нет данных"
WELL.                                       133Мх:Скважина
~Parameter Information Section
~Curve Information Section
DEPTH.M                                          :Глубина
DS.mm                                            :DS  (ДС)
GGK.g/cm3                                        :GGKp
ГК.mcr/h                                         :GK          (ГК)
GZ1.Ohm*M                                        :GZ1   ГЗ1(A0.4M0.1N)
GZ2.Ohm*M                                        :GZ2   ГЗ2(A1.0M0.1N)
GZ3.Ohm*M                                        :GZ3   ГЗ3(A2.0M0.5N)
GZ4.Ohm*M                                        :GZ4   ГЗ4(A4.0M0.5N)
GZ5.Ohm*M                                        :GZ5   ГЗ5(A8.0M0.5N)
GZR.Ohm*M                                        :GZK   ГЗK(N0.5M2.0A)
ИК.Ohm*M                                         :IK
НГК.ue                                           :NGK     (НГК)
NNKM.                                            :NNKm  (ННКм)
PS.mv                                            :PS       (ПС)
PZ.Ohm*M                                         :PZ    (КС)
RS.Ohm*M                                         :RS (Резистивиметр)
U1.mV                                            :U1
U2.mV                                            :U2
U3.mV                                            :U3
BK.Ohm*M                                         :БК
ПОРИСТОСТЬ.                                      :Пористость ННК
~ASCII LOG DATA
# ...
69.9        135.7       2.331       7.449       21.919      11.205      13.474      15.063      8.703       42.92       16.477      1.746       2.384       124.509     5.373       1.194       473.253     1266.684    2047.043    20.535      30.685      
70.0        135.219     2.301       6.348       23.212      11.335      14.16       16.218      8.935       44.707      16.943      1.767       2.462       125.718     5.836       1.194       473.619     1269.334    2052.376    22.165      28.92       
70.1        134.893     2.275       5.721       24.923      12.053      15.5        17.054      9.062       45.045      17.406      1.75        2.532       126.816     6.268       1.194       465.018     1269.927    2056.173    21.947      27.225      
70.2        134.86      2.276       5.36        27.003      13.008      16.693      17.257      9.104       45.045      17.853      1.755       2.616       127.833     6.663       1.194       460.391     1268.306    2055.193    22.596      26.173      
70.3        134.926     2.294       5.202       29.533      13.744      17.048      17.257      9.104       44.196      18.276      1.808       2.717       128.804     6.994       1.194       466.364     1265.072    2052.002    22.712      24.982      
70.4        134.772     2.318       5.571       31.736      14.645      17.048      17.035      9.1         41.568      18.691      1.83        2.787       129.769     7.252       1.194       469.782     1262.566    2050.253    23.377      24.591      
70.5        134.313     2.344       6.043       32.673      15.42       16.907      16.241      8.816       38.067      19.093      1.785       2.764       130.792     7.439       1.198       462.474     1263.338    2049.701    25.357      25.05       
70.6        133.893     2.339       6.46        32.726      15.94       16.346      14.846      8.409       35.226      19.441      1.703       2.652       131.979     7.566       1.198       452.942     1266.089    2048.879    30.293      26.805      
70.7        134.031     2.307       6.655       33.476      16.921      15.272      13.081      8.156       33.804      19.586      1.64        2.511       133.322     7.649       1.198       451.068     1268.331    2048.499    31.965      28.056      
70.8        134.556     2.271       6.835       34.957      18.45       13.671      11.621      7.927       33.446      19.586      1.595       2.394       134.813     7.723       1.198       456.941     1270.665    2049.014    25.121      30.158      
70.9        134.92      2.231       6.831       35.066      18.96       12.286      11.027      7.71        33.391      19.586      1.575       2.33        136.423     7.789       1.198       461.801     1272.629    2049.828    22.128      31.21       
71.0        134.967     2.197       7.026       33.744      18.508      11.849      10.831      7.56        33.2        19.599      1.563       2.321       138.084     7.848       1.198       463.917     1271.78     2050.445    21.627      31.389      
71.1        134.751     2.188       7.512       32.843      18.14       11.771      10.598      7.49        33.296      19.635      1.581       2.342       139.783     7.924       1.198       463.354     1268.095    2051.032    21.535      30.642      
71.2        134.604     2.191       7.681       32.64       18.116      11.506      10.318      7.49        34.689      19.648      1.635       2.386       141.549     8.018       1.198       459.126     1266.491    2052.101    21.503      29.893      
71.3        134.743     2.214       7.546       32.478      18.393      11.127      10.014      7.49        36.325      19.651      1.687       2.443       143.388     8.143       1.198       454.923     1273.192    2053.576    22.199      28.923      
71.4        134.946     2.265       7.101       32.017      18.469      10.89       9.773       7.52        37.22       19.726      1.707       2.453       145.302     8.352       1.198       457.44      1283.261    2055.349    22.267      28.974      
71.5        134.777     2.309       6.907       31.717      18.469      10.896      9.65        7.601       37.826      20.015      1.694       2.41        147.261     8.672       1.198       471.825     1286.387    2058.649    24.651      29.787      
71.6        134.268     2.325       6.78        31.739      18.506      11.005      9.65        7.949       38.422      20.456      1.64        2.338       149.167     9.066       1.198       486.944     1282.022    2062.413    28.822      31.971      
71.7        133.793     2.312       6.516       31.761      18.542      11.109      9.678       8.372       41.428      20.93       1.582       2.262       150.94      9.528       1.198       489.95      1279.721    2063.694    24.943      33.33       
71.8        133.553     2.273       6.558       31.574      18.542      11.189      9.705       10.072      50.402      21.399      1.518       2.223       152.594     10.073      1.198       483.17      1286.56     2062.012    22.995      34.921      
71.9        133.788     2.223       6.656       31.552      18.542      11.261      9.761       12.537      66.843      21.853      1.497       2.223       154.108     10.726      1.198       479.183     1292.454    2060.141    22.975      35.03       
72.0        134.245     2.183       6.806       32.195      18.549      11.851      10.326      15.768      93.337      22.299      1.521       2.233       155.502     11.666      1.198       487.693     1288.616    2063.448    23.025      34.394      
72.1        134.48      2.165       6.731       33.0        18.812      13.531      11.899      19.663      131.498     22.729      1.594       2.255       156.815     13.2        1.198       498.519     1282.235    2067.684    22.416      32.162      
72.2        134.41      2.163       6.886       33.328      19.977      16.366      14.154      24.558      176.651     23.187      1.688       2.332       158.025     15.612      1.198       498.886     1283.655    2064.081    21.469      30.399      
72.3        134.044     2.19        6.967       33.865      22.297      20.352      16.865      29.367      223.768     23.752      1.767       2.461       159.063     19.162      1.198       490.526     1290.314    2054.899    20.296      27.243      
72.4        133.607     2.231       6.918       37.973      25.282      25.569      20.555      34.117      271.102     24.516      1.822       2.583       159.916     23.999      1.198       483.276     1289.886    2051.425    21.007      24.57       
72.5        133.347     2.243       6.563       46.814      28.463      31.361      24.849      38.374      310.61      25.526      1.891       2.701       160.582     29.879      1.198       484.301     1282.387    2062.917    26.332      23.231      
72.6        133.205     2.218       6.53        59.813      31.914      36.801      28.856      41.995      333.15      26.777      2.007       2.803       161.1       36.271      1.198       494.406     1279.728    2077.333    30.49       21.624      
72.7        132.841     2.165       6.467       77.906      35.725      41.375      32.406      44.701      339.996     28.199      2.179       2.874       161.551     42.583      1.198       507.728     1288.13     2080.3      32.318      20.129      
72.8        132.275     2.105       6.104       100.299     40.009      44.572      35.135      46.06       340.221     29.69       2.382       2.946       161.99      48.252      1.198       513.25      1297.974    2075.756    44.938      19.076      
72.9        131.877     2.071       5.697       120.81      45.48       46.087      36.281      46.567      340.221     31.144      2.539       3.015       162.431     52.816      1.198       507.531     1298.437    2075.428    72.408      17.78       
73.0        131.8       2.072       5.382       136.442     54.26       46.554      36.344      46.567      334.782     32.511      2.561       3.065       162.883     56.175      1.198       498.413     1291.918    2083.728    88.329      17.089      
