~Version Information Section
VERS.                                         2.0:CWLS log ASCII Standart – VERSION 2.0
WRAP.                                          NO:One line per depth step
~Well Information Section
STRT.M                                        0.4:Начальная глубина
STOP.M                                      191.4:Конечная глубина
STEP.M                                          0:Шаг квантования по глубине
NULL.                                    -9999.25:Признак "Нет данных"
WELL.                                       113Мх:Скважина
~Parameter Information Section
~Curve Information Section
DEPTH.M                                          :Глубина
БК.Омм                                           :BK     (БК)
DСР.мм                                           :DS  (ДС)
GGKP.g/cm3                                       :GGKp
ГК.гамма                                         :GK          (ГК)
А0.4М0.1N.Омм                                    :GZ1   ГЗ1(A0.4M0.1N)
А1.0М0.1N.Омм                                    :GZ2   ГЗ2(A1.0M0.1N)
А2.0М0.5N.Омм                                    :GZ3   ГЗ3(A2.0M0.5N)
А4.0М0.5N.Oмм                                    :GZ4   ГЗ4(A4.0M0.5N)
А8.0М1.0N.Омм                                    :GZ5   ГЗ5(A8.0M0.5N)
N0.5M2.0A.Омм                                    :GZK   ГЗK(N0.5M2.0A)
ИК.мСм/м                                         :IK
НГК.усл.ед                                       :NNKb  (ННКб)
ННКМ.усл.ед                                      :NNKm  (ННКм)
ПС.мВ                                            :PS       (ПС)
PZ.Омм                                           :PZ    (КС)
R.Омм                                            :RS (Резистивиметр)
U1.мВ                                            :U1
U2.mV                                            :U2
U3.мВ                                            :U3
КП.%                                             :Кп
~ASCII LOG DATA
# ...
179.6       233.628     125.215     2.301       3.929       319.823     125.092     118.695     72.757      57.007      51.208      47.582      4.59        2.325       -9999.25    333.175     -9999.25    1311.44     1495.201    1727.997    21.61       
179.8       271.741     125.233     2.313       3.605       307.174     112.045     102.813     69.717      52.546      46.347      46.59       4.719       2.447       -9999.25    325.8       -9999.25    1338.481    1534.401    1679.615    21.192      
180.0       194.185     124.799     2.3         3.52        286.284     97.67       88.458      65.863      48.525      43.238      44.981      4.571       2.356       -9999.25    321.047     -9999.25    1392.56     1590.4      1693.44     21.429      
180.2       92.598      124.94      2.289       3.3         269.378     86.548      80.051      62.536      46.201      42.123      43.871      4.244       2.239       -9999.25    318.743     -9999.25    1412.84     1596.001    1748.736    21.384      
180.4       87.711      124.826     2.331       3.415       266.731     82.279      76.736      60.557      45.783      42.038      43.766      4.745       2.337       -9999.25    318.351     -9999.25    1392.561    1478.404    1714.178    20.86       
180.6       104.42      125.066     2.405       3.353       266.791     81.866      76.382      59.793      45.868      42.048      44.144      5.477       2.494       -9999.25    319.769     -9999.25    1351.999    1366.397    1651.966    17.977      
180.8       111.16      125.246     2.462       3.297       273.139     82.015      76.59       59.689      47.033      42.131      43.609      6.117       2.625       -9999.25    323.019     -9999.25    1176.236    1287.999    1575.935    16.257      
181.0       118.807     125.114     2.479       3.371       288.459     85.26       80.354      59.66       49.936      42.156      42.303      6.311       2.683       -9999.25    326.518     -9999.25    926.12      1243.2      1472.256    14.964      
181.2       185.168     125.317     2.467       3.447       315.414     94.562      89.49       59.672      53.115      42.158      40.543      6.538       2.71        -9999.25    328.422     -9999.25    777.401     1220.8      1223.429    13.843      
181.4       305.766     125.484     2.466       3.675       343.743     106.704     95.177      -9999.25    54.01       42.146      38.725      7.166       2.767       -9999.25    322.731     -9999.25    817.956     1153.604    1036.803    12.58       
181.6       450.147     125.462     2.464       3.608       345.699     109.477     95.155      -9999.25    52.869      -9999.25    36.472      7.713       2.836       -9999.25    304.856     -9999.25    899.081     946.389     1009.154    11.569      
181.8       515.27      125.491     2.49        3.517       315.628     107.24      87.264      -9999.25    46.827      -9999.25    33.979      7.478       2.843       -9999.25    273.609     -9999.25    685.55      611.919     891.877     11.797      
182.0       355.51      125.494     2.535       3.649       213.985     89.649      68.365      -9999.25    37.17       -9999.25    30.827      6.501       2.733       -9999.25    231.791     -9999.25    398.292     382.563     684.989     14.356      
182.2       143.855     125.359     2.549       3.92        109.897     66.793      51.303      -9999.25    28.182      -9999.25    27.456      5.045       2.387       -9999.25    187.47      -9999.25    333.906     301.41      444.702     17.807      
182.4       60.481      124.856     2.495       4.118       60.449      51.074      41.179      -9999.25    22.256      -9999.25    24.932      4.031       2.162       -9999.25    148.541     -9999.25    446.778     311.6       338.923     21.569      
182.6       61.44       124.936     2.384       4.351       51.558      42.497      36.027      -9999.25    19.474      -9999.25    23.103      3.56        2.078       -9999.25    119.954     -9999.25    386.205     251.657     294.664     24.937      
182.8       59.386      125.026     2.282       4.361       48.721      37.897      33.236      -9999.25    18.583      -9999.25    21.564      3.286       1.95        -9999.25    102.599     -9999.25    209.086     225.096     342.277     26.713      
183.0       60.459      124.938     2.229       4.29        47.316      35.206      31.18       -9999.25    18.24       -9999.25    20.397      3.024       1.902       -9999.25    93.911      -9999.25    202.276     255.588     374.378     27.905      
183.2       60.199      124.719     2.221       4.287       46.808      32.681      28.965      -9999.25    17.942      -9999.25    19.602      2.987       1.894       -9999.25    90.078      -9999.25    296.476     286.401     381.23      28.715      
183.4       56.941      124.906     2.216       4.269       46.643      29.851      27.212      -9999.25    17.691      -9999.25    18.964      3.003       1.86        -9999.25    88.491      -9999.25    406.653     291.085     323.059     29.167      
183.6       53.284      125.074     2.185       4.214       46.617      27.458      26.825      -9999.25    17.654      -9999.25    18.164      2.897       1.848       -9999.25    87.949      -9999.25    424.185     288.255     305.163     29.727      
183.8       49.376      124.995     2.166       4.153       46.588      26.208      26.825      -9999.25    17.725      -9999.25    17.175      2.757       1.848       -9999.25    88.086      -9999.25    358.268     292.008     392.339     30.999      
184.0       47.574      124.893     2.164       4.252       46.576      25.896      27.748      -9999.25    19.111      -9999.25    16.345      2.655       1.788       -9999.25    88.795      -9999.25    237.075     280.379     467.669     31.346      
184.2       52.597      124.994     2.175       4.199       -9999.25    25.874      30.403      -9999.25    23.434      -9999.25    15.592      2.634       1.761       -9999.25    90.174      -9999.25    275.906     277.319     418.337     31.025      
184.4       59.109      125.296     2.169       4.22        -9999.25    25.869      35.585      -9999.25    29.762      -9999.25    14.594      2.808       1.792       -9999.25    92.147      -9999.25    417.236     279.243     309.38      31.193      
184.6       69.108      125.22      2.152       4.365       -9999.25    25.837      43.747      -9999.25    34.717      -9999.25    13.511      2.854       1.804       -9999.25    94.487      -9999.25    479.439     276.295     252.468     29.715      
184.8       157.204     125.187     2.192       4.368       -9999.25    -9999.25    52.783      -9999.25    36.735      -9999.25    12.691      3.212       1.861       -9999.25    97.223      -9999.25    408.92      294.186     369.822     27.056      
185.0       299.882     125.272     2.302       3.932       -9999.25    -9999.25    58.615      -9999.25    36.995      -9999.25    12.162      4.293       2.158       -9999.25    101.558     -9999.25    317.312     339.462     568.443     23.37       
185.2       327.045     125.329     2.422       3.876       -9999.25    -9999.25    60.528      -9999.25    36.969      -9999.25    11.444      4.788       2.386       -9999.25    108.028     -9999.25    298.151     358.627     654.576     19.199      
185.4       181.84      125.365     2.49        4.906       -9999.25    -9999.25    60.758      -9999.25    36.975      -9999.25    10.402      3.965       2.25        -9999.25    115.2       -9999.25    268.005     320.3       574.286     22.694      
185.6       50.003      126.396     2.482       6.344       -9999.25    -9999.25    60.737      -9999.25    -9999.25    -9999.25    9.775       2.75        1.781       -9999.25    120.4       -9999.25    256.812     291.041     522.251     26.934      
185.8       24.136      126.145     2.438       7.004       -9999.25    -9999.25    -9999.25    -9999.25    -9999.25    -9999.25    9.833       2.255       1.527       -9999.25    118.114     -9999.25    -9999.25    -9999.25    -9999.25    30.356      
