~Version Information Section
VERS.                                         2.0:CWLS log ASCII Standart – VERSION 2.0
WRAP.                                          NO:One line per depth step
~Well Information Section
STRT.M                                        0.6:Начальная глубина
STOP.M                                      205.9:Конечная глубина
STEP.M                                          0:Шаг квантования по глубине
NULL.                                    -9999.25:Признак "Нет данных"
WELL.                                       106Мх:Скважина
~Parameter Information Section
~Curve Information Section
DEPTH.M                                          :Глубина
BK.Ohm*M                                         :BK     (БК)
DS.mm                                            :DS  (ДС)
GGK.g/cm3                                        :GGKp
ГК.mcr/h                                         :GK          (ГК)
GZ1.Ohm*M                                        :GZ1   ГЗ1(A0.4M0.1N)
GZ2.Ohm*M                                        :GZ2   ГЗ2(A1.0M0.1N)
GZ3.Ohm*M                                        :GZ3   ГЗ3(A2.0M0.5N)
U2.mV                                            :U2
U3.mV                                            :U3
КП.%                                             :Кп
GZ4.Ohm*M                                        :GZ4   ГЗ4(A4.0M0.5N)
GZ5.Ohm*M                                        :GZ5   ГЗ5(A8.0M0.5N)
GZR.Ohm*M                                        :GZK   ГЗK(N0.5M2.0A)
ИК.Ohm*M                                         :IK
НГК.u.e.                                         :NGK
NNKM.                                            :NNKm  (ННКм)
PS.mv                                            :PS       (ПС)
PZ.Ohm*M                                         :PZ    (КС)
RS.Ohm*M                                         :RS (Резистивиметр)
U1.mV                                            :U1
~ASCII LOG DATA
# ...
189.4       18.323      128.219     2.257       8.485       14.98       14.384      19.051      250.0       318.889     31.113      17.015      31.011      13.17       13.873      1.236       1.951       596.836     56.0        1.1         323.333     
189.5       18.493      124.422     2.276       8.482       17.172      17.415      22.078      250.0       313.333     28.847      21.69       34.304      14.883      13.759      1.218       2.1         595.467     55.556      1.1         313.334     
189.6       16.634      123.648     2.308       8.596       19.277      17.968      24.554      240.0       311.111     27.765      26.559      38.067      14.69       13.657      1.211       2.248       594.782     55.185      1.1         310.0       
189.7       16.904      124.054     2.346       8.574       21.127      19.485      26.422      210.0       307.778     27.821      29.253      41.454      15.452      13.569      1.227       2.294       594.782     54.83       1.1         339.998     
189.8       20.37       123.843     2.376       8.479       22.252      19.323      27.776      190.0       303.333     28.0        30.681      44.464      14.497      13.546      1.241       2.314       594.782     54.519      1.1         366.667     
189.9       20.989      123.925     2.39        8.321       22.675      19.317      27.885      180.0       302.222     28.087      31.723      46.816      12.942      13.505      1.258       2.308       595.809     54.281      1.1         376.665     
190.0       22.131      123.584     2.402       8.254       22.675      19.257      26.909      180.0       308.888     28.025      30.465      48.415      10.885      13.535      1.285       2.42        599.231     54.133      1.1         356.668     
190.1       24.378      123.536     2.413       8.21        21.956      17.205      25.029      180.0       323.334     25.397      26.199      49.168      9.611       13.611      1.336       2.59        605.049     54.104      1.1         319.999     
190.2       45.29       123.601     2.422       8.228       20.005      14.468      22.483      180.0       334.444     22.896      20.938      49.074      7.372       13.809      1.368       2.761       612.92      54.104      1.1         300.001     
190.3       86.696      123.671     2.423       8.179       17.284      12.449      19.439      180.0       337.778     20.967      16.498      47.945      5.68        13.922      1.402       2.876       620.449     54.267      1.1         290.0       
190.4       61.094      123.673     2.42        8.207       14.532      11.217      16.709      180.0       332.222     21.942      12.662      45.687      5.77        14.032      1.397       2.662       628.32      54.563      1.1         296.667     
190.5       34.435      123.727     2.411       8.282       12.364      10.954      14.602      230.0       323.334     24.056      9.959       42.676      4.184       14.022      1.347       2.448       636.533     54.889      1.1         303.334     
190.6       25.119      123.759     2.393       8.337       10.835      9.58        12.77       230.0       315.555     25.487      8.895       39.384      4.418       13.936      1.295       2.35        646.116     55.052      1.1         300.0       
190.7       23.659      123.617     2.382       8.539       9.682       9.415       11.232      180.0       311.111     26.289      9.536       35.903      4.643       13.662      1.214       2.26        657.751     55.052      -9999.25    303.333     
190.8       23.496      123.769     2.392       8.552       9.049       8.567       9.902       180.0       317.778     25.576      11.562      31.858      4.96        13.293      1.228       2.311       671.44      54.978      -9999.25    313.333     
190.9       26.182      123.982     2.407       8.456       8.893       7.131       8.822       180.0       331.112     24.15       12.848      28.188      4.488       12.943      1.183       2.332       690.604     54.637      -9999.25    336.668     
191.0       24.547      124.166     2.417       8.117       9.068       7.065       7.873       180.0       348.888     24.609      12.42       25.837      5.004       12.561      1.218       2.269       712.164     54.104      -9999.25    350.0       
191.1       18.239      124.193     2.429       8.334       9.068       6.974       7.316       180.0       354.444     27.542      12.005      25.178      5.045       12.261      1.174       2.158       736.805     53.496      -9999.25    353.333     
191.2       16.672      126.919     2.421       8.597       9.354       6.685       6.962       190.0       352.223     31.346      12.252      26.213      5.122       11.782      1.16        1.948       755.969     52.919      -9999.25    340.0       
191.3       25.704      124.305     2.391       8.9         9.43        6.266       6.737       190.0       344.445     33.72       11.678      28.095      6.071       11.495      1.159       1.848       769.315     52.459      -9999.25    330.0       
191.4       27.861      128.388     2.363       8.86        9.562       7.112       6.603       300.0       346.667     32.525      10.264      30.635      6.596       11.347      1.161       1.926       775.476     52.119      -9999.25    316.666     
191.5       28.973      124.415     2.333       8.967       9.638       7.034       6.545       260.0       355.555     31.004      9.159       32.705      7.19        11.276      1.157       1.995       778.555     51.896      -9999.25    306.667     
191.6       31.623      126.567     2.312       9.012       9.638       7.015       6.714       250.0       368.89      29.585      8.99        34.304      8.404       11.339      1.103       2.056       778.555     51.748      -9999.25    300.0       
191.7       36.559      134.887     2.306       8.988       9.632       7.728       7.124       240.0       374.445     29.635      9.765       35.433      8.076       11.667      1.081       2.017       778.555     51.659      -9999.25    300.0       
191.8       34.277      132.445     2.296       9.284       9.631       7.676       7.526       210.0       374.445     31.821      10.648      36.279      10.726      11.957      1.083       1.934       775.133     51.6        -9999.25    296.667     
191.9       32.961      130.106     2.288       9.638       9.631       7.462       8.543       200.0       371.111     33.297      10.66       36.75       14.308      12.187      1.104       1.877       768.631     51.541      -9999.25    293.333     
192.0       32.509      127.848     2.289       9.846       10.02       8.092       10.072      200.0       370.0       34.173      9.886       36.938      18.254      12.575      1.125       1.835       761.445     51.452      -9999.25    290.0       
192.1       29.923      121.511     2.294       9.457       10.823      9.023       11.8        230.0       370.0       32.079      8.994       36.656      22.075      12.802      1.131       1.997       753.231     51.363      -9999.25    290.0       
192.2       28.445      120.434     2.321       8.935       11.87       10.775      14.104      230.0       372.222     28.723      8.231       35.903      26.234      13.106      1.155       2.225       738.173     51.319      -9999.25    303.332     
192.3       24.66       120.01      2.365       8.796       13.967      12.094      16.597      290.0       376.667     25.92       9.822       34.398      30.028      13.432      1.222       2.421       715.587     51.319      -9999.25    330.0       
192.4       24.099      120.073     2.407       8.757       15.516      13.444      19.004      290.0       383.334     24.164      16.388      32.234      32.851      13.735      1.346       2.584       686.498     51.363      -9999.25    356.668     
192.5       47.206      120.192     2.448       8.529       16.602      15.131      20.979      310.0       396.667     23.814      23.826      29.412      36.556      14.201      1.49        2.684       661.858     51.452      -9999.25    370.0       
