~Version Information Section
VERS.                                         2.0:CWLS log ASCII Standart – VERSION 2.0
WRAP.                                          NO:One line per depth step
~Well Information Section
STRT.M                                        1.0:Начальная глубина
STOP.M                                      199.5:Конечная глубина
STEP.M                                          0:Шаг квантования по глубине
NULL.                                    -9999.25:Признак "Нет данных"
WELL.                                       122Мх:Скважина
~Parameter Information Section
~Curve Information Section
DEPTH.M                                          :Глубина
БК.Омм                                           :BK     (БК)
DСР.мм                                           :DS  (ДС)
ГК.гамма                                         :GK          (ГК)
А0.4М0.1N.Омм.ohmm                               :GZ1   ГЗ1(A0.4M0.1N)
А1.0М0.1N.Омм.ohmm                               :GZ2   ГЗ2(A1.0M0.1N)
А2.0М0.5N.Омм.ohmm                               :GZ3   ГЗ3(A2.0M0.5N)
А4.0М0.5N.Oмм.ohmm                               :GZ4   ГЗ4(A4.0M0.5N)
А8.0М1.0N.Омм.ohmm                               :GZ5   ГЗ5(A8.0M0.5N)
N0.5M2.0A.Омм.ohmm                               :GZK   ГЗK(N0.5M2.0A)
ИК.мСм/м                                         :IK
НГК.усл.ед                                       :NGK     (НГК)
ПС.mv                                            :PS       (ПС)
КС.Омм                                           :PZ    (КС)
R.Омм                                            :RS (Резистивиметр)
ПЛОТНОСТЬ.г/см3                                  :ГГКп
П.                                               :п
ННКМ.усл.ед                                      :ННКм
~ASCII LOG DATA
# ...
52.8        13.1        178.659     8.395       16.223      16.869      17.112      18.061      10.835      21.248      15.015      0.988       47.625      17.925      1.212       2.306       47.057      116.369     
52.9        13.066      175.098     8.384       16.038      17.032      17.503      17.56       10.561      21.944      15.359      1.009       47.0        17.628      1.212       2.308       48.144      114.948     
53.0        13.042      174.388     8.083       15.924      16.954      17.664      17.103      10.372      22.751      15.689      1.034       46.875      17.397      1.212       2.305       47.792      114.606     
53.1        13.046      173.933     7.66        15.646      16.625      17.583      16.628      10.19       23.622      16.08       1.041       46.875      17.287      1.212       2.302       46.626      115.409     
53.2        13.354      173.509     7.44        15.298      16.153      17.162      16.053      9.952       24.188      16.535      1.033       46.75       17.326      1.212       2.298       45.347      114.85      
53.3        14.6        173.069     7.597       14.939      15.504      16.391      15.341      9.812       24.645      16.962      1.042       46.75       17.618      1.212       2.297       44.233      114.491     
53.4        16.612      172.614     8.085       14.506      14.736      15.581      14.583      9.732       25.353      17.198      1.073       46.5        17.976      1.212       2.297       42.895      114.3       
53.5        17.52       172.161     8.477       14.105      14.054      14.991      13.899      9.593       26.565      17.449      1.096       46.25       18.424      1.212       2.303       41.318      114.217     
53.6        18.135      171.739     8.448       13.785      13.598      14.615      13.447      9.591       28.274      17.739      1.089       46.5        18.948      1.212       2.313       39.393      114.613     
53.7        18.068      171.485     8.016       13.856      13.729      14.442      13.264      9.662       29.943      17.957      1.063       47.125      19.486      1.212       2.333       38.317      114.719     
53.8        17.355      171.22      7.317       14.474      14.072      14.496      13.309      9.694       31.403      18.212      1.039       47.875      19.994      1.212       2.353       37.093      115.46      
53.9        16.906      170.929     6.779       15.344      14.242      14.623      13.556      9.607       32.843      18.535      1.011       48.5        20.318      1.212       2.371       35.744      117.374     
54.0        17.032      170.202     6.62        16.689      14.797      14.686      13.63       9.961       34.098      18.933      0.959       49.125      20.828      1.212       2.382       34.245      119.096     
54.1        17.437      169.514     6.828       18.128      15.301      14.636      13.372      10.211      35.186      19.382      0.897       49.875      21.529      1.212       2.383       33.509      120.465     
54.2        17.708      168.989     7.062       19.011      15.259      14.472      13.059      10.383      36.218      19.725      0.861       50.375      22.053      1.212       2.382       32.697      121.839     
54.3        18.119      168.403     7.22        19.173      15.045      14.235      12.709      10.466      37.799      19.897      0.872       50.375      22.511      1.212       2.38        32.038      122.319     
54.4        19.556      167.796     7.326       19.07       15.145      14.082      12.388      10.586      39.838      20.279      0.919       50.0        22.923      1.212       2.386       31.779      122.319     
54.5        20.447      167.609     7.328       19.311      15.763      14.068      12.207      10.585      42.629      20.637      0.975       49.625      23.265      1.212       2.399       31.962      122.405     
54.6        18.286      166.509     7.135       19.628      16.464      14.264      12.261      10.494      45.655      21.137      1.004       49.5        23.601      1.212       2.42        32.215      122.892     
54.7        16.379      162.534     6.711       19.635      17.015      14.601      12.637      10.332      48.488      21.917      1.0         49.5        23.764      1.212       2.445       32.39       123.084     
54.8        16.692      161.284     6.373       20.096      18.287      14.859      13.169      10.344      51.041      23.047      0.975       49.375      23.893      1.212       2.459       32.575      123.076     
54.9        17.794      158.461     6.342       21.847      20.121      14.903      13.578      10.387      52.45       24.21       0.967       47.75       24.242      1.212       2.461       32.961      123.502     
55.0        20.522      157.974     6.629       22.737      20.423      14.8        13.666      10.709      53.912      25.019      0.982       44.75       24.791      1.212       2.451       33.602      124.021     
55.1        24.855      158.459     6.945       21.703      19.316      14.477      13.275      11.019      55.624      25.806      1.012       40.75       25.829      1.212       2.44        34.315      123.767     
55.2        26.283      158.746     7.087       20.559      18.179      14.041      12.551      11.182      58.725      26.747      1.05        37.25       26.955      1.212       2.43        35.059      124.275     
55.3        24.952      158.919     6.893       19.809      17.203      13.949      12.059      11.322      62.584      27.758      1.09        36.875      27.49       1.212       2.429       35.669      125.007     
55.4        23.122      158.323     6.369       20.145      17.709      14.219      11.953      11.329      67.309      28.874      1.125       39.25       27.813      1.212       2.437       36.118      125.067     
55.5        21.091      157.77      5.839       21.884      19.612      14.67       12.069      11.403      72.009      30.109      1.148       41.75       28.325      1.212       2.446       36.432      125.537     
55.6        20.508      150.578     5.515       23.778      20.878      15.024      12.321      11.427      74.399      31.763      1.166       42.375      29.253      1.212       2.451       36.287      127.651     
55.7        21.157      147.682     5.432       25.569      20.963      14.919      12.421      12.092      75.467      34.124      1.167       42.25       30.413      1.212       2.449       35.822      130.791     
55.8        22.754      149.122     5.372       26.996      20.476      14.446      12.068      12.172      75.81       35.885      1.15        39.5        31.689      1.212       2.441       35.33       132.133     
55.9        23.844      149.026     5.389       27.478      19.573      13.975      11.278      12.805      77.45       38.215      1.129       33.0        33.181      1.212       2.426       35.251      133.58      
56.0        23.916      145.768     5.487       27.193      18.595      13.655      10.504      13.368      81.659      41.663      1.127       29.375      34.593      1.212       2.409       35.153      134.32      
56.1        28.338      145.758     5.644       26.276      18.258      13.433      10.134      14.031      86.581      45.239      1.148       30.0        36.056      1.212       2.389       35.15       135.33      
56.2        37.054      145.691     5.822       25.943      18.611      13.384      9.939       15.39       95.314      47.845      1.167       30.375      38.031      1.212       2.365       34.553      135.435     
56.3        44.547      146.086     5.975       25.697      18.575      13.794      9.919       17.54       113.403     50.018      1.177       30.25       40.376      1.213       2.327       33.768      134.831     
56.4        55.565      146.417     6.054       23.845      17.917      14.742      10.468      20.387      136.013     52.34       1.204       31.0        43.658      1.212       2.28        32.725      134.491     
