~Version Information Section
VERS.                                         2.0:CWLS log ASCII Standart – VERSION 2.0
WRAP.                                          NO:One line per depth step
~Well Information Section
STRT.M                                        1.0:Начальная глубина
STOP.M                                      192.9:Конечная глубина
STEP.M                                          0:Шаг квантования по глубине
NULL.                                    -9999.25:Признак "Нет данных"
WELL.                                       123Мх:Скважина
~Parameter Information Section
~Curve Information Section
DEPTH.M                                          :Глубина
BK.lgОмм                                         :BK     (БК)
ПРОФ_СР.мм                                       :DS  (ДС)
ГК.мкР/час                                       :GK          (ГК)
ГЗ1.Омм                                          :GZ1   ГЗ1(A0.4M0.1N)
ГЗ2.Омм                                          :GZ2   ГЗ2(A1.0M0.1N)
ГЗ3.Омм                                          :GZ3   ГЗ3(A2.0M0.5N)
ГЗ4.Oмм                                          :GZ4   ГЗ4(A4.0M0.5N)
ГЗ5.Oмм                                          :GZ5   ГЗ5(A8.0M0.5N)
ГЗК.Омм                                          :GZK   ГЗK(N0.5M2.0A)
ИК.мСм/м                                         :IK
НГК.усл.ед.                                      :NGK     (НГК)
PS.мВ                                            :PS       (ПС)
PZ.Омм                                           :PZ    (КС)
RIS.Омм                                          :RS (Резистивиметр)
U1.мВ                                            :U1
U2.мВ                                            :U2
U3.mv                                            :U3
W.                                               :W
П.%                                              :п
ННКМ.усл.ед                                      :ННКм
~ASCII LOG DATA
# ...
157.8       25.645      121.808     5.271       31.68       18.187      39.468      15.536      10.334      25.538      10.831      1.249       250.949     21.111      1.454       270.078     238.802     302.071     2.301       30.792      0.193       
157.9       152.757     121.858     4.572       31.32       17.269      40.134      15.536      10.667      26.226      11.574      1.346       248.309     25.623      1.454       274.54      287.406     421.005     2.263       28.788      0.207       
158.0       169.044     122.093     4.029       31.32       14.221      40.801      15.536      10.001      26.877      12.383      1.432       246.046     30.511      1.454       472.742     445.826     538.278     2.223       26.353      0.226       
158.1       160.325     121.611     3.941       31.32       13.8        42.801      15.536      9.667       27.527      13.068      1.493       244.537     33.895      1.454       691.907     603.978     620.755     2.183       24.433      0.249       
158.2       184.077     121.744     3.948       31.32       13.467      44.801      15.536      9.334       28.479      13.622      1.57        243.406     38.407      1.454       899.135     741.576     663.877     2.154       22.795      0.264       
158.3       179.473     120.754     3.999       32.04       13.133      45.468      15.869      9.334       29.98       14.036      1.697       241.897     47.807      1.454       902.026     751.629     674.213     2.13        21.755      0.256       
158.4       159.956     121.635     3.901       32.76       12.819      44.134      16.203      9.334       32.363      14.357      1.847       240.766     58.712      1.453       836.627     693.061     623.396     2.131       20.744      0.243       
158.5       148.252     122.163     3.673       33.48       12.663      42.134      16.869      9.334       33.988      14.661      1.904       239.257     69.991      1.449       726.708     573.763     501.529     2.146       19.641      0.249       
158.6       137.721     121.247     3.511       33.84       12.936      42.801      17.536      9.334       35.292      14.839      1.892       237.749     84.655      1.442       690.337     512.127     423.104     2.158       18.22       0.265       
158.7       123.595     121.27      3.483       34.92       13.295      48.8        18.203      9.334       36.158      15.065      1.897       236.24      98.19       1.433       801.157     594.826     481.764     2.157       17.471      0.283       
158.8       116.681     120.445     3.654       36.0        13.177      57.468      18.536      9.334       37.024      15.197      1.971       234.732     108.343     1.426       1086.818    827.509     669.53      2.168       17.234      0.287       
158.9       115.611     120.401     4.019       37.08       12.218      69.468      18.536      9.334       37.952      15.242      2.015       232.846     121.128     1.423       1436.598    1089.047    862.907     2.169       17.761      0.286       
159.0       113.501     121.001     4.062       37.08       11.258      78.134      18.536      9.503       38.435      15.299      1.982       230.583     135.791     1.423       1654.455    1239.606    964.321     2.166       18.427      0.28        
159.1       111.944     120.222     4.16        37.08       10.566      90.135      18.536      9.856       40.011      15.378      1.89        227.943     147.447     1.425       1645.601    1236.869    966.967     2.162       19.009      0.269       
159.2       113.763     120.248     3.833       36.72       9.922       98.134      19.203      11.22       43.918      15.356      1.804       226.058     160.23      1.432       1402.64     1083.519    879.79      2.165       19.139      0.263       
159.3       120.504     121.247     3.627       36.72       9.279       106.134     20.203      12.416      47.825      15.378      1.715       224.172     173.391     1.441       1138.618    949.094     850.39      2.163       19.277      0.256       
159.4       120.226     121.401     3.328       36.72       8.549       109.468     21.203      22.729      72.176      15.378      1.7         222.286     180.159     1.451       1002.689    882.555     857.444     2.152       19.678      0.256       
159.5       114.025     120.746     3.4         36.72       10.683      114.134     21.869      32.697      117.345     15.321      1.653       220.023     184.295     1.459       1020.903    854.214     828.28      2.148       20.763      0.265       
159.6       107.152     121.22      3.366       36.72       12.818      118.135     22.536      44.334      162.524     15.333      1.576       218.137     186.551     1.462       1138.001    796.023     675.811     2.152       22.268      0.265       
159.7       97.275      121.011     3.374       36.72       16.996      124.134     23.536      48.667      200.802     15.266      1.511       216.629     186.551     1.462       1211.693    746.19      556.453     2.155       23.946      0.254       
159.8       90.573      121.337     3.394       37.08       18.674      130.801     24.536      54.667      222.786     15.232      1.505       215.497     183.167     1.461       1154.648    767.94      636.161     2.158       25.03       0.246       
159.9       86.298      121.445     3.636       37.298      20.656      138.801     24.941      60.001      236.575     15.209      1.511       213.989     180.535     1.455       1048.114    842.652     822.119     2.166       25.31       0.247       
160.0       79.983      121.817     3.814       51.536      22.222      148.134     25.012      63.334      235.724     15.12       1.448       212.48      176.399     1.446       1046.04     912.907     912.016     2.183       25.303      0.242       
160.1       74.131      120.878     3.889       84.991      24.992      154.801     25.996      64.334      219.704     15.098      1.398       210.972     171.887     1.438       1137.812    918.794     824.992     2.208       25.192      0.239       
160.2       69.823      121.238     3.787       118.581     27.458      158.134     27.838      63.667      200.233     14.989      1.417       209.463     165.871     1.432       1154.019    846.647     669.193     2.236       25.35       0.238       
160.3       66.834      120.944     3.574       140.568     30.555      157.468     29.681      62.667      180.759     15.043      1.48        207.955     159.479     1.427       1010.186    715.822     541.102     2.256       25.796      0.237       
160.4       64.121      121.109     3.51        141.539     34.454      156.801     30.172      61.667      161.778     15.033      1.547       206.446     152.335     1.424       803.371     569.672     439.418     2.268       26.921      0.243       
160.5       62.806      121.353     3.495       142.509     38.351      156.801     29.757      60.667      149.673     15.12       1.568       204.938     145.943     1.421       661.345     467.273     366.442     2.281       27.35       0.241       
160.6       66.222      120.85      3.449       137.248     50.986      156.801     29.342      59.334      137.565     15.22       1.533       203.052     141.055     1.418       647.437     438.55      334.575     2.291       27.361      0.24        
160.7       82.224      121.143     3.327       132.367     74.967      156.801     28.884      57.667      129.268     15.344      1.51        200.789     138.423     1.417       855.617     522.834     356.039     2.307       26.295      0.245       
160.8       117.49      121.275     3.323       127.486     98.953      156.801     28.86       56.001      124.113     15.493      1.561       198.526     137.671     1.416       1163.215    665.168     412.245     2.319       25.364      0.253       
160.9       112.72      121.604     3.539       126.257     120.415     156.801     28.836      54.667      118.959     15.621      1.614       196.263     139.927     1.416       1318.709    771.708     488.417     2.318       24.309      0.271       
