~Version Information Section
VERS.                                         2.0:CWLS log ASCII Standart – VERSION 2.0
WRAP.                                          NO:One line per depth step
~Well Information Section
STRT.M                                        1.0:Начальная глубина
STOP.M                                      151.7:Конечная глубина
STEP.M                                          0:Шаг квантования по глубине
NULL.                                    -9999.25:Признак "Нет данных"
WELL.                                       117Мх:Скважина
~Parameter Information Section
~Curve Information Section
DEPTH.M                                          :Глубина
DСР.мм                                           :Dср
ГК.гамма                                         :GK
ИК.мСм/м                                         :IK
N0.5M2.0A.Омм.                                   :N0.5M2.0A.Омм
R.Омм                                            :R
U1.                                              :U1
U2.                                              :U2
U3.                                              :U3
W.имп/1,25с                                      :W
А0.4М0.1N.Омм.                                   :А0.4М0.1N.Омм
А1.0М0.1N.Омм.                                   :А1.0М0.1N.Омм
А2.0М0.5N.Омм.                                   :А2.0М0.5N.Омм
А4.0М0.5N.Oмм.                                   :А4.0М0.5N.Oмм
А8.0М1.0N.Омм.                                   :А8.0М1.0N.Омм
БЗ.имп/мин                                       :БЗ
БК.Омм                                           :БК
КС.Омм                                           :КС
ПС.                                              :ПС
МЗ.имп/мин                                       :МЗ
НГК.имп/1,25с                                    :ННКб
ННКМ.имп/1,25с                                   :ННКм
ПЛОТНОСТЬГГК.г/см3                               :плотностьГГК
~ASCII LOG DATA
# ...
99.6        135.424     8.93        15.493      22.91       1.245       188.013     50.073      115.008     29.286      22.414      22.556      26.228      25.17       22.201      11540.0     19.523      21.097      155.651     5760.0      2.439       1.481       2.338       
99.7        135.335     8.994       15.498      22.683      1.244       187.952     52.148      116.093     29.292      23.219      22.047      25.015      23.378      21.341      11720.0     18.97       21.068      155.529     5900.0      2.465       1.509       2.334       
99.8        135.367     9.075       15.485      22.66       1.243       186.292     54.37       116.042     29.484      23.415      20.971      23.604      22.115      20.624      11800.0     18.402      21.026      155.515     6000.0      2.426       1.524       2.326       
99.9        135.364     9.175       15.439      22.631      1.245       183.521     54.638      114.173     29.851      22.944      20.075      22.61       20.635      19.995      12000.0     17.812      20.964      155.611     5960.0      2.33        1.503       2.317       
100.0       135.399     9.265       15.367      22.332      1.248       184.546     55.639      113.724     30.276      22.399      19.687      22.002      19.898      19.466      12100.0     17.325      20.857      155.798     5900.0      2.247       1.482       2.309       
100.1       135.369     9.324       15.269      21.892      1.249       186.365     61.096      115.077     30.625      22.062      19.556      21.521      20.214      19.023      12320.0     17.103      20.701      156.047     5960.0      2.222       1.477       2.305       
100.2       135.28      9.354       15.17       21.687      1.247       186.048     63.598      115.061     30.832      21.673      19.535      20.915      20.992      18.636      12340.0     17.069      20.583      156.33      5840.0      2.229       1.483       2.304       
100.3       135.273     9.341       15.088      21.621      1.244       187.329     63.33       116.162     30.92       20.469      19.309      20.218      21.061      18.292      12340.0     16.768      20.54       156.617     5700.0      2.224       1.476       2.303       
100.4       135.366     9.289       15.011      21.417      1.243       189.722     65.014      119.081     30.981      19.572      19.36       19.586      20.633      17.962      12360.0     16.143      20.547      156.882     5700.0      2.226       1.465       2.3         
100.5       135.348     9.301       14.955      21.514      1.244       187.854     65.808      119.595     31.085      19.496      19.483      18.89       20.589      17.671      12120.0     15.663      20.608      157.086     5680.0      2.255       1.478       2.3         
100.6       135.187     9.39        14.934      22.237      1.245       185.193     62.146      118.309     31.213      18.984      18.791      18.369      20.658      17.497      12040.0     15.349      20.701      157.201     5720.0      2.294       1.507       2.299       
100.7       135.213     9.536       14.925      23.161      1.244       182.373     57.141      115.217     31.275      18.802      18.552      18.172      20.317      17.459      11820.0     14.984      20.81       157.219     5760.0      2.31        1.542       2.294       
100.8       135.065     9.801       14.927      24.241      1.245       177.954     54.907      111.009     31.314      19.738      19.177      18.093      19.524      17.6        11960.0     14.784      20.937      157.149     5700.0      2.295       1.557       2.291       
100.9       134.975     10.022      14.958      25.541      1.245       177.124     53.333      108.668     31.375      20.984      19.69       18.164      18.436      17.915      12340.0     14.775      21.028      157.003     5680.0      2.291       1.563       2.287       
101.0       134.891     10.017      14.995      26.992      1.245       180.554     52.649      108.731     31.487      21.41       19.795      18.229      17.514      18.265      12740.0     14.587      21.051      156.779     5860.0      2.316       1.556       2.288       
101.1       134.735     9.921       15.014      27.651      1.243       186.145     52.405      110.53      31.553      21.359      19.514      18.281      17.362      18.475      12880.0     14.215      21.018      156.489     5880.0      2.329       1.545       2.29        
101.2       134.759     9.807       15.007      26.944      1.241       191.894     53.504      114.134     31.554      21.316      19.332      18.283      17.634      18.435      13060.0     13.878      20.947      156.171     5840.0      2.3         1.526       2.295       
101.3       134.667     9.623       14.968      26.375      1.241       194.8       55.847      117.425     31.519      21.293      19.626      18.208      18.052      18.19       12880.0     13.741      20.867      155.846     5940.0      2.256       1.515       2.299       
101.4       134.593     9.474       14.908      26.609      1.24        194.116     57.532      118.85      31.519      21.228      19.834      18.319      18.267      17.916      12660.0     13.799      20.774      155.517     5900.0      2.242       1.516       2.301       
101.5       134.503     9.436       14.857      27.187      1.242       191.968     60.584      119.567     31.465      20.786      19.901      18.784      18.063      17.749      12340.0     13.892      20.661      155.174     5960.0      2.257       1.531       2.303       
101.6       134.392     9.362       14.82       28.191      1.247       187.659     63.196      118.547     31.228      20.505      20.025      19.278      17.568      17.633      12540.0     13.896      20.554      154.829     5920.0      2.273       1.54        2.304       
101.7       134.307     9.281       14.787      29.367      1.247       183.35      65.808      117.527     30.819      20.549      19.987      19.457      16.871      17.503      12540.0     13.777      20.481      154.506     6020.0      2.282       1.533       2.3         
101.8       134.321     9.29        14.777      30.088      1.244       180.933     62.536      114.391     30.428      20.399      19.73       19.299      16.212      17.381      12540.0     13.568      20.46       154.222     5980.0      2.317       1.52        2.3         
101.9       134.156     9.366       14.756      33.48       1.246       178.516     59.265      111.254     30.156      20.066      19.313      19.029      15.704      17.168      12840.0     13.317      20.467      153.96      5880.0      2.38        1.505       2.303       
102.0       134.04      9.389       14.723      38.188      1.244       177.332     55.676      110.016     30.009      19.706      18.758      18.571      16.138      16.769      12700.0     13.409      20.475      153.699     5980.0      2.42        1.494       2.305       
102.1       134.021     9.369       14.716      38.699      1.239       176.148     52.087      108.778     29.91       19.301      18.076      18.253      16.846      16.275      12580.0     14.202      20.49       153.419     5900.0      2.409       1.504       2.312       
102.2       134.118     9.356       14.701      36.429      1.234       176.05      48.926      107.658     29.901      18.591      17.393      18.32       16.887      15.764      12480.0     15.435      20.508      153.073     5800.0      2.368       1.522       2.318       
102.3       133.674     9.299       14.691      32.683      1.233       176.905     50.403      108.968     29.992      19.586      18.323      18.411      17.376      15.108      12180.0     16.71       20.528      152.564     5720.0      2.352       1.548       2.324       
102.4       133.463     9.187       14.749      28.611      1.232       179.261     50.94       110.734     30.122      20.815      19.229      18.603      17.369      14.319      11660.0     17.948      20.566      151.787     5760.0      2.361       1.556       2.326       
