~Version Information Section
VERS.                                         2.0:CWLS log ASCII Standart – VERSION 2.0
WRAP.                                          NO:One line per depth step
~Well Information Section
STRT.M                                        0.5:Начальная глубина
STOP.M                                      158.2:Конечная глубина
STEP.M                                          0:Шаг квантования по глубине
NULL.                                    -9999.25:Признак "Нет данных"
WELL.                                       136Мх:Скважина
~Parameter Information Section
~Curve Information Section
DEPTH.M                                          :Глубина
BK.Ohm*M                                         :BK     (БК)
DS.mm                                            :DS  (ДС)
GGK.g/cm3                                        :GGKp
ГК.mcr/h                                         :GK          (ГК)
GZ1.Ohm*M                                        :GZ1   ГЗ1(A0.4M0.1N)
GZ2.Ohm*M                                        :GZ2   ГЗ2(A1.0M0.1N)
GZ3.Ohm*M                                        :GZ3   ГЗ3(A2.0M0.5N)
GZ4.Ohm*M                                        :GZ4   ГЗ4(A4.0M0.5N)
GZ5.Ohm*M                                        :GZ5   ГЗ5(A8.0M0.5N)
GZR.Ohm*M                                        :GZK   ГЗK(N0.5M2.0A)
ИК.Ohm*M                                         :IK
НГК.ue                                           :NGK     (НГК)
NNKM.                                            :NNKm  (ННКм)
PS.mv                                            :PS       (ПС)
PZ.Ohm*M                                         :PZ    (КС)
RS.Ohm*M                                         :RS (Резистивиметр)
U1.mV                                            :U1
U2.mV                                            :U2
U3.mV                                            :U3
КП.%                                             :Кп
~ASCII LOG DATA
# ...
64.5        31.183      135.752     1.794       5.372       27.756      14.669      12.678      5.303       10.0        16.632      20.461      1.17        2.053       209.991     30.078      1.087       -1946.47    217.663     -2035.3     40.038      
64.6        37.344      135.707     1.811       5.41        29.165      16.752      13.991      5.303       11.0        18.22       20.908      1.179       2.105       210.357     31.41       1.087       -1991.18    188.899     -2066.76    42.353      
64.7        65.678      135.749     1.819       5.376       30.892      20.693      16.226      6.751       11.0        19.617      21.309      1.124       2.148       210.617     32.486      1.087       -2027.44    168.115     -2087.71    42.013      
64.8        99.232      135.749     1.825       5.046       35.827      22.811      18.273      9.105       11.0        19.912      21.696      1.102       2.181       210.784     33.096      1.087       -2048.01    154.675     -2102.62    38.056      
64.9        92.909      135.801     1.822       4.7         37.662      23.945      19.596      11.281      12.0        19.912      22.139      1.146       2.144       210.872     33.197      1.087       -2055.27    144.548     -2134.11    34.628      
65.0        39.109      135.857     1.819       4.351       39.066      25.157      20.159      13.846      12.0        19.924      22.103      1.223       2.131       210.891     33.197      1.087       -2052.91    134.243     -2170.02    34.691      
65.1        24.432      136.1       1.821       4.213       43.559      28.38       20.416      16.532      12.0        20.336      21.537      1.237       2.312       210.891     33.197      1.087       -2049.44    126.942     -2199.71    36.128      
65.2        32.613      136.23      1.834       4.085       46.904      31.444      21.547      17.925      12.0        20.65       20.893      1.222       2.457       210.891     32.838      1.087       -2085.74    128.592     -2144.87    35.613      
65.3        39.226      136.241     1.856       3.939       46.904      32.908      22.747      19.524      12.0        20.65       20.338      1.229       2.443       210.849     32.155      1.087       -2155.3     136.986     -2026.32    33.22       
65.4        32.035      137.649     1.875       3.691       47.422      35.395      23.431      21.064      10.0        20.65       20.185      1.24        2.399       210.756     31.394      1.087       -2225.95    141.617     -1900.22    29.771      
65.5        26.465      135.418     1.891       3.736       47.422      35.395      23.582      21.164      8.0         22.451      20.376      1.252       2.331       210.626     30.783      1.087       -2256.85    136.536     -1867.16    29.072      
65.6        25.274      135.835     1.894       3.968       47.422      34.952      24.29       21.164      2.0         26.355      20.52       1.236       2.406       210.468     30.38       1.087       -2255.75    122.868     -1934.72    29.538      
65.7        41.485      135.653     1.891       4.394       44.493      31.168      25.968      21.392      2.0         30.947      20.652      1.259       2.571       210.297     30.229      1.087       -2247.79    108.571     -2051.19    29.833      
65.8        73.802      136.296     1.874       4.593       41.28       30.277      27.368      21.392      2.0         36.236      20.813      1.27        2.583       210.125     30.229      1.087       -2209.55    99.789      -2149.27    28.724      
65.9        24.707      135.656     1.845       5.124       39.893      31.124      28.197      21.392      2.0         41.695      20.529      1.283       2.532       209.967     30.229      1.087       -2142.15    99.457      -2206.0     30.238      
66.0        14.06       135.149     1.805       5.784       37.107      30.367      28.197      20.797      2.0         47.342      19.959      1.241       2.597       209.823     30.229      1.087       -2055.88    149.529     -2107.9     36.112      
66.1        15.174      134.928     1.789       7.377       32.963      26.821      28.197      18.662      2.0         53.084      19.341      1.288       2.657       209.694     30.352      1.087       -2009.79    219.819     -1937.09    41.249      
66.2        28.115      134.957     1.793       8.154       32.963      23.13       28.026      15.892      2.0         58.819      19.088      1.352       2.575       209.568     30.755      1.087       -2007.62    269.511     -1800.57    42.626      
66.3        62.399      135.478     1.805       8.015       34.194      20.683      26.277      11.835      2.0         64.851      19.492      1.425       2.401       209.438     31.427      1.087       -2038.43    259.423     -1810.24    37.826      
66.4        100.991     135.283     1.821       6.629       32.063      19.089      22.758      7.719       2.0         69.738      20.791      1.418       2.085       209.285     32.43       1.087       -2059.34    229.117     -1897.99    34.773      
66.5        62.037      135.043     1.821       5.007       30.696      17.223      19.515      5.837       2.0         72.433      22.585      1.374       2.002       209.09      33.774      1.087       -2066.6     222.229     -1972.83    32.563      
66.6        23.663      135.1       1.56        4.393       30.696      15.553      16.735      5.269       2.0         73.105      23.838      1.301       2.255       208.812     35.487      1.087       -2026.33    228.054     -2042.01    33.592      
66.7        20.871      135.736     1.546       4.218       31.879      15.689      13.82       5.255       2.0         73.584      24.482      1.257       2.417       208.422     37.598      1.087       -1946.32    227.274     -2114.78    36.76       
66.8        40.188      136.035     2.229       4.696       35.067      15.718      11.316      5.239       0.468       73.584      24.998      1.271       2.461       207.879     40.107      1.087       -1845.27    213.003     -2166.18    36.216      
66.9        52.476      137.479     2.019       4.908       35.704      15.143      10.323      5.239       0.525       73.584      25.688      1.293       2.399       207.165     43.002      1.087       -1827.04    193.182     -2183.77    33.335      
67.0        52.196      136.411     2.021       4.44        36.652      15.143      10.323      5.22        1.617       73.602      27.101      1.293       2.332       206.274     46.262      1.087       -1885.96    176.404     -2170.21    29.685      
67.1        39.026      135.12      2.021       3.954       38.702      15.396      10.323      5.22        3.243       73.59       28.611      1.225       2.381       205.262     49.795      1.087       -1965.93    166.234     -2146.04    29.624      
67.2        36.454      135.26      2.026       3.64        39.987      16.459      10.323      5.222       4.994       73.561      29.765      1.203       2.464       204.172     53.407      1.087       -2003.35    217.821     -2043.94    31.519      
67.3        55.401      134.882     2.041       3.907       41.149      19.432      10.326      5.222       6.868       67.855      30.807      1.182       2.58        203.082     56.941      1.087       -1942.11    298.349     -1895.58    32.235      
67.4        105.164     135.475     2.065       4.222       44.868      24.225      11.007      5.36        8.903       62.271      31.72       1.181       2.549       202.047     60.211      1.087       -1910.21    351.531     -1786.2     32.283      
67.5        138.629     134.924     2.098       4.308       50.525      29.374      12.232      5.338       10.005      60.264      32.946      1.205       2.388       201.105     63.034      1.087       -1922.03    322.227     -1789.86    32.057      
67.6        138.168     134.64      2.119       4.31        58.498      35.469      13.803      5.264       10.682      58.854      34.15       1.219       2.38        200.247     65.279      1.087       -2026.9     255.912     -1846.55    32.394      
