~Version Information Section
VERS.                                         2.0:CWLS log ASCII Standart – VERSION 2.0
WRAP.                                          NO:One line per depth step
~Well Information Section
STRT.M                                        1.0:Начальная глубина
STOP.M                                      208.3:Конечная глубина
STEP.M                                          0:Шаг квантования по глубине
NULL.                                    -9999.25:Признак "Нет данных"
WELL.                                       131Мх:Скважина
~Parameter Information Section
~Curve Information Section
DEPTH.M                                          :Глубина
БК.Омм                                           :BK     (БК)
DСР.мм                                           :DS  (ДС)
ГК.гамма                                         :GK          (ГК)
А0.4М0.1N.Омм.ohmm                               :GZ1   ГЗ1(A0.4M0.1N)
А1.0М0.1N.Омм.ohmm                               :GZ2   ГЗ2(A1.0M0.1N)
А2.0М0.5N.Омм.ohmm                               :GZ3   ГЗ3(A2.0M0.5N)
А4.0М0.5N.Oмм.ohmm                               :GZ4   ГЗ4(A4.0M0.5N)
А8.0М1.0N.Омм.ohmm                               :GZ5   ГЗ5(A8.0M0.5N)
N0.5M2.0A.Омм.ohmm                               :GZK   ГЗK(N0.5M2.0A)
ИК.мСм/м                                         :IK
НГК.усл.ед                                       :NGK     (НГК)
ПС.mv                                            :PS       (ПС)
П.%                                              :п
PZ.Омм                                           :PZ    (КС)
R.Омм                                            :RS (Резистивиметр)
U1.мВ                                            :U1
U2.mV                                            :U2
U3.мВ                                            :U3
W.г/см3                                          :ГГКп
~ASCII LOG DATA
# ...
93.2        27.32       141.089     5.603       -9999.25    -9999.25    -9999.25    -9999.25    -9999.25    -9999.25    15.316      1.202       198.96      34.521      32.628      1.12        2260.355    2377.034    1877.663    2.324       
93.25       -9999.25    -9999.25    -9999.25    20.441      17.16       20.49       17.985      13.938      21.976      -9999.25    -9999.25    -9999.25    -9999.25    -9999.25    -9999.25    -9999.25    -9999.25    -9999.25    -9999.25    
93.3        24.486      140.067     5.71        -9999.25    -9999.25    -9999.25    -9999.25    -9999.25    -9999.25    15.491      1.16        198.847     34.619      32.898      1.12        2166.59     2420.39     1784.515    2.324       
93.35       -9999.25    -9999.25    -9999.25    20.113      16.942      19.59       17.312      13.938      21.827      -9999.25    -9999.25    -9999.25    -9999.25    -9999.25    -9999.25    -9999.25    -9999.25    -9999.25    -9999.25    
93.4        21.626      139.973     5.894       -9999.25    -9999.25    -9999.25    -9999.25    -9999.25    -9999.25    15.603      1.154       198.704     34.583      33.256      1.12        2072.826    2098.48     1784.515    2.328       
93.45       -9999.25    -9999.25    -9999.25    19.79       16.942      18.887      16.812      13.893      21.809      -9999.25    -9999.25    -9999.25    -9999.25    -9999.25    -9999.25    -9999.25    -9999.25    -9999.25    -9999.25    
93.5        19.158      140.786     5.82        -9999.25    -9999.25    -9999.25    -9999.25    -9999.25    -9999.25    15.607      1.135       198.387     34.46       33.665      1.12        1864.906    1842.522    1847.519    2.329       
93.55       -9999.25    -9999.25    -9999.25    19.79       16.942      18.403      16.519      13.75       21.809      -9999.25    -9999.25    -9999.25    -9999.25    -9999.25    -9999.25    -9999.25    -9999.25    -9999.25    -9999.25    
93.6        17.794      141.123     5.949       -9999.25    -9999.25    -9999.25    -9999.25    -9999.25    -9999.25    15.497      1.108       197.807     35.013      34.115      1.12        1754.475    1738.709    1753.026    2.35        
93.65       -9999.25    -9999.25    -9999.25    19.79       16.942      18.088      16.355      13.518      21.774      -9999.25    -9999.25    -9999.25    -9999.25    -9999.25    -9999.25    -9999.25    -9999.25    -9999.25    -9999.25    
93.7        17.535      142.044     6.243       -9999.25    -9999.25    -9999.25    -9999.25    -9999.25    -9999.25    15.347      1.086       196.979     35.537      34.592      1.12        1754.475    1721.088    1624.098    2.37        
93.75       -9999.25    -9999.25    -9999.25    19.79       17.086      17.866      16.209      13.245      21.736      -9999.25    -9999.25    -9999.25    -9999.25    -9999.25    -9999.25    -9999.25    -9999.25    -9999.25    -9999.25    
93.8        17.684      142.441     6.162       -9999.25    -9999.25    -9999.25    -9999.25    -9999.25    -9999.25    15.202      1.123       195.916     35.775      35.039      1.12        1855.689    1695.955    1555.836    2.356       
93.85       -9999.25    -9999.25    -9999.25    19.799      17.329      17.69       16.055      12.971      21.736      -9999.25    -9999.25    -9999.25    -9999.25    -9999.25    -9999.25    -9999.25    -9999.25    -9999.25    -9999.25    
93.9        17.776      144.796     6.058       -9999.25    -9999.25    -9999.25    -9999.25    -9999.25    -9999.25    15.084      1.124       194.62      35.99       35.338      1.12        1812.352    1663.309    1548.239    2.353       
93.95       -9999.25    -9999.25    -9999.25    20.181      17.686      17.504      15.891      12.705      21.667      -9999.25    -9999.25    -9999.25    -9999.25    -9999.25    -9999.25    -9999.25    -9999.25    -9999.25    -9999.25    
94.0        17.872      143.89      6.047       -9999.25    -9999.25    -9999.25    -9999.25    -9999.25    -9999.25    15.031      1.144       193.079     36.018      35.456      1.12        1762.203    1638.06     1544.203    2.346       
94.05       -9999.25    -9999.25    -9999.25    20.854      18.12       17.297      15.695      12.456      21.513      -9999.25    -9999.25    -9999.25    -9999.25    -9999.25    -9999.25    -9999.25    -9999.25    -9999.25    -9999.25    
94.1        18.493      145.155     5.873       -9999.25    -9999.25    -9999.25    -9999.25    -9999.25    -9999.25    15.066      1.179       191.322     35.992      35.456      1.12        1724.535    1620.206    1543.725    2.339       
94.15       -9999.25    -9999.25    -9999.25    21.4        18.408      17.1        15.474      12.25       21.31       -9999.25    -9999.25    -9999.25    -9999.25    -9999.25    -9999.25    -9999.25    -9999.25    -9999.25    -9999.25    
94.2        20.183      145.024     5.429       -9999.25    -9999.25    -9999.25    -9999.25    -9999.25    -9999.25    15.183      1.23        189.488     35.203      35.456      1.12        1724.535    1620.206    1512.864    2.365       
94.25       -9999.25    -9999.25    -9999.25    21.763      18.6        16.935      15.243      12.102      21.078      -9999.25    -9999.25    -9999.25    -9999.25    -9999.25    -9999.25    -9999.25    -9999.25    -9999.25    -9999.25    
94.3        22.983      148.158     5.118       -9999.25    -9999.25    -9999.25    -9999.25    -9999.25    -9999.25    15.352      1.254       187.696     34.393      35.399      1.12        1796.184    1635.958    1512.864    2.4         
94.35       -9999.25    -9999.25    -9999.25    21.986      18.774      16.807      15.024      12.019      20.966      -9999.25    -9999.25    -9999.25    -9999.25    -9999.25    -9999.25    -9999.25    -9999.25    -9999.25    -9999.25    
94.4        25.946      145.517     4.674       -9999.25    -9999.25    -9999.25    -9999.25    -9999.25    -9999.25    15.554      1.247       186.024     34.334      35.172      1.12        1843.08     1677.571    1525.844    2.424       
94.45       -9999.25    -9999.25    -9999.25    22.037      18.914      16.807      14.816      11.995      20.966      -9999.25    -9999.25    -9999.25    -9999.25    -9999.25    -9999.25    -9999.25    -9999.25    -9999.25    -9999.25    
94.5        27.649      141.107     4.393       -9999.25    -9999.25    -9999.25    -9999.25    -9999.25    -9999.25    15.769      1.265       184.588     34.493      34.762      1.12        1843.08     1711.438    1613.05     2.459       
94.55       -9999.25    -9999.25    -9999.25    22.037      18.934      16.807      14.744      11.995      20.966      -9999.25    -9999.25    -9999.25    -9999.25    -9999.25    -9999.25    -9999.25    -9999.25    -9999.25    -9999.25    
94.6        27.171      140.371     4.275       -9999.25    -9999.25    -9999.25    -9999.25    -9999.25    -9999.25    15.976      1.252       183.451     35.052      34.258      1.12        1891.194    1747.675    1638.158    2.461       
94.65       -9999.25    -9999.25    -9999.25    22.037      18.982      16.807      14.744      11.995      20.966      -9999.25    -9999.25    -9999.25    -9999.25    -9999.25    -9999.25    -9999.25    -9999.25    -9999.25    -9999.25    
94.7        24.528      140.161     4.395       -9999.25    -9999.25    -9999.25    -9999.25    -9999.25    -9999.25    16.119      1.193       182.677     35.526      33.702      1.12        2016.479    1787.224    1638.158    2.449       
94.75       -9999.25    -9999.25    -9999.25    21.848      19.01       16.827      14.744      12.006      21.182      -9999.25    -9999.25    -9999.25    -9999.25    -9999.25    -9999.25    -9999.25    -9999.25    -9999.25    -9999.25    
94.8        21.354      140.137     4.469       -9999.25    -9999.25    -9999.25    -9999.25    -9999.25    -9999.25    16.152      1.144       182.306     35.789      33.057      1.12        2037.115    1827.715    1667.74     2.437       
94.85       -9999.25    -9999.25    -9999.25    21.733      19.133      17.138      14.744      12.052      21.671      -9999.25    -9999.25    -9999.25    -9999.25    -9999.25    -9999.25    -9999.25    -9999.25    -9999.25    -9999.25    
