~Version Information Section
VERS.                                         2.0:CWLS log ASCII Standart – VERSION 2.0
WRAP.                                          NO:One line per depth step
~Well Information Section
STRT.M                                        1.0:Начальная глубина
STOP.M                                      203.4:Конечная глубина
STEP.M                                          0:Шаг квантования по глубине
NULL.                                    -9999.25:Признак "Нет данных"
WELL.                                         3Мх:Скважина
~Parameter Information Section
~Curve Information Section
DEPTH.M                                          :Глубина
BK.Ohm*M                                         :BK
DS.mm                                            :DS  (ДС)
ГК.mcr/h                                         :GK          (ГК)
GZ1.Ohm*M                                        :GZ1   ГЗ1(A0.4M0.1N)
GZ2.Ohm*M                                        :GZ2   ГЗ2(A1.0M0.1N)
GZ3.Ohm*M                                        :GZ3   ГЗ3(A2.0M0.5N)
GZ4.Ohm*M                                        :GZ4   ГЗ4(A4.0M0.5N)
GZ5.Ohm*M                                        :GZ5   ГЗ5(A8.0M0.5N)
U2.mV                                            :U2
U3.mV                                            :U3
W.                                               :W
КП.%                                             :Кп
НГК.усл.ед                                       :ННКб
ННКМ.усл.ед                                      :ННКм
GZR.Ohm*M                                        :GZK   ГЗK(N0.5M2.0A)
ИК.Ohm*M                                         :IK
PS.mv                                            :PS       (ПС)
PZ.Ohm*M                                         :PZ    (КС)
RS.Ohm*M                                         :RS (Резистивиметр)
U1.mV                                            :U1
~ASCII LOG DATA
# ...
7.4         -9999.25    172.272     3.326       -9999.25    -9999.25    -9999.25    8.825       -9999.25    -9999.25    -9999.25    2.354       39.476      3.228       2.22        13.619      -9999.25    -9999.25    -9999.25    1.003       -9999.25    
7.5         -9999.25    169.45      3.382       -9999.25    -9999.25    -9999.25    8.725       -9999.25    -9999.25    -9999.25    2.36        40.234      3.228       2.235       13.619      -9999.25    -9999.25    -9999.25    1.003       -9999.25    
7.6         -9999.25    169.844     3.351       -9999.25    -9999.25    -9999.25    8.725       -9999.25    -9999.25    -9999.25    2.393       39.322      3.228       2.248       13.319      -9999.25    -9999.25    -9999.25    1.003       -9999.25    
7.7         -9999.25    169.896     3.295       -9999.25    -9999.25    -9999.25    8.625       -9999.25    -9999.25    -9999.25    2.411       37.821      3.333       2.219       13.019      -9999.25    -9999.25    -9999.25    1.008       -9999.25    
7.8         -9999.25    169.132     3.136       -9999.25    -9999.25    -9999.25    8.525       -9999.25    -9999.25    -9999.25    2.443       36.241      3.368       2.18        13.019      -9999.25    -9999.25    -9999.25    1.008       -9999.25    
7.9         -9999.25    168.841     3.005       -9999.25    -9999.25    -9999.25    8.425       -9999.25    -9999.25    -9999.25    2.453       35.742      3.284       2.138       13.019      -9999.25    -9999.25    -9999.25    1.008       -9999.25    
8.0         -9999.25    169.381     2.958       -9999.25    -9999.25    -9999.25    8.425       -9999.25    -9999.25    -9999.25    2.451       36.649      3.228       2.086       12.719      -9999.25    -9999.25    -9999.25    1.008       -9999.25    
8.1         -9999.25    169.416     3.007       -9999.25    -9999.25    -9999.25    8.425       -9999.25    -9999.25    -9999.25    2.448       39.423      3.066       2.068       12.419      -9999.25    -9999.25    -9999.25    1.012       -9999.25    
8.2         -9999.25    171.037     3.134       -9999.25    -9999.25    -9999.25    8.425       -9999.25    -9999.25    -9999.25    2.442       41.553      2.824       2.077       12.119      -9999.25    -9999.25    -9999.25    1.012       -9999.25    
8.3         -9999.25    170.025     3.252       -9999.25    -9999.25    -9999.25    8.425       -9999.25    -9999.25    -9999.25    2.431       41.656      2.898       2.075       11.819      -9999.25    -9999.25    -9999.25    1.012       -9999.25    
8.4         -9999.25    170.508     3.38        -9999.25    -9999.25    -9999.25    8.425       -9999.25    -9999.25    -9999.25    2.419       40.084      3.01        2.056       11.519      -9999.25    -9999.25    -9999.25    1.016       -9999.25    
8.5         -9999.25    169.368     3.525       -9999.25    -9999.25    -9999.25    8.325       -9999.25    -9999.25    -9999.25    2.42        39.713      2.943       2.027       11.219      -9999.25    -9999.25    -9999.25    1.016       -9999.25    
8.6         -9999.25    171.004     3.752       -9999.25    -9999.25    -9999.25    8.325       -9999.25    -9999.25    -9999.25    2.4         40.482      2.675       1.942       11.219      -9999.25    -9999.25    -9999.25    1.016       -9999.25    
8.7         -9999.25    169.201     4.069       5.565       -9999.25    -9999.25    8.225       -9999.25    -9999.25    -9999.25    2.355       41.822      2.628       1.864       10.919      -9999.25    -9999.25    -9999.25    1.021       -9999.25    
8.8         -9999.25    168.988     4.414       5.854       -9999.25    -9999.25    8.125       -9999.25    -9999.25    -9999.25    2.315       42.913      2.442       1.818       10.919      -9999.25    -9999.25    -9999.25    1.021       -9999.25    
8.9         -9999.25    171.466     4.76        6.3         -9999.25    -9999.25    8.125       -9999.25    -9999.25    -9999.25    2.295       44.908      2.421       1.784       10.619      -9999.25    -9999.25    -9999.25    1.025       -9999.25    
9.0         -9999.25    171.852     5.051       5.478       -9999.25    -9999.25    8.125       -9999.25    -9999.25    -9999.25    2.263       45.978      2.335       1.798       10.319      -9999.25    -9999.25    -9999.25    1.025       -9999.25    
9.1         -9999.25    171.375     5.267       4.666       -9999.25    -9999.25    8.125       -9999.25    -9999.25    -9999.25    2.245       46.343      2.391       1.821       10.319      -9999.25    -9999.25    -9999.25    1.025       -9999.25    
9.2         -9999.25    174.015     5.268       4.613       -9999.25    -9999.25    8.125       -9999.25    -9999.25    -9999.25    2.259       45.901      2.503       1.856       10.019      -9999.25    -9999.25    -9999.25    1.025       -9999.25    
9.3         -9999.25    176.945     5.171       4.7         7.325       -9999.25    8.125       -9999.25    -9999.25    -9999.25    2.296       46.763      2.48        1.882       10.019      -9999.25    -9999.25    -9999.25    1.03        -9999.25    
9.4         -9999.25    177.875     5.049       5.231       7.711       -9999.25    8.125       -9999.25    -9999.25    -9999.25    2.3         47.272      2.391       1.894       10.019      -9999.25    -9999.25    -9999.25    1.03        -9999.25    
9.5         -9999.25    175.34      5.071       5.478       8.002       -9999.25    8.025       -9999.25    -9999.25    -9999.25    2.315       46.008      2.439       1.889       9.719       -9999.25    -9999.25    -9999.25    1.034       -9999.25    
9.6         -9999.25    173.99      5.242       5.675       8.388       -9999.25    8.025       -9999.25    -9999.25    -9999.25    2.312       44.014      2.535       1.845       8.419       -9999.25    -9999.25    -9999.25    1.034       -9999.25    
9.7         -9999.25    174.25      5.388       5.66        8.461       -9999.25    8.025       -9999.25    -9999.25    -9999.25    2.305       44.296      2.483       1.81        8.019       -9999.25    -9999.25    -9999.25    1.034       -9999.25    
9.8         -9999.25    173.685     5.521       5.463       8.461       -9999.25    7.925       -9999.25    -9999.25    -9999.25    2.286       46.652      2.275       1.788       8.019       -9999.25    -9999.25    -9999.25    1.039       -9999.25    
9.9         -9999.25    174.149     5.496       5.377       8.533       -9999.25    7.825       -9999.25    -9999.25    -9999.25    2.308       49.589      2.197       1.761       7.919       -9999.25    -9999.25    -9999.25    1.043       -9999.25    
10.0        -9999.25    175.749     5.582       5.844       9.161       -9999.25    7.825       -9999.25    -9999.25    -9999.25    2.319       50.192      2.079       1.738       7.819       -9999.25    -9999.25    -9999.25    1.043       -9999.25    
10.1        -9999.25    177.091     5.729       5.129       8.751       -9999.25    7.825       -9999.25    -9999.25    -9999.25    2.33        47.282      2.148       1.72        7.619       -9999.25    -9999.25    -9999.25    1.043       -9999.25    
10.2        -9999.25    174.601     5.984       4.226       7.977       -9999.25    7.825       -9999.25    4188.015    3908.267    2.339       44.149      2.424       1.703       7.619       -9999.25    -9999.25    -9999.25    1.043       4520.336    
10.3        -9999.25    175.755     6.202       4.205       7.784       -9999.25    7.825       5.469       3301.424    3079.126    2.325       43.344      2.374       1.7         7.519       -9999.25    -9999.25    -9999.25    1.043       3581.608    
10.4        -9999.25    176.728     6.273       4.554       7.977       -9999.25    7.725       5.472       2524.987    2339.809    2.302       45.711      2.275       1.732       7.419       -9999.25    -9999.25    -9999.25    1.043       2777.02     
10.5        -9999.25    177.362     6.178       4.578       8.05        7.792       7.725       5.371       1981.996    1790.82     2.292       48.313      2.244       1.751       7.419       -9999.25    -9999.25    -9999.25    1.043       2264.065    
