~Version Information Section
VERS.                                         2.0:CWLS log ASCII Standart – VERSION 2.0
WRAP.                                          NO:One line per depth step
~Well Information Section
STRT.M                                        0.0:Начальная глубина
STOP.M                                      133.6:Конечная глубина
STEP.M                                          0:Шаг квантования по глубине
NULL.                                    -9999.25:Признак "Нет данных"
WELL.                                       118Мх:Скважина
~Parameter Information Section
~Curve Information Section
DEPTH.M                                          :Глубина
BK.Ohm*M                                         :BK     (БК)
DS.mm                                            :DS  (ДС)
GGK.g/cm3                                        :GGKp
ГК.mcr/h                                         :GK          (ГК)
GZ1.Ohm*M                                        :GZ1   ГЗ1(A0.4M0.1N)
GZ2.Ohm*M                                        :GZ2   ГЗ2(A1.0M0.1N)
GZ3.Ohm*M                                        :GZ3   ГЗ3(A2.0M0.5N)
GZ4.Ohm*M                                        :GZ4   ГЗ4(A4.0M0.5N)
GZ5.Ohm*M                                        :GZ5   ГЗ5(A8.0M0.5N)
GZR.Ohm*M                                        :GZK   ГЗK(N0.5M2.0A)
ИК.Ohm*M                                         :IK
НГК.усл.ед                                       :NGK
NNKM.                                            :NNKm  (ННКм)
PS.mv                                            :PS       (ПС)
PZ.Ohm*M                                         :PZ    (КС)
RS.Ohm*M                                         :RS (Резистивиметр)
U1.mV                                            :U1
U2.mV                                            :U2
U3.mV                                            :U3
W.%                                              :W
~ASCII LOG DATA
# ...
32.0        15.74       156.801     2.339       6.273       23.718      21.675      22.865      23.349      24.249      28.697      9.375       0.986       1.982       845.686     37.53       1.09        493.14      288.487     230.342     34.492      
32.2        23.442      155.377     2.29        5.665       26.549      28.609      28.801      28.878      27.383      28.777      9.152       1.071       2.003       847.126     38.282      1.092       388.109     353.829     418.986     35.872      
32.4        33.343      155.515     2.167       4.815       34.215      36.33       36.038      34.875      30.791      22.753      9.163       1.11        2.063       849.046     38.47       1.092       462.632     380.354     410.766     37.51       
32.6        30.13       154.393     2.202       4.453       56.647      47.399      38.512      34.818      30.852      18.326      9.263       1.037       1.991       851.926     37.852      1.092       510.218     324.445     243.995     38.86       
32.8        29.04       158.578     2.286       5.629       32.953      36.304      32.531      25.9        29.398      17.506      9.152       0.97        1.892       855.766     36.456      1.092       410.448     291.745     303.51      43.227      
33.0        13.032      175.115     2.274       6.93        24.7        17.96       21.974      18.814      25.984      16.089      8.835       1.059       1.823       861.766     34.361      1.089       304.205     312.86      515.143     37.751      
33.2        13.243      162.4       2.236       6.335       28.12       27.154      19.343      18.068      20.254      13.106      8.466       1.061       2.124       868.006     31.917      1.085       335.253     307.891     404.1       37.28       
33.4        21.135      163.47      2.224       6.363       19.12       19.53       18.09       15.666      15.796      12.53       8.283       0.971       1.959       874.486     29.338      1.082       280.735     244.017     310.469     40.378      
33.6        13.122      160.786     2.205       6.797       20.153      19.172      14.938      12.957      14.842      13.143      8.268       0.915       1.788       880.486     26.76       1.078       375.411     259.66      270.174     43.023      
33.8        12.823      161.649     2.261       6.938       18.747      19.582      14.693      12.829      13.202      14.28       8.177       0.926       1.827       885.526     24.128      1.077       495.54      260.181     170.716     37.255      
34.0        13.274      161.069     2.376       7.047       17.091      17.661      14.451      13.01       11.992      15.865      8.023       0.962       1.822       888.166     21.711      1.075       419.216     218.501     152.0       42.158      
34.2        12.942      161.15      2.413       6.932       15.229      17.36       14.621      13.908      12.477      16.182      7.879       0.953       1.706       889.606     19.589      1.073       334.537     261.863     347.056     42.416      
34.4        13.122      161.097     2.354       5.496       18.616      21.723      18.37       15.324      12.423      14.126      7.823       0.989       1.851       890.086     17.978      1.07        231.02      271.509     542.263     35.782      
34.6        21.727      161.124     2.331       4.732       22.003      21.205      19.903      15.753      12.29       12.77       7.852       0.993       2.167       890.566     16.85       1.067       201.995     228.913     416.678     35.865      
34.8        19.679      161.756     2.338       5.488       21.787      16.878      19.097      14.163      12.309      12.952      7.963       1.0         2.165       890.806     15.964      1.064       277.694     226.189     277.55      35.344      
35.0        13.122      162.496     2.335       6.424       18.751      15.517      18.426      12.936      11.843      13.644      7.97        1.002       1.912       890.806     14.97       1.063       472.589     292.447     231.582     38.509      
35.2        12.162      161.896     2.314       6.181       17.292      16.505      18.016      13.069      11.188      13.663      7.633       1.011       1.853       890.806     13.681      1.06        590.075     396.111     308.281     39.289      
35.4        13.709      162.651     2.266       6.881       17.046      18.072      18.795      13.849      11.095      13.425      7.414       0.997       1.894       890.086     12.311      1.057       509.332     383.082     335.955     34.052      
35.6        13.614      165.936     2.266       6.5         17.543      18.516      18.553      14.467      11.078      12.77       7.351       0.995       1.94        888.646     11.237      1.057       366.283     318.258     356.625     35.038      
35.8        13.243      167.494     2.242       6.452       16.629      16.542      16.617      14.696      10.705      12.337      7.32        0.939       1.807       887.206     10.646      1.056       440.439     374.654     410.803     41.874      
36.0        12.677      166.895     2.247       6.806       16.421      14.081      14.771      13.332      10.351      12.286      7.261       0.977       1.811       885.766     10.109      1.053       573.977     401.533     328.222     43.967      
36.2        11.749      166.88      2.31        6.985       14.735      13.292      13.465      12.507      9.772       13.045      7.113       0.87        1.737       884.086     9.33        1.049       587.662     384.29      283.665     40.141      
36.4        11.066      167.456     2.329       7.761       14.309      13.218      13.26       12.805      9.605       14.52       6.994       0.871       1.739       882.406     8.282       1.045       613.979     398.45      295.669     42.54       
36.6        11.066      168.866     2.298       6.877       13.486      13.199      14.155      14.03       9.435       15.287      6.92        0.924       1.673       881.686     7.342       1.04        653.546     511.336     457.885     48.076      
36.8        11.194      174.65      2.272       6.207       14.403      14.746      15.253      16.198      9.493       15.191      6.865       0.956       1.732       881.206     6.805       1.033       548.562     514.26      579.913     43.774      
37.0        12.972      175.749     2.287       6.119       15.324      14.507      15.237      17.767      9.474       14.619      6.831       0.92        1.828       880.966     6.698       1.027       361.434     414.04      684.563     39.614      
37.2        12.474      172.977     2.285       5.901       15.034      12.975      13.764      16.629      9.526       15.058      6.838       0.961       1.814       882.406     6.886       1.021       307.837     249.557     381.569     36.041      
37.4        11.041      169.037     2.265       6.654       14.599      12.696      13.33       16.064      9.359       15.744      6.842       0.983       1.793       886.246     7.101       1.015       339.502     192.619     152.245     38.762      
37.6        11.749      169.268     2.243       6.286       14.292      12.584      13.05       15.899      9.116       16.552      6.805       0.886       1.762       892.726     7.208       1.01        530.319     305.735     205.926     44.179      
37.8        11.376      169.318     2.255       5.978       13.828      11.726      12.379      14.744      8.967       17.226      6.818       0.88        1.784       900.646     7.101       1.007       637.239     374.451     246.738     41.206      
38.0        10.423      169.765     2.317       6.778       13.219      11.442      11.67       13.649      9.137       18.251      6.855       0.846       1.686       909.526     6.886       1.007       548.331     347.036     252.16      45.284      
38.2        11.169      170.376     2.346       6.733       13.152      11.596      11.896      13.721      9.21        19.426      6.828       0.864       1.67        917.446     6.698       1.007       529.67      339.018     252.776     40.923      
