~Version Information Section
VERS.                                         2.0:CWLS log ASCII Standart – VERSION 2.0
WRAP.                                          NO:One line per depth step
~Well Information Section
STRT.M                                        0.4:Начальная глубина
STOP.M                                      206.4:Конечная глубина
STEP.M                                          0:Шаг квантования по глубине
NULL.                                    -9999.25:Признак "Нет данных"
WELL.                                       157Мх:Скважина
~Parameter Information Section
~Curve Information Section
DEPTH.M                                          :Глубина
BK.Ohm*M                                         :BK     (БК)
DS.mm                                            :DS  (ДС)
GGK.g/cm3                                        :GGKp
ГК.mcr/h                                         :GK          (ГК)
GZ1.Ohm*M                                        :GZ1   ГЗ1(A0.4M0.1N)
GZ2.Ohm*M                                        :GZ2   ГЗ2(A1.0M0.1N)
GZ3.Ohm*M                                        :GZ3   ГЗ3(A2.0M0.5N)
GZ4.Ohm*M                                        :GZ4   ГЗ4(A4.0M0.5N)
GZ5.Ohm*M                                        :GZ5   ГЗ5(A8.0M0.5N)
GZR.                                             :GZR   ГЗK(N0.5M2.0A)
ИК.Ohm*M                                         :IK
НГК.ue                                           :NGK     (НГК)
NNKM.                                            :NNKm  (ННКм)
PS.mv                                            :PS       (ПС)
PZ.Ohm*M                                         :PZ    (КС)
RS.Ohm*M                                         :RS (Резистивиметр)
W.%                                              :W
~ASCII LOG DATA
# ...
37.4        31.309      158.174     2.109       5.247       42.999      23.524      24.787      24.052      45.118      18.709      24.619      2.077       2.519       220.484     29.065      1.13        21.191      
37.5        18.767      157.795     2.178       5.251       41.705      21.307      21.066      20.726      42.069      15.386      24.139      1.86        2.308       220.624     27.677      1.127       26.9        
37.6        14.763      156.855     2.237       5.673       34.286      16.536      16.492      15.252      38.506      12.886      23.949      1.574       2.068       221.179     27.294      1.128       33.701      
37.7        15.119      156.397     2.264       6.216       23.829      12.775      12.633      10.742      34.723      11.769      24.316      1.502       2.022       222.382     27.536      1.129       37.888      
37.8        15.939      156.74      2.261       6.376       17.546      10.878      10.527      8.034       31.366      11.769      25.274      1.463       2.039       224.323     28.785      1.13        37.817      
37.9        16.726      156.591     2.247       6.266       16.061      11.165      10.153      7.317       29.582      12.204      26.611      1.478       2.134       226.624     30.17       1.129       34.303      
38.0        21.443      157.065     2.245       5.569       16.378      13.136      10.35       7.488       29.224      14.508      27.784      1.482       2.291       227.688     31.243      1.127       31.09       
38.1        30.09       155.76      2.255       4.997       18.412      17.61       11.474      8.344       29.684      17.296      28.795      1.534       2.406       227.688     31.513      1.123       28.904      
38.2        33.326      154.909     2.275       4.328       21.876      22.792      13.122      9.187       32.46       19.873      29.532      1.642       2.521       227.481     31.732      1.124       27.79       
38.3        40.063      155.485     2.302       3.974       23.85       25.22       14.629      10.07       37.865      22.301      30.152      1.729       2.575       225.921     32.344      1.126       27.425      
38.4        34.799      155.003     2.335       3.488       25.722      27.739      16.241      11.494      45.221      25.697      30.562      1.742       2.658       221.757     33.55       1.122       26.321      
38.5        35.942      154.007     2.368       3.231       28.209      29.726      18.216      13.908      53.757      31.464      30.74       1.798       2.778       215.226     35.915      1.121       23.782      
38.6        41.272      153.818     2.406       3.026       32.293      30.329      21.268      16.994      63.814      40.258      31.049      1.894       2.987       207.209     39.861      1.127       20.18       
38.7        41.951      153.857     2.446       3.11        37.711      32.649      25.83       21.047      75.231      51.043      31.217      2.107       3.178       200.083     43.794      1.134       16.562      
38.8        49.393      153.411     2.49        3.284       42.341      36.455      31.518      26.186      87.441      62.542      31.522      2.239       3.332       195.077     46.669      1.134       14.18       
38.9        63.655      152.948     2.522       3.224       47.57       40.727      38.673      32.128      98.693      73.516      31.755      2.407       3.36        192.702     48.315      1.135       13.251      
39.0        50.347      153.059     2.541       3.012       51.772      44.532      46.178      38.234      106.276     83.92       31.95       2.537       3.339       192.554     49.951      1.136       12.986      
39.1        46.837      153.157     2.549       2.725       56.549      49.806      54.319      45.529      108.327     91.09       31.916      2.778       3.338       192.554     52.24       1.138       12.435      
39.2        100.821     153.442     2.549       2.674       65.84       58.414      60.672      52.446      108.406     91.871      31.49       2.949       3.407       192.554     52.042      1.136       11.613      
39.3        175.974     153.708     2.533       2.657       75.17       66.684      62.98       54.024      104.376     90.257      30.744      3.022       3.427       192.868     50.688      1.132       11.52       
39.4        63.659      154.364     2.501       2.676       75.62       65.47       62.296      52.848      97.646      80.882      29.797      2.849       3.338       194.528     45.921      1.129       13.02       
39.5        22.823      155.343     2.46        3.088       73.638      57.683      57.142      45.313      91.495      66.21       28.649      2.615       3.076       196.423     40.217      1.129       15.781      
39.6        19.073      155.832     2.416       3.747       61.853      42.126      44.599      31.497      85.698      53.292      27.794      2.205       2.814       197.519     38.126      1.129       19.975      
39.7        16.729      156.428     2.375       4.805       43.962      25.972      30.947      19.933      78.392      49.483      27.348      1.875       2.514       197.519     38.254      1.133       25.245      
39.8        14.701      158.14      2.345       5.557       32.507      22.587      21.142      12.814      68.135      50.249      27.822      1.61        2.293       197.466     38.83       1.134       30.397      
39.9        13.867      157.708     2.328       6.244       25.792      23.023      17.357      10.168      57.367      55.544      29.134      1.557       2.21        196.822     39.092      1.134       34.233      
40.0        17.019      158.112     2.317       6.135       23.173      25.605      17.093      9.032       49.198      65.803      31.052      1.561       2.247       194.411     38.987      1.135       34.793      
40.1        28.039      158.304     2.308       5.53        22.026      29.761      17.042      8.327       44.526      71.111      33.044      1.57        2.385       190.909     38.305      1.134       32.669      
40.2        42.497      158.699     2.303       4.444       23.358      32.941      16.747      8.168       42.222      70.827      34.765      1.555       2.476       186.867     37.26       1.133       29.458      
40.3        46.548      158.904     2.307       3.517       24.925      32.805      16.181      8.162       40.884      68.359      35.862      1.502       2.541       182.97      37.428      1.132       27.124      
40.4        44.805      159.355     2.314       3.189       26.74       31.889      15.074      8.421       40.013      61.387      36.562      1.439       2.551       179.537     38.869      1.132       26.73       
40.5        41.496      159.275     2.322       3.276       31.92       30.532      13.752      8.318       38.908      54.119      37.006      1.4         2.504       176.647     42.907      1.133       27.388      
40.6        40.596      159.327     2.32        3.643       34.874      28.001      13.012      7.798       36.871      51.199      37.327      1.384       2.447       174.128     47.58       1.133       28.744      
40.7        37.631      158.944     2.308       3.829       35.278      24.762      13.089      7.375       33.855      51.248      37.792      1.38        2.343       172.002     51.208      1.132       29.962      
40.8        34.946      158.914     2.285       3.985       35.626      23.38       13.683      7.415       30.519      51.818      38.364      1.37        2.273       170.465     53.061      1.132       30.612      
40.9        35.213      159.194     2.261       3.994       36.144      24.588      15.358      7.638       27.617      53.444      39.037      1.391       2.223       169.522     53.625      1.133       30.913      
41.0        41.315      159.296     2.238       3.596       37.326      30.902      18.126      7.931       25.356      53.967      39.8        1.428       2.221       169.114     53.437      1.132       30.788      
