~Version Information Section
VERS.                                         2.0:CWLS log ASCII Standart – VERSION 2.0
WRAP.                                          NO:One line per depth step
~Well Information Section
STRT.M                                        0.8:Начальная глубина
STOP.M                                      209.6:Конечная глубина
STEP.M                                          0:Шаг квантования по глубине
NULL.                                    -9999.25:Признак "Нет данных"
WELL.                                         5Мх:Скважина
~Parameter Information Section
~Curve Information Section
DEPTH.M                                          :Глубина
BK.Ohm*M                                         :BK     (БК)
DS.mm                                            :DS  (ДС)
ГК.mcr/h                                         :GK          (ГК)
GZ1.Ohm*M                                        :GZ1   ГЗ1(A0.4M0.1N)
GZ2.Ohm*M                                        :GZ2   ГЗ2(A1.0M0.1N)
GZ3.Ohm*M                                        :GZ3   ГЗ3(A2.0M0.5N)
GZ4.Ohm*M                                        :GZ4   ГЗ4(A4.0M0.5N)
GZ5.Ohm*M                                        :GZ5   ГЗ5(A8.0M0.5N)
GZR.Ohm*M                                        :GZK   ГЗK(N0.5M2.0A)
ИК.Ohm*M                                         :IK
НГК.                                             :NNKb  (ННКб)
NNKM.                                            :NNKm  (ННКм)
PS.mv                                            :PS       (ПС)
PZ.Ohm*M                                         :PZ    (КС)
RS.Ohm*M                                         :RS (Резистивиметр)
W.%                                              :W
ГГК.g/cm3                                        :ГГК
SGDT1.1/min                                      :ПЛ1
SGDT2.1/min                                      :ПЛ2
SGDT3.1/min                                      :ПЛ3
SGDT4.1/min                                      :ПЛ4
~ASCII LOG DATA
# ...
93.8        15.631      155.311     5.371       2.508       9.848       2.554       3.124       15.622      3.524       16.055      2.802       1.975       929.009     15.727      0.949       36.196      2.279       14055.234   20699.043   14576.758   4232.188    
94.0        22.961      154.249     5.612       2.549       9.81        2.734       3.124       15.802      2.908       16.246      2.786       2.05        925.793     16.482      0.952       38.313      2.291       13117.656   21070.313   14529.443   4162.363    
94.2        16.255      154.729     6.068       2.564       9.475       2.914       3.124       16.162      2.703       15.902      2.604       1.97        923.84      16.775      0.952       39.197      2.298       14964.05    21323.633   14703.564   4416.953    
94.4        17.824      155.209     6.868       2.921       9.642       3.274       3.204       16.162      2.796       15.745      2.478       1.961       925.727     15.622      0.952       43.411      2.23        17418.574   22100.586   17206.748   5207.402    
94.6        15.74       155.209     6.637       2.776       9.792       3.634       3.204       15.982      3.299       15.703      1.992       1.838       928.975     13.028      0.952       50.221      1.99        23719.785   28509.531   23355.186   6173.359    
94.8        11.749      154.976     5.664       2.947       9.885       3.814       3.124       15.622      4.55        15.606      1.871       1.508       933.459     10.41       0.952       44.69       1.741       44749.805   35969.141   27687.012   6588.867    
95.0        11.641      154.729     5.259       2.806       10.109      4.354       3.124       15.622      5.182       15.28       1.917       1.526       936.827     9.317       0.952       42.034      1.713       57079.629   38301.094   25468.848   6155.352    
95.2        12.078      154.51      5.927       2.705       10.239      4.534       3.124       15.622      4.51        15.181      2.272       1.691       936.519     9.388       0.952       38.803      1.896       38867.43    31714.727   19937.686   5147.969    
95.4        11.885      154.249     5.92        2.896       10.183      4.534       3.124       15.622      3.467       15.293      2.653       1.822       933.179     10.93       0.952       34.436      2.094       22746.094   24023.652   16205.352   4299.844    
95.6        15.885      154.249     5.396       2.739       10.239      4.174       3.124       15.622      3.001       15.387      3.139       2.01        930.808     13.862      0.952       32.64       2.218       16019.021   20244.688   14984.678   4327.383    
95.8        28.445      154.249     4.428       2.884       10.034      3.994       3.284       15.982      2.889       15.09       3.084       2.165       936.285     15.758      0.952       35.66       2.28        15162.637   19981.699   15242.529   4620.977    
96.0        22.909      154.249     5.573       3.089       9.829       3.994       4.004       16.162      2.647       14.873      2.74        2.133       949.126     15.134      0.952       40.943      2.327       15831.543   21329.063   16289.149   5136.309    
96.2        12.942      154.249     6.59        3.473       10.239      3.994       4.484       16.342      2.889       14.724      2.161       1.904       952.591     13.043      0.952       47.392      2.296       17075.1     23808.184   18334.063   5794.063    
96.4        11.967      154.729     5.71        3.402       10.463      4.174       4.244       16.702      3.354       14.37       1.838       1.722       948.531     11.067      0.952       51.107      2.129       20643.32    28585.703   22686.66    6603.672    
96.6        11.722      155.209     5.168       3.123       10.407      4.174       4.084       16.882      3.616       14.048      1.8         1.558       942.322     10.171      0.952       47.005      1.935       32352.879   34025.43    25074.922   6970.586    
96.8        11.402      155.854     5.616       3.093       10.37       3.814       4.004       16.882      3.616       13.948      1.947       1.539       940.986     9.5         0.952       41.826      1.905       40481.367   35930.234   23978.311   6281.367    
97.0        11.376      156.169     6.407       2.907       10.37       3.814       4.084       16.882      3.709       13.972      2.146       1.629       941.681     9.594       0.952       39.196      2.023       33434.746   31333.828   20534.082   5670.625    
97.2        12.19       156.169     6.114       2.881       10.388      3.814       4.084       17.242      3.82        14.01       2.36        1.808       947.555     10.232      0.952       39.818      2.08        22873.162   27170.0     18955.84    5584.121    
97.4        13.335      156.169     5.811       2.947       10.444      3.814       4.084       17.242      3.933       14.125      2.278       1.872       955.721     11.042      0.952       42.631      2.086       21173.145   26363.418   18627.1     5420.117    
97.6        13.428      156.649     6.067       3.064       10.407      3.814       3.924       17.422      3.691       14.451      2.505       1.833       959.938     12.326      0.952       39.009      2.173       23382.961   25300.937   16900.713   4658.672    
97.8        15.382      155.689     6.042       3.06        10.388      3.814       3.764       17.422      3.635       14.59       2.619       1.91        960.661     13.193      0.952       37.543      2.3         17540.488   22602.461   16401.709   5301.875    
98.0        15.453      155.689     6.493       3.186       10.314      3.814       3.684       17.422      4.249       14.792      2.568       1.921       952.423     13.771      0.952       39.261      2.256       18532.617   25023.281   19034.238   6184.336    
98.2        12.972      155.689     6.992       3.294       10.351      4.354       3.924       17.782      5.107       14.917      2.273       1.857       943.115     14.285      0.952       43.258      1.996       25278.463   32090.916   25232.764   6604.414    
98.4        11.561      155.689     6.739       3.563       10.425      4.354       4.084       18.322      5.014       14.798      1.983       1.691       940.46      14.663      0.952       44.097      1.722       44263.32    38713.359   28456.328   6760.039    
98.6        11.324      155.689     5.965       3.511       10.407      3.814       4.084       18.502      4.641       14.848      2.183       1.567       940.898     14.927      0.952       37.214      1.751       60982.379   39141.836   24716.016   5885.938    
98.8        11.614      155.785     5.394       3.44        10.388      4.534       4.324       17.962      5.313       15.455      2.505       1.656       941.845     16.361      0.952       32.813      2.036       38681.23    30376.719   18767.744   4996.27     
99.0        18.281      156.56      4.729       3.45        10.276      5.974       4.564       17.422      5.536       16.868      2.873       1.973       941.408     17.58       0.955       34.111      2.232       17459.883   23120.898   16967.754   4867.148    
99.2        21.232      155.689     5.022       3.548       9.941       6.514       4.564       17.782      5.815       17.812      2.883       2.108       940.837     17.913      0.958       36.84       2.245       15787.214   22791.055   17745.566   5198.613    
99.4        19.364      155.689     5.386       4.063       10.388      7.234       4.644       18.862      4.921       17.948      2.881       1.989       940.674     18.088      0.958       35.353      2.235       17626.211   24007.676   16948.32    5127.891    
99.6        18.197      156.222     5.511       4.207       10.873      7.234       4.724       19.042      4.008       18.086      2.887       2.002       940.415     19.862      0.958       34.719      2.271       16349.559   23444.063   16907.383   5042.578    
99.8        34.594      154.442     4.965       4.312       10.891      7.234       4.964       20.842      3.579       18.887      3.314       2.176       940.832     22.152      0.959       33.37       2.298       14964.395   22170.43    16379.258   4982.344    
