~Version Information Section
VERS.                                         2.0:CWLS log ASCII Standart – VERSION 2.0
WRAP.                                          NO:One line per depth step
~Well Information Section
STRT.M                                      -0.07:Начальная глубина
STOP.M                                     189.23:Конечная глубина
STEP.M                                          0:Шаг квантования по глубине
NULL.                                    -9999.25:Признак "Нет данных"
WELL.                                       127Мх:Скважина
~Parameter Information Section
~Curve Information Section
DEPTH.M                                          :Глубина
BK.                                              :BK
ГК.гамма                                         :GK
ИК.                                              :IK
НГК.усл.ед                                       :NGK
PSЭ3.                                            :PSэ3
PZЭ3.                                            :PZэ3
U1.                                              :U1
U2.                                              :U2
U3.                                              :U3
W.усл.ед                                         :W
ГЗ1.                                             :ГЗ1
ГЗ2.                                             :ГЗ2
ГЗ3.                                             :ГЗ3
ГЗ4.                                             :ГЗ4
ГЗ5.                                             :ГЗ5
ГЗК.                                             :ГЗК
ННКМ.усл.ед                                      :ННКм
PL.g/cm3                                         :Плотность
ПРОФ_СР.                                         :ПРОФ_СР
IS.                                              :РЕЗ
~ASCII LOG DATA
# ...
57.53       18.964      4.007       27.723      0.841       -9999.25    -9999.25    -9999.25    -9999.25    -9999.25    43.727      0.147       20.084      10.4        19.895      7.468       10.421      1.159       1.542       100.958     1.087       
57.63       17.946      4.279       27.724      0.926       -9999.25    -9999.25    -9999.25    -9999.25    -9999.25    42.557      0.147       20.084      10.4        19.895      7.468       10.421      1.171       1.479       100.97      1.087       
57.73       17.411      4.321       27.899      0.962       -9999.25    -9999.25    -9999.25    -9999.25    -9999.25    42.138      0.147       20.084      10.4        19.895      7.468       10.421      1.181       1.427       101.018     1.087       
57.83       18.745      4.349       27.868      0.895       -9999.25    -9999.25    -9999.25    -9999.25    -9999.25    41.401      0.147       20.084      10.4        19.895      7.468       10.421      1.183       1.392       100.976     1.087       
57.93       19.071      4.441       27.713      0.905       -9999.25    -9999.25    -9999.25    -9999.25    -9999.25    42.25       0.147       20.084      10.4        19.895      7.468       10.421      1.172       1.381       100.986     1.087       
58.03       18.649      4.565       27.684      0.948       -9999.25    -9999.25    -9999.25    -9999.25    -9999.25    42.957      0.147       20.084      10.4        19.895      7.468       10.421      1.114       1.394       101.005     1.088       
58.13       18.833      4.589       27.765      0.924       -9999.25    -9999.25    -9999.25    -9999.25    -9999.25    42.955      0.147       20.084      10.4        19.895      7.468       10.421      1.035       1.427       100.977     1.088       
58.23       19.192      4.455       27.795      0.915       -9999.25    -9999.25    -9999.25    -9999.25    -9999.25    45.937      0.147       20.084      10.4        19.895      7.468       10.421      0.986       1.477       101.008     1.088       
58.33       19.534      4.156       27.838      0.849       -9999.25    -9999.25    -9999.25    -9999.25    -9999.25    49.935      0.147       20.084      10.4        19.895      7.468       10.421      0.956       1.544       100.972     1.088       
58.43       19.328      4.068       27.893      0.735       -9999.25    -9999.25    -9999.25    -9999.25    -9999.25    51.528      0.147       20.084      10.4        19.895      7.468       10.421      0.962       1.619       100.947     1.089       
58.53       18.78       3.916       27.867      0.77        -9999.25    -9999.25    -9999.25    -9999.25    -9999.25    52.988      0.147       20.084      10.4        19.895      7.468       10.421      1.002       1.698       100.973     1.089       
58.63       18.135      3.771       27.809      0.787       -9999.25    -9999.25    -9999.25    -9999.25    -9999.25    47.031      0.147       20.084      10.4        19.895      7.468       10.421      1.021       1.778       100.988     1.089       
58.73       17.683      3.588       33.099      0.853       -9999.25    -9999.25    -9999.25    -9999.25    -9999.25    40.461      0.147       20.084      10.4        19.895      7.468       10.421      1.023       1.856       100.963     1.089       
58.83       17.066      3.687       41.153      0.886       -9999.25    -9999.25    -9999.25    -9999.25    -9999.25    43.336      0.147       20.084      10.4        19.895      7.468       10.421      1.036       1.928       101.021     1.09        
58.93       16.144      3.895       30.57       0.866       -9999.25    -9999.25    -9999.25    -9999.25    -9999.25    47.584      0.147       20.084      10.4        19.895      7.468       10.421      1.077       1.982       101.039     1.09        
59.03       15.598      3.9         28.068      0.844       -9999.25    -9999.25    -9999.25    -9999.25    -9999.25    46.55       0.147       20.084      10.4        19.913      7.468       10.405      1.139       2.01        100.981     1.089       
59.13       15.226      3.593       27.897      0.901       -9999.25    -9999.25    -9999.25    -9999.25    -9999.25    44.368      0.147       20.084      10.4        19.984      7.468       10.345      1.246       2.018       100.985     1.088       
59.23       14.792      3.217       27.895      0.995       -9999.25    -9999.25    -9999.25    -9999.25    -9999.25    44.722      0.147       20.084      10.4        20.077      7.468       10.268      1.352       2.014       101.016     1.087       
59.33       14.486      2.981       32.288      0.993       -9999.25    -9999.25    -9999.25    -9999.25    -9999.25    42.437      0.147       20.084      10.4        20.156      7.468       10.191      1.387       1.998       100.999     1.087       
59.43       14.524      2.849       46.541      1.147       -9999.25    -9999.25    -9999.25    -9999.25    -9999.25    39.797      0.147       20.084      10.4        20.244      7.468       10.114      1.395       1.974       101.028     1.086       
59.53       14.571      2.777       -288.973    1.131       -9999.25    -9999.25    -9999.25    -9999.25    -9999.25    38.021      0.147       20.084      10.4        20.355      7.468       10.036      1.41        1.949       101.062     1.087       
59.63       13.528      2.958       -902.896    1.072       -9999.25    -9999.25    -9999.25    -9999.25    -9999.25    37.165      0.147       20.084      10.4        20.431      7.468       9.975       1.437       1.921       100.987     1.087       
59.73       12.623      3.249       -314.342    1.093       -9999.25    -9999.25    -9999.25    -9999.25    -9999.25    38.966      0.147       20.084      10.4        20.457      7.468       9.957       1.445       1.894       101.02      1.09        
59.83       15.96       3.523       36.754      1.189       -9999.25    -9999.25    -9999.25    -9999.25    -9999.25    40.08       0.147       20.084      10.4        20.46       7.468       9.955       1.418       1.872       101.015     1.09        
59.93       20.449      3.449       48.569      1.231       -9999.25    -9999.25    -9999.25    -9999.25    -9999.25    39.528      0.147       20.084      10.4        20.476      7.468       9.957       1.385       1.859       100.978     1.09        
60.03       20.731      3.322       31.86       1.124       -9999.25    -9999.25    -9999.25    -9999.25    -9999.25    38.827      0.147       20.084      10.4        20.478      7.468       9.956       1.338       1.857       101.041     1.089       
60.13       20.127      3.22        27.777      0.991       -9999.25    -9999.25    -9999.25    -9999.25    -9999.25    38.477      0.147       20.084      10.4        20.458      7.468       9.962       1.293       1.868       101.056     1.089       
60.23       20.896      3.149       31.404      0.944       -9999.25    -9999.25    -9999.25    -9999.25    -9999.25    39.715      0.147       20.084      10.4        20.459      7.468       9.965       1.284       1.885       101.003     1.088       
60.33       22.357      3.23        44.428      0.989       -9999.25    -9999.25    -9999.25    -9999.25    -9999.25    39.566      0.147       20.084      10.4        20.463      7.468       9.967       1.287       1.904       101.014     1.087       
60.43       22.121      3.324       48.734      1.149       -9999.25    -9999.25    -9999.25    -9999.25    -9999.25    37.85       0.147       20.084      10.4        20.467      7.468       9.971       1.309       1.923       101.033     1.088       
60.53       21.842      3.431       32.515      1.099       -9999.25    -9999.25    -9999.25    -9999.25    -9999.25    37.235      0.147       20.084      10.4        20.468      7.468       9.97        1.357       1.941       101.0       1.089       
60.63       21.353      3.385       27.698      1.098       -9999.25    -9999.25    -9999.25    -9999.25    -9999.25    35.528      0.147       20.084      10.4        20.476      7.468       9.972       1.395       1.955       101.063     1.089       
