~Version Information Section
VERS.                                         2.0:CWLS log ASCII Standart – VERSION 2.0
WRAP.                                          NO:One line per depth step
~Well Information Section
STRT.M                                        0.6:Начальная глубина
STOP.M                                      209.2:Конечная глубина
STEP.M                                          0:Шаг квантования по глубине
NULL.                                    -9999.25:Признак "Нет данных"
WELL.                                       107Мх:Скважина
~Parameter Information Section
~Curve Information Section
DEPTH.M                                          :Глубина
PS.mv                                            :PS       (ПС)
PZ.Ohm*M                                         :PZ    (КС)
RS.Ohm*M                                         :RS (Резистивиметр)
U1.mV                                            :U1
U2.mV                                            :U2
U3.mV                                            :U3
КП.%                                             :Кп
BK.Ohm*M                                         :BK     (БК)
DS.mm                                            :DS  (ДС)
GGK.g/cm3                                        :GGKp
ГК.mcr/h                                         :GK          (ГК)
GZ1.Ohm*M                                        :GZ1   ГЗ1(A0.4M0.1N)
GZ2.Ohm*M                                        :GZ2   ГЗ2(A1.0M0.1N)
GZ3.Ohm*M                                        :GZ3   ГЗ3(A2.0M0.5N)
GZ4.Ohm*M                                        :GZ4   ГЗ4(A4.0M0.5N)
GZ5.Ohm*M                                        :GZ5   ГЗ5(A8.0M0.5N)
GZR.Ohm*M                                        :GZK   ГЗK(N0.5M2.0A)
ИК.Ohm*M                                         :IK
НГК.u.e.                                         :NGK
NNKM.                                            :NNKm  (ННКм)
~ASCII LOG DATA
# ...
74.2        1111.485    60.591      0.966       674.514     394.235     393.004     28.015      27.29       153.279     2.313       4.136       90.69       36.994      50.702      14.543      15.17       54.52       9.665       1.193       16.402      
74.3        1111.686    60.591      0.966       655.425     370.229     344.7       27.681      25.351      153.525     2.242       4.215       90.69       36.994      51.142      14.543      15.31       54.52       9.731       1.181       16.384      
74.4        1111.887    60.591      0.966       617.159     363.626     343.524     27.306      25.351      152.858     2.19        4.229       90.69       36.994      51.582      14.543      15.31       55.56       9.731       1.202       16.277      
74.5        1112.113    60.591      0.966       532.348     350.003     375.514     27.289      25.527      152.688     2.195       4.339       90.69       36.994      52.022      14.543      15.31       56.6        9.787       1.24        16.322      
74.6        1112.34     60.591      0.966       468.964     348.287     426.586     27.084      30.974      152.696     2.213       4.071       90.69       38.034      52.022      14.663      15.31       58.68       9.787       1.305       16.541      
74.7        1112.566    61.343      0.966       460.052     367.332     476.614     26.975      30.974      152.852     2.232       3.978       90.69       38.554      52.462      14.663      15.31       59.72       9.83        1.321       16.855      
74.8        1112.818    62.471      0.966       448.158     370.604     497.179     28.008      35.237      153.409     2.238       3.611       90.69       38.554      52.462      14.663      15.45       59.72       9.802       1.3         17.31       
74.9        1113.094    63.599      0.966       436.829     364.116     494.035     29.283      35.237      153.145     2.262       3.597       90.69       38.554      52.462      14.663      15.59       59.72       9.76        1.285       17.599      
75.0        1113.396    64.727      0.966       506.014     412.94      517.182     30.691      31.915      152.785     2.304       3.682       90.69       38.554      52.462      14.783      15.73       59.72       9.76        1.232       17.664      
75.1        1113.698    66.607      0.966       661.62      511.214     562.784     31.112      31.915      152.762     2.347       3.755       91.53       39.074      52.462      14.783      16.01       59.72       9.691       1.227       17.713      
75.2        1113.999    67.735      0.966       848.87      568.918     564.545     31.939      30.339      152.245     2.346       3.784       92.37       39.074      52.462      14.783      16.15       59.72       9.691       1.172       17.213      
75.3        1114.351    68.487      0.966       1043.678    580.681     525.172     33.261      27.925      152.501     2.366       3.882       93.21       39.074      52.462      14.783      16.71       59.72       9.678       1.171       16.713      
75.4        1114.753    69.239      0.966       1190.03     605.329     513.481     34.248      27.925      153.318     2.373       4.125       93.63       39.074      52.462      14.903      16.57       59.72       9.611       1.144       16.436      
75.5        1115.206    69.991      0.966       1241.055    614.146     502.233     34.09       21.184      152.009     2.392       4.285       93.63       39.074      52.902      14.903      16.29       59.72       9.611       1.127       16.159      
75.6        1115.709    69.991      0.966       1194.678    577.696     469.018     33.228      19.815      152.67      2.334       4.473       94.89       39.074      52.902      15.023      16.29       59.72       9.597       1.128       15.828      
75.7        1116.262    69.991      0.966       1074.26     563.964     484.746     32.919      19.815      152.424     2.322       4.525       95.31       39.074      52.902      15.023      16.29       60.76       9.597       1.121       15.166      
75.8        1116.865    69.615      0.966       898.053     573.724     545.552     33.122      19.454      151.941     2.293       4.719       95.31       39.074      52.902      15.023      16.29       61.8        9.637       1.102       14.491      
75.9        1117.494    69.239      0.966       720.478     533.064     556.616     32.669      19.454      151.999     2.344       4.97        96.57       39.074      53.342      15.023      16.29       62.84       9.637       1.132       13.919      
76.0        1118.123    68.863      0.966       572.787     449.213     515.263     31.843      18.323      152.142     2.34        5.224       96.57       39.074      53.782      15.143      16.29       63.88       9.624       1.149       13.871      
76.1        1118.751    68.487      0.966       533.416     426.769     504.941     32.834      20.37       152.862     2.342       5.175       96.99       39.074      53.782      15.143      16.29       63.88       9.692       1.148       14.323      
76.2        1119.354    68.111      0.966       605.555     478.614     536.827     34.481      20.37       152.745     2.298       4.719       96.99       39.074      53.782      15.143      16.29       64.92       9.692       1.102       14.578      
76.3        1119.908    68.111      0.966       722.792     556.461     579.016     35.635      22.909      153.44      2.292       4.412       96.99       39.074      53.782      15.143      16.29       64.92       9.76        1.078       14.496      
76.4        1120.411    68.111      0.966       863.036     655.366     640.118     34.994      22.909      153.567     2.29        4.702       96.99       39.074      53.782      15.143      16.29       65.96       9.83        1.093       14.43       
76.5        1120.863    68.487      0.966       999.642     757.54      709.925     33.055      19.77       153.25      2.259       5.093       96.99       39.594      54.222      15.143      16.43       67.0        9.83        1.102       14.155      
76.6        1121.291    69.239      0.966       1026.228    780.594     727.985     30.504      17.947      152.996     2.233       5.345       96.99       40.634      54.222      15.143      16.57       67.0        9.928       1.086       13.869      
76.7        1121.693    70.367      0.966       941.938     724.242     694.786     28.49       17.947      153.226     2.232       5.434       96.99       41.154      54.662      15.143      16.57       67.0        9.928       1.05        13.814      
76.8        1122.045    71.871      0.966       849.453     669.618     672.816     29.136      19.409      152.674     2.281       5.598       96.99       41.154      54.662      15.263      16.71       67.0        10.088      1.047       13.77       
76.9        1122.347    73.751      0.966       767.775     631.285     673.691     30.885      19.409      152.363     2.323       5.579       96.99       42.194      54.662      15.263      16.71       67.0        10.267      1.068       14.138      
77.0        1122.598    75.631      0.966       681.361     594.03      686.418     31.857      22.284      152.355     2.359       5.368       97.41       42.714      54.662      15.263      16.85       67.0        10.267      1.1         14.505      
77.1        1122.799    77.135      0.966       621.888     570.431     710.15      31.466      25.882      153.094     2.365       5.051       97.41       43.754      55.102      15.383      17.13       67.0        10.36       1.146       14.825      
77.2        1122.95     78.263      0.966       628.41      557.174     712.283     31.573      25.882      153.285     2.346       4.65        97.41       44.274      55.102      15.383      17.27       67.0        10.36       1.219       15.252      
77.3        1123.025    79.015      0.966       672.833     523.01      659.557     32.193      31.477      153.068     2.321       4.504       97.83       44.794      55.102      15.383      17.27       67.0        10.486      1.232       15.298      
