~Version Information Section
VERS.                                         2.0:CWLS log ASCII Standart – VERSION 2.0
WRAP.                                          NO:One line per depth step
~Well Information Section
STRT.M                                        2.1:Начальная глубина
STOP.M                                      196.8:Конечная глубина
STEP.M                                          0:Шаг квантования по глубине
NULL.                                    -9999.25:Признак "Нет данных"
WELL.                                       154Мх:Скважина
~Parameter Information Section
~Curve Information Section
DEPTH.M                                          :Глубина
BK.lgОмм                                         :BK     (БК)
DСР.мм                                           :DS  (ДС)
ГГКП.g/cm3                                       :GGKp
ГК.мкР/час                                       :GK          (ГК)
ГЗ1.Омм                                          :GZ1   ГЗ1(A0.4M0.1N)
ГЗ2.Омм                                          :GZ2   ГЗ2(A1.0M0.1N)
ГЗ3.Омм                                          :GZ3   ГЗ3(A2.0M0.5N)
ГЗ4.Oмм                                          :GZ4   ГЗ4(A4.0M0.5N)
ГЗ5.Oмм                                          :GZ5   ГЗ5(A8.0M0.5N)
ГЗК.Омм                                          :GZR   ГЗK(N0.5M2.0A)
ИК.мСм/м                                         :IK
НГК.усл.ед.                                      :NGK     (НГК)
РЕЗ.Омм                                          :RS (Резистивиметр)
W.                                               :W
ННКМ.усл.ед                                      :NNKm  (ННКм)
PS.мB                                            :PS       (ПС)
~ASCII LOG DATA
# ...
50.1        188.728     150.585     2.504       3.045       122.61      83.794      84.582      23.663      30.01       119.0       28.664      1.943       0.949       16.107      1.887       39.108      
50.2        139.522     150.952     2.452       3.182       123.03      83.794      85.902      24.263      30.15       119.0       28.063      1.815       0.949       17.447      1.831       39.123      
50.3        86.235      151.605     2.381       3.281       123.45      83.794      86.342      24.983      30.29       120.04      27.445      1.714       0.949       19.036      1.739       39.246      
50.4        47.303      152.202     2.323       3.462       123.45      83.274      88.982      25.343      30.43       123.16      26.618      1.667       0.949       20.244      1.648       39.476      
50.5        31.389      152.937     2.265       3.799       123.87      83.274      90.742      26.063      30.57       124.2       26.038      1.62        0.949       21.065      1.563       39.707      
50.6        36.653      154.056     2.275       3.921       124.29      82.754      93.382      25.943      30.57       125.24      25.624      1.599       0.949       21.323      1.491       39.937      
50.7        52.549      154.5       2.314       3.957       125.13      82.234      96.462      25.823      28.61       136.68      25.559      1.492       0.949       21.817      1.464       40.168      
50.8        57.114      153.798     2.342       3.817       125.55      81.714      99.102      25.703      27.35       146.04      25.126      1.355       0.949       22.4        1.457       40.398      
50.9        48.088      153.535     2.383       3.538       125.97      79.634      98.222      25.463      26.93       150.2       24.472      1.22        0.949       24.327      1.418       40.629      
51.0        31.364      153.622     2.382       3.234       126.81      79.114      96.022      25.343      26.09       150.2       24.159      1.117       0.949       27.164      1.366       40.859      
51.1        23.739      153.586     2.347       2.961       132.27      77.554      94.262      25.103      26.09       150.2       23.604      1.025       0.949       30.276      1.304       41.09       
51.2        24.853      153.775     2.3         2.713       132.69      77.034      92.502      24.983      26.09       149.16      23.026      0.99        0.949       33.233      1.235       41.32       
51.3        25.641      154.247     2.294       2.697       133.53      76.514      91.182      24.743      26.09       148.12      22.699      0.976       0.949       35.558      1.187       41.551      
51.4        26.962      155.285     2.263       2.675       133.11      76.514      91.182      24.503      26.09       146.04      22.558      0.983       0.949       35.905      1.176       41.781      
51.5        29.663      156.075     2.286       2.505       132.69      76.514      90.742      24.143      26.09       143.96      22.47       1.023       0.949       34.435      1.191       42.012      
51.6        37.592      155.478     2.337       2.485       132.27      76.514      88.542      24.023      26.09       143.96      22.515      1.056       0.949       32.756      1.221       42.242      
51.7        44.833      155.083     2.38        2.646       131.01      76.514      88.542      23.543      26.09       142.92      22.604      1.05        0.949       31.773      1.258       42.473      
51.8        47.149      154.951     2.424       2.731       129.75      76.514      87.662      23.303      25.81       140.84      22.745      1.055       0.949       31.808      1.297       42.703      
51.9        44.189      156.249     2.44        2.931       129.33      76.514      87.222      23.063      25.81       138.76      22.789      1.061       0.95        32.27       1.328       42.934      
52.0        40.264      156.148     2.439       3.149       128.07      76.514      86.782      22.943      25.81       137.72      22.696      1.041       0.952       32.939      1.342       43.164      
52.1        38.028      154.444     2.405       3.303       126.39      76.514      86.342      22.943      25.67       134.6       22.65       1.016       0.954       34.102      1.334       43.395      
52.2        35.78       153.634     2.362       3.187       125.55      76.514      85.902      22.823      25.53       132.52      22.419      1.015       0.956       34.734      1.304       43.625      
52.3        32.685      152.936     2.307       2.966       123.03      74.954      85.902      22.703      25.39       131.48      22.242      1.012       0.957       34.419      1.263       43.86       
52.4        30.259      152.151     2.291       2.614       122.61      74.434      85.462      22.703      25.25       128.36      21.978      1.003       0.957       34.291      1.223       44.1        
52.5        27.287      151.822     2.239       2.296       122.61      73.914      85.022      22.703      24.97       127.32      21.803      0.996       0.957       34.521      1.187       44.344      
52.6        27.934      151.86      2.222       1.974       122.61      73.914      85.022      22.703      24.83       126.28      21.424      1.02        0.957       34.665      1.165       44.592      
52.7        33.696      151.611     2.236       1.771       122.61      72.874      85.022      22.703      24.69       126.28      21.381      1.029       0.957       34.749      1.161       44.845      
52.8        37.227      151.222     2.259       1.69        122.61      71.314      84.582      22.823      24.69       126.28      21.34       1.036       0.957       35.089      1.171       45.103      
52.9        37.567      151.082     2.263       1.817       122.61      70.794      84.142      22.823      24.69       126.28      21.258      1.036       0.957       35.114      1.188       45.365      
53.0        34.698      151.192     2.3         1.916       122.19      69.754      84.142      22.823      24.69       127.32      21.176      1.025       0.958       35.139      1.206       45.627      
53.1        35.69       152.221     2.32        2.205       122.19      69.754      84.142      22.823      24.69       128.36      21.175      1.002       0.959       35.234      1.221       45.889      
53.2        37.109      159.317     2.337       2.556       121.77      69.754      84.582      22.823      24.69       128.36      20.893      1.029       0.96        35.226      1.238       46.151      
53.3        35.613      175.12      2.34        2.976       121.35      69.234      84.582      22.823      24.69       128.36      20.695      1.051       0.963       34.993      1.254       46.413      
53.4        31.263      182.012     2.31        3.28        120.93      68.194      85.022      22.823      24.69       127.32      20.271      1.05        0.965       35.077      1.26        46.675      
53.5        25.954      171.491     2.283       3.477       120.93      67.674      85.902      22.823      24.69       126.28      19.681      1.065       0.967       35.366      1.26        46.937      
53.6        23.124      160.786     2.272       3.345       119.67      67.154      85.902      22.583      24.41       124.2       19.26       1.093       0.969       35.673      1.254       47.198      
53.7        27.01       156.618     2.269       3.164       118.83      66.114      85.902      22.463      24.27       124.2       19.016      1.075       0.971       36.02       1.235       47.46       
53.8        36.142      157.035     2.275       2.925       117.57      66.114      86.782      22.343      24.27       123.16      18.784      1.048       0.973       36.242      1.215       47.722      
53.9        44.487      158.863     2.318       2.76        117.15      66.114      86.342      22.223      24.27       123.16      18.555      1.031       0.974       35.83       1.21        47.984      
54.0        46.187      162.808     2.334       3.085       117.15      66.114      85.462      22.103      24.41       124.2       18.429      1.012       0.975       35.173      1.211       48.246      
