~Version Information Section
VERS.                                         2.0:CWLS log ASCII Standart – VERSION 2.0
WRAP.                                          NO:One line per depth step
~Well Information Section
STRT.M                                       -0.1:Начальная глубина
STOP.M                                      197.8:Конечная глубина
STEP.M                                          0:Шаг квантования по глубине
NULL.                                    -9999.25:Признак "Нет данных"
WELL.                                       134Мх:Скважина
~Parameter Information Section
~Curve Information Section
DEPTH.M                                          :Глубина
BK.Ohm*M                                         :BK     (БК)
DS.mm                                            :DS  (ДС)
GGK.g/cm3                                        :GGKp
ГК.mcr/h                                         :GK          (ГК)
GZ1.Ohm*M                                        :GZ1   ГЗ1(A0.4M0.1N)
GZ2.Ohm*M                                        :GZ2   ГЗ2(A1.0M0.1N)
GZ3.Ohm*M                                        :GZ3   ГЗ3(A2.0M0.5N)
GZ4.Ohm*M                                        :GZ4   ГЗ4(A4.0M0.5N)
GZ5.Ohm*M                                        :GZ5   ГЗ5(A8.0M0.5N)
GZR.Ohm*M                                        :GZK   ГЗK(N0.5M2.0A)
ИК.Ohm*M                                         :IK
КП.%                                             :Кп
НГК.ue                                           :NGK     (НГК)
NNKM.                                            :NNKm  (ННКм)
PS.mv                                            :PS       (ПС)
PZ.Ohm*M                                         :PZ    (КС)
RS.Ohm*M                                         :RS (Резистивиметр)
U1.mV                                            :U1
U2.mV                                            :U2
U3.mV                                            :U3
~ASCII LOG DATA
# ...
99.1        19.464      144.484     2.257       5.591       17.181      16.231      17.133      12.757      11.084      21.257      15.215      44.72       0.96        1.766       403.941     36.265      1.06        851.543     685.407     809.268     
99.2        19.651      145.468     2.258       5.689       17.843      16.434      17.279      12.911      11.083      21.224      15.361      41.782      0.993       1.77        403.88      34.606      1.06        870.439     658.945     611.384     
99.3        18.657      146.559     2.255       5.604       18.91       16.767      17.384      12.963      11.068      21.052      15.565      39.499      1.056       1.753       403.781     33.094      1.06        810.641     624.911     425.759     
99.4        19.463      145.833     2.258       5.146       20.149      17.066      17.417      12.963      11.017      20.655      15.835      36.886      1.095       1.789       403.635     31.779      1.06        741.332     528.705     497.345     
99.5        26.122      144.782     2.272       4.364       21.144      17.185      17.417      12.931      10.913      20.019      16.107      33.165      1.117       1.881       403.432     30.688      1.06        693.52      450.439     627.85      
99.6        35.313      144.742     2.29        3.489       21.592      17.187      17.39       12.745      10.74       19.276      16.341      31.675      1.075       1.993       403.163     29.831      1.06        621.595     445.39      532.965     
99.7        38.649      145.124     2.309       3.133       21.674      17.187      17.279      12.37       10.52       18.615      16.498      33.285      1.096       2.074       402.824     29.197      1.06        568.043     449.573     351.619     
99.8        32.856      147.182     2.321       3.282       21.674      17.189      17.068      11.934      10.299      18.198      16.456      36.261      1.064       2.064       402.403     28.759      1.06        552.857     417.664     344.643     
99.9        24.165      148.647     2.324       3.933       21.53       17.194      16.906      11.597      10.127      18.077      16.294      36.972      1.076       1.997       401.902     28.479      1.06        508.816     389.323     450.66      
100.0       19.726      145.466     2.316       4.52        21.145      17.212      16.87       11.473      10.028      18.077      16.149      36.785      1.016       1.929       401.336     28.316      1.06        440.613     390.098     463.829     
100.1       18.574      142.514     2.307       5.11        20.624      17.249      16.87       11.473      9.994       18.077      16.03       37.294      1.012       1.887       400.728     28.232      1.06        402.744     378.854     368.278     
100.2       18.462      142.391     2.294       5.392       20.332      17.41       16.87       11.473      9.99        18.172      15.961      39.357      0.975       1.866       400.112     28.193      1.06        412.101     351.937     278.682     
100.3       18.046      142.432     2.277       5.625       20.319      17.793      16.986      11.503      9.99        18.506      15.959      41.528      0.994       1.818       399.538     28.175      1.06        458.579     348.207     246.608     
100.4       17.59       142.378     2.261       5.705       20.319      18.455      17.393      11.735      10.005      18.991      16.079      42.538      1.003       1.76        399.042     28.161      1.06        519.506     375.573     252.705     
100.5       18.53       142.134     2.249       5.812       20.319      19.409      18.104      12.27       10.06       19.417      16.22       40.977      1.025       1.761       398.648     28.137      1.06        565.573     416.434     295.867     
100.6       20.802      142.009     2.242       5.885       20.569      20.456      19.029      13.016      10.156      19.653      16.383      39.191      1.009       1.818       398.365     28.094      1.06        623.047     438.99      363.785     
100.7       22.939      141.937     2.237       5.733       21.2        21.377      20.017      13.83       10.28       19.71       16.592      37.169      1.035       1.894       398.184     28.023      1.06        656.174     438.389     364.999     
100.8       24.452      141.854     2.235       5.462       21.963      22.076      20.872      14.556      10.417      19.71       16.767      36.245      1.079       1.974       398.082     27.921      1.06        622.18      426.392     363.482     
100.9       25.775      141.768     2.238       5.289       22.745      22.529      21.489      15.097      10.561      19.665      16.855      35.871      1.154       2.039       398.032     27.79       1.06        539.716     406.326     451.364     
101.0       26.624      141.669     2.243       5.082       23.472      22.755      21.896      15.462      10.707      19.507      16.87       35.714      1.162       2.061       398.018     27.639      1.06        491.869     377.492     711.303     
101.1       26.112      141.555     2.252       5.069       23.9        22.819      22.155      15.704      10.859      19.271      16.801      35.061      1.14        2.042       398.018     27.483      1.06        463.761     369.585     836.882     
101.2       25.411      141.438     2.265       5.065       24.003      22.819      22.277      15.839      11.024      19.065      16.629      33.816      1.09        2.029       398.018     27.339      1.06        433.807     385.946     687.975     
101.3       25.989      141.322     2.28        5.049       24.003      22.799      22.301      15.897      11.202      18.919      16.417      32.0        1.104       2.025       398.018     27.219      1.06        486.966     419.079     452.254     
101.4       25.499      141.197     2.291       4.933       23.966      22.67       22.301      15.931      11.372      18.792      16.175      32.633      1.092       2.01        398.029     27.128      1.06        677.803     479.198     346.082     
101.5       22.325      141.107     2.295       4.7         23.839      22.375      22.295      15.946      11.497      18.688      15.913      34.845      1.081       1.981       398.066     27.068      1.06        844.839     544.231     391.965     
101.6       19.318      141.049     2.292       4.663       23.573      21.989      22.266      15.958      11.563      18.649      15.667      36.822      1.054       1.942       398.138     27.032      1.06        840.201     574.293     458.184     
101.7       19.667      140.927     2.287       4.856       23.154      21.588      22.153      15.947      11.581      18.649      15.506      36.581      1.076       1.927       398.259     27.013      1.06        791.016     571.101     641.704     
101.8       22.693      140.782     2.291       5.147       22.712      21.161      21.912      15.872      11.575      18.649      15.382      35.015      1.115       1.973       398.44      27.004      1.06        781.146     541.197     847.936     
101.9       24.297      140.688     2.302       5.104       22.334      20.714      21.567      15.789      11.524      18.64       15.287      34.817      1.15        2.014       398.683     27.001      1.06        711.762     473.433     824.574     
102.0       24.36       140.629     2.321       4.935       21.966      20.311      21.125      15.719      11.377      18.652      15.155      37.02       1.14        2.008       398.984     27.0        1.06        580.917     390.587     550.781     
102.1       24.458      140.602     2.337       4.833       21.567      19.95       20.621      15.628      11.132      18.727      14.954      39.294      1.088       1.983       399.323     27.0        1.06        535.854     335.469     264.542     
102.2       23.167      140.561     2.344       4.869       21.122      19.589      20.137      15.514      10.815      18.843      14.707      40.869      1.025       1.949       399.677     27.0        1.06        547.152     317.073     170.335     
