~Version Information Section
VERS.                                         2.0:CWLS log ASCII Standart – VERSION 2.0
WRAP.                                          NO:One line per depth step
~Well Information Section
STRT.M                                        1.0:Начальная глубина
STOP.M                                      199.5:Конечная глубина
STEP.M                                          0:Шаг квантования по глубине
NULL.                                    -9999.25:Признак "Нет данных"
WELL.                                       122Мх:Скважина
~Parameter Information Section
~Curve Information Section
DEPTH.M                                          :Глубина
БК.Омм                                           :BK     (БК)
DСР.мм                                           :DS  (ДС)
ГК.гамма                                         :GK          (ГК)
А0.4М0.1N.Омм.ohmm                               :GZ1   ГЗ1(A0.4M0.1N)
А1.0М0.1N.Омм.ohmm                               :GZ2   ГЗ2(A1.0M0.1N)
А2.0М0.5N.Омм.ohmm                               :GZ3   ГЗ3(A2.0M0.5N)
А4.0М0.5N.Oмм.ohmm                               :GZ4   ГЗ4(A4.0M0.5N)
А8.0М1.0N.Омм.ohmm                               :GZ5   ГЗ5(A8.0M0.5N)
N0.5M2.0A.Омм.ohmm                               :GZK   ГЗK(N0.5M2.0A)
ИК.мСм/м                                         :IK
НГК.усл.ед                                       :NGK     (НГК)
ПС.mv                                            :PS       (ПС)
КС.Омм                                           :PZ    (КС)
R.Омм                                            :RS (Резистивиметр)
ПЛОТНОСТЬ.г/см3                                  :ГГКп
П.                                               :п
ННКМ.усл.ед                                      :ННКм
~ASCII LOG DATA
# ...
178.6       102.972     127.856     5.534       167.169     270.429     197.146     146.892     27.175      163.002     67.742      1.357       19.125      196.675     1.395       2.341       27.414      153.25      
178.7       97.386      127.997     5.59        171.219     277.529     197.035     147.792     26.592      158.409     66.693      1.361       18.5        193.566     1.387       2.35        27.131      153.443     
178.8       101.029     128.06      5.441       178.249     282.676     197.094     149.245     26.004      152.33      66.765      1.379       18.25       188.984     1.375       2.35        27.336      153.197     
178.9       116.013     128.467     5.321       182.336     281.507     196.306     149.52      25.527      146.179     66.405      1.407       17.625      184.557     1.369       2.344       27.96       152.381     
179.0       133.053     128.748     5.432       178.195     272.9       194.274     148.176     25.162      142.365     66.716      1.434       16.625      181.193     1.375       2.337       28.737      152.616     
179.1       134.185     129.08      5.583       170.011     260.154     189.436     145.609     24.758      141.449     66.45       1.443       16.125      179.284     1.377       2.333       29.44       152.268     
179.2       125.474     129.83      5.487       164.974     253.012     180.679     141.646     24.403      142.203     66.37       1.415       16.0        179.598     1.373       2.334       30.186      152.109     
179.3       125.474     130.003     5.296       159.85      248.226     174.334     137.833     24.262      144.111     66.269      1.36        16.0        179.496     1.364       2.335       30.866      150.561     
179.4       123.008     128.827     5.307       151.532     236.058     173.574     135.194     24.098      145.998     65.3        1.328       16.0        179.167     1.354       2.337       31.338      149.428     
179.5       110.086     128.503     5.505       147.803     230.13      174.328     133.028     23.924      149.665     64.998      1.344       16.0        178.722     1.344       2.335       31.658      149.42      
179.6       97.767      128.133     5.608       150.437     233.057     176.764     131.949     23.78       154.632     65.781      1.38        16.063      177.648     1.338       2.331       31.986      149.498     
179.7       101.212     128.151     5.544       155.9       235.866     179.414     131.893     23.823      156.819     65.738      1.399       16.125      185.308     1.333       2.327       32.354      150.95      
179.8       119.056     128.64      5.407       164.212     238.878     177.059     130.039     23.848      156.202     66.331      1.409       16.438      202.477     1.332       2.327       32.585      151.677     
179.9       130.53      129.236     5.265       176.505     233.069     172.052     126.128     23.942      156.639     67.363      1.44        16.875      214.62      1.339       2.33        32.88       151.035     
180.0       130.141     130.18      5.173       183.749     213.54      168.476     121.57      24.169      159.281     68.672      1.483       17.375      219.921     1.342       2.333       33.236      151.316     
180.1       117.735     130.873     5.149       182.79      202.832     166.018     116.063     24.337      162.814     69.233      1.519       18.125      221.038     1.345       2.336       33.81       152.784     
180.2       99.179      129.169     5.128       189.928     210.994     164.439     112.092     24.284      165.642     69.764      1.534       19.0        217.156     1.342       2.336       33.933      152.106     
180.3       71.255      129.092     4.984       203.194     223.224     166.034     112.022     24.047      167.705     70.418      1.532       20.125      206.993     1.334       2.341       33.722      152.05      
180.4       63.367      129.986     4.892       213.249     233.211     168.696     114.726     23.795      169.94      71.21       1.522       20.5        193.754     1.327       2.355       32.995      153.027     
180.5       93.358      131.249     5.016       218.651     238.156     168.757     116.981     23.826      171.192     75.546      1.523       20.0        183.487     1.329       2.384       31.782      152.728     
180.6       121.514     133.024     5.262       218.953     237.912     165.266     114.973     24.151      176.894     77.477      1.543       19.75       181.052     1.337       2.419       30.341      151.877     
180.7       128.646     131.967     5.354       213.694     225.111     158.67      108.004     24.465      189.857     77.477      1.575       20.0        186.959     1.342       2.451       28.731      152.899     
180.8       129.334     134.251     5.249       185.006     185.606     147.48      98.495      24.721      210.239     78.088      1.607       20.25       194.424     1.34        2.473       27.1        155.824     
180.9       121.215     141.331     5.166       154.416     160.268     136.913     89.57       24.957      230.77      79.158      1.628       20.875      204.303     1.336       2.482       25.718      158.71      
181.0       121.75      147.102     5.173       152.745     164.613     130.567     83.559      25.448      248.69      79.624      1.644       22.125      217.343     1.325       2.485       24.406      162.025     
181.1       136.432     147.603     5.065       163.186     167.283     127.962     80.932      26.156      265.774     82.679      1.662       23.75       230.037     1.31        2.485       23.639      166.114     
181.2       171.823     147.179     4.757       174.995     168.421     129.381     80.346      27.42       278.338     82.495      1.699       24.5        243.545     1.301       2.491       23.54       167.119     
181.3       225.175     138.485     4.498       182.11      162.521     130.094     80.173      29.423      298.604     84.076      1.747       24.125      258.538     1.328       2.499       23.409      167.143     
181.4       232.907     128.114     4.486       187.163     156.434     130.814     81.21       32.905      327.593     84.846      1.795       24.125      278.428     1.348       2.509       23.101      168.088     
181.5       218.453     128.285     4.681       195.541     159.728     132.176     82.891      40.704      348.964     86.79       1.825       24.875      296.287     1.354       2.522       22.745      167.486     
181.6       232.554     130.074     4.932       200.577     164.783     133.832     85.452      46.482      361.752     87.413      1.821       26.125      308.981     1.359       2.538       22.349      167.535     
181.7       212.767     134.828     5.084       204.321     171.456     136.045     89.734      51.412      370.118     88.849      1.79        27.375      321.027     1.362       2.558       21.851      168.075     
181.8       160.881     142.581     5.127       211.32      182.932     139.038     95.987      59.394      375.355     90.001      1.767       29.125      324.135     1.369       2.571       21.089      171.445     
181.9       134.535     146.679     5.047       218.363     199.967     143.5       106.183     66.297      379.758     91.912      1.781       32.375      319.034     1.383       2.574       20.378      175.407     
182.0       134.557     148.439     5.009       243.51      235.14      151.849     117.829     73.51       388.189     92.533      1.83        36.0        309.932     1.406       2.563       20.073      180.264     
182.1       171.551     149.835     5.084       276.055     273.883     161.358     125.323     81.786      410.99      93.214      1.899       37.5        302.707     1.422       2.54        20.193      185.432     
182.2       249.729     150.577     5.181       276.968     288.013     168.267     126.831     88.246      588.906     93.976      1.968       38.125      306.575     1.428       2.515       20.45       189.277     
