~Version Information Section
VERS.                                         2.0:CWLS log ASCII Standart – VERSION 2.0
WRAP.                                          NO:One line per depth step
~Well Information Section
STRT.M                                       -0.3:Начальная глубина
STOP.M                                      200.8:Конечная глубина
STEP.M                                          0:Шаг квантования по глубине
NULL.                                    -9999.25:Признак "Нет данных"
WELL.                                       124Мх:Скважина
~Parameter Information Section
~Curve Information Section
DEPTH.M                                          :Глубина
U1.мВ                                            :U1
U2.                                              :U2
U3.мВ                                            :U3
БЗ.имп/мин                                       :БЗ
ГГКП.имп/мин                                     :ГГКп
ГЗ1.Омм                                          :ГЗ1
ГЗ2.Омм                                          :ГЗ2
ГЗ3.Омм                                          :ГЗ3
ГЗ4.Oмм                                          :ГЗ4
ГЗ5.Oмм                                          :ГЗ5
ГЗК.Омм                                          :ГЗК
КП.%                                             :Кп
МЗ.                                              :МЗ жесткий
НГК.усл.ед                                       :ННКб
ННКМ.усл.ед                                      :ННКм
ПРОФ_СР.мм                                       :ПРОФ_СР
ПС.мВ                                            :ПС
BK.lgОмм                                         :BK
ГК.имп/мин                                       :GK
ИК.мСм/м                                         :IK
PZ.Омм                                           :PZ
RIS.Омм                                          :RIS
~ASCII LOG DATA
# ...
109.9       1651.136597 3529.520264 1398.140259 16671.6660162.350434    12.389      15.145      29.16       29.912001   28.24       24.320999   23.711845   24668.3339843.540038    2.349076    150.013     555.632019  52.966343   4.858       31.758129   69.760002   1.06        
110.0       1603.80835  3566.415039 1480.653687 17265.7148442.364111    12.435      14.876      29.379999   29.76       28.048      23.798      23.141491   24971.4277343.671829    2.366529    150.641006  557.47998   52.360043   5.258       31.868448   70.32       1.06        
110.1       1500.379272 3524.604492 1474.324219 17820.0     2.384137    12.467      14.468      29.6        29.664      27.832001   23.406      22.483955   24754.6660163.684235    2.411427    151.216995  558.711975  50.699078   5.306       32.020493   70.879997   1.06        
110.2       1395.178833 3441.240967 1408.188232 18571.4277342.410987    12.492      13.897      29.9        29.624001   27.624001   23.406      21.821703   25200.0     3.71028     2.422215    151.488998  560.559998  48.305882   5.146       32.203007   71.360001   1.06        
110.3       1337.371704 3396.874756 1379.181396 18934.6660162.446427    12.538      13.246      30.18       29.608      27.455999   23.406      19.107376   25629.3339844.246476    2.404721    151.417007  561.791992  47.424198   4.813       32.203007   71.599998   1.06        
110.4       1338.442383 3413.802246 1415.018677 19129.3339842.491264    12.699      12.644      30.440001   29.608      27.455999   23.406      16.660454   26157.3339845.10494     2.487334    151.557007  563.023987  46.88134    4.147       32.54467    71.919998   1.06        
110.5       1360.093628 3430.442871 1430.964722 19376.0     2.537598    13.105      12.307      30.700001   29.608      27.455999   24.355      14.724436   26696.0     5.900977    2.66071     151.835007  564.255981  49.659229   3.903       32.315399   72.32       1.06        
110.6       1387.668823 3421.800049 1391.789185 19400.0     2.573441    13.834      12.307      30.959999   29.608      27.455999   25.462      13.602384   26882.6660166.689291    2.91552     152.322006  565.487976  55.462566   3.763       32.429626   72.800003   1.06        
110.7       1397.769043 3392.933838 1328.677368 19277.3339842.59401     14.959      12.307      31.26       29.608      27.591999   26.739      13.141703   26124.0     7.716426    3.25604     153.072006  566.719971  87.902252   3.661       32.54467    73.279999   1.06        
110.8       1374.807739 3363.791016 1295.015015 18314.6660162.593774    16.466999   12.307      31.6        29.632      28.048      28.108999   14.670289   25065.3339847.256835    3.512029    153.266006  568.567993  228.034225  3.149       32.393909   73.839996   1.06        
110.9       1316.95105  3342.198242 1307.86499  16600.0     2.572565    18.24       12.313      31.959999   29.695999   28.888      29.719999   16.659647   24146.6660166.202689    3.53192     152.865005  569.799988  369.828247  3.264       32.473858   74.480003   1.06        
111.0       1280.964355 3349.246338 1356.152954 15245.3330082.542018    20.089001   12.776      32.32       29.872      30.112      30.360001   18.123816   23077.3339845.402619    3.412829    152.087006  571.64801   467.735229  3.379       32.237267   75.120003   1.06        
111.1       1297.024536 3397.091553 1435.820313 14051.0     2.507389    21.898001   13.703      32.759998   30.167999   31.728001   31.040001   19.133783   22472.0     4.672285    3.115775    151.348999  574.112     351.560455  3.661       32.014343   75.599998   1.06        
111.2       1329.648804 3445.387695 1501.967407 14108.6953132.479559    23.466      15.011      33.18       30.648001   33.279999   31.639999   19.560137   23705.2167974.189887    2.797642    150.884995  575.960022  216.770386  3.802       31.868448   76.160004   1.06        
111.3       1323.834961 3443.375977 1507.091675 15250.5878912.466785    24.273001   16.556      33.459999   31.32       34.768002   32.119999   19.304628   25408.2343754.100568    2.648173    151.468994  577.192017  147.570618  4.128       31.220732   76.639999   1.06        
111.4       1286.107666 3397.650879 1454.443359 15812.0     2.462333    24.273001   18.231001   33.48       32.152      36.015999   32.360001   19.144857   25968.0     4.377513    2.568119    151.992996  578.424011  128.824921  4.634       30.976055   76.879997   1.06        
111.5       1268.646362 3362.628906 1398.538696 16166.6669922.462171    24.273001   19.865      33.48       33.104      36.952      32.360001   19.506575   25662.6660164.346188    2.56015     152.479004  579.039978  93.756203   5.645       29.741545   77.199997   1.06        
111.6       1293.080566 3362.905762 1366.751953 15401.4287112.462849    24.257      21.049999   33.48       34.175999   37.335999   32.360001   20.030718   23954.2851564.139182    2.568832    152.766006  579.656006  76.913048   5.579       28.719128   77.68       1.06        
111.7       1327.450806 3372.422119 1344.049805 15171.4287112.459357    23.464001   21.690001   33.32       35.287998   37.344002   32.360001   20.688213   23135.7148444.030023    2.582438    152.613998  580.271973  51.404362   5.53        28.282141   78.080002   1.06        
111.8       1350.00061  3373.502441 1320.435669 14501.4287112.449398    21.966999   21.739      32.919998   36.416      37.344002   32.279999   21.371216   22777.1425783.859143    2.484776    152.688995  580.888     46.025658   5.227       27.197561   78.480003   1.06        
111.9       1362.932373 3367.541748 1297.513306 14042.6669922.438727    19.959999   21.739      32.360001   37.568001   37.344002   32.200001   21.779137   22464.0     3.871238    2.370219    153.819     582.736023  43.853065   5.184       26.239143   78.959999   1.06        
112.0       1374.786011 3360.494873 1277.107666 14434.2861332.430022    17.985001   21.739      31.799999   38.712002   37.015999   31.639999   22.653721   23417.1425783.821212    2.3825      152.130997  585.200012  23.173946   5.702       25.65484    79.360001   1.06        
112.1       1390.619263 3355.973389 1259.610352 14507.1425782.422741    16.208      21.23       31.299999   39.936001   36.375999   31.0        23.269335   24447.1425783.638057    2.419622    151.759003  587.664001  21.037783   5.722       24.625689   79.760002   1.06        
112.2       1395.640991 3347.776123 1243.4646   15612.0     2.416069    14.679      20.287001   30.959999   41.240002   35.48       30.360001   23.673042   24572.0     3.527004    2.450331    152.947998  590.744019  33.651154   5.76        23.798191   80.160004   1.06        
112.3       1376.567017 3330.385986 1227.417969 16687.6914062.406622    13.42       19.259001   30.559999   42.616001   34.560001   29.639999   23.797897   24323.0761723.41009     2.410945    151.854996  594.440002  39.627808   5.645       23.469219   80.639999   1.06        
112.4       1337.521362 3309.09668  1218.30127  17572.0     2.394743    12.394      18.212      30.200001   44.040001   33.639999   28.92       23.500801   24236.0     3.311397    2.316864    150.570007  596.903992  37.411057   5.53        23.08296    81.120003   1.06        
112.5       1295.172607 3293.946289 1222.81604  18631.4277342.379       11.687      17.341      29.76       45.312      32.639999   28.719999   23.027681   24528.5722663.402102    2.294191    150.440002  599.367981  31.405085   5.414       22.740711   81.599998   1.06        
112.6       1265.237915 3288.557129 1236.20459  19592.0     2.366993    11.206      16.676001   29.48       46.112      31.736      28.559999   22.625515   26626.6660163.513979    2.328788    150.501999  601.83197   28.906797   5.357       22.597849   82.080002   1.06        
112.7       1248.099365 3286.815186 1246.598755 20265.7148442.359935    10.925      16.181999   29.08       46.439999   30.952      28.360001   22.166897   29167.1425783.651054    2.353311    150.237     603.679993  32.960972   5.549       22.384384   82.559998   1.06        
