~Version Information Section
VERS.                                         2.0:CWLS log ASCII Standart – VERSION 2.0
WRAP.                                          NO:One line per depth step
~Well Information Section
STRT.M                                        0.4:Начальная глубина
STOP.M                                      170.2:Конечная глубина
STEP.M                                          0:Шаг квантования по глубине
NULL.                                    -9999.25:Признак "Нет данных"
WELL.                                       121Мх:Скважина
~Parameter Information Section
~Curve Information Section
DEPTH.M                                          :Глубина
BK.Ohm*M                                         :BK     (БК)
DS.mm                                            :DS  (ДС)
GGK.g/cm3                                        :GGKp
ГК.mcr/h                                         :GK          (ГК)
GZ1.Ohm*M                                        :GZ1   ГЗ1(A0.4M0.1N)
GZ2.Ohm*M                                        :GZ2   ГЗ2(A1.0M0.1N)
GZ3.Ohm*M                                        :GZ3   ГЗ3(A2.0M0.5N)
GZ4.Ohm*M                                        :GZ4   ГЗ4(A4.0M0.5N)
GZ5.Ohm*M                                        :GZ5   ГЗ5(A8.0M0.5N)
GZR.Ohm*M                                        :GZK   ГЗK(N0.5M2.0A)
ИК.Ohm*M                                         :IK
НГК.u.e.                                         :NGK
NNKM.                                            :NNKm  (ННКм)
PS.mv                                            :PS       (ПС)
PZ.Ohm*M                                         :PZ    (КС)
RS.Ohm*M                                         :RS (Резистивиметр)
U1.mV                                            :U1
U2.mV                                            :U2
U3.mV                                            :U3
КП.%                                             :Кп
~ASCII LOG DATA
# ...
90.0        62.661      128.612     2.427       4.532       78.99       40.628      24.382      60.152      50.148      72.343      13.437      1.284       2.314       444.16      67.744      1.06        183.774     155.107     119.793     34.766      
90.2        76.56       127.99      2.46        4.569       88.106      46.018      23.636      58.449      47.59       71.861      13.937      1.308       2.326       444.576     72.066      1.06        177.391     153.948     122.451     33.978      
90.4        100.925     128.361     2.453       4.457       100.79      51.988      25.566      57.19       46.086      74.075      14.228      1.247       2.382       445.312     77.275      1.06        180.603     155.412     136.798     34.016      
90.6        67.92       128.339     2.473       4.571       116.023     58.535      28.888      56.246      45.352      77.695      14.418      1.246       2.326       446.272     82.514      1.06        172.688     169.232     134.711     37.232      
90.8        65.917      128.275     2.499       4.432       131.292     64.541      33.146      55.846      45.224      81.161      14.566      1.296       2.353       447.424     88.087      1.06        168.41      178.214     131.996     37.015      
91.0        80.91       130.004     2.467       4.437       148.043     69.268      38.707      56.745      45.352      83.973      14.76       1.289       2.373       449.088     94.828      1.06        159.666     188.785     159.522     33.888      
91.2        171.791     129.455     2.465       4.366       163.912     73.059      44.752      58.845      45.343      85.465      14.954      1.211       2.459       451.456     103.277     1.06        159.057     195.774     184.376     31.055      
91.4        87.096      129.453     2.475       4.604       176.722     76.764      49.655      60.527      44.96       85.221      15.066      1.209       2.444       454.432     113.464     1.06        154.201     186.122     236.053     30.84       
91.6        90.573      129.4       2.497       4.924       182.353     80.134      53.109      61.649      44.833      83.898      15.107      1.298       2.407       457.28      124.242     1.06        150.935     172.93      252.977     31.987      
91.8        78.886      129.38      2.472       4.644       185.162     83.316      56.188      62.915      45.337      82.428      15.099      1.289       2.358       458.96      130.785     1.06        163.382     179.772     256.453     32.298      
92.0        81.658      129.182     2.467       4.549       183.23      86.721      59.021      64.299      46.425      80.907      15.161      1.291       2.323       458.96      131.382     1.06        178.515     196.449     213.952     31.164      
92.2        97.051      129.256     2.484       3.916       175.518     90.951      61.647      65.822      47.618      78.937      15.2        1.282       2.363       458.32      128.025     1.06        180.252     197.066     194.387     33.481      
92.4        105.196     129.48      2.41        3.716       158.896     93.858      63.797      67.802      48.637      76.737      15.133      1.282       2.376       455.248     117.002     1.06        170.167     185.92      211.817     34.732      
92.6        95.06       129.863     2.357       3.693       140.136     92.915      64.9        69.334      49.606      74.706      15.006      1.305       2.359       450.848     104.167     1.06        179.328     196.106     234.949     33.329      
92.8        81.846      130.614     2.365       3.762       119.443     88.339      65.181      70.949      50.338      74.051      14.938      1.33        2.38        446.32      93.991      1.06        210.316     218.238     226.1       32.51       
93.0        84.918      129.978     2.389       3.802       103.386     82.823      65.49       73.419      50.882      74.473      14.82       1.291       2.384       442.176     87.199      1.06        250.909     218.789     206.307     30.034      
93.2        110.154     130.276     2.453       3.866       93.899      76.288      65.908      76.058      51.528      74.745      14.617      1.231       2.414       438.432     83.312      1.06        251.234     201.371     210.382     28.772      
93.4        60.954      130.358     2.454       4.872       92.835      70.37       65.924      77.299      52.627      74.074      14.463      1.175       2.35        435.088     81.682      1.06        219.59      193.906     196.458     30.822      
93.6        42.267      130.082     2.418       4.943       95.482      67.71       65.716      77.753      53.68       72.826      14.323      1.213       2.244       432.432     81.52       1.06        196.468     185.313     176.711     34.987      
93.8        71.285      129.6       2.396       4.55        100.208     68.191      64.726      77.328      54.189      70.288      14.33       1.304       2.238       430.848     81.57       1.06        190.236     181.97      177.095     32.793      
94.0        97.275      129.818     2.48        4.742       102.701     68.552      61.489      74.698      53.916      65.984      14.322      1.35        2.341       430.208     82.305      1.06        189.144     179.567     188.427     29.886      
94.2        111.173     130.288     2.501       4.84        99.194      67.106      55.7        70.062      52.989      61.299      14.241      1.248       2.405       430.144     83.57       1.06        188.449     182.628     178.467     33.031      
94.4        67.608      130.27      2.503       5.012       92.1        64.771      49.266      65.502      51.647      58.167      14.137      1.175       2.366       430.144     84.496      1.06        186.393     185.82      172.965     36.099      
94.6        68.865      129.992     2.457       5.153       84.65       62.175      44.757      62.649      50.647      57.464      14.113      1.17        2.295       430.336     84.811      1.06        191.13      190.775     178.376     34.513      
94.8        76.033      129.97      2.458       4.826       79.652      60.909      43.457      61.768      50.329      58.811      14.098      1.234       2.347       430.992     84.845      1.06        201.0       190.569     181.628     31.861      
95.0        64.417      130.905     2.521       4.784       78.234      61.318      44.891      62.526      50.909      61.069      14.084      1.3         2.327       432.304     84.854      1.06        202.233     190.536     188.609     31.605      
95.2        61.235      130.637     2.472       4.833       79.846      62.536      47.921      64.297      52.329      63.323      14.086      1.277       2.221       434.608     84.975      1.06        200.359     203.897     183.668     35.74       
95.4        54.702      129.8       2.457       4.983       83.011      63.845      52.091      66.767      54.95       65.45       14.203      1.332       2.189       437.952     85.531      1.06        200.845     209.048     177.536     36.687      
95.6        68.391      129.721     2.485       4.881       89.191      66.853      56.98       69.575      57.365      66.784      14.39       1.413       2.308       442.048     86.883      1.06        192.531     192.471     192.497     35.127      
95.8        105.196     129.884     2.488       4.958       98.469      69.964      60.795      72.177      59.057      66.841      14.589      1.423       2.423       446.288     89.167      1.06        182.256     180.102     222.086     32.105      
96.0        141.906     130.342     2.487       5.254       104.523     71.968      62.923      74.232      60.201      66.457      14.653      1.25        2.378       450.432     92.047      1.06        190.689     184.181     214.531     30.717      
96.2        66.834      131.428     2.432       5.051       106.773     73.761      64.371      76.204      61.249      67.163      14.646      1.254       2.277       454.768     94.8        1.06        211.569     204.884     189.29      33.669      
