~Version Information Section
VERS.                                         2.0:CWLS log ASCII Standart – VERSION 2.0
WRAP.                                          NO:One line per depth step
~Well Information Section
STRT.M                                       -2.2:Начальная глубина
STOP.M                                      205.6:Конечная глубина
STEP.M                                          0:Шаг квантования по глубине
NULL.                                    -9999.25:Признак "Нет данных"
WELL.                                       108Мх:Скважина
~Parameter Information Section
~Curve Information Section
DEPTH.M                                          :Глубина
BK.Ohm*M                                         :BK     (БК)
DS.mm                                            :DS  (ДС)
GGK.g/cm3                                        :GGKp
ГК.mcr/h                                         :GK          (ГК)
GZ1.Ohm*M                                        :GZ1   ГЗ1(A0.4M0.1N)
GZ2.Ohm*M                                        :GZ2   ГЗ2(A1.0M0.1N)
GZ3.Ohm*M                                        :GZ3   ГЗ3(A2.0M0.5N)
GZ4.Ohm*M                                        :GZ4   ГЗ4(A4.0M0.5N)
GZ5.Ohm*M                                        :GZ5   ГЗ5(A8.0M0.5N)
GZR.Ohm*M                                        :GZK   ГЗK(N0.5M2.0A)
ИК.Ohm*M                                         :IK
НГК.ue                                           :NGK     (НГК)
NNKM.                                            :NNKm  (ННКм)
PS.mv                                            :PS       (ПС)
PZ.Ohm*M                                         :PZ    (КС)
RS.Ohm*M                                         :RS (Резистивиметр)
U1.mV                                            :U1
U2.mV                                            :U2
U3.mV                                            :U3
КП.%                                             :Кп
~ASCII LOG DATA
# ...
31.0        -9999.25    100.109     -9999.25    -9999.25    132.785     8.381       60.292      603.477     10.418      723.765     -9999.25    -9999.25    -9999.25    1209.752    64.944      11.022      263.829     681.606     477.429     -9999.25    
31.03       26.885      -9999.25    1.73        2.97        -9999.25    -9999.25    -9999.25    -9999.25    -9999.25    -9999.25    29.361      6.697       3.504       -9999.25    -9999.25    -9999.25    -9999.25    -9999.25    -9999.25    2.769       
31.1        -9999.25    99.99       -9999.25    -9999.25    132.785     8.381       60.292      603.477     10.418      723.765     -9999.25    -9999.25    -9999.25    1207.755    62.719      11.022      263.829     681.606     477.429     -9999.25    
31.13       41.142      -9999.25    1.667       3.331       -9999.25    -9999.25    -9999.25    -9999.25    -9999.25    -9999.25    29.535      6.803       3.438       -9999.25    -9999.25    -9999.25    -9999.25    -9999.25    -9999.25    2.843       
31.2        -9999.25    100.02      -9999.25    -9999.25    132.785     8.381       60.292      603.477     10.418      723.765     -9999.25    -9999.25    -9999.25    1204.155    61.895      11.022      263.829     681.606     483.749     -9999.25    
31.23       74.453      -9999.25    1.607       3.565       -9999.25    -9999.25    -9999.25    -9999.25    -9999.25    -9999.25    29.586      6.885       3.392       -9999.25    -9999.25    -9999.25    -9999.25    -9999.25    -9999.25    2.97        
31.3        -9999.25    100.065     -9999.25    -9999.25    132.785     8.381       60.292      603.477     10.418      723.765     -9999.25    -9999.25    -9999.25    1201.447    62.477      11.022      263.829     681.606     490.069     -9999.25    
31.33       90.343      -9999.25    1.58        3.479       -9999.25    -9999.25    -9999.25    -9999.25    -9999.25    -9999.25    29.609      6.928       3.393       -9999.25    -9999.25    -9999.25    -9999.25    -9999.25    -9999.25    2.989       
31.4        -9999.25    100.085     -9999.25    -9999.25    132.785     8.381       60.292      603.477     10.418      723.765     -9999.25    -9999.25    -9999.25    1200.914    64.228      11.022      263.829     681.606     496.389     -9999.25    
31.43       81.369      -9999.25    1.588       3.302       -9999.25    -9999.25    -9999.25    -9999.25    -9999.25    -9999.25    29.627      6.889       3.393       -9999.25    -9999.25    -9999.25    -9999.25    -9999.25    -9999.25    2.937       
31.5        -9999.25    100.106     -9999.25    -9999.25    132.785     8.381       60.292      603.477     10.418      723.765     -9999.25    -9999.25    -9999.25    1202.021    66.861      11.022      263.829     690.446     496.389     -9999.25    
31.53       75.557      -9999.25    1.601       3.174       -9999.25    -9999.25    -9999.25    -9999.25    -9999.25    -9999.25    29.485      6.852       3.384       -9999.25    -9999.25    -9999.25    -9999.25    -9999.25    -9999.25    3.003       
31.6        -9999.25    100.134     -9999.25    -9999.25    132.785     8.381       60.292      603.477     10.418      723.765     -9999.25    -9999.25    -9999.25    1205.372    70.496      11.022      263.829     699.286     496.389     -9999.25    
31.63       62.595      -9999.25    1.601       3.025       -9999.25    -9999.25    -9999.25    -9999.25    -9999.25    -9999.25    29.331      6.801       3.362       -9999.25    -9999.25    -9999.25    -9999.25    -9999.25    -9999.25    3.14        
31.7        -9999.25    100.111     -9999.25    -9999.25    132.785     8.381       60.292      603.477     10.418      723.765     -9999.25    -9999.25    -9999.25    1210.569    74.319      11.022      263.829     708.126     496.389     -9999.25    
31.73       25.013      -9999.25    1.585       2.938       -9999.25    -9999.25    -9999.25    -9999.25    -9999.25    -9999.25    29.475      6.724       3.355       -9999.25    -9999.25    -9999.25    -9999.25    -9999.25    -9999.25    3.297       
31.8        -9999.25    100.144     -9999.25    -9999.25    132.785     8.381       60.292      603.477     10.418      723.765     -9999.25    -9999.25    -9999.25    1215.034    78.196      11.022      263.829     716.966     502.709     -9999.25    
31.83       21.706      -9999.25    1.579       2.96        -9999.25    -9999.25    -9999.25    -9999.25    -9999.25    -9999.25    29.699      6.695       3.371       -9999.25    -9999.25    -9999.25    -9999.25    -9999.25    -9999.25    3.348       
31.9        -9999.25    100.139     -9999.25    -9999.25    132.785     8.381       60.292      603.477     10.418      723.765     -9999.25    -9999.25    -9999.25    1222.318    81.381      11.022      263.829     725.806     509.029     -9999.25    
31.93       35.82       -9999.25    1.584       3.204       -9999.25    -9999.25    -9999.25    -9999.25    -9999.25    -9999.25    29.439      6.783       3.402       -9999.25    -9999.25    -9999.25    -9999.25    -9999.25    -9999.25    3.345       
32.0        -9999.25    100.119     -9999.25    -9999.25    132.785     8.381       60.292      603.477     10.418      723.765     -9999.25    -9999.25    -9999.25    1228.868    83.911      11.022      263.829     734.646     521.669     -9999.25    
32.03       74.11       -9999.25    1.581       3.418       -9999.25    -9999.25    -9999.25    -9999.25    -9999.25    -9999.25    29.44       6.974       3.486       -9999.25    -9999.25    -9999.25    -9999.25    -9999.25    -9999.25    3.222       
32.1        -9999.25    100.131     -9999.25    -9999.25    132.785     8.381       60.292      603.477     10.418      723.765     -9999.25    -9999.25    -9999.25    1235.393    85.273      11.022      263.829     734.646     527.989     -9999.25    
32.13       66.166      -9999.25    1.579       3.346       -9999.25    -9999.25    -9999.25    -9999.25    -9999.25    -9999.25    29.407      7.105       3.589       -9999.25    -9999.25    -9999.25    -9999.25    -9999.25    -9999.25    3.061       
32.2        -9999.25    100.116     -9999.25    -9999.25    132.785     8.381       60.292      603.477     10.418      723.765     -9999.25    -9999.25    -9999.25    1241.466    85.675      11.022      263.829     734.646     534.309     -9999.25    
32.23       29.635      -9999.25    1.598       3.215       -9999.25    -9999.25    -9999.25    -9999.25    -9999.25    -9999.25    29.353      7.082       3.589       -9999.25    -9999.25    -9999.25    -9999.25    -9999.25    -9999.25    2.982       
32.3        -9999.25    100.121     -9999.25    -9999.25    132.785     8.381       60.292      603.477     10.418      723.765     -9999.25    -9999.25    -9999.25    1247.504    84.595      11.022      263.829     734.646     540.629     -9999.25    
32.33       40.318      -9999.25    1.635       3.097       -9999.25    -9999.25    -9999.25    -9999.25    -9999.25    -9999.25    29.394      6.94        3.494       -9999.25    -9999.25    -9999.25    -9999.25    -9999.25    -9999.25    3.045       
32.4        -9999.25    100.143     -9999.25    -9999.25    132.785     8.381       60.292      603.477     10.418      723.765     -9999.25    -9999.25    -9999.25    1256.463    82.006      11.022      263.829     734.646     546.949     -9999.25    
32.43       54.436      -9999.25    1.663       3.096       -9999.25    -9999.25    -9999.25    -9999.25    -9999.25    -9999.25    29.401      6.745       3.437       -9999.25    -9999.25    -9999.25    -9999.25    -9999.25    -9999.25    3.045       
32.5        -9999.25    100.147     -9999.25    -9999.25    132.785     8.381       60.292      603.477     10.418      723.765     -9999.25    -9999.25    -9999.25    1268.093    77.727      11.022      263.829     734.646     553.269     -9999.25    
32.53       21.681      -9999.25    1.67        2.988       -9999.25    -9999.25    -9999.25    -9999.25    -9999.25    -9999.25    29.478      6.688       3.437       -9999.25    -9999.25    -9999.25    -9999.25    -9999.25    -9999.25    2.902       
