~Version Information Section
VERS.                                         2.0:CWLS log ASCII Standart – VERSION 2.0
WRAP.                                          NO:One line per depth step
~Well Information Section
STRT.M                                        0.7:Начальная глубина
STOP.M                                      200.1:Конечная глубина
STEP.M                                          0:Шаг квантования по глубине
NULL.                                    -9999.25:Признак "Нет данных"
WELL.                                       111Мх:Скважина
~Parameter Information Section
~Curve Information Section
DEPTH.M                                          :Глубина
DСР.mm                                           :Dср
ГК.1/min                                         :GK
ИК.mSim/m                                        :IK
N0.5M2.0A.Омм                                    :N0
НГК.усл.ед                                       :NGK
PZ.Ohm*M                                         :PZ
R.Ohm*M                                          :R
PS.mV                                            :ПС
U1.mV                                            :U1
U2.                                              :U2
U3.mV                                            :U3
А0.4М0.1N.Омм                                    :А0
А1.0М0.1N.Омм                                    :А1
А2.0М0.5N.Омм                                    :А2
А4.0М0.5N.Oмм                                    :А4
А8.0М1.0N.Омм                                    :А8
BK.Ohm*M                                         :БК
ГГК.1/min                                        :ГГК
КП.%                                             :Кп
ННКМ.усл.ед                                      :ННКм
~ASCII LOG DATA
# ...
122.3       127.455     3.13        41.633      72.385      1.656       187.1       1.06        418.51      1046.001    1262.955    1351.112    222.871     83.651      43.144      10.365      3.071       111.376     2.422       26.015      2.505       
122.4       128.145     2.861       41.757      76.105      1.653       187.1       1.06        416.416     1065.2      1238.973    1339.31     221.978     88.779      45.905      11.191      3.373       152.189     2.426       25.243      2.535       
122.5       129.049     2.867       41.856      81.385      1.616       187.1       1.06        413.336     1089.2      1221.395    1344.433    217.178     93.717      49.566      11.892      3.805       153.039     2.426       25.824      2.577       
122.6       127.619     2.899       41.899      87.847      1.629       182.8       1.06        410.01      1113.2      1212.448    1358.939    207.9       97.874      53.828      13.042      4.384       97.114      2.418       26.255      2.613       
122.7       127.155     2.893       41.745      95.965      1.651       178.6       1.06        406.683     1125.2      1217.874    1385.45     196.555     101.801     59.191      14.367      5.068       75.07       2.4         26.465      2.485       
122.8       128.225     2.88        41.482      103.811     1.781       174.7       1.06        403.603     1130.0      1239.549    1396.811    185.643     105.13      66.086      15.627      5.823       88.767      2.376       26.687      2.316       
122.9       129.481     2.842       41.359      108.033     1.677       169.5       1.06        400.77      1127.6      1270.831    1382.894    179.104     106.809     72.874      17.135      6.606       99.035      2.348       26.991      2.309       
123.0       130.196     2.803       41.455      108.938     1.712       166.5       1.06        398.182     1120.4      1303.241    1342.536    175.767     105.705     78.311      19.137      7.397       99.598      2.324       27.515      2.338       
123.1       130.531     2.906       41.676      108.938     1.732       163.6       1.06        395.718     1118.0      1333.892    1300.58     171.823     104.312     82.933      21.399      8.283       128.444     2.314       28.045      2.39        
123.2       130.499     2.957       42.056      107.892     1.883       160.5       1.06        393.501     1118.0      1351.815    1258.624    167.832     104.31      85.672      23.635      9.326       165.446     2.319       27.909      2.45        
123.3       130.276     3.437       42.825      104.197     1.697       157.4       1.06        391.037     1120.4      1354.41     1233.455    164.168     102.711     86.183      25.656      10.443      169.563     2.324       27.782      2.503       
123.4       128.591     3.36        43.629      97.236      1.728       154.2       1.06        388.203     1125.2      1346.131    1234.534    159.975     99.713      86.183      26.947      11.525      141.549     2.32        28.117      2.507       
123.5       128.072     2.976       44.008      88.984      1.715       151.0       1.06        383.522     1125.2      1334.827    1262.382    155.19      97.848      84.854      27.417      12.421      104.953     2.301       28.4        2.46        
123.6       127.952     3.142       44.209      81.988      1.768       148.3       1.06        376.992     1113.2      1321.763    1303.864    150.749     96.796      81.944      27.551      12.918      89.323      2.27        28.736      2.356       
123.7       127.943     3.475       44.314      76.792      1.429       146.2       1.06        367.998     1106.0      1309.159    1345.346    145.762     96.21       78.734      27.587      13.044      86.61       2.23        29.37       2.25        
123.8       127.74      3.091       44.232      73.399      1.673       144.4       1.06        356.787     1101.2      1297.411    1375.262    140.368     96.21       75.342      27.706      13.033      84.398      2.194       30.216      2.264       
123.9       128.593     2.899       44.079      71.432      1.776       144.0       1.06        342.373     1106.0      1287.773    1376.967    135.572     96.21       71.944      27.791      12.918      81.74       2.169       31.04       2.296       
124.0       131.172     3.155       43.927      70.419      1.738       144.0       1.06        327.342     1115.6      1283.887    1347.542    130.678     96.493      69.606      27.791      12.584      80.455      2.167       31.938      2.262       
124.1       130.641     3.206       43.757      70.122      1.723       144.0       1.06        311.819     1127.6      1290.558    1301.735    125.972     97.63       68.623      27.791      12.031      80.087      2.181       32.449      2.228       
124.2       131.364     3.571       43.575      70.122      1.768       144.0       1.06        296.542     1130.0      1302.291    1252.194    122.361     99.16       68.342      28.052      11.358      79.471      2.205       33.056      2.229       
124.3       131.139     3.562       43.594      70.122      1.675       144.0       1.06        282.005     1127.599    1316.345    1203.323    120.463     100.544     68.342      29.1        10.72       78.984      2.223       33.197      2.221       
124.4       131.009     3.514       43.654      70.345      1.573       144.0       1.06        270.424     1110.8      1324.882    1166.339    119.941     102.057     68.342      31.286      10.208      79.659      2.231       33.147      2.198       
124.5       130.591     3.514       43.482      71.366      1.57        145.6       1.06        260.445     1077.2      1321.824    1141.431    119.941     103.46      68.454      34.848      9.804       81.611      2.23        33.171      2.189       
124.6       131.036     3.514       43.283      73.21       1.697       148.4       1.06        252.067     1043.601    1308.918    1119.583    119.941     104.757     69.592      40.153      9.476       83.969      2.222       33.078      2.203       
124.7       130.753     3.456       43.297      75.661      1.62        151.4       1.06        245.168     1010.001    1294.613    1106.3      120.279     106.387     72.546      47.912      9.25        86.228      2.214       32.552      2.198       
124.8       130.977     3.398       43.647      78.493      1.216       154.8       1.06        239.624     978.799     1280.338    1102.278    121.868     108.881     77.057      58.903      9.129       89.262      2.21        31.927      2.18        
124.9       130.993     3.334       44.052      80.467      1.568       158.8       1.06        234.696     954.8       1271.58     1103.684    125.609     112.859     83.051      71.278      9.057       94.973      2.215       31.197      2.237       
125.0       130.91      3.302       44.104      81.014      1.528       165.7       1.06        230.877     947.6       1270.588    1102.586    134.405     118.427     90.721      82.243      9.021       118.105     2.222       30.645      2.304       
125.1       131.08      3.36        43.966      81.014      1.704       173.4       1.06        228.29      959.285     1270.7      1096.613    150.255     123.287     99.3        91.158      9.014       145.828     2.231       30.112      2.33        
125.2       131.556     3.36        43.796      80.682      1.428       181.1       1.06        227.058     991.67      1272.649    1081.154    171.575     125.273     106.647     96.094      9.024       152.664     2.235       29.504      2.355       
125.3       131.417     3.494       43.58       79.222      1.576       188.1       1.06        227.058     1043.704    1278.608    1065.692    193.833     125.549     111.357     97.076      9.093       158.419     2.235       28.99       2.368       
125.4       131.24      3.53        43.352      76.038      1.499       194.8       1.06        227.058     1093.771    1290.205    1052.416    213.558     125.549     113.443     97.076      9.327       146.604     2.234       28.732      2.367       
