~Version Information Section
VERS.                                         2.0:CWLS log ASCII Standart – VERSION 2.0
WRAP.                                          NO:One line per depth step
~Well Information Section
STRT.M                                        0.1:Начальная глубина
STOP.M                                      153.3:Конечная глубина
STEP.M                                          0:Шаг квантования по глубине
NULL.                                    -9999.25:Признак "Нет данных"
WELL.                                        144К:Скважина
~Parameter Information Section
~Curve Information Section
DEPTH.M                                          :Глубина
БК.Омм                                           :BK     (БК)
DСР.мм                                           :DS  (ДС)
ПЛОТНОСТЬ.г/см^3                                 :GGKp
ГК.мкР/ч                                         :GK          (ГК)
А0.4М0.1N.Омм                                    :GZ1   ГЗ1(A0.4M0.1N)
А1.0М0.1N.Омм                                    :GZ2   ГЗ2(A1.0M0.1N)
А2.0М0.5N.Омм                                    :GZ3   ГЗ3(A2.0M0.5N)
А4.0М0.5N.Oмм                                    :GZ4   ГЗ4(A4.0M0.5N)
А8.0М1.0N.Омм                                    :GZ5   ГЗ5(A8.0M0.5N)
N0.5M2.0A.Омм                                    :GZR   ГЗK(N0.5M2.0A)
ИК.мСм/м                                         :IK
БЗ.ue                                            :NNKb  (ННКб)
МЗ.ue                                            :NNKm  (ННКм)
ПС.mv                                            :PS       (ПС)
N11.0M0.5A.Омм                                   :PZ    (КС)
R.Омм                                            :RS (Резистивиметр)
ПОРИСТОСТЬ.                                      :W
~ASCII LOG DATA
# ...
37.1        16.03       229.094     1.704       3.968       0.971       -0.064      0.09        -0.155      0.375       -0.006      -214.243    1.35        1.124       69.246      0.061       1.101       46.69       
37.2        10.851      229.121     1.719       3.771       0.968       -0.064      0.027       -0.166      0.352       0.082       -214.736    1.367       1.135       70.583      0.061       1.101       45.801      
37.3        10.462      229.104     1.723       3.57        0.965       -0.064      -0.027      -0.19       0.314       0.252       -216.362    1.395       1.166       72.307      0.062       1.101       44.854      
37.4        13.338      229.1       1.72        3.437       0.961       -0.063      -0.052      -0.215      0.344       0.44        -218.031    1.432       1.191       74.353      0.062       1.101       43.945      
37.5        12.072      229.116     1.713       3.416       0.95        -0.058      -0.057      -0.227      0.384       0.599       -218.674    1.474       1.194       76.64       0.062       1.101       43.181      
37.6        18.216      229.084     1.703       3.438       0.931       -0.051      -0.058      -0.23       0.384       0.721       -218.123    1.494       1.181       79.061      0.061       1.101       42.736      
37.7        26.746      229.103     1.691       3.446       0.912       -0.046      -0.06       -0.231      0.439       0.827       -217.134    1.502       1.156       81.505      0.06        1.101       42.78       
37.8        64.188      229.128     1.679       3.431       0.901       -0.043      -0.061      -0.23       0.522       0.908       -217.0      1.492       1.135       83.866      0.059       1.101       43.177      
37.9        143.38      229.228     1.67        3.406       0.896       -0.043      -0.062      -0.23       0.548       0.949       -218.85     1.468       1.137       86.048      0.057       1.101       43.605      
38.0        10.65       229.427     1.665       3.438       0.884       -0.046      -0.062      -0.232      0.604       0.98        -219.51     1.442       1.138       87.969      0.056       1.101       44.062      
38.1        12.58       229.474     1.667       3.505       0.866       -0.049      -0.062      -0.237      0.632       1.009       -218.738    1.404       1.15        89.569      0.055       1.101       44.461      
38.2        23.747      229.642     1.68        3.583       0.852       -0.05       -0.059      -0.244      0.612       1.042       -218.68     1.402       1.151       90.82       0.054       1.101       44.997      
38.3        27.902      229.67      1.705       3.631       0.846       -0.052      -0.057      -0.25       0.561       1.089       -219.975    1.419       1.156       91.737      0.054       1.101       45.396      
38.4        21.71       229.838     1.739       3.637       0.838       -0.054      -0.056      -0.253      0.576       1.149       -221.575    1.444       1.151       92.363      0.053       1.101       45.541      
38.5        36.855      229.895     1.782       3.577       0.821       -0.056      -0.055      -0.25       0.573       1.211       -222.11     1.448       1.148       92.759      0.053       1.101       45.573      
38.6        56.428      230.018     1.827       3.545       0.801       -0.06       -0.052      -0.243      0.541       1.26        -222.215    1.435       1.15        92.978      0.052       1.101       45.77       
38.7        4.489       229.972     1.865       3.618       0.787       -0.062      -0.048      -0.236      0.508       1.302       -222.11     1.437       1.166       93.073      0.052       1.101       46.098      
38.8        1.994       229.895     1.892       3.782       0.782       -0.062      -0.042      -0.232      0.439       1.348       -221.937    1.46        1.199       93.091      0.051       1.101       46.402      
38.9        1.424       229.77      1.906       3.919       0.769       -0.062      -0.036      -0.231      0.426       1.406       -211.995    1.485       1.223       93.071      0.051       1.101       46.401      
39.0        0.768       229.625     1.922       4.028       0.738       -0.06       -0.033      -0.229      0.426       1.581       -192.364    1.47        1.231       93.047      0.049       1.101       46.244      
39.1        0.83        229.312     1.974       4.125       0.702       -0.056      -0.032      -0.212      0.431       3.462       -203.783    1.453       1.226       93.036      0.048       1.101       46.123      
39.2        0.964       229.246     2.07        4.204       0.665       -0.051      -0.017      -0.13       0.456       11.138      -221.094    1.443       1.213       93.044      0.047       1.101       46.176      
39.3        0.664       229.049     2.179       4.208       0.634       -0.044      0.02        0.041       0.503       25.139      -219.154    1.453       1.21        93.076      0.047       1.101       46.18       
39.4        0.831       228.899     2.26        4.292       0.622       -0.032      0.068       0.307       0.514       41.448      -215.766    1.476       1.222       93.132      0.049       1.101       46.057      
39.5        0.556       228.418     2.303       4.501       0.656       -0.017      0.111       0.639       0.595       54.383      -213.943    1.51        1.223       93.213      0.056       1.101       45.435      
39.6        0.654       227.711     2.322       4.815       0.726       -0.006      0.128       0.843       0.738       59.074      -217.454    1.532       1.219       93.324      0.066       1.101       44.448      
39.7        1.721       235.02      2.318       5.133       0.833       -0.002      0.128       0.877       0.968       58.231      -217.574    1.583       1.226       93.465      0.091       1.101       43.341      
39.8        4.771       237.803     2.298       5.461       1.215       -0.005      0.117       0.795       1.111       53.006      -212.953    1.648       1.254       93.642      0.274       1.101       42.407      
39.9        6.364       234.462     2.275       5.716       2.711       -0.009      0.085       0.553       1.228       42.651      -143.453    1.781       1.306       93.857      1.087       1.101       41.663      
40.0        7.105       233.834     2.26        5.777       5.355       -0.011      0.049       0.322       1.228       33.443      68.629      1.898       1.36        94.102      2.672       1.101       41.064      
40.1        7.893       235.827     2.252       5.668       8.001       -0.009      0.024       0.222       1.203       28.639      14.972      1.972       1.4         94.368      4.546       1.101       40.557      
40.2        9.1         242.142     2.249       5.497       9.552       -0.002      0.008       0.191       1.087       26.776      12.231      1.959       1.41        94.639      6.712       1.101       40.386      
40.3        9.552       243.111     2.252       5.416       10.255      0.024       -0.001      0.178       0.988       26.484      11.392      1.926       1.404       94.895      9.17        1.101       40.51       
40.4        10.156      240.652     2.258       5.392       11.229      0.276       -0.003      0.149       0.903       27.334      10.996      1.919       1.4         95.113      11.248      1.101       40.634      
40.5        11.544      260.918     2.265       5.402       12.779      1.641       -0.005      0.07        0.838       29.249      10.845      1.96        1.413       95.263      12.712      1.101       40.592      
40.6        13.721      259.976     2.272       5.368       14.943      4.858       -0.009      -0.062      0.785       30.876      10.873      2.016       1.466       95.326      13.929      1.101       40.347      
40.7        15.966      236.907     2.274       5.33        17.11       8.811       -0.011      -0.188      0.746       31.437      11.018      2.088       1.515       95.291      14.818      1.101       40.038      
