~Version Information Section
VERS.                                         2.0:CWLS log ASCII Standart – VERSION 2.0
WRAP.                                          NO:One line per depth step
~Well Information Section
STRT.M                                        1.2:Начальная глубина
STOP.M                                      169.7:Конечная глубина
STEP.M                                          0:Шаг квантования по глубине
NULL.                                    -9999.25:Признак "Нет данных"
WELL.                                       115Мх:Скважина
~Parameter Information Section
~Curve Information Section
DEPTH.M                                          :Глубина
BK.Ohm*M                                         :BK     (БК)
DS.mm                                            :DS  (ДС)
GGK.g/cm3                                        :GGKp
ГК.mcr/h                                         :GK          (ГК)
GZ1.Ohm*M                                        :GZ1   ГЗ1(A0.4M0.1N)
GZ2.Ohm*M                                        :GZ2   ГЗ2(A1.0M0.1N)
GZ3.Ohm*M                                        :GZ3   ГЗ3(A2.0M0.5N)
GZ4.Ohm*M                                        :GZ4   ГЗ4(A4.0M0.5N)
GZ5.Ohm*M                                        :GZ5   ГЗ5(A8.0M0.5N)
GZR.Ohm*M                                        :GZK   ГЗK(N0.5M2.0A)
ИК.Ohm*M                                         :IK
НГК.ue                                           :NGK     (НГК)
NNKM.                                            :NNKm  (ННКм)
PS.mv                                            :PS       (ПС)
PZ.Ohm*M                                         :PZ    (КС)
RS.Ohm*M                                         :RS (Резистивиметр)
U1.mV                                            :U1
U2.mV                                            :U2
U3.mV                                            :U3
КП.%                                             :Кп
~ASCII LOG DATA
# ...
132.4       13.49       125.518     2.289       6.786       1.999       6.431       5.877       7.025       5.571       5.119       11.367      1.04        2.125       1100.47     20.769      1.079       866.71      502.706     415.271     29.193      
132.5       12.912      125.404     2.283       6.945       2.13        6.407       5.877       7.125       5.671       5.219       11.355      1.047       2.056       1100.49     20.768      1.079       883.862     534.645     441.547     30.694      
132.6       13.122      125.658     2.272       7.109       2.323       6.407       5.877       7.225       5.671       5.519       11.284      0.974       2.01        1100.345    20.771      1.079       794.339     517.693     456.709     31.33       
132.7       13.397      125.554     2.276       7.273       2.468       6.431       5.877       7.325       5.771       5.719       11.313      1.009       2.055       1100.391    20.776      1.084       678.174     488.514     460.758     31.716      
132.8       13.274      125.358     2.269       7.368       2.86        6.455       5.877       7.325       5.771       5.919       11.285      1.002       2.087       1100.35     20.782      1.079       575.316     447.122     498.146     31.769      
132.9       13.152      125.669     2.273       7.496       3.165       6.576       5.877       7.425       5.871       5.919       11.244      0.994       2.077       1100.254    20.784      1.079       592.464     442.392     535.526     32.014      
133.0       13.183      124.938     2.274       7.292       3.383       6.648       5.877       7.425       5.971       6.019       11.242      0.98        2.068       1099.926    20.792      1.084       542.706     411.251     477.526     32.614      
133.1       13.092      125.154     2.275       7.183       3.755       6.673       5.877       7.425       6.071       6.119       11.215      0.987       2.061       1099.333    20.803      1.084       485.899     403.455     436.707     33.585      
133.2       13.243      125.36      2.267       7.145       4.151       6.745       5.877       7.425       6.071       6.319       11.171      1.072       2.058       1098.221    20.816      1.088       403.562     405.638     409.871     34.047      
133.3       13.366      124.81      2.276       7.078       4.528       6.793       6.077       7.425       6.071       6.419       11.161      1.087       2.059       1097.142    20.831      1.088       400.055     442.372     491.97      33.751      
133.4       13.772      125.26      2.283       6.72        4.513       6.914       6.277       7.725       6.171       6.519       11.146      1.115       2.075       1096.332    20.845      1.088       460.184     490.15      536.596     33.161      
133.5       13.709      124.92      2.287       6.365       4.667       7.011       6.377       7.725       6.171       6.619       11.106      1.061       2.111       1096.302    20.86       1.088       602.461     562.335     546.976     33.102      
133.6       12.823      125.135     2.288       6.545       4.892       7.326       6.577       7.925       6.171       6.719       11.042      1.022       2.116       1096.238    20.88       1.092       829.421     660.739     523.54      33.189      
133.7       12.706      125.101     2.304       6.96        4.874       7.615       6.677       8.025       6.271       6.819       11.002      0.977       2.083       1096.191    20.907      1.092       1056.345    759.164     544.549     32.665      
133.8       12.882      124.895     2.317       7.131       4.96        8.002       6.777       8.025       6.371       6.919       10.974      0.969       2.064       1096.136    20.949      1.092       1283.317    857.568     576.675     31.983      
133.9       12.853      125.116     2.325       7.055       5.209       8.534       6.777       8.325       6.371       7.019       10.937      0.991       2.057       1095.873    21.009      1.097       1178.245    823.276     619.26      31.622      
134.0       12.274      124.929     2.33        7.252       5.463       8.751       6.877       8.525       6.471       7.119       10.923      1.013       2.055       1095.613    21.101      1.097       925.28      750.092     685.901     31.929      
134.1       11.885      124.958     2.333       7.635       5.504       8.824       7.077       8.625       6.471       7.219       10.897      0.987       2.058       1095.819    21.23       1.097       554.376     604.835     706.371     32.371      
134.2       12.589      125.314     2.332       7.83        5.523       8.922       7.177       8.625       6.471       7.319       10.897      0.97        2.077       1096.187    21.397      1.097       410.676     505.639     635.997     32.22       
134.3       12.531      125.055     2.33        7.512       5.602       9.017       7.277       8.825       6.571       7.419       10.91       0.966       2.108       1096.739    21.61       1.097       386.957     431.071     494.274     31.686      
134.4       12.531      125.162     2.333       7.196       5.657       9.043       7.477       9.025       6.571       7.519       10.949      0.99        2.107       1096.923    21.864      1.097       493.882     452.478     425.712     32.164      
134.5       12.445      124.918     2.346       7.197       5.728       9.066       7.577       9.025       6.571       7.719       10.963      1.038       2.084       1096.909    22.16       1.097       622.713     526.743     454.188     33.848      
134.6       11.803      125.12      2.35        6.956       5.765       9.163       7.677       9.225       6.771       8.019       10.988      1.085       2.068       1096.243    22.506      1.101       636.269     545.216     488.672     34.002      
134.7       13.213      125.482     2.354       6.789       6.152       9.428       7.877       9.225       6.971       8.219       11.026      1.118       2.058       1096.006    22.91       1.101       493.999     469.732     488.262     32.656      
134.8       13.213      125.153     2.35        6.451       6.098       9.356       7.977       9.425       7.071       8.319       11.066      1.089       2.101       1095.849    23.367      1.101       360.522     385.812     459.102     30.053      
134.9       13.213      125.231     2.345       6.685       5.899       9.235       8.077       9.725       7.171       8.619       11.121      1.034       2.168       1095.648    23.886      1.101       351.941     352.234     402.313     29.001      
135.0       13.213      125.316     2.345       6.855       5.928       9.307       8.177       9.825       7.271       8.719       11.186      1.017       2.11        1095.557    24.481      1.101       428.41      369.893     356.285     30.014      
135.1       13.213      124.971     2.356       6.931       6.0         9.356       8.377       9.925       7.571       8.619       11.27       1.019       2.013       1095.243    25.206      1.101       482.904     411.79      372.961     31.648      
135.2       13.213      124.876     2.353       7.075       6.118       9.428       8.877       9.925       7.371       7.719       11.369      0.994       2.003       1094.837    26.293      1.101       489.084     440.549     419.336     32.679      
135.3       13.213      125.118     2.34        7.315       6.017       9.331       8.877       9.825       6.371       6.819       11.48       0.946       2.012       1094.476    27.915      1.101       519.968     438.582     406.044     31.93       
135.4       13.213      125.089     2.321       7.68        5.965       9.356       8.777       9.725       4.871       6.119       11.788      0.943       2.018       1094.286    30.202      1.101       590.956     430.417     350.168     31.03       
135.5       13.213      125.024     2.309       7.4         6.005       9.403       8.077       9.625       4.171       5.619       11.925      0.975       2.022       1094.291    33.22       1.101       642.582     464.542     368.268     31.008      
