~Version Information Section
VERS.                                         2.0:CWLS log ASCII Standart – VERSION 2.0
WRAP.                                          NO:One line per depth step
~Well Information Section
STRT.M                                        0.0:Начальная глубина
STOP.M                                      180.0:Конечная глубина
STEP.M                                          0:Шаг квантования по глубине
NULL.                                    -9999.25:Признак "Нет данных"
WELL.                                       120Мх:Скважина
~Parameter Information Section
~Curve Information Section
DEPTH.M                                          :Глубина
BK.Ohm*M                                         :BK     (БК)
DS.mm                                            :DS  (ДС)
GGK.g/cm3                                        :GGKp
ГК.mcr/h                                         :GK          (ГК)
GZ1.Ohm*M                                        :GZ1   ГЗ1(A0.4M0.1N)
GZ2.Ohm*M                                        :GZ2   ГЗ2(A1.0M0.1N)
GZ3.Ohm*M                                        :GZ3   ГЗ3(A2.0M0.5N)
GZ4.Ohm*M                                        :GZ4   ГЗ4(A4.0M0.5N)
GZ5.Ohm*M                                        :GZ5   ГЗ5(A8.0M0.5N)
GZR.Ohm*M                                        :GZK   ГЗK(N0.5M2.0A)
ИК.Ohm*M                                         :IK
НГК.u.e.                                         :NGK
NNKM.                                            :NNKm  (ННКм)
PS.mv                                            :PS       (ПС)
PZ.Ohm*M                                         :PZ    (КС)
RS.Ohm*M                                         :RS (Резистивиметр)
U1.mV                                            :U1
U2.mV                                            :U2
U3.mV                                            :U3
КП.%                                             :Кп
~ASCII LOG DATA
# ...
89.6        25.882      127.326     2.259       5.478       49.652      49.03       28.299      38.974      21.026      29.232      10.27       1.202       2.134       541.328     75.882      1.22        2408.597    1925.629    1576.835    32.102      
89.8        32.137      127.786     2.289       5.733       51.719      51.145      39.044      50.237      24.018      27.899      10.283      1.206       2.21        547.606     70.868      1.22        2389.628    2014.918    1739.599    28.043      
90.0        47.863      128.573     2.28        6.182       53.515      54.408      52.662      58.617      23.991      29.232      10.359      1.248       2.292       554.048     68.988      1.22        2225.251    1820.226    1528.619    28.1        
90.2        46.989      128.065     2.304       4.793       54.803      56.075      54.294      62.225      27.765      30.566      10.279      1.227       2.217       560.604     72.122      1.22        2185.276    1654.525    1291.068    31.711      
90.4        31.333      128.03      2.491       4.154       42.109      26.659      43.598      55.827      40.074      23.232      10.119      1.126       2.185       567.526     71.119      1.22        1693.285    1376.213    1183.251    34.063      
90.6        38.726      127.05      2.406       5.681       31.326      14.07       45.441      42.944      41.736      18.122      10.102      1.086       2.355       574.044     59.964      1.22        1155.234    1117.208    1150.574    28.816      
90.8        58.479      128.29      2.248       6.499       27.901      13.929      51.033      40.277      45.158      37.658      10.164      1.03        2.167       580.448     48.684      1.22        1382.055    1273.072    1256.839    23.868      
91.0        19.861      127.208     2.294       6.208       30.359      26.292      62.218      59.042      58.096      70.875      10.017      1.006       1.866       586.169     46.428      1.217       1663.179    1289.498    1206.745    33.274      
91.2        19.634      127.367     2.269       5.324       49.927      61.014      91.342      81.055      76.67       92.721      9.829       1.096       1.931       590.806     61.845      1.2         1807.389    1356.827    1164.626    34.587      
91.4        24.946      130.138     2.117       4.53        99.614      89.892      101.273     90.371      103.21      90.433      9.902       1.432       2.051       594.128     78.263      1.168       1329.748    945.12      733.668     31.421      
91.6        34.277      132.888     1.917       4.396       156.24      87.932      84.514      90.663      119.155     75.8        10.178      1.916       2.439       596.048     84.53       1.145       826.531     460.164     288.263     19.093      
91.8        151.008     133.606     1.994       4.385       111.53      53.307      59.341      80.289      101.82      59.869      10.528      1.919       2.752       597.286     90.044      1.14        767.531     528.941     410.706     12.338      
92.0        260.615     129.159     2.164       4.311       52.873      22.24       29.482      54.284      69.733      41.268      10.792      1.583       2.61        598.169     78.89       1.143       937.949     787.368     720.853     15.195      
92.2        88.308      127.708     2.232       4.944       34.034      19.351      18.053      40.207      41.457      33.134      10.591      1.211       2.337       598.524     54.951      1.155       1114.539    835.072     674.418     21.892      
92.4        29.107      128.039     2.245       5.995       35.404      21.992      15.156      47.452      36.159      34.539      10.152      1.015       2.01        599.081     49.687      1.172       1228.534    966.214     804.924     34.637      
92.6        22.803      129.367     2.28        6.531       33.828      25.436      15.734      59.359      38.353      43.211      9.877       1.072       1.952       600.406     48.935      1.18        839.006     602.813     478.354     33.654      
92.8        22.856      129.648     2.283       6.157       35.192      25.781      18.2        54.314      40.97       62.661      9.913       1.014       1.977       601.846     58.836      1.18        520.458     316.777     223.181     35.358      
93.0        24.604      129.622     2.261       5.797       37.0        37.275      21.436      50.396      35.615      69.899      10.094      1.054       1.989       603.286     61.594      1.18        420.317     329.42      325.548     31.398      
93.2        24.604      131.654     2.269       4.874       49.062      42.211      21.084      51.439      34.482      69.899      10.304      1.179       2.035       604.371     60.716      1.18        1029.807    942.549     928.566     30.121      
93.4        28.642      131.695     2.195       4.481       64.516      38.851      30.964      48.596      36.062      68.566      10.489      1.266       2.167       603.488     63.724      1.18        1710.183    1429.975    1244.924    31.203      
93.6        47.424      128.443     2.236       4.269       73.709      41.175      36.752      45.765      34.583      67.899      10.824      1.219       2.295       600.848     73.626      1.18        1318.039    901.132     658.926     32.322      
93.8        92.257      127.022     2.24        4.596       80.937      43.97       43.108      42.308      32.418      67.899      11.267      1.199       2.21        596.931     84.404      1.181       1212.574    695.62      421.021     30.467      
94.0        63.826      126.488     2.23        4.736       63.413      38.929      37.56       38.113      39.24       69.232      11.579      1.198       2.159       591.247     91.172      1.188       1581.989    1042.42     742.675     28.569      
94.2        112.202     127.391     2.259       4.991       54.584      50.375      39.939      43.476      41.882      68.566      11.686      1.152       2.13        584.288     94.306      1.196       1545.975    1340.154    1248.405    28.466      
94.4        96.828      127.964     2.207       4.979       63.198      62.151      44.656      47.685      38.311      62.566      11.66       1.099       2.051       576.848     93.052      1.2         2147.692    1788.57     1542.561    31.674      
94.6        26.122      126.726     2.165       4.345       83.798      66.125      40.504      41.087      36.651      59.899      11.413      1.119       2.092       569.446     93.428      1.2         2715.936    2371.51     2120.709    35.268      
94.8        54.2        131.919     2.169       4.549       68.332      47.719      32.514      34.191      35.323      61.232      11.405      1.147       2.203       562.208     93.93       1.205       3279.505    2669.494    2210.777    30.514      
95.0        107.152     134.361     2.2         5.069       41.052      32.308      26.687      31.763      26.419      69.232      11.714      1.081       2.182       555.363     85.908      1.225       2376.755    1923.321    1592.058    29.585      
95.2        90.365      134.637     2.269       5.828       39.621      40.928      29.401      42.709      24.511      80.566      11.933      1.078       1.999       550.284     78.514      1.255       1727.563    1461.112    1279.711    40.247      
95.4        27.04       133.583     2.281       5.909       55.722      50.219      42.931      60.217      26.265      88.566      11.76       1.162       1.942       546.483     77.511      1.277       1616.259    1385.214    1231.475    39.665      
95.6        20.559      128.036     2.239       4.907       79.162      53.204      48.7        70.525      26.784      89.899      11.478      1.259       2.12        544.524     78.514      1.296       2253.723    1901.015    1641.47     33.277      
95.8        43.251      127.902     2.304       4.506       88.788      50.48       48.562      74.623      29.093      83.232      11.717      1.276       2.342       544.601     83.903      1.32        3406.608    2951.642    2590.763    30.906      
