~Version Information Section
VERS.                                         2.0:CWLS log ASCII Standart – VERSION 2.0
WRAP.                                          NO:One line per depth step
~Well Information Section
STRT.M                                        0.6:Начальная глубина
STOP.M                                      205.9:Конечная глубина
STEP.M                                          0:Шаг квантования по глубине
NULL.                                    -9999.25:Признак "Нет данных"
WELL.                                       106Мх:Скважина
~Parameter Information Section
~Curve Information Section
DEPTH.M                                          :Глубина
BK.Ohm*M                                         :BK     (БК)
DS.mm                                            :DS  (ДС)
GGK.g/cm3                                        :GGKp
ГК.mcr/h                                         :GK          (ГК)
GZ1.Ohm*M                                        :GZ1   ГЗ1(A0.4M0.1N)
GZ2.Ohm*M                                        :GZ2   ГЗ2(A1.0M0.1N)
GZ3.Ohm*M                                        :GZ3   ГЗ3(A2.0M0.5N)
U2.mV                                            :U2
U3.mV                                            :U3
КП.%                                             :Кп
GZ4.Ohm*M                                        :GZ4   ГЗ4(A4.0M0.5N)
GZ5.Ohm*M                                        :GZ5   ГЗ5(A8.0M0.5N)
GZR.Ohm*M                                        :GZK   ГЗK(N0.5M2.0A)
ИК.Ohm*M                                         :IK
НГК.u.e.                                         :NGK
NNKM.                                            :NNKm  (ННКм)
PS.mv                                            :PS       (ПС)
PZ.Ohm*M                                         :PZ    (КС)
RS.Ohm*M                                         :RS (Резистивиметр)
U1.mV                                            :U1
~ASCII LOG DATA
# ...
64.6        15.959      134.177     2.307       7.912       11.014      10.055      10.456      382.318     490.209     39.004      20.202      15.628      9.759       13.64       1.05        1.959       743.991     19.867      1.1         482.97      
64.7        15.596      134.638     2.297       8.102       11.499      10.372      11.546      363.584     546.072     39.042      21.664      16.473      10.636      13.453      1.081       1.921       757.68      19.748      1.1         405.427     
64.8        16.106      130.478     2.288       8.075       12.522      10.768      12.583      343.742     567.318     37.857      23.887      17.311      11.273      13.322      1.137       1.912       770.342     19.659      1.1         338.663     
64.9        15.959      127.979     2.277       7.929       13.558      11.078      13.425      318.268     525.655     36.263      26.39       18.017      11.748      13.294      1.157       1.943       780.609     19.615      1.1         331.128     
65.0        16.827      128.819     2.267       7.813       13.961      11.319      13.919      294.857     461.889     35.598      28.531      18.476      11.748      13.277      1.134       1.979       788.822     19.585      1.1         349.948     
65.1        19.187      128.48      2.262       7.427       13.979      11.561      13.838      286.084     438.513     35.006      29.73       18.685      11.588      13.299      1.138       2.018       791.902     19.541      1.1         350.488     
65.2        23.014      127.689     2.257       7.062       13.945      11.802      13.509      277.312     479.142     34.196      29.313      18.717      11.309      13.43       1.163       2.046       792.244     19.378      1.1         313.18      
65.3        23.933      126.357     2.264       6.989       13.945      11.802      13.005      270.102     549.011     33.015      27.244      18.659      10.838      13.575      1.211       2.059       792.244     19.052      1.1         278.023     
65.4        23.335      126.891     2.276       7.206       13.919      11.533      12.103      270.102     599.715     32.447      24.453      18.561      10.134      13.711      1.219       2.09        788.48      18.489      1.1         265.434     
65.5        24.155      128.502     2.287       6.943       13.376      11.265      11.103      286.419     602.789     31.878      21.817      18.419      9.589       13.986      1.194       2.121       781.636     17.837      1.1         274.915     
65.6        27.353      128.78      2.298       6.757       12.341      10.935      10.09       303.666     566.073     31.604      19.812      18.202      9.174       14.104      1.123       2.125       772.053     17.2        1.1         331.213     
65.7        35.892      135.035     2.299       6.533       11.304      10.647      9.333       363.384     517.066     33.537      18.749      17.844      8.899       14.257      1.06        2.122       761.787     16.756      1.1         421.886     
65.8        26.607      136.066     2.279       6.918       10.882      10.351      8.901       407.945     483.471     35.629      18.478      17.324      9.014       14.265      1.01        2.013       752.204     16.459      1.1         498.128     
65.9        16.181      133.35      2.254       7.151       10.882      10.336      8.983       391.305     467.885     36.529      18.491      16.699      9.275       14.273      1.028       1.883       743.649     16.267      1.1         518.307     
66.0        15.276      130.663     2.232       7.478       10.96       10.298      9.206       374.665     464.494     35.303      18.501      16.088      9.493       14.111      1.045       1.904       742.964     16.074      1.1         489.931     
66.1        16.293      128.16      2.211       7.647       11.046      10.316      9.373       366.724     467.307     32.993      18.522      15.615      9.658       14.011      1.062       1.946       742.964     15.852      1.1         460.85      
66.2        18.578      126.687     2.202       7.653       11.185      10.555      9.502       359.548     484.177     31.911      18.676      15.361      9.745       13.814      1.086       1.985       749.809     15.615      1.1         427.572     
66.3        19.815      126.722     2.21        7.733       11.363      10.885      9.631       353.57      520.723     31.196      19.074      15.273      9.811       13.693      1.103       2.023       764.524     15.393      1.1         390.259     
66.4        21.184      127.779     2.219       7.805       11.551      11.091      9.76        347.758     568.975     31.948      19.685      15.361      9.921       13.616      1.099       1.988       776.502     15.2        1.1         348.973     
66.5        20.37       127.052     2.229       7.685       11.644      11.138      9.76        341.946     592.981     33.539      20.351      15.621      9.986       13.64       1.066       1.954       785.4       15.007      1.1         321.126     
66.6        19.815      126.929     2.237       7.409       11.644      11.134      9.627       316.958     572.369     34.903      20.885      16.122      10.017      13.663      1.023       1.983       790.191     14.815      1.1         310.493     
66.7        19.32       127.205     2.243       7.123       11.62       10.78       9.5         287.679     515.733     36.441      21.084      16.815      10.067      13.67       1.012       2.013       794.64      14.681      1.1         320.926     
66.8        20.464      127.842     2.248       7.058       11.462      10.447      9.362       287.679     470.567     36.726      20.844      17.605      10.261      13.711      1.048       2.014       799.089     14.681      1.1         357.48      
66.9        23.281      128.663     2.256       7.335       11.251      10.079      9.232       324.557     447.493     36.071      20.281      18.371      10.562      13.717      1.098       2.026       803.88      14.696      1.1         422.327     
67.0        24.099      129.563     2.268       7.208       10.995      9.918       9.152       380.5       433.654     34.683      19.618      19.002      11.044      13.711      1.063       2.08        809.013     14.874      1.1         511.619     
67.1        23.014      130.11      2.279       7.407       10.756      9.573       9.194       404.931     406.561     33.353      19.037      19.444      11.613      13.789      1.012       2.106       813.804     15.156      1.1         578.351     
67.2        23.933      130.479     2.286       7.26        10.632      9.379       9.317       338.557     372.424     32.8        18.664      19.724      12.216      13.838      0.977       2.051       818.253     15.437      1.1         594.079     
67.3        21.928      131.045     2.284       7.418       10.632      9.452       9.456       320.32      355.563     32.407      18.592      19.917      12.359      13.856      1.075       1.996       821.676     15.689      1.1         550.947     
67.4        17.989      131.242     2.276       7.368       10.695      9.557       9.631       320.32      359.101     33.123      18.801      20.086      12.3        13.814      1.109       1.94        822.36      15.896      1.1         495.885     
67.5        16.788      129.575     2.267       7.305       10.846      9.715       9.758       325.351     377.426     34.226      19.133      20.236      11.802      13.717      1.164       1.897       822.36      16.104      1.1         460.239     
67.6        16.749      128.928     2.266       7.46        10.908      9.675       9.828       327.527     388.61      34.518      19.396      20.331      10.946      13.67       1.101       1.889       819.964     16.311      1.1         454.425     
67.7        18.03       128.628     2.269       7.517       10.908      9.525       9.805       328.051     387.871     33.852      19.465      20.346      9.731       13.599      1.051       1.966       814.489     16.548      1.1         459.552     
