~Version Information Section
VERS.                                         2.0:CWLS log ASCII Standart – VERSION 2.0
WRAP.                                          NO:One line per depth step
~Well Information Section
STRT.M                                        2.0:Начальная глубина
STOP.M                                      201.2:Конечная глубина
STEP.M                                          0:Шаг квантования по глубине
NULL.                                    -9999.25:Признак "Нет данных"
WELL.                                       126Мх:Скважина
~Parameter Information Section
~Curve Information Section
DEPTH.M                                          :Глубина
BK.ohmm                                          :BK
ПРОФ_СР.мм                                       :DS  (ДС)
W.g/cm3                                          :GGKp
ГК.мкР/час                                       :GK          (ГК)
ГЗ1.Омм                                          :GZ1   ГЗ1(A0.4M0.1N)
ГЗ2.Омм                                          :GZ2   ГЗ2(A1.0M0.1N)
ГЗ3.Омм                                          :GZ3   ГЗ3(A2.0M0.5N)
ГЗ4.Oмм                                          :GZ4   ГЗ4(A4.0M0.5N)
ГЗ5.Oмм                                          :GZ5   ГЗ5(A8.0M0.5N)
ГЗК.Омм                                          :GZK   ГЗK(N0.5M2.0A)
ИК.ohmm                                          :IK
НГК.усл.ед.                                      :NGK
ННКМ.усл.ед                                      :NNKm  (ННКм)
PS.мВ                                            :PS       (ПС)
PZ.Омм                                           :PZ    (КС)
RIS.Омм                                          :RS (Резистивиметр)
U1.мВ                                            :U1
U2.мВ                                            :U2
U3.mv                                            :U3
~ASCII LOG DATA
# ...
189.0       24.604      120.706     2.446       7.74        210.6       252.28      220.799     126.136     191.334     218.786     8.343       1.165       1.992       210.454     433.207     -9999.25    391.982     450.153     652.604     
189.1       18.836      120.826     2.485       7.626       205.2       251.872     229.6       127.737     191.334     218.586     8.319       1.139       2.016       210.982     430.951     -9999.25    379.655     438.916     686.176     
189.2       18.323      120.674     2.483       7.401       199.8       250.24      235.999     124.336     191.534     217.786     8.28        1.183       2.136       211.51      428.695     -9999.25    532.814     540.907     750.32      
189.3       19.055      121.723     2.453       7.178       194.4       250.24      250.4       122.936     192.334     217.786     8.243       1.236       2.302       212.038     426.439     -9999.25    886.188     793.828     874.999     
189.4       19.32       122.299     2.414       6.753       189.0       250.24      255.6       118.936     193.935     217.786     8.168       1.282       2.339       213.094     424.935     -9999.25    1224.853    1013.729    943.783     
189.5       18.967      121.511     2.385       6.435       182.52      250.444     250.401     112.136     201.534     217.986     8.139       1.298       2.321       214.15      423.431     -9999.25    1259.952    951.899     796.715     
189.6       18.75       121.887     2.365       6.8         179.28      252.076     248.801     110.336     205.535     218.986     8.143       1.293       2.394       215.206     422.679     -9999.25    1032.812    689.543     534.714     
189.7       17.179      121.509     2.336       7.974       176.04      256.156     248.401     108.337     201.535     220.985     8.165       1.265       2.406       216.262     422.679     -9999.25    732.838     468.328     402.463     
189.8       14.689      122.32      2.303       9.441       171.72      259.624     245.601     103.136     197.535     226.585     8.203       1.197       2.223       217.318     424.559     -9999.25    550.1       418.57      454.662     
189.9       13.9        122.442     2.294       9.977       169.56      260.44      238.4       100.736     193.334     229.386     8.239       1.098       2.057       217.846     427.191     -9999.25    464.168     401.277     470.516     
190.0       15.101      123.221     2.293       9.532       168.48      260.44      226.402     97.136      188.535     227.186     8.26        1.012       1.923       217.846     432.079     -9999.25    454.874     336.044     344.957     
190.1       17.022      121.507     2.297       8.591       165.24      259.013     214.402     95.136      185.134     222.587     8.344       0.958       1.851       217.846     433.207     -9999.25    588.85      338.379     240.842     
190.2       17.022      121.834     2.3         7.995       164.16      251.465     202.402     93.336      183.735     212.187     8.434       0.946       1.885       218.374     433.207     -9999.25    804.59      444.682     267.578     
190.3       17.179      121.937     2.296       7.562       158.76      243.304     192.401     92.536      180.135     204.186     8.561       0.98        1.908       219.43      430.575     -9999.25    977.757     567.94      354.306     
190.4       18.197      122.168     2.288       7.289       156.6       239.836     189.2       92.536      174.934     197.186     8.715       1.013       1.917       220.486     424.934     -9999.25    1029.206    627.125     409.718     
190.5       22.182      121.738     2.275       7.386       154.44      238.408     182.001     92.536      172.935     194.186     8.894       1.023       1.943       221.542     415.535     -9999.25    1000.397    645.136     446.954     
190.6       36.224      122.217     2.267       7.677       150.12      234.94      178.401     92.536      171.134     191.586     9.123       1.021       1.972       222.598     407.639     -9999.25    974.33      668.155     493.074     
190.7       44.157      122.269     2.25        8.006       149.04      230.452     175.601     92.536      169.535     190.386     9.333       1.07        1.98        223.654     400.119     -9999.25    964.426     704.809     553.708     
190.8       56.754      122.193     2.252       7.712       147.96      228.004     169.601     -9999.25    165.335     -9999.25    9.513       1.143       1.987       224.182     391.847     -9999.25    1003.812    775.465     640.484     
190.9       77.268      122.214     2.26        7.69        146.88      223.516     163.6       -9999.25    160.934     -9999.25    9.724       1.209       2.002       224.71      384.703     -9999.25    1049.372    846.417     729.083     
191.0       75.509      122.304     2.291       7.503       144.72      218.416     158.401     -9999.25    159.134     -9999.25    9.815       1.204       2.026       225.238     377.183     -9999.25    972.15      824.301     763.021     
191.1       77.804      122.162     2.31        7.614       139.32      216.784     156.401     -9999.25    157.735     -9999.25    9.869       1.175       2.061       225.766     368.911     -9999.25    808.542     720.743     730.906     
191.2       91.833      122.285     2.315       7.524       138.24      212.704     154.401     -9999.25    154.935     -9999.25    9.852       1.169       2.09        225.766     359.512     -9999.25    819.484     670.571     659.931     
191.3       77.446      122.182     2.324       7.844       138.24      207.401     152.801     -9999.25    152.935     -9999.25    9.807       1.151       2.1         225.766     351.615     -9999.25    1077.283    741.47      602.997     
191.4       56.494      122.57      2.333       8.153       137.16      199.036     152.801     -9999.25    150.934     -9999.25    9.7         1.135       2.111       225.766     344.095     -9999.25    1360.461    840.473     564.548     
191.5       44.978      122.283     2.331       8.163       136.08      197.405     152.801     -9999.25    149.134     -9999.25    9.584       1.059       2.12        225.766     337.703     -9999.25    1449.325    862.999     535.533     
191.6       43.251      122.274     2.311       8.159       135.0       192.713     152.801     -9999.25    147.335     -9999.25    9.383       1.048       2.122       226.294     333.567     -9999.25    1393.551    842.175     534.883     
191.7       36.308      122.312     2.309       8.394       135.0       186.796     152.801     -9999.25    142.535     -9999.25    9.174       1.042       2.151       227.35      330.935     -9999.25    1371.318    905.24      643.727     
191.8       24.491      122.388     2.301       8.823       133.92      185.368     152.801     -9999.25    139.134     -9999.25    8.947       1.051       2.162       228.406     327.927     -9999.25    1382.703    1040.726    844.145     
191.9       19.634      122.849     2.319       8.823       131.76      182.104     152.801     -9999.25    138.134     -9999.25    8.616       1.043       2.052       230.518     325.671     -9999.25    1421.697    1177.19     1028.609    
192.0       17.62       122.265     2.34        8.475       131.76      177.005     152.801     -9999.25    137.334     -9999.25    8.386       1.052       1.941       232.63      322.287     -9999.25    1458.785    1263.833    1149.492    
192.1       19.588      121.879     2.36        8.18        131.76      169.456     152.801     -9999.25    137.134     -9999.25    8.112       1.079       1.893       234.742     318.903     -9999.25    1480.373    1407.187    1453.293    
192.2       27.102      121.834     2.365       7.906       131.76      168.64      153.2       -9999.25    136.334     -9999.25    7.966       1.067       1.887       236.326     314.767     -9999.25    1501.566    1642.484    1694.78     
192.3       38.637      122.0       2.367       8.095       131.76      168.844     154.801     -9999.25    136.334     -9999.25    7.869       1.048       1.933       238.438     310.631     -9999.25    1627.475    1820.509    1833.222    
