~Version Information Section
VERS.                                         2.0:CWLS log ASCII Standart – VERSION 2.0
WRAP.                                          NO:One line per depth step
~Well Information Section
STRT.M                                        2.1:Начальная глубина
STOP.M                                      196.8:Конечная глубина
STEP.M                                          0:Шаг квантования по глубине
NULL.                                    -9999.25:Признак "Нет данных"
WELL.                                       154Мх:Скважина
~Parameter Information Section
~Curve Information Section
DEPTH.M                                          :Глубина
BK.lgОмм                                         :BK     (БК)
DСР.мм                                           :DS  (ДС)
ГГКП.g/cm3                                       :GGKp
ГК.мкР/час                                       :GK          (ГК)
ГЗ1.Омм                                          :GZ1   ГЗ1(A0.4M0.1N)
ГЗ2.Омм                                          :GZ2   ГЗ2(A1.0M0.1N)
ГЗ3.Омм                                          :GZ3   ГЗ3(A2.0M0.5N)
ГЗ4.Oмм                                          :GZ4   ГЗ4(A4.0M0.5N)
ГЗ5.Oмм                                          :GZ5   ГЗ5(A8.0M0.5N)
ГЗК.Омм                                          :GZR   ГЗK(N0.5M2.0A)
ИК.мСм/м                                         :IK
НГК.усл.ед.                                      :NGK     (НГК)
РЕЗ.Омм                                          :RS (Резистивиметр)
W.                                               :W
ННКМ.усл.ед                                      :NNKm  (ННКм)
PS.мB                                            :PS       (ПС)
~ASCII LOG DATA
# ...
118.1       525.969     151.132     2.538       3.07        92.37       40.114      69.182      17.423      18.11       71.16       32.575      1.479       1.0         22.685      1.744       38.303      
118.2       459.19      151.353     2.531       3.318       92.37       39.594      68.302      17.303      17.83       70.12       32.451      1.474       1.0         22.829      1.756       38.455      
118.3       349.149     151.349     2.512       3.409       92.37       39.594      66.542      17.183      17.41       69.08       32.451      1.386       1.0         23.209      1.747       38.686      
118.4       239.12      151.493     2.465       3.559       92.37       39.594      63.462      17.183      17.27       68.04       32.194      1.328       1.0         24.009      1.719       38.918      
118.5       188.123     151.568     2.395       3.626       92.79       39.594      59.942      17.063      16.85       65.96       31.772      1.253       1.0         25.946      1.674       39.278      
118.6       169.121     151.839     2.316       3.791       93.21       39.594      58.622      16.943      16.71       64.92       31.772      1.191       1.0         28.156      1.608       39.743      
118.7       150.119     151.508     2.295       4.013       93.21       39.594      58.182      16.823      16.57       60.76       31.096      1.136       1.0         29.857      1.527       40.244      
118.8       133.363     151.43      2.291       4.492       93.21       39.594      56.862      16.823      16.43       60.76       30.331      1.119       1.0         31.115      1.454       40.734      
118.9       109.532     151.438     2.3         4.918       93.21       39.594      56.422      16.703      16.29       60.76       30.331      1.156       1.0         32.082      1.393       41.198      
119.0       73.931      151.552     2.305       5.395       93.63       39.594      55.982      16.583      16.15       57.64       29.489      1.147       1.0         32.361      1.342       41.686      
119.1       57.372      151.624     2.317       5.705       93.63       40.114      55.542      16.583      16.15       56.6        28.252      1.133       1.0         31.809      1.307       42.176      
119.2       36.843      151.508     2.317       5.779       93.63       40.634      55.542      16.463      16.15       56.6        26.937      1.14        1.0         30.929      1.283       42.614      
119.3       30.949      151.689     2.332       5.787       93.63       40.634      55.102      16.343      16.15       56.6        26.937      1.162       1.0         30.522      1.267       42.975      
119.4       25.057      151.73      2.331       5.605       94.05       41.674      54.662      16.223      16.15       55.56       25.681      1.141       1.0         30.293      1.252       43.236      
119.5       30.86       151.75      2.321       5.727       94.47       42.714      54.662      16.223      16.15       54.52       24.731      1.147       1.0         30.394      1.238       43.519      
119.6       29.014      151.879     2.326       5.924       95.31       44.274      54.662      16.223      16.29       54.52       24.731      1.166       1.0         30.603      1.226       43.725      
119.7       26.914      151.941     2.322       6.27        95.73       44.794      54.662      16.223      16.57       54.52       23.748      1.169       1.0         30.589      1.211       43.807      
119.8       21.881      152.09      2.308       6.539       97.83       45.834      54.662      16.223      16.71       55.56       22.885      1.172       1.0         30.315      1.2         43.859      
119.9       22.47       152.047     2.315       6.804       103.71      46.354      54.662      16.223      17.13       61.8        22.885      1.156       1.0         30.312      1.196       43.859      
120.0       22.57       152.088     2.302       6.791       111.27      46.354      54.662      16.223      17.69       71.16       22.24       1.151       1.0         30.576      1.199       43.808      
120.1       22.67       152.195     2.303       6.92        113.37      46.874      54.662      16.343      18.11       84.68       21.719      1.141       1.0         31.251      1.205       43.705      
120.2       21.664      152.175     2.316       6.837       116.73      47.394      54.662      16.343      19.51       94.04       21.719      1.141       1.0         32.3        1.211       43.528      
120.3       20.706      152.17      2.31        6.86        119.67      47.914      54.662      16.583      18.95       100.28      21.34       1.121       1.0         33.364      1.208       43.322      
120.4       18.547      152.168     2.293       6.874       123.87      48.954      55.982      16.703      18.81       106.52      20.973      1.121       1.0         33.915      1.2         43.115      
120.5       16.653      152.329     2.329       6.821       124.29      49.994      56.422      17.183      18.81       117.96      20.695      1.124       1.0         33.759      1.189       42.933      
120.6       15.476      152.36      2.343       6.633       124.29      51.554      57.742      18.503      18.81       101.32      20.695      1.149       1.0         32.907      1.178       42.701      
120.7       18.157      151.979     2.351       6.545       123.45      52.074      64.342      18.863      18.67       99.24       20.617      1.201       1.0         31.597      1.183       42.443      
120.8       20.839      151.729     2.366       5.945       123.03      54.674      64.342      18.863      18.67       95.08       20.774      1.292       1.0         30.034      1.203       42.186      
120.9       23.007      151.679     2.406       5.16        122.61      55.194      66.102      18.743      18.39       88.84       20.774      1.346       1.0         28.326      1.248       41.978      
121.0       22.518      151.725     2.425       4.293       122.61      58.314      64.782      18.623      18.25       85.72       21.134      1.423       1.0         26.044      1.316       41.797      
121.1       24.366      151.797     2.426       3.37        122.61      62.994      64.342      18.263      18.25       80.52       21.675      1.486       1.0         24.567      1.401       41.642      
121.2       51.527      151.748     2.446       2.461       122.61      57.794      64.342      17.543      18.11       79.48       22.647      1.509       1.0         23.748      1.498       41.487      
121.3       78.691      151.755     2.457       1.96        124.29      57.274      63.902      17.303      17.97       78.44       22.647      1.483       1.0         23.536      1.584       41.384      
121.4       146.791     151.742     2.437       1.771       125.55      53.114      63.462      17.183      17.83       73.24       23.653      1.495       1.0         23.228      1.641       41.432      
121.5       197.769     151.865     2.42        1.751       126.81      52.074      63.022      17.063      17.69       69.08       24.839      1.487       1.0         23.408      1.675       41.585      
121.6       247.575     151.932     2.416       1.732       128.07      51.554      63.022      16.943      17.69       68.04       24.839      1.478       1.0         23.693      1.69        41.792      
121.7       254.103     152.008     2.403       1.751       120.09      48.954      63.022      16.943      17.83       67.0        26.079      1.464       1.0         23.94       1.681       42.153      
121.8       250.067     152.101     2.402       1.725       119.25      46.874      62.142      16.823      17.83       65.96       27.241      1.468       1.0         23.899      1.677       42.665      
121.9       245.351     152.044     2.396       1.839       117.99      44.794      61.702      16.583      17.83       65.96       28.306      1.488       1.0         24.237      1.683       43.336      
122.0       237.228     151.666     2.395       1.959       114.63      44.274      61.702      16.463      17.83       61.8        28.306      1.485       1.0         24.754      1.691       44.082      
