~Version Information Section
VERS.                                         2.0:CWLS log ASCII Standart – VERSION 2.0
WRAP.                                          NO:One line per depth step
~Well Information Section
STRT.M                                        0.8:Начальная глубина
STOP.M                                      209.6:Конечная глубина
STEP.M                                          0:Шаг квантования по глубине
NULL.                                    -9999.25:Признак "Нет данных"
WELL.                                         5Мх:Скважина
~Parameter Information Section
~Curve Information Section
DEPTH.M                                          :Глубина
BK.Ohm*M                                         :BK     (БК)
DS.mm                                            :DS  (ДС)
ГК.mcr/h                                         :GK          (ГК)
GZ1.Ohm*M                                        :GZ1   ГЗ1(A0.4M0.1N)
GZ2.Ohm*M                                        :GZ2   ГЗ2(A1.0M0.1N)
GZ3.Ohm*M                                        :GZ3   ГЗ3(A2.0M0.5N)
GZ4.Ohm*M                                        :GZ4   ГЗ4(A4.0M0.5N)
GZ5.Ohm*M                                        :GZ5   ГЗ5(A8.0M0.5N)
GZR.Ohm*M                                        :GZK   ГЗK(N0.5M2.0A)
ИК.Ohm*M                                         :IK
НГК.                                             :NNKb  (ННКб)
NNKM.                                            :NNKm  (ННКм)
PS.mv                                            :PS       (ПС)
PZ.Ohm*M                                         :PZ    (КС)
RS.Ohm*M                                         :RS (Резистивиметр)
W.%                                              :W
ГГК.g/cm3                                        :ГГК
SGDT1.1/min                                      :ПЛ1
SGDT2.1/min                                      :ПЛ2
SGDT3.1/min                                      :ПЛ3
SGDT4.1/min                                      :ПЛ4
~ASCII LOG DATA
# ...
7.0         -9999.25    176.191     3.711       -9999.25    -9999.25    -9999.25    -9999.25    -9999.25    -9999.25    -9999.25    2.761       1.946       850.943     18.029      0.83        35.704      2.205       18560.002   23380.0     17680.0     5940.0      
7.2         -9999.25    180.226     4.103       -9999.25    -9999.25    -9999.25    -9999.25    -9999.25    -9999.25    -9999.25    2.849       2.023       857.5       20.424      0.828       36.46       2.183       18360.0     23860.0     17420.0     6280.0      
7.4         -9999.25    176.196     3.746       -9999.25    -9999.25    -9999.25    -9999.25    -9999.25    -9999.25    -9999.25    2.856       2.12        863.234     21.009      0.828       38.432      2.157       21080.0     25560.0     18400.0     6280.0      
7.6         -9999.25    173.427     3.028       -9999.25    -9999.25    -9999.25    -9999.25    -9999.25    -9999.25    -9999.25    2.695       2.05        859.798     22.232      0.828       38.946      2.156       19999.998   26060.0     18360.0     5740.0      
7.8         -9999.25    170.095     2.937       -9999.25    -9999.25    -9999.25    -9999.25    -9999.25    -9999.25    -9999.25    2.814       2.055       838.821     19.902      0.828       37.271      2.175       19320.0     24220.0     17940.0     5640.0      
8.0         -9999.25    168.571     3.371       -9999.25    -9999.25    -9999.25    -9999.25    -9999.25    -9999.25    -9999.25    3.002       2.052       813.563     13.726      0.828       34.91       2.172       17880.002   22920.0     17040.0     5320.0      
8.2         -9999.25    171.428     3.38        -9999.25    -9999.25    -9999.25    -9999.25    -9999.25    -9999.25    -9999.25    2.991       2.096       794.608     10.582      0.828       35.509      2.13        16639.998   22680.0     16560.0     5460.0      
8.4         -9999.25    170.609     3.757       -9999.25    -9999.25    -9999.25    -9999.25    -9999.25    -9999.25    -9999.25    2.907       2.033       792.33      9.355       0.828       34.818      2.15        18480.0     21740.0     15440.001   5200.0      
8.6         -9999.25    173.85      4.203       -9999.25    -9999.25    -9999.25    -9999.25    -9999.25    -9999.25    -9999.25    3.332       1.939       804.611     13.838      0.828       27.546      2.312       16079.993   20000.0     13840.0     5180.0      
8.8         -9999.25    175.216     4.764       -9999.25    -9999.25    -9999.25    -9999.25    -9999.25    -9999.25    -9999.25    4.822       2.27        833.952     28.248      0.831       20.768      2.447       11160.0     17320.0     13480.0     4840.0      
9.0         -9999.25    177.122     4.777       -9999.25    -9999.25    -9999.25    -9999.25    -9999.25    -9999.25    -9999.25    5.535       2.87        854.703     46.499      0.834       23.481      2.39        10239.995   18360.0     15080.0     4820.0      
9.2         -9999.25    179.673     3.592       -9999.25    -9999.25    -9999.25    -9999.25    -9999.25    -9999.25    -9999.25    3.847       2.833       861.655     50.414      0.834       34.672      2.224       14879.99    22480.0     17160.0     5240.0      
9.4         -9999.25    179.204     2.249       -9999.25    -9999.25    -9999.25    -9999.25    -9999.25    -9999.25    -9999.25    2.539       2.093       861.732     36.97       0.834       40.467      2.13        19480.004   24520.0     17360.0     5260.0      
9.6         -9999.25    178.016     2.12        -9999.25    -9999.25    -9999.25    -9999.25    -9999.25    -9999.25    -9999.25    2.457       1.818       860.942     19.718      0.834       37.94       2.128       19239.994   23640.0     16059.999   4680.0      
9.8         -9999.25    175.961     3.386       -9999.25    -9999.25    -9999.25    -9999.25    -9999.25    -9999.25    -9999.25    2.62        1.847       856.488     12.971      0.836       36.424      2.162       17440.0     22540.0     15420.0     4860.0      
10.0        -9999.25    175.179     4.762       -9999.25    -9999.25    -9999.25    -9999.25    -9999.25    -9999.25    -9999.25    2.642       1.92        846.174     16.271      0.839       37.207      2.214       15800.003   20780.0     14900.0     4820.0      
10.2        -9999.25    177.03      5.509       -9999.25    -9999.25    -9999.25    -9999.25    -9999.25    -9999.25    -9999.25    2.775       1.993       836.917     17.914      0.839       36.619      2.258       14999.999   19980.0     14500.0     4920.0      
10.4        -9999.25    177.394     4.951       -9999.25    -9999.25    -9999.25    -9999.25    -9999.25    -9999.25    -9999.25    2.867       2.009       838.007     18.901      0.839       35.85       2.249       14400.0     19500.0     14940.0     5520.0      
10.6        -9999.25    177.551     4.065       -9999.25    -9999.25    -9999.25    -9999.25    -9999.25    -9999.25    -9999.25    2.727       2.041       852.929     20.254      0.839       38.99       2.193       15560.0     21400.0     15519.999   5900.0      
10.8        -9999.25    176.825     3.739       -9999.25    -9999.25    -9999.25    -9999.25    -9999.25    3.462       -9999.25    2.461       1.919       863.463     22.405      0.841       40.791      2.177       17640.0     21880.0     16160.001   5300.0      
11.0        -9999.25    176.181     3.741       -9999.25    -9999.25    -9999.25    -9999.25    -9999.25    4.102       -9999.25    2.643       1.84        859.139     29.321      0.844       36.166      2.206       16560.006   20580.0     15500.001   5000.0      
11.2        -9999.25    176.914     4.424       -9999.25    -9999.25    -9999.25    -9999.25    -9999.25    6.255       -9999.25    2.935       1.995       837.934     36.203      0.845       34.702      2.225       15599.998   20060.0     15380.001   4580.0      
11.4        -9999.25    174.747     4.448       -9999.25    -9999.25    -9999.25    -9999.25    -9999.25    14.318      -9999.25    3.0         2.181       823.493     37.347      0.845       37.177      2.233       16040.001   21240.0     16380.0     5080.0      
11.6        -9999.25    171.991     3.981       -9999.25    -9999.25    -9999.25    -9999.25    -9999.25    11.711      -9999.25    2.894       2.152       822.303     28.705      0.847       37.904      2.26        15959.998   21960.0     16400.0     4800.0      
11.8        -9999.25    171.706     2.571       -9999.25    -9999.25    -9999.25    3.924       -9999.25    5.139       -9999.25    3.015       2.057       826.829     23.714      0.853       34.001      2.283       14840.0     21000.0     15980.001   4680.0      
12.0        -9999.25    173.292     2.555       -9999.25    -9999.25    -9999.25    4.084       -9999.25    2.178       -9999.25    3.467       2.13        834.64      20.974      0.857       30.561      2.25        15040.0     21380.0     16280.001   5380.0      
12.2        -9999.25    175.246     3.885       -9999.25    -9999.25    -9999.25    4.084       -9999.25    2.045       -9999.25    3.45        2.277       847.731     21.809      0.857       32.788      2.19        17199.994   23400.0     16860.0     5720.0      
12.4        -9999.25    171.408     4.705       -9999.25    -9999.25    -9999.25    4.084       -9999.25    2.601       -9999.25    3.347       2.253       855.184     21.23       0.857       33.02       2.204       18080.0     24240.0     17440.0     5080.0      
12.6        -9999.25    172.215     4.034       -9999.25    -9999.25    -9999.25    4.084       -9999.25    2.452       -9999.25    3.671       2.172       854.711     31.458      0.857       27.871      2.335       15520.0     22000.0     15080.0     4880.0      
12.8        -9999.25    179.387     3.777       -9999.25    -9999.25    -9999.25    4.244       -9999.25    1.689       -9999.25    4.548       2.301       855.167     47.005      0.859       22.194      2.425       10320.008   18400.0     13040.0     4760.0      
13.0        -9999.25    175.76      3.791       -9999.25    -9999.25    -9999.25    4.404       -9999.25    2.746       -9999.25    4.847       2.89        875.251     46.923      0.862       27.513      2.378       9279.995    17900.0     12980.0     4720.0      
