~Version Information Section
VERS.                                         2.0:CWLS log ASCII Standart – VERSION 2.0
WRAP.                                          NO:One line per depth step
~Well Information Section
STRT.M                                        0.4:Начальная глубина
STOP.M                                      206.4:Конечная глубина
STEP.M                                          0:Шаг квантования по глубине
NULL.                                    -9999.25:Признак "Нет данных"
WELL.                                       157Мх:Скважина
~Parameter Information Section
~Curve Information Section
DEPTH.M                                          :Глубина
BK.Ohm*M                                         :BK     (БК)
DS.mm                                            :DS  (ДС)
GGK.g/cm3                                        :GGKp
ГК.mcr/h                                         :GK          (ГК)
GZ1.Ohm*M                                        :GZ1   ГЗ1(A0.4M0.1N)
GZ2.Ohm*M                                        :GZ2   ГЗ2(A1.0M0.1N)
GZ3.Ohm*M                                        :GZ3   ГЗ3(A2.0M0.5N)
GZ4.Ohm*M                                        :GZ4   ГЗ4(A4.0M0.5N)
GZ5.Ohm*M                                        :GZ5   ГЗ5(A8.0M0.5N)
GZR.                                             :GZR   ГЗK(N0.5M2.0A)
ИК.Ohm*M                                         :IK
НГК.ue                                           :NGK     (НГК)
NNKM.                                            :NNKm  (ННКм)
PS.mv                                            :PS       (ПС)
PZ.Ohm*M                                         :PZ    (КС)
RS.Ohm*M                                         :RS (Резистивиметр)
W.%                                              :W
~ASCII LOG DATA
# ...
22.6        224.455     170.36      2.334       4.475       247.993     353.108     72.883      71.369      49.511      47.159      29.949      1.934       2.821       95.682      144.46      1.131       19.682      
22.7        75.2        169.948     2.307       5.056       240.671     347.252     70.866      63.685      43.927      35.791      27.628      1.885       2.696       114.284     106.494     1.123       22.456      
22.8        25.199      169.97      2.279       5.597       198.316     306.154     61.105      49.266      39.202      25.994      25.44       1.749       2.406       134.842     77.629      1.122       26.608      
22.9        15.195      169.236     2.257       6.64        130.373     211.739     45.135      34.039      35.305      19.406      23.918      1.644       2.236       155.006     63.549      1.124       30.848      
23.0        14.23       168.963     2.242       7.258       61.644      107.649     28.782      21.755      31.853      16.184      23.078      1.53        2.056       172.606     56.809      1.127       33.797      
23.1        14.322      168.627     2.235       8.083       34.543      67.079      18.157      13.812      28.062      16.203      22.996      1.508       2.051       186.166     54.382      1.127       35.002      
23.2        14.053      168.623     2.243       8.338       23.068      52.348      14.533      9.721       24.095      16.808      23.722      1.59        2.116       196.029     53.014      1.127       34.659      
23.3        14.095      169.629     2.276       8.366       20.801      51.873      14.909      8.952       20.991      19.258      25.029      1.696       2.265       202.768     51.793      1.124       31.054      
23.4        25.246      171.032     2.326       7.621       21.084      51.837      17.286      9.021       19.869      20.596      26.833      1.794       2.651       207.326     49.844      1.123       25.778      
23.5        65.42       169.786     2.378       5.874       22.636      51.691      21.78       9.603       19.74       20.334      28.4        1.832       2.936       210.754     47.604      1.126       21.859      
23.6        59.605      170.506     2.413       4.293       24.611      50.578      26.615      10.795      21.024      18.66       29.677      1.903       3.062       213.791     46.489      1.13        21.314      
23.7        42.553      168.536     2.424       3.232       26.189      43.469      30.461      12.142      23.601      15.816      30.193      1.91        2.918       216.278     46.933      1.132       23.569      
23.8        33.312      168.048     2.408       3.457       28.158      32.3        33.065      13.542      26.063      14.441      30.675      1.83        2.785       218.292     49.913      1.129       25.432      
23.9        28.876      169.03      2.395       3.819       31.04       30.157      36.696      14.732      27.386      14.494      31.104      1.721       2.784       219.456     55.555      1.129       24.894      
24.0        32.319      168.126     2.402       3.81        38.404      31.081      42.405      16.277      27.898      14.979      31.607      1.678       2.886       219.573     58.805      1.124       22.104      
24.1        50.06       160.591     2.424       3.43        46.449      35.123      48.658      17.327      28.553      16.258      31.651      1.818       3.004       219.573     58.551      1.119       18.958      
24.2        56.336      159.411     2.438       2.85        48.751      36.508      51.716      17.258      30.762      17.077      31.163      1.977       3.067       219.266     56.553      1.116       17.839      
24.3        34.656      156.897     2.435       2.63        47.736      35.746      51.433      16.871      35.805      17.5        30.466      2.044       2.993       217.361     52.356      1.115       19.735      
24.4        23.458      155.006     2.415       3.317       41.529      31.709      50.265      16.422      43.42       18.822      29.715      1.977       2.795       213.506     51.275      1.114       23.224      
24.5        22.192      154.568     2.389       4.075       32.594      27.741      50.122      16.585      52.49       23.482      29.525      1.886       2.628       207.258     51.994      1.119       25.963      
24.6        23.981      154.219     2.382       4.863       31.146      29.345      51.234      17.835      61.854      31.527      29.653      1.891       2.548       198.997     55.69       1.124       25.319      
24.7        28.071      154.216     2.4         4.741       31.921      38.3        59.007      21.031      70.485      43.169      29.905      1.968       2.675       190.33      59.26       1.127       20.941      
24.8        47.196      154.315     2.441       4.233       36.581      51.335      76.394      25.312      77.266      56.274      30.019      2.094       3.026       182.231     60.376      1.126       15.504      
24.9        93.613      154.109     2.49        3.521       44.193      64.631      95.934      31.498      81.73       67.663      29.649      2.38        3.377       175.646     60.291      1.126       10.951      
25.0        108.937     154.33      2.536       2.727       51.178      73.513      109.272     40.615      84.09       72.224      29.041      2.708       3.732       171.329     59.95       1.13        8.554       
25.1        110.964     154.263     2.559       2.455       61.515      81.048      111.309     48.564      84.619      71.585      27.914      3.196       3.827       169.321     60.021      1.135       7.896       
25.2        134.997     154.326     2.559       2.47        80.389      85.11       109.189     50.659      83.768      67.109      26.61       3.374       3.848       168.753     60.436      1.136       8.506       
25.3        68.312      155.136     2.536       2.855       86.53       82.938      97.292      49.671      80.521      57.393      25.257      3.295       3.688       168.753     61.117      1.137       11.137      
25.4        39.413      155.343     2.506       3.173       87.425      71.142      79.974      44.117      74.118      47.449      23.978      2.885       3.382       168.713     61.695      1.137       15.117      
25.5        33.222      155.499     2.467       3.586       85.797      56.576      62.282      36.762      65.53       38.598      22.832      2.549       3.086       168.494     61.445      1.138       19.248      
25.6        37.077      155.62      2.434       3.925       76.299      47.615      47.959      32.248      55.478      30.923      21.72       2.262       2.859       168.219     59.456      1.138       21.942      
25.7        49.038      155.485     2.402       4.145       70.118      45.31       38.383      28.778      44.836      24.982      20.606      2.054       2.762       167.994     54.02       1.139       22.75       
25.8        35.83       155.392     2.369       4.163       60.789      42.252      32.909      25.227      35.523      20.533      19.528      1.844       2.652       167.32      46.631      1.139       23.402      
25.9        23.383      155.688     2.333       4.737       48.918      40.493      27.501      21.633      28.793      17.344      18.495      1.72        2.481       166.126     39.776      1.139       25.644      
26.0        19.463      155.902     2.295       5.443       35.699      36.07       20.93       18.064      24.832      14.705      17.636      1.583       2.275       164.752     36.06       1.138       29.627      
26.1        17.643      156.637     2.261       6.352       27.346      30.584      14.963      14.821      22.113      13.306      16.958      1.502       2.084       163.279     34.542      1.137       33.493      
26.2        15.992      155.748     2.24        6.638       23.958      29.537      11.379      11.898      19.423      13.158      16.406      1.389       1.969       162.0       33.492      1.135       35.115      
