~Version Information Section
VERS.                                         2.0:CWLS log ASCII Standart – VERSION 2.0
WRAP.                                          NO:One line per depth step
~Well Information Section
STRT.M                                        0.1:Начальная глубина
STOP.M                                      153.3:Конечная глубина
STEP.M                                          0:Шаг квантования по глубине
NULL.                                    -9999.25:Признак "Нет данных"
WELL.                                        144К:Скважина
~Parameter Information Section
~Curve Information Section
DEPTH.M                                          :Глубина
БК.Омм                                           :BK     (БК)
DСР.мм                                           :DS  (ДС)
ПЛОТНОСТЬ.г/см^3                                 :GGKp
ГК.мкР/ч                                         :GK          (ГК)
А0.4М0.1N.Омм                                    :GZ1   ГЗ1(A0.4M0.1N)
А1.0М0.1N.Омм                                    :GZ2   ГЗ2(A1.0M0.1N)
А2.0М0.5N.Омм                                    :GZ3   ГЗ3(A2.0M0.5N)
А4.0М0.5N.Oмм                                    :GZ4   ГЗ4(A4.0M0.5N)
А8.0М1.0N.Омм                                    :GZ5   ГЗ5(A8.0M0.5N)
N0.5M2.0A.Омм                                    :GZR   ГЗK(N0.5M2.0A)
ИК.мСм/м                                         :IK
БЗ.ue                                            :NNKb  (ННКб)
МЗ.ue                                            :NNKm  (ННКм)
ПС.mv                                            :PS       (ПС)
N11.0M0.5A.Омм                                   :PZ    (КС)
R.Омм                                            :RS (Резистивиметр)
ПОРИСТОСТЬ.                                      :W
~ASCII LOG DATA
# ...
92.6        36.505      213.627     2.297       5.734       33.474      42.956      35.685      32.157      30.724      31.888      20.471      2.213       1.587       84.781      49.945      1.101       36.797      
92.7        34.767      213.627     2.308       5.746       32.476      42.596      35.811      32.35       30.432      32.192      20.394      2.252       1.592       84.968      49.651      1.101       36.079      
92.8        35.351      213.558     2.319       5.755       31.907      42.176      36.204      32.716      30.267      32.347      20.362      2.346       1.583       85.22       49.534      1.101       35.14       
92.9        36.896      213.543     2.33        5.673       31.856      41.706      36.756      32.888      30.169      32.277      20.397      2.456       1.577       85.529      49.64       1.101       34.304      
93.0        38.26       213.652     2.339       5.52        32.526      41.777      37.263      32.853      30.119      31.982      20.485      2.575       1.59        85.881      49.956      1.101       33.687      
93.1        40.845      213.671     2.345       5.343       34.044      42.168      37.599      32.593      30.06       31.414      20.515      2.649       1.639       86.258      50.37       1.101       33.382      
93.2        40.844      213.094     2.346       5.225       35.798      42.156      37.715      32.127      29.968      30.793      20.554      2.681       1.68        86.64       50.821      1.101       33.379      
93.3        40.312      213.272     2.344       5.124       36.687      41.948      37.658      31.666      29.788      30.243      20.48       2.633       1.69        87.014      51.292      1.101       33.618      
93.4        37.519      213.46      2.339       5.056       36.729      41.964      37.408      31.291      29.524      29.768      20.245      2.562       1.676       87.359      51.602      1.101       34.05       
93.5        34.586      213.555     2.334       5.039       36.372      41.605      37.001      30.976      29.032      29.371      20.065      2.47        1.646       87.652      51.654      1.101       34.565      
93.6        33.844      213.564     2.33        5.082       35.706      40.994      36.568      30.663      28.524      28.843      19.933      2.43        1.614       87.875      51.596      1.101       34.951      
93.7        33.441      213.414     2.329       5.181       34.753      40.484      36.171      30.39       28.081      28.058      19.741      2.374       1.608       88.02       51.362      1.101       35.041      
93.8        32.326      213.054     2.329       5.365       33.711      40.191      35.898      30.165      27.932      27.062      19.663      2.355       1.606       88.095      50.959      1.101       34.781      
93.9        32.71       212.937     2.327       5.594       32.89       40.13       35.803      30.059      27.873      26.134      19.423      2.351       1.611       88.116      50.614      1.101       34.297      
94.0        33.59       213.133     2.328       5.755       32.437      40.186      35.916      30.088      27.845      25.566      19.254      2.386       1.617       88.104      50.374      1.101       33.686      
94.1        33.848      213.33      2.335       5.826       32.554      40.321      36.421      30.393      27.72       25.326      19.114      2.464       1.598       88.076      50.173      1.101       33.07       
94.2        33.622      213.612     2.344       5.833       32.894      40.404      37.144      31.054      27.603      25.232      18.936      2.534       1.581       88.038      50.089      1.101       32.636      
94.3        33.157      213.467     2.349       5.849       33.35       40.445      37.661      31.738      27.434      25.14       18.834      2.615       1.572       88.003      49.962      1.101       32.413      
94.4        34.282      213.591     2.344       5.904       33.739      40.454      37.848      32.039      27.352      24.92       18.661      2.647       1.575       87.97       49.656      1.101       32.63       
94.5        35.663      213.448     2.333       6.044       34.041      40.478      37.696      31.934      27.187      24.424      18.476      2.658       1.609       87.941      49.319      1.101       33.046      
94.6        34.466      213.642     2.321       6.194       34.483      40.481      37.145      31.406      26.96       23.698      18.349      2.608       1.632       87.899      48.958      1.101       33.501      
94.7        33.464      213.962     2.309       6.265       34.746      40.364      36.184      30.564      26.615      23.024      18.269      2.529       1.637       87.816      48.559      1.101       33.812      
94.8        34.05       214.371     2.299       6.243       34.579      39.952      35.1        29.699      26.165      22.626      18.109      2.434       1.631       87.667      48.268      1.101       34.084      
94.9        32.827      214.404     2.291       6.203       34.222      39.128      34.205      28.98       25.693      22.506      17.641      2.378       1.623       87.442      48.009      1.101       34.358      
95.0        29.694      215.068     2.285       6.13        33.479      37.999      33.584      28.431      25.214      22.589      17.319      2.373       1.613       87.142      47.61       1.101       34.627      
95.1        27.983      215.391     2.281       6.053       32.223      36.956      33.183      28.124      24.873      22.842      17.057      2.404       1.599       86.783      47.179      1.101       34.789      
95.2        27.201      215.825     2.276       6.048       30.968      36.317      32.944      28.094      24.668      23.317      16.871      2.42        1.571       86.377      46.617      1.101       34.953      
95.3        26.738      215.895     2.269       6.135       29.858      36.024      32.794      28.128      24.668      23.938      16.694      2.386       1.556       85.948      45.848      1.101       35.143      
95.4        26.786      215.509     2.266       6.246       28.681      35.89       32.676      28.248      25.033      24.67       16.385      2.325       1.556       85.524      45.093      1.101       35.388      
95.5        26.646      215.198     2.271       6.384       27.812      35.541      32.62       28.595      25.629      25.75       16.29       2.289       1.554       85.143      44.475      1.101       35.476      
95.6        26.418      214.9       2.282       6.527       27.229      34.668      32.946      29.411      26.355      27.44       16.178      2.276       1.554       84.846      43.825      1.101       35.315      
95.7        26.414      215.035     2.294       6.651       26.898      34.084      33.785      30.815      26.709      29.539      16.045      2.306       1.552       84.657      43.206      1.101       34.871      
95.8        25.627      215.106     2.307       6.606       27.044      34.344      34.932      32.484      26.8        31.22       15.938      2.371       1.554       84.578      42.664      1.101       34.125      
95.9        25.586      215.141     2.319       6.393       27.644      34.704      35.814      33.743      26.8        31.829      15.845      2.462       1.576       84.597      41.971      1.101       33.222      
96.0        28.411      215.068     2.327       6.08        28.727      35.18       36.064      34.181      26.604      31.806      15.872      2.55        1.594       84.701      41.008      1.101       32.306      
96.1        32.62       214.865     2.324       5.787       29.556      35.554      35.533      33.504      26.249      30.946      15.853      2.618       1.618       84.877      39.908      1.101       31.59       
96.2        33.119      214.604     2.312       5.598       29.755      33.996      33.832      31.606      25.797      29.141      15.798      2.683       1.637       85.102      38.886      1.101       31.26       
