~Version Information Section
VERS.                                         2.0:CWLS log ASCII Standart – VERSION 2.0
WRAP.                                          NO:One line per depth step
~Well Information Section
STRT.M                                        0.4:Начальная глубина
STOP.M                                      190.1:Конечная глубина
STEP.M                                          0:Шаг квантования по глубине
NULL.                                    -9999.25:Признак "Нет данных"
WELL.                                       135Мх:Скважина
~Parameter Information Section
~Curve Information Section
DEPTH.M                                          :Глубина
DS.mm                                            :DS  (ДС)
GGK.g/cm3                                        :GGKp
ГК.mcr/h                                         :GK          (ГК)
GZ1.Ohm*M                                        :GZ1   ГЗ1(A0.4M0.1N)
GZ2.Ohm*M                                        :GZ2   ГЗ2(A1.0M0.1N)
GZ3.Ohm*M                                        :GZ3   ГЗ3(A2.0M0.5N)
GZ4.Ohm*M                                        :GZ4   ГЗ4(A4.0M0.5N)
GZ5.Ohm*M                                        :GZ5   ГЗ5(A8.0M0.5N)
GZR.Ohm*M                                        :GZK   ГЗK(N0.5M2.0A)
ИК.Ohm*M                                         :IK
НГК.ue                                           :NGK     (НГК)
NNKM.                                            :NNKm  (ННКм)
PS.mv                                            :PS       (ПС)
PZ.Ohm*M                                         :PZ    (КС)
RS.Ohm*M                                         :RS (Резистивиметр)
U1.mV                                            :U1
U2.mV                                            :U2
U3.mV                                            :U3
BK.Ohm*M                                         :БК
ПОРИСТОСТЬ.                                      :Пористость ННК
~ASCII LOG DATA
# ...
182.8       124.516     2.311       7.863       -9999.25    -9999.25    20.926      -9999.25    20.9        -9999.25    16.318      1.784       2.584       -9999.25    33.0        -9999.25    213.333     106.667     172.0       28.354      26.091      
182.9       124.418     2.263       6.676       -9999.25    -9999.25    20.584      -9999.25    22.772      -9999.25    16.511      1.716       2.499       -9999.25    33.336      -9999.25    208.0       93.333      174.667     27.311      27.477      
183.0       124.164     2.214       6.161       -9999.25    -9999.25    33.376      -9999.25    24.054      -9999.25    16.73       1.645       2.433       -9999.25    33.9        -9999.25    202.667     82.667      185.333     22.068      29.27       
183.1       123.912     2.195       6.499       -9999.25    -9999.25    34.524      -9999.25    24.763      -9999.25    16.87       1.64        2.411       -9999.25    34.5        -9999.25    200.0       80.0        190.667     20.293      29.895      
183.2       123.912     2.201       6.618       -9999.25    -9999.25    35.196      -9999.25    25.114      -9999.25    16.906      1.659       2.427       -9999.25    35.1        -9999.25    205.333     80.0        188.0       19.802      29.667      
183.3       123.937     2.226       6.387       -9999.25    -9999.25    35.497      -9999.25    25.274      -9999.25    16.906      1.733       2.443       -9999.25    35.364      -9999.25    213.333     80.0        182.667     20.303      29.362      
183.4       124.032     2.248       6.055       -9999.25    -9999.25    35.557      -9999.25    25.277      -9999.25    16.906      1.801       2.46        -9999.25    35.4        -9999.25    226.667     80.0        177.333     20.63       29.251      
183.5       124.087     2.266       5.956       -9999.25    -9999.25    35.548      -9999.25    -9999.25    -9999.25    16.869      1.85        2.51        -9999.25    35.4        -9999.25    232.0       82.666      174.667     20.329      28.446      
183.6       124.085     2.279       5.888       -9999.25    -9999.25    35.548      -9999.25    -9999.25    -9999.25    16.683      1.86        2.607       -9999.25    35.736      -9999.25    223.999     85.334      172.0       21.267      27.065      
183.7       124.085     2.297       5.91        -9999.25    -9999.25    -9999.25    -9999.25    -9999.25    -9999.25    16.303      1.849       2.708       -9999.25    35.964      -9999.25    208.001     90.666      172.0       22.315      25.964      
183.8       124.073     2.309       6.117       -9999.25    -9999.25    -9999.25    -9999.25    -9999.25    -9999.25    15.756      1.861       2.764       -9999.25    36.0        -9999.25    192.0       90.667      172.0       22.555      24.52       
183.9       124.031     2.318       6.055       -9999.25    -9999.25    -9999.25    -9999.25    -9999.25    -9999.25    15.086      1.907       2.811       -9999.25    35.328      -9999.25    200.001     88.0        174.667     25.443      23.734      
184.0       123.972     2.326       5.923       -9999.25    -9999.25    -9999.25    -9999.25    -9999.25    -9999.25    14.322      1.932       2.85        -9999.25    -9999.25    -9999.25    213.332     82.667      177.333     26.26       22.881      
184.1       123.972     2.325       5.652       -9999.25    -9999.25    -9999.25    -9999.25    -9999.25    -9999.25    13.509      1.91        2.862       -9999.25    -9999.25    -9999.25    224.0       77.333      177.333     21.864      22.308      
184.2       124.031     2.318       5.707       -9999.25    -9999.25    -9999.25    -9999.25    -9999.25    -9999.25    12.715      1.877       2.864       -9999.25    -9999.25    -9999.25    221.334     74.667      174.667     22.361      21.996      
184.3       124.115     2.329       5.869       -9999.25    -9999.25    -9999.25    -9999.25    -9999.25    -9999.25    12.054      1.827       2.834       -9999.25    -9999.25    -9999.25    216.0       69.333      169.333     28.391      21.727      
184.4       124.251     2.355       5.744       -9999.25    -9999.25    -9999.25    -9999.25    -9999.25    -9999.25    11.57       1.734       2.768       -9999.25    -9999.25    -9999.25    216.0       66.666      164.0       29.336      21.823      
184.5       124.37      2.393       5.494       -9999.25    -9999.25    -9999.25    -9999.25    -9999.25    -9999.25    11.229      1.626       2.661       -9999.25    -9999.25    -9999.25    216.0       64.0        169.333     22.829      22.367      
184.6       124.367     2.435       5.424       -9999.25    -9999.25    -9999.25    -9999.25    -9999.25    -9999.25    10.99       1.577       2.52        -9999.25    -9999.25    -9999.25    221.334     66.667      177.334     20.122      23.99       
184.7       124.35      2.461       5.776       -9999.25    -9999.25    -9999.25    -9999.25    -9999.25    -9999.25    10.767      1.574       2.384       -9999.25    -9999.25    -9999.25    229.333     72.0        188.0       13.839      25.33       
184.8       124.34      2.463       6.644       -9999.25    -9999.25    -9999.25    -9999.25    -9999.25    -9999.25    10.398      1.517       2.256       -9999.25    -9999.25    -9999.25    237.333     82.667      188.0       11.365      27.687      
184.9       124.34      2.451       7.577       -9999.25    -9999.25    -9999.25    -9999.25    -9999.25    -9999.25    9.817       1.456       2.178       -9999.25    -9999.25    -9999.25    234.666     96.001      188.0       12.405      29.007      
185.0       124.44      2.43        8.59        -9999.25    -9999.25    -9999.25    -9999.25    -9999.25    -9999.25    9.275       1.431       2.16        -9999.25    -9999.25    -9999.25    226.667     106.666     188.0       14.498      29.487      
185.1       124.667     2.424       9.099       -9999.25    -9999.25    -9999.25    -9999.25    -9999.25    -9999.25    9.013       1.439       2.152       -9999.25    -9999.25    -9999.25    216.0       109.333     188.0       15.043      30.446      
185.2       124.79      2.414       9.251       -9999.25    -9999.25    -9999.25    -9999.25    -9999.25    -9999.25    8.922       1.522       2.106       -9999.25    -9999.25    -9999.25    216.0       104.0       188.0       14.369      31.399      
185.3       124.711     2.41        9.381       -9999.25    -9999.25    -9999.25    -9999.25    -9999.25    -9999.25    8.922       1.567       2.069       -9999.25    -9999.25    -9999.25    218.667     96.0        188.0       14.369      31.68       
185.4       124.66      2.416       9.336       -9999.25    -9999.25    -9999.25    -9999.25    -9999.25    -9999.25    8.937       1.594       2.073       -9999.25    -9999.25    -9999.25    224.0       88.0        188.0       14.555      31.25       
185.5       124.66      2.405       9.539       -9999.25    -9999.25    -9999.25    -9999.25    -9999.25    -9999.25    9.073       1.492       2.083       -9999.25    -9999.25    -9999.25    224.0       80.0        180.001     14.299      30.807      
185.6       124.765     2.375       9.679       -9999.25    -9999.25    -9999.25    -9999.25    -9999.25    -9999.25    9.479       1.373       2.089       -9999.25    -9999.25    -9999.25    221.333     74.666      166.666     12.607      30.769      
185.7       124.936     2.361       9.966       -9999.25    -9999.25    -9999.25    -9999.25    -9999.25    -9999.25    10.006      1.341       2.063       -9999.25    -9999.25    -9999.25    224.0       72.0        148.001     12.486      31.435      
185.8       125.067     2.347       9.685       -9999.25    -9999.25    -9999.25    -9999.25    -9999.25    -9999.25    10.358      1.38        2.026       -9999.25    -9999.25    -9999.25    224.0       72.0        132.0       12.974      31.953      
185.9       125.051     2.325       9.311       -9999.25    -9999.25    -9999.25    -9999.25    -9999.25    -9999.25    10.607      1.463       2.004       -9999.25    -9999.25    -9999.25    224.0       74.667      137.334     12.882      32.376      
