~Version Information Section
VERS.                                         2.0:CWLS log ASCII Standart – VERSION 2.0
WRAP.                                          NO:One line per depth step
~Well Information Section
STRT.M                                        0.0:Начальная глубина
STOP.M                                      211.0:Конечная глубина
STEP.M                                          0:Шаг квантования по глубине
NULL.                                    -9999.25:Признак "Нет данных"
WELL.                                       125Мх:Скважина
~Parameter Information Section
~Curve Information Section
DEPTH.M                                          :Глубина
BK.lgОмм                                         :BK
D.                                               :D sr
GGKP.g/sm3                                       :GGKp
ГК.гамма                                         :GK
ИК.мСм/м                                         :IK
KP.%                                             :Kp
PS.                                              :PS       (ПС)
PZ.Омм                                           :PZ
RIS.Омм                                          :RIS
U1.                                              :U1
U2.                                              :U2
U3.                                              :U3
БЗ.                                              :БЗ (ГГК-1)
ГЗ1.Омм                                          :ГЗ1
ГЗ2.Омм                                          :ГЗ2
ГЗ3.Омм                                          :ГЗ3
ГЗ4.Oмм                                          :ГЗ4
ГЗ5.Oмм                                          :ГЗ5
ГЗК.Омм                                          :ГЗК
ИКБ.мСм/м                                        :ИКБ
МЗ.                                              :МЗ жесткий (ГГК-4)
ННКМ.усл.ед                                      :ННКм
ИКМ.мСм/м                                        :ИКМ
НГК.усл.ед                                       :ННКб
~ASCII LOG DATA
# ...
143.1       44.566      126.951     2.324       4.337       38.408      26.367      111.464     86.845      1.11        556.766     151.513     352.021     13108.571   94.717      102.236     89.602      74.221      59.203      82.667      48.552      18028.572   1.071       27.9        2.617       
143.2       46.345      126.379     2.315       4.267       38.196      26.117      111.965     86.125      1.11        657.898     159.448     416.424     13155.0     93.001      99.642      88.089      73.453      59.309      82.256      48.098      18260.0     1.061       27.815      2.584       
143.3       55.335      126.389     2.311       4.158       38.029      26.131      112.459     85.568      1.11        700.423     156.755     443.381     13516.923   91.498      97.068      86.776      73.285      59.468      81.993      47.691      18575.385   1.095       27.745      2.52        
143.4       64.565      126.369     2.311       4.002       37.887      26.407      112.946     85.189      1.11        682.975     149.284     433.63      13674.667   90.988      95.637      85.602      73.455      59.723      81.864      47.284      18393.334   1.106       27.764      2.495       
143.5       68.707      125.327     2.313       3.984       37.837      27.378      113.426     85.0        1.11        604.159     138.337     379.63      13667.143   91.028      94.943      84.783      73.689      60.172      81.724      46.91       18935.715   1.108       27.861      2.445       
143.6       68.707      125.512     2.321       4.188       37.816      28.647      113.896     84.989      1.11        516.654     127.393     324.918     13550.667   91.29       94.429      84.328      73.964      60.766      81.667      46.601      19025.334   1.117       27.978      2.355       
143.7       63.533      125.798     2.33        4.263       37.767      29.258      114.352     85.129      1.11        426.146     116.333     270.089     13254.286   91.819      94.032      84.096      74.221      61.344      81.567      46.41       19002.857   1.131       28.021      2.283       
143.8       55.59       126.429     2.333       4.233       37.763      29.345      114.79      85.343      1.109       387.273     111.314     247.316     13342.667   92.439      93.806      84.055      74.427      61.957      81.325      46.314      19353.334   1.115       28.136      2.347       
143.9       50.35       126.097     2.33        4.3         37.79       29.097      115.205     85.594      1.11        375.654     107.971     237.744     13404.0     93.085      93.812      84.163      74.583      62.373      80.984      46.333      19212.0     1.094       28.19       2.435       
144.0       50.699      125.843     2.323       4.354       37.82       28.556      115.589     85.866      1.11        366.3       105.338     231.148     13541.429   93.741      94.077      84.352      74.685      62.646      80.537      46.463      18962.857   1.1         28.185      2.519       
144.1       56.105      125.758     2.315       4.243       37.852      27.835      115.937     86.138      1.109       365.176     102.822     225.583     13855.714   94.343      94.496      84.429      74.547      62.959      79.997      46.673      18971.428   1.107       28.091      2.527       
144.2       63.387      126.039     2.316       4.198       37.892      27.242      116.242     86.411      1.109       367.661     101.902     224.132     13593.75    95.281      94.812      84.258      74.185      63.327      79.408      46.841      18478.75    1.117       27.955      2.499       
144.3       69.343      125.771     2.325       4.183       37.902      26.73       116.499     86.66       1.109       370.766     102.366     225.353     13192.857   96.157      94.992      83.85       73.662      63.719      78.884      47.023      18050.0     1.124       27.914      2.579       
144.4       72.611      125.662     2.342       4.153       37.886      26.76       116.704     86.842      1.109       373.871     102.946     226.879     12711.429   96.641      94.798      83.284      73.297      64.163      78.339      47.255      17970.0     1.149       27.97       2.77        
144.5       72.778      125.507     2.36        4.122       37.874      27.338      116.858     86.921      1.11        376.976     103.526     228.404     12164.0     96.396      94.168      82.76       73.284      64.808      77.612      47.524      17878.666   1.156       27.956      2.637       
144.6       69.343      126.004     2.372       4.265       37.89       27.386      116.963     86.901      1.11        380.081     104.106     229.93      11898.571   95.446      93.644      82.513      73.763      65.557      76.693      47.776      17997.143   1.194       27.993      2.506       
144.7       62.373      126.282     2.378       4.324       37.895      27.227      117.024     86.815      1.11        383.186     104.685     231.456     12048.0     94.072      94.087      82.676      74.683      66.642      75.589      47.938      18380.0     1.166       27.861      2.589       
144.8       55.208      125.654     2.374       4.582       37.902      27.721      117.048     86.725      1.11        386.291     105.265     232.982     12424.0     92.821      95.381      83.239      75.979      67.982      74.622      47.905      18554.666   1.109       27.74       2.609       
144.9       50.816      125.101     2.362       4.845       37.91       28.038      117.044     86.683      1.11        389.397     105.845     234.507     12594.286   91.509      96.633      84.167      77.452      69.464      74.274      47.685      18724.285   1.102       27.748      2.46        
145.0       48.865      125.163     2.348       4.917       37.854      27.305      117.023     86.727      1.11        392.502     106.425     236.033     12965.0     90.52       97.486      85.485      79.087      70.871      74.898      47.328      18567.5     1.098       27.875      2.389       
145.1       48.306      125.693     2.335       4.74        37.747      26.653      116.995     86.847      1.109       395.607     107.005     237.559     13150.0     90.299      98.354      86.943      80.784      71.99       76.832      46.89       18095.715   1.08        28.109      2.525       
145.2       51.168      125.997     2.322       4.64        37.607      26.502      116.971     87.004      1.109       398.712     107.585     239.085     13182.667   91.524      99.759      88.448      82.274      72.702      79.669      46.487      17822.666   1.069       28.231      2.627       
145.3       59.429      125.05      2.316       4.394       37.48       26.217      116.958     87.197      1.109       401.817     108.164     240.611     13374.286   94.103      101.42      89.873      83.234      72.98       82.963      46.118      17635.715   1.145       28.296      2.759       
145.4       70.469      124.482     2.313       4.186       37.382      25.643      116.963     87.429      1.109       404.922     108.628     242.136     13620.0     97.79       103.182     91.018      83.526      72.905      86.35       45.766      18032.0     1.189       28.291      2.772       
145.5       76.208      125.527     2.309       4.145       37.291      25.66       116.99      87.633      1.108       407.407     108.816     243.579     13544.286   101.4       104.076     91.615      83.348      72.894      89.525      45.427      18205.715   1.18        28.16       2.8         
145.6       72.946      125.863     2.308       4.184       37.198      26.16       117.043     87.714      1.108       400.937     104.232     244.717     13500.0     103.875     103.394     91.568      82.413      72.416      92.201      45.173      18078.666   1.174       28.013      2.738       
145.7       68.234      126.008     2.31        4.284       37.074      26.532      117.121     87.562      1.108       388.132     99.475      243.835     13500.0     105.51      102.564     90.86       80.845      71.376      94.184      45.066      17774.285   1.128       27.867      2.563       
