~Version Information Section
VERS.                                         2.0:CWLS log ASCII Standart – VERSION 2.0
WRAP.                                          NO:One line per depth step
~Well Information Section
STRT.M                                        0.0:Начальная глубина
STOP.M                                      180.0:Конечная глубина
STEP.M                                          0:Шаг квантования по глубине
NULL.                                    -9999.25:Признак "Нет данных"
WELL.                                       120Мх:Скважина
~Parameter Information Section
~Curve Information Section
DEPTH.M                                          :Глубина
BK.Ohm*M                                         :BK     (БК)
DS.mm                                            :DS  (ДС)
GGK.g/cm3                                        :GGKp
ГК.mcr/h                                         :GK          (ГК)
GZ1.Ohm*M                                        :GZ1   ГЗ1(A0.4M0.1N)
GZ2.Ohm*M                                        :GZ2   ГЗ2(A1.0M0.1N)
GZ3.Ohm*M                                        :GZ3   ГЗ3(A2.0M0.5N)
GZ4.Ohm*M                                        :GZ4   ГЗ4(A4.0M0.5N)
GZ5.Ohm*M                                        :GZ5   ГЗ5(A8.0M0.5N)
GZR.Ohm*M                                        :GZK   ГЗK(N0.5M2.0A)
ИК.Ohm*M                                         :IK
НГК.u.e.                                         :NGK
NNKM.                                            :NNKm  (ННКм)
PS.mv                                            :PS       (ПС)
PZ.Ohm*M                                         :PZ    (КС)
RS.Ohm*M                                         :RS (Резистивиметр)
U1.mV                                            :U1
U2.mV                                            :U2
U3.mV                                            :U3
КП.%                                             :Кп
~ASCII LOG DATA
# ...
140.8       230.675     123.531     2.055       3.298       121.883     158.672     46.951      39.038      41.516      186.25      14.547      1.983       2.707       439.126     298.975     1.24        1020.903    854.214     828.28      16.889      
141.0       120.226     123.51      2.102       3.606       129.111     168.486     81.756      40.332      41.56       180.866     14.599      1.837       2.647       430.687     289.951     1.27        1211.697    746.186     556.446     15.877      
141.2       95.06       123.436     2.043       3.479       123.782     145.108     108.884     39.196      42.132      166.588     14.588      1.906       2.704       422.729     282.932     1.28        1048.114    842.652     822.119     15.215      
141.4       119.95      123.48      2.006       3.232       111.018     132.175     122.652     39.145      42.42       167.836     14.692      1.88        2.771       415.203     287.444     1.281       1137.805    918.795     825.001     15.4        
141.6       130.017     123.362     2.087       3.712       118.774     140.888     135.619     41.421      42.077      185.7       14.839      1.851       2.734       409.088     286.066     1.288       1010.197    715.83      541.108     15.515      
141.8       107.895     123.234     2.174       3.375       124.137     152.296     145.047     43.989      42.704      189.715     14.871      1.837       2.651       403.203     289.45      1.296       661.345     467.273     366.442     16.861      
142.0       99.312      123.463     2.19        3.221       128.154     155.875     146.859     46.121      44.255      184.711     14.881      1.856       2.678       398.806     297.22      1.301       855.651     522.849     356.044     17.908      
142.2       109.901     123.4       2.213       3.482       133.759     157.608     145.796     48.092      45.657      186.043     14.882      1.968       2.834       395.446     297.346     1.308       1318.709    771.708     488.417     14.625      
142.4       130.918     123.189     2.166       3.75        136.842     159.792     148.543     50.903      46.678      189.97      15.011      2.083       2.874       392.969     268.393     1.318       1160.847    870.848     703.212     13.51       
142.6       133.352     123.294     2.074       3.589       141.496     167.234     155.602     55.821      47.455      187.308     15.109      2.029       2.809       390.204     246.46      1.327       1294.554    1030.756    873.591     15.018      
142.8       132.13      123.535     2.091       3.264       147.859     174.648     161.44      70.07       47.706      182.315     15.109      2.062       2.862       388.208     245.583     1.336       1142.393    747.886     545.784     12.971      
143.0       144.544     123.611     2.104       3.02        144.457     169.22      160.17      92.016      47.234      170.567     15.232      2.149       2.865       386.009     247.463     1.34        944.65      736.687     689.065     15.071      
143.2       167.88      123.171     2.124       2.998       131.039     150.1       154.631     114.493     46.971      161.219     15.232      2.034       2.864       382.649     248.591     1.34        1111.882    754.556     641.875     12.976      
143.4       178.238     123.583     2.062       3.625       125.828     152.954     153.306     132.938     45.79       166.263     15.276      1.867       2.761       378.329     247.964     1.34        1200.297    669.926     406.563     17.164      
143.6       167.109     123.767     2.076       3.824       131.181     161.025     154.99      145.531     44.737      171.727     15.288      1.788       2.696       373.529     262.754     1.34        1042.043    602.516     378.191     18.596      
143.8       125.314     125.324     2.098       3.748       125.818     152.589     149.309     150.493     45.075      171.835     15.254      1.819       2.687       368.211     263.13      1.349       1207.857    788.665     579.475     17.616      
144.0       100.925     124.768     2.049       3.678       120.584     150.86      144.622     151.365     45.048      170.738     15.098      1.927       2.703       361.807     277.667     1.378       1562.261    1208.245    998.97      15.802      
144.2       143.219     123.115     2.122       3.651       127.049     161.43      146.482     153.599     43.724      169.65      15.132      1.887       2.741       355.327     296.97      1.414       1678.483    1063.877    714.789     15.628      
144.4       136.144     123.583     2.12        3.84        130.38      157.188     145.353     156.432     42.724      163.261     15.232      1.731       2.691       349.328     292.332     1.443       1346.581    870.186     590.602     16.753      
144.6       103.514     123.171     2.076       3.696       124.722     144.372     140.164     158.188     42.277      156.532     15.187      1.842       2.631       343.808     281.553     1.465       1253.207    899.412     684.768     17.745      
144.8       131.826     123.57      2.056       3.633       122.887     146.076     137.809     159.588     41.703      152.663     15.22       1.831       2.699       338.566     279.298     1.476       1438.408    1192.591    1041.683    17.145      
145.0       142.889     122.753     2.038       3.844       125.064     148.734     140.747     160.037     41.727      153.954     15.242      1.843       2.651       334.486     291.455     1.476       1776.738    1331.544    1054.179    18.806      
145.2       128.825     122.695     2.086       3.993       124.325     146.332     150.354     165.776     42.99       156.79      15.266      1.855       2.614       331.683     290.452     1.462       1414.443    947.611     663.618     18.901      
145.4       121.06      123.443     2.078       3.854       136.617     159.503     161.866     177.138     44.651      156.257     15.242      1.712       2.646       330.444     269.145     1.438       1080.276    767.252     578.131     17.472      
145.6       139.316     122.762     2.069       3.575       168.785     165.854     168.067     186.256     46.118      155.632     15.242      1.631       2.647       330.204     252.351     1.412       962.08      700.04      546.425     16.942      
145.8       128.825     122.674     2.042       3.819       186.656     165.537     167.472     187.457     48.202      151.577     15.298      1.641       2.602       330.886     258.116     1.402       1163.964    791.082     575.343     19.815      
146.0       142.561     123.176     2.022       3.714       180.712     163.693     175.575     187.378     50.13       149.611     15.321      1.713       2.6         331.846     289.073     1.405       1484.927    1003.186    713.503     18.02       
146.2       146.555     123.156     2.026       3.945       187.446     177.931     185.955     192.305     51.112      142.094     15.378      1.888       2.617       332.806     334.193     1.425       1097.335    737.694     529.086     16.378      
146.4       144.877     122.938     2.05        3.653       194.318     179.973     181.761     196.13      51.365      129.736     15.4        2.015       2.613       333.526     340.335     1.456       977.056     703.672     545.441     15.521      
146.6       134.586     122.6       2.027       3.84        178.766     158.647     171.69      189.465     51.112      118.276     15.412      2.176       2.646       333.766     330.559     1.483       908.623     718.591     615.361     14.938      
146.8       138.038     122.932     1.977       3.862       169.746     150.158     162.101     179.831     50.197      107.594     15.412      2.275       2.794       333.526     333.693     1.496       538.477     481.802     499.696     13.854      
147.0       151.705     123.3       2.064       3.738       169.575     145.419     151.948     172.787     50.947      101.086     15.434      2.024       2.918       332.969     359.511     1.5         577.818     575.689     663.925     10.108      
