~Version Information Section
VERS.                                         2.0:CWLS log ASCII Standart – VERSION 2.0
WRAP.                                          NO:One line per depth step
~Well Information Section
STRT.M                                        0.4:Начальная глубина
STOP.M                                      190.1:Конечная глубина
STEP.M                                          0:Шаг квантования по глубине
NULL.                                    -9999.25:Признак "Нет данных"
WELL.                                       135Мх:Скважина
~Parameter Information Section
~Curve Information Section
DEPTH.M                                          :Глубина
DS.mm                                            :DS  (ДС)
GGK.g/cm3                                        :GGKp
ГК.mcr/h                                         :GK          (ГК)
GZ1.Ohm*M                                        :GZ1   ГЗ1(A0.4M0.1N)
GZ2.Ohm*M                                        :GZ2   ГЗ2(A1.0M0.1N)
GZ3.Ohm*M                                        :GZ3   ГЗ3(A2.0M0.5N)
GZ4.Ohm*M                                        :GZ4   ГЗ4(A4.0M0.5N)
GZ5.Ohm*M                                        :GZ5   ГЗ5(A8.0M0.5N)
GZR.Ohm*M                                        :GZK   ГЗK(N0.5M2.0A)
ИК.Ohm*M                                         :IK
НГК.ue                                           :NGK     (НГК)
NNKM.                                            :NNKm  (ННКм)
PS.mv                                            :PS       (ПС)
PZ.Ohm*M                                         :PZ    (КС)
RS.Ohm*M                                         :RS (Резистивиметр)
U1.mV                                            :U1
U2.mV                                            :U2
U3.mV                                            :U3
BK.Ohm*M                                         :БК
ПОРИСТОСТЬ.                                      :Пористость ННК
~ASCII LOG DATA
# ...
160.4       126.031     2.362       9.532       23.119      10.975      9.901       15.73       9.804       10.287      15.013      1.473       2.194       443.328     10.836      1.4         122.667     101.335     118.667     15.906      27.997      
160.5       126.042     2.357       10.115      22.898      10.75       9.511       21.06       9.804       12.592      15.152      1.478       2.18        439.894     12.336      1.4         120.0       122.665     113.334     15.765      28.333      
160.6       126.045     2.363       10.371      22.664      10.596      9.26        25.631      9.827       16.637      15.328      1.508       2.186       435.626     14.1        1.4         120.0       141.333     107.999     15.829      28.746      
160.7       126.045     2.368       10.397      22.392      10.451      9.138       22.762      10.013      22.696      15.552      1.54        2.198       430.397     15.9        1.4         130.666     122.668     105.333     15.819      28.934      
160.8       126.045     2.374       10.026      22.012      10.247      9.109       19.363      10.589      30.382      15.82       1.518       2.215       424.224     18.036      1.4         144.0       109.333     118.667     15.733      29.005      
160.9       126.063     2.383       10.079      21.454      10.012      9.12        15.897      11.748      38.594      16.143      1.497       2.238       417.25      19.728      1.4         157.333     101.334     132.0       15.394      29.409      
161.0       126.128     2.397       10.152      20.633      9.82        9.222       12.876      13.61       45.934      16.527      1.498       2.257       409.571     22.344      1.4         160.0       119.999     140.0       14.816      29.858      
161.1       126.176     2.403       10.723      19.417      9.629       9.602       10.653      16.085      51.505      16.966      1.535       2.286       401.438     24.792      1.4         170.667     136.001     145.333     14.469      30.095      
161.2       126.178     2.386       11.016      17.863      9.191       10.487      9.307       18.888      55.321      17.45       1.566       2.321       393.203     26.7        1.4         183.999     149.333     145.333     14.291      29.704      
161.3       126.184     2.344       10.875      16.164      8.359       12.054      8.671       21.74       57.432      17.998      1.602       2.354       385.18      28.836      1.4         197.333     154.667     140.0       14.543      29.098      
161.4       126.077     2.305       9.787       14.427      7.096       14.277      8.464       24.161      58.188      18.616      1.698       2.412       377.677     31.2        1.4         200.0       165.334     137.333     15.317      28.539      
161.5       126.012     2.275       8.567       12.928      7.168       16.861      8.43        25.868      58.3        19.345      1.839       2.5         370.933     33.264      1.4         192.001     170.666     145.333     17.826      27.236      
161.6       126.012     2.242       7.565       11.864      7.241       19.323      8.43        27.143      58.093      20.218      1.988       2.618       364.97      35.1        1.4         192.0       181.334     158.667     34.358      26.154      
161.7       125.711     2.217       6.893       11.186      7.313       21.231      8.43        28.244      57.941      21.295      2.042       2.765       359.877     36.564      1.4         197.332     178.666     177.333     62.092      23.759      
161.8       125.357     2.209       6.137       10.936      7.385       23.908      8.43        28.962      58.717      22.614      2.006       2.903       355.842     38.472      1.4         208.0       197.333     196.0       73.007      21.585      
161.9       125.263     2.199       5.578       10.994      7.457       22.964      8.465       28.939      61.835      24.092      1.963       2.983       352.907     40.128      1.4         221.334     202.667     212.001     69.934      20.551      
162.0       125.117     2.187       5.448       11.287      7.529       24.374      8.638       27.327      68.515      25.692      2.001       3.005       350.948     41.4        1.4         229.333     213.334     217.333     65.757      20.399      
162.1       125.117     2.188       5.456       11.797      7.601       25.275      9.089       23.093      78.788      27.338      2.046       2.972       349.851     42.264      1.4         240.0       208.0       212.0       59.271      21.555      
162.2       125.122     2.182       5.082       12.514      7.674       25.565      10.014      37.571      91.419      28.873      2.023       2.906       349.4       42.9        1.4         237.333     210.667     201.334     87.673      22.796      
162.3       125.274     2.163       4.749       13.541      7.746       25.191      11.726      31.028      105.589     30.15       1.959       2.833       349.328     43.836      1.4         232.0       224.0       198.667     82.052      24.795      
162.4       125.53      2.158       4.833       14.824      7.818       24.164      14.602      22.607      121.067     31.254      1.904       2.785       349.365     44.328      1.4         221.333     240.001     214.668     88.637      25.855      
162.5       125.879     2.157       5.198       16.322      7.89        22.481      18.84       20.78       136.23      32.169      1.894       2.766       349.352     44.4        1.4         210.667     258.666     235.999     99.069      26.382      
162.6       125.788     2.135       5.445       17.82       7.962       21.33       24.342      19.064      148.397     32.937      1.913       2.763       349.26      44.4        1.4         216.001     264.0       265.334     116.787     25.855      
162.7       125.507     2.122       5.773       18.998      8.627       20.02       24.227      17.458      155.066     33.61       1.969       2.77        349.086     44.064      1.4         237.332     258.667     278.666     134.465     25.27       
162.8       125.474     2.11        6.048       19.791      9.293       18.711      24.859      15.962      155.22      34.222      2.008       2.772       348.839     43.836      1.4         258.667     248.0       289.333     154.191     24.346      
162.9       125.407     2.088       5.873       20.33       9.958       17.594      25.785      14.577      150.899     34.817      1.985       2.749       348.512     43.8        1.4         280.001     240.0       281.333     139.277     23.992      
163.0       125.36      2.07        5.603       20.759      10.623      15.307      33.052      13.302      145.641     35.363      1.946       2.709       348.096     43.8        1.4         290.666     242.667     268.001     80.398      24.188      
163.1       125.36      2.067       5.862       21.164      11.289      14.543      39.22       12.737      141.587     35.832      1.951       2.657       347.559     43.8        1.4         298.666     250.667     254.666     86.155      24.615      
163.2       125.44      2.066       6.418       21.544      11.954      13.815      43.683      11.093      138.64      36.231      2.027       2.621       346.913     44.472      1.4         290.667     261.333     257.333     82.588      24.792      
163.3       125.717     2.072       6.458       21.867      12.619      13.124      46.312      10.108      135.664     36.593      2.08        2.642       346.154     44.928      1.4         274.667     269.333     273.333     80.944      24.42       
163.4       125.814     2.085       6.04        22.127      12.048      12.468      47.512      9.607       131.276     36.924      2.112       2.685       345.303     46.008      1.4         261.333     263.999     294.667     89.65       23.597      
163.5       125.67      2.095       5.714       22.294      12.648      11.85       47.878      9.105       124.069     37.218      2.093       2.741       344.377     47.364      1.4         258.666     256.001     308.0       102.804     23.122      
