~Version Information Section
VERS.                                         2.0:CWLS log ASCII Standart – VERSION 2.0
WRAP.                                          NO:One line per depth step
~Well Information Section
STRT.M                                      -0.07:Начальная глубина
STOP.M                                     189.23:Конечная глубина
STEP.M                                          0:Шаг квантования по глубине
NULL.                                    -9999.25:Признак "Нет данных"
WELL.                                       127Мх:Скважина
~Parameter Information Section
~Curve Information Section
DEPTH.M                                          :Глубина
BK.                                              :BK
ГК.гамма                                         :GK
ИК.                                              :IK
НГК.усл.ед                                       :NGK
PSЭ3.                                            :PSэ3
PZЭ3.                                            :PZэ3
U1.                                              :U1
U2.                                              :U2
U3.                                              :U3
W.усл.ед                                         :W
ГЗ1.                                             :ГЗ1
ГЗ2.                                             :ГЗ2
ГЗ3.                                             :ГЗ3
ГЗ4.                                             :ГЗ4
ГЗ5.                                             :ГЗ5
ГЗК.                                             :ГЗК
ННКМ.усл.ед                                      :ННКм
PL.g/cm3                                         :Плотность
ПРОФ_СР.                                         :ПРОФ_СР
IS.                                              :РЕЗ
~ASCII LOG DATA
# ...
159.93      17.831      5.808       12.275      1.084       87.006      19.541      1355.901    771.408     440.556     40.736      16.304      15.987      12.592      23.07       28.882      12.399      1.7         2.396       125.699     1.084       
160.03      17.927      6.577       12.271      1.144       86.872      19.563      1356.349    782.384     452.289     41.096      16.202      16.058      12.595      22.988      28.882      12.337      1.717       2.405       125.701     1.084       
160.13      17.442      7.098       12.262      1.187       86.817      19.576      1346.369    777.661     449.676     40.54       16.082      16.112      12.595      22.929      28.882      12.294      1.698       2.41        125.743     1.084       
160.23      17.346      7.093       12.276      1.235       86.761      19.587      1309.201    752.05      432.285     39.377      15.964      16.18       12.595      22.857      28.882      12.233      1.659       2.406       125.833     1.083       
160.33      17.85       6.884       12.304      1.127       86.706      19.596      1239.418    714.198     411.727     38.793      15.82       16.271      12.595      22.755      28.934      12.167      1.648       2.393       126.032     1.084       
160.43      18.056      6.55        12.279      1.13        86.6        19.585      1182.181    684.404     396.366     38.702      15.673      16.292      12.591      22.651      29.205      12.098      1.668       2.38        126.63      1.084       
160.53      17.573      6.11        12.28       1.114       86.411      19.567      1164.119    671.352     387.359     37.898      15.6        16.269      12.571      22.563      29.756      12.041      1.68        2.37        129.05      1.083       
160.63      17.082      5.802       12.246      1.209       86.35       19.538      1184.601    675.018     384.978     36.885      15.545      16.25       12.537      22.469      30.422      11.999      1.679       2.362       132.707     1.084       
160.73      16.854      5.855       12.223      1.134       86.456      19.504      1233.513    690.894     387.412     37.04       15.502      16.215      12.509      22.39       31.052      11.992      1.68        2.359       131.963     1.084       
160.83      17.09       6.09        12.219      1.117       86.678      19.488      1303.784    716.628     394.265     37.749      15.438      16.173      12.499      22.355      31.611      12.034      1.684       2.364       128.132     1.084       
160.93      16.873      6.215       12.203      1.072       86.833      19.469      1378.91     746.728     404.617     39.953      15.51       16.174      12.5        22.364      32.038      12.099      1.678       2.374       127.215     1.085       
161.03      16.447      6.269       12.188      1.065       86.833      19.448      1446.031    775.516     416.058     42.264      15.688      16.233      12.513      22.389      32.161      12.182      1.646       2.383       126.931     1.085       
161.13      17.961      6.283       12.146      1.152       86.85       19.426      1482.953    794.153     425.42      41.063      15.767      16.261      12.542      22.401      31.935      12.255      1.614       2.391       126.908     1.085       
161.23      21.802      6.035       12.101      1.207       86.922      19.399      1507.801    809.136     434.473     39.202      15.843      16.25       12.579      22.408      31.522      12.312      1.602       2.395       126.977     1.085       
161.33      21.838      5.903       12.065      1.176       87.083      19.388      1512.66     806.722     430.889     39.473      15.85       16.178      12.613      22.406      31.06       12.35       1.596       2.389       127.991     1.086       
161.43      22.604      6.246       12.036      1.153       87.328      19.39       1475.03     781.809     415.462     40.924      15.841      16.174      12.625      22.385      30.605      12.354      1.585       2.375       130.061     1.086       
161.53      23.163      6.597       12.02       1.126       87.428      19.398      1408.843    750.798     401.645     41.698      15.748      16.207      12.631      22.347      30.148      12.338      1.574       2.358       132.715     1.087       
161.63      22.827      6.514       12.014      1.1         87.372      19.401      1371.552    717.457     377.626     42.087      15.539      16.154      12.642      22.305      29.701      12.308      1.6         2.344       136.262     1.087       
161.73      22.527      6.04        12.01       1.202       87.3        19.391      1359.599    690.023     352.801     43.557      15.32       16.125      12.647      22.264      29.264      12.274      1.67        2.335       140.071     1.087       
161.83      22.225      6.057       12.022      1.098       87.222      19.377      1364.687    687.723     349.09      43.512      15.12       16.108      12.627      22.203      28.826      12.239      1.715       2.332       142.363     1.087       
161.93      22.29       6.357       12.032      1.01        87.239      19.369      1391.421    698.619     353.167     42.046      15.009      16.122      12.586      22.131      28.409      12.213      1.726       2.334       141.2       1.087       
162.03      22.23       6.612       12.026      1.131       87.294      19.363      1437.199    698.102     340.964     41.718      15.026      16.115      12.525      22.034      27.999      12.179      1.73        2.341       135.615     1.086       
162.13      22.152      6.604       12.004      1.129       87.35       19.358      1460.871    696.661     334.021     41.014      15.232      16.042      12.448      21.918      27.603      12.145      1.709       2.347       130.251     1.086       
162.23      21.853      6.408       11.975      1.187       87.372      19.34       1442.759    696.647     338.93      40.958      15.453      15.958      12.352      21.785      27.207      12.128      1.694       2.35        126.98      1.087       
162.33      21.55       6.271       11.974      1.141       87.317      19.318      1392.538    689.285     346.132     41.902      15.636      15.868      12.259      21.636      26.818      12.149      1.707       2.355       124.921     1.087       
162.43      19.849      6.233       11.949      1.102       87.278      19.306      1312.858    683.925     368.241     41.994      15.764      15.799      12.204      21.488      26.445      12.227      1.722       2.361       124.603     1.088       
162.53      16.084      6.304       11.941      1.115       87.278      19.314      1218.166    690.605     407.399     40.719      15.891      15.84       12.175      21.302      26.091      12.309      1.717       2.367       124.306     1.09        
162.63      16.592      6.451       11.924      1.167       87.294      19.338      1147.685    702.291     440.407     39.765      15.933      15.994      12.163      21.075      25.74       12.405      1.705       2.374       124.023     1.091       
162.73      16.899      6.557       11.905      1.183       87.35       19.36       1113.964    719.058     469.942     39.819      15.724      16.053      12.16       20.811      25.403      12.5        1.711       2.381       124.008     1.091       
162.83      16.92       6.596       11.877      1.202       87.422      19.376      1116.025    732.823     485.518     39.818      15.474      16.067      12.144      20.51       25.089      12.574      1.727       2.38        124.049     1.09        
162.93      16.74       6.492       11.866      1.237       87.517      19.397      1151.588    724.723     462.669     38.514      15.296      16.069      12.074      20.167      24.786      12.599      1.707       2.372       124.161     1.09        
163.03      16.926      6.435       11.872      1.223       87.572      19.432      1201.671    704.939     421.048     36.947      15.164      16.084      11.972      19.815      24.496      12.587      1.656       2.362       124.346     1.089       
