~Version Information Section
VERS.                                         2.0:CWLS log ASCII Standart – VERSION 2.0
WRAP.                                          NO:One line per depth step
~Well Information Section
STRT.M                                        0.6:Начальная глубина
STOP.M                                      191.4:Конечная глубина
STEP.M                                          0:Шаг квантования по глубине
NULL.                                    -9999.25:Признак "Нет данных"
WELL.                                       129Мх:Скважина
~Parameter Information Section
~Curve Information Section
DEPTH.M                                          :Глубина
BK.lgОмм                                         :BK     (БК)
ПРОФ_СР.мм                                       :DS  (ДС)
ГК.имп/мин                                       :GK          (ГК)
ГЗ1.Омм                                          :GZ1   ГЗ1(A0.4M0.1N)
ГЗ2.Омм                                          :GZ2   ГЗ2(A1.0M0.1N)
ГЗ3.Омм                                          :GZ3   ГЗ3(A2.0M0.5N)
ГЗ4.Oмм                                          :GZ4   ГЗ4(A4.0M0.5N)
ГЗ5.Oмм                                          :GZ5   ГЗ5(A8.0M0.5N)
ГЗК.Омм                                          :GZK   ГЗK(N0.5M2.0A)
ИК.мСм/м                                         :IK
НГК.усл.ед                                       :NNKb  (ННКб)
ННКМ.усл.ед                                      :NNKm  (ННКм)
PZ.Омм                                           :PZ    (КС)
РЕЗ.Омм                                          :RS (Резистивиметр)
U1.мВ                                            :U1
U2.mV                                            :U2
U3.мВ                                            :U3
КП.%                                             :Кп
ПС.                                              :ПС
~ASCII LOG DATA
# ...
140.0       36.28       134.112     6.106       9.874       7.912       17.823      25.904      36.556      13.624      11.706      2.954       2.077       44.482      1.12        845.332     1271.473    769.937     35.111      -116.04     
140.1       36.421      133.708     6.08        10.812      8.511       18.037      26.117      35.044      13.483      11.706      2.949       2.08        45.05       1.12        848.0       1283.366    777.099     33.954      -116.12     
140.2       36.816      133.995     6.067       11.969      9.306       18.182      26.307      33.622      13.391      11.331      2.989       2.103       45.419      1.12        856.0       1294.075    782.196     32.945      -116.32     
140.3       37.269      133.866     6.291       13.283      10.28       18.255      26.438      32.467      13.365      11.331      3.02        2.137       45.585      1.12        842.667     1273.864    781.216     32.361      -116.64     
140.4       37.526      133.479     6.278       14.699      11.405      18.255      26.485      31.667      13.365      11.129      3.058       2.16        45.585      1.12        829.332     1239.475    765.057     32.145      -117.16     
140.5       36.068      133.495     5.99        16.086      12.572      18.254      26.485      31.222      13.418      10.886      3.12        2.174       45.585      1.12        808.001     1196.29     729.947     31.976      -117.88     
140.6       34.552      133.488     5.882       17.323      13.661      18.185      26.472      31.044      13.542      10.886      3.24        2.15        45.524      1.12        794.666     1168.671    696.956     32.656      -118.92     
140.7       34.466      133.294     5.664       18.249      14.513      18.053      26.455      31.0        13.721      10.886      3.191       2.108       45.179      1.12        794.666     1153.922    689.086     33.689      -120.12     
140.8       34.775      133.884     6.192       18.79       15.073      17.87       26.455      31.0        13.925      10.886      3.108       2.101       44.487      1.12        797.333     1148.543    706.405     34.005      -121.48     
140.9       35.083      134.291     6.72        18.921      15.313      17.636      26.49       31.0        14.126      10.823      3.092       2.11        43.439      1.12        810.667     1159.497    727.239     34.066      -122.84     
141.0       34.226      133.113     6.682       18.921      15.313      17.361      26.592      31.0        14.286      10.825      3.026       2.118       42.086      1.12        818.666     1170.449    743.99      34.305      -124.12     
141.1       34.49       132.979     6.643       18.703      15.29       17.053      26.743      31.0        14.37       10.825      2.863       2.115       40.527      1.12        826.666     1178.174    754.51      34.197      -125.08     
141.2       34.181      132.957     6.259       18.234      15.057      16.729      26.915      31.0        14.37       10.799      2.77        2.084       38.902      1.12        816.001     1171.324    756.136     33.619      -125.8      
141.3       33.508      132.709     6.163       17.649      14.741      16.403      27.093      31.0        14.354      10.836      2.84        2.048       37.343      1.12        805.333     1160.342    726.625     33.528      -126.28     
141.4       32.835      132.856     6.874       17.036      14.441      16.094      27.27       31.0        14.232      10.977      2.87        2.019       35.949      1.12        794.666     1152.02     697.112     34.696      -126.6      
141.5       32.734      132.598     6.874       16.477      14.214      15.814      27.444      31.0        14.022      10.977      2.817       1.997       34.769      1.12        810.665     1151.215    705.022     35.665      -126.8      
141.6       32.461      132.136     6.24        15.981      14.066      15.578      27.603      31.0        13.747      10.98       2.8         1.982       33.819      1.12        824.001     1154.541    737.071     36.354      -127.0      
141.7       32.188      131.93      6.291       15.563      13.945      15.394      27.737      31.0        13.434      10.98       2.798       1.96        33.093      1.12        829.334     1158.208    751.548     36.875      -127.2      
141.8       31.649      131.915     6.394       15.174      13.837      15.283      27.841      31.044      13.117      11.056      2.696       1.938       32.581      1.12        816.0       1165.914    733.981     37.044      -127.4      
141.9       31.101      132.13      6.682       14.853      13.715      15.261      27.923      31.267      12.832      11.163      2.547       1.932       32.26       1.12        808.0       1188.828    712.02      35.535      -127.6      
142.0       31.052      131.938     6.97        14.683      13.664      15.261      28.002      31.889      12.627      11.163      2.62        1.934       32.092      1.12        808.0       1211.395    707.625     33.843      -127.76     
142.1       31.269      132.059     6.614       14.683      13.664      15.339      28.102      33.044      12.534      11.171      2.746       1.938       32.023      1.12        808.0       1202.302    691.666     32.129      -127.88     
142.2       31.648      131.914     6.259       14.776      13.734      15.505      28.25       34.689      12.534      11.171      2.907       1.951       32.003      1.12        823.999     1178.005    680.106     30.563      -127.96     
142.3       31.526      132.198     6.195       15.161      13.96       15.738      28.455      36.556      12.566      11.212      3.12        1.979       32.0        1.12        848.0       1158.468    705.583     29.825      -128.0      
142.4       32.051      132.512     6.163       15.752      14.241      16.011      28.706      38.333      12.689      11.279      3.404       2.035       32.0        1.12        877.334     1163.234    742.625     29.82       -128.0      
142.5       33.713      133.344     5.338       16.419      14.498      16.301      28.965      39.711      12.862      11.279      3.552       2.11        32.0        1.12        874.667     1170.667    762.443     29.976      -128.0      
142.6       35.375      134.048     5.427       17.078      14.675      16.584      29.177      40.689      13.046      11.37       3.629       2.178       32.0        1.12        861.332     1173.333    734.552     30.534      -128.0      
142.7       39.709      133.906     5.875       17.679      14.821      16.836      29.286      41.444      13.233      11.37       3.587       2.225       32.0        1.12        832.001     1173.333    706.667     31.448      -128.0      
142.8       41.096      134.204     6.112       18.239      14.966      17.026      29.286      42.333      13.44       11.37       3.447       2.237       32.0        1.12        818.667     1176.0      696.0       31.974      -128.0      
142.9       42.482      133.537     6.586       18.708      15.139      17.121      29.259      43.4        13.7        11.365      3.408       2.233       32.0        1.12        808.0       1178.667    696.0       32.772      -128.0      
143.0       42.305      133.553     6.461       19.04       15.305      17.121      29.101      44.556      14.059      11.453      3.294       2.251       32.0        1.12        794.668     1189.333    696.0       33.521      -127.96     
143.1       41.937      133.386     6.336       19.169      15.419      17.1        28.84       45.533      14.554      11.458      3.195       2.269       32.0        1.12        781.332     1197.334    696.0       33.947      -127.88     
143.2       41.569      133.024     5.952       19.169      15.434      16.97       28.503      46.156      15.196      11.458      3.056       2.208       31.998      1.12        768.0       1208.0      696.0       34.68       -127.76     
143.3       36.294      132.882     5.875       19.081      15.434      16.761      28.109      46.244      15.96       11.375      2.947       2.138       31.988      1.12        770.667     1218.667    701.333     35.491      -127.6      
