~Version Information Section
VERS.                                         2.0:CWLS log ASCII Standart – VERSION 2.0
WRAP.                                          NO:One line per depth step
~Well Information Section
STRT.M                                        0.1:Начальная глубина
STOP.M                                      167.0:Конечная глубина
STEP.M                                          0:Шаг квантования по глубине
NULL.                                    -9999.25:Признак "Нет данных"
WELL.                                        143К:Скважина
~Parameter Information Section
~Curve Information Section
DEPTH.M                                          :Глубина
БК.Омм                                           :BK     (БК)
DСР.мм                                           :DS  (ДС)
ПЛОТНОСТЬ.г/см^3                                 :GGKp
ГК.гамма                                         :GK          (ГК)
ИК.мСм/м                                         :IK
НГК.усл.ед                                       :NGK     (НГК)
ННКМ.усл.ед                                      :NNKm  (ННКм)
ПС.mv                                            :PS       (ПС)
N11.0M0.5A.Омм                                   :PZ    (КС)
R.Омм                                            :RS (Резистивиметр)
КП.%                                             :W
А0.4М0.1N.Омм                                    :GZ1   ГЗ1(A0.4M0.1N)
А1.0М0.1N.Омм                                    :GZ2   ГЗ2(A1.0M0.1N)
А2.0М0.5N.Омм                                    :GZ3   ГЗ3(A2.0M0.5N)
А4.0М0.5N.Oмм                                    :GZ4   ГЗ4(A4.0M0.5N)
А8.0М1.0N.Омм                                    :GZ5   ГЗ5(A8.0M0.5N)
N0.5M2.0A.Омм                                    :GZR   ГЗK(N0.5M2.0A)
~ASCII LOG DATA
# ...
103.7       24.843      240.944     2.268       8.126       22.492      1.082       1.814       59.362      25.83       1.08        35.68       26.088      27.981      25.343      31.218      25.212      27.031      
103.8       24.383      241.52      2.268       7.967       22.396      1.081       1.813       59.314      25.559      1.081       34.847      25.744      27.737      25.365      30.677      24.908      27.131      
103.9       24.372      242.063     2.263       8.003       22.296      1.079       1.811       59.27       25.462      1.082       34.185      25.615      27.397      25.377      30.029      24.49       27.191      
104.0       24.444      241.967     2.257       8.025       22.203      1.071       1.806       59.225      25.462      1.085       33.77       25.615      27.06       25.284      29.39       24.046      27.209      
104.1       24.277      241.261     2.253       8.038       22.127      1.055       1.793       59.178      25.443      1.088       33.532      25.615      26.882      25.169      28.92       23.786      27.169      
104.2       23.987      240.587     2.253       7.908       22.074      1.047       1.78        59.127      25.398      1.092       33.297      25.573      26.773      25.106      28.513      23.759      27.109      
104.3       23.776      238.805     2.261       7.85        22.044      1.052       1.78        59.072      25.377      1.095       33.059      25.547      26.658      25.015      28.055      23.759      27.056      
104.4       24.081      236.799     2.272       7.813       22.034      1.053       1.793       59.012      25.43       1.098       32.787      25.587      26.518      24.873      27.522      23.759      26.972      
104.5       24.737      235.55      2.276       7.832       22.034      1.05        1.802       58.948      25.477      1.099       32.509      25.611      26.39       24.687      26.901      23.759      26.908      
104.6       25.519      234.602     2.272       7.866       22.035      1.046       1.808       58.881      25.477      1.1         32.273      25.611      26.319      24.494      26.27       23.843      26.903      
104.7       26.033      234.047     2.261       7.969       22.041      1.042       1.808       58.814      25.467      1.1         32.196      25.6        26.292      24.345      25.804      24.096      26.904      
104.8       26.072      234.229     2.245       7.919       22.058      1.039       1.798       58.747      25.415      1.1         32.211      25.452      26.244      24.266      25.551      24.417      26.904      
104.9       25.509      234.158     2.235       7.725       22.081      1.043       1.784       58.684      25.341      1.1         32.516      25.247      26.108      24.242      25.467      24.652      26.965      
105.0       24.637      234.269     2.232       7.654       22.111      1.047       1.776       58.626      25.282      1.1         33.037      25.096      25.957      24.217      25.464      24.779      27.184      
105.1       24.047      233.86      2.235       7.66        22.149      1.047       1.766       58.575      25.212      1.1         33.71       24.842      25.835      24.181      25.464      24.898      27.557      
105.2       24.104      233.74      2.243       7.847       22.195      1.05        1.76        58.532      25.158      1.1         34.409      24.597      25.729      24.171      25.464      25.062      28.0        
105.3       24.26       233.63      2.249       8.018       22.252      1.055       1.756       58.5        25.146      1.1         35.057      24.523      25.715      24.22       25.571      25.322      28.348      
105.4       23.969      233.627     2.249       8.172       22.321      1.053       1.755       58.479      25.146      1.1         35.426      24.523      25.803      24.288      25.804      25.533      28.468      
105.5       23.396      233.48      2.244       8.141       22.402      1.061       1.751       58.469      25.146      1.1         35.55       24.59       25.936      24.347      26.062      25.769      28.468      
105.6       22.966      233.533     2.237       8.057       22.5        1.08        1.755       58.471      25.184      1.1         35.29       24.759      26.051      24.434      26.326      26.032      28.443      
105.7       22.822      233.55      2.233       7.891       22.622      1.084       1.761       58.485      25.362      1.1         34.801      25.081      26.092      24.577      26.602      26.195      28.276      
105.8       23.069      233.758     2.237       7.856       22.772      1.084       1.77        58.509      25.714      1.1         34.197      25.696      26.125      24.771      26.868      26.384      27.918      
105.9       23.663      233.65      2.25        7.821       22.957      1.093       1.776       58.542      26.234      1.1         33.677      26.673      26.258      25.016      27.091      26.554      27.468      
106.0       24.809      233.444     2.272       7.784       23.169      1.09        1.784       58.584      26.89       1.1         33.164      27.884      26.617      25.3        27.245      26.909      27.0        
106.1       26.131      233.084     2.297       7.749       23.396      1.078       1.795       58.63       27.602      1.1         32.815      29.056      27.219      25.569      27.326      27.549      26.554      
106.2       27.527      233.013     2.32        7.718       23.618      1.094       1.81        58.679      28.284      1.1         32.594      29.999      27.915      25.807      27.377      28.453      26.144      
106.3       28.586      233.307     2.339       7.503       23.813      1.119       1.827       58.725      28.849      1.1         32.567      30.667      28.665      26.018      27.415      29.459      25.814      
106.4       29.168      233.219     2.35        7.339       23.962      1.131       1.855       58.765      29.241      1.1         32.587      31.074      29.502      26.189      27.459      30.529      25.586      
106.5       29.43       232.949     2.353       7.313       24.057      1.133       1.874       58.791      29.452      1.1         32.788      31.317      30.332      26.352      27.54       31.416      25.416      
106.6       29.738      232.906     2.347       7.294       24.097      1.131       1.881       58.797      29.518      1.1         32.876      31.451      30.997      26.566      27.679      32.044      25.284      
106.7       30.014      233.146     2.333       7.277       24.097      1.115       1.876       58.776      29.518      1.1         32.988      31.483      31.422      26.719      27.774      32.384      25.171      
106.8       29.765      234.272     2.315       7.329       24.097      1.093       1.863       58.721      29.475      1.1         33.118      31.378      31.568      26.747      27.783      32.57       25.082      
106.9       28.873      234.301     2.298       7.426       24.097      1.074       1.838       58.626      29.262      1.1         33.318      31.038      31.568      26.747      27.766      32.699      25.047      
107.0       27.906      233.822     2.284       7.546       24.082      1.055       1.822       58.485      28.854      1.1         33.457      30.352      31.459      26.765      27.792      32.871      25.062      
107.1       27.291      234.725     2.275       7.56        24.026      1.046       1.817       58.293      28.354      1.1         33.752      29.402      31.299      26.876      27.931      33.039      25.13       
107.2       26.741      234.334     2.269       7.607       23.938      1.055       1.815       58.045      27.873      1.1         33.959      28.534      31.15       27.038      28.086      33.251      25.262      
107.3       26.299      232.695     2.265       7.861       23.822      1.066       1.81        57.741      27.474      1.1         34.293      27.899      30.917      27.132      28.161      33.494      25.501      
