~Version Information Section
VERS.                                         2.0:CWLS log ASCII Standart – VERSION 2.0
WRAP.                                          NO:One line per depth step
~Well Information Section
STRT.M                                        2.1:Начальная глубина
STOP.M                                      196.8:Конечная глубина
STEP.M                                          0:Шаг квантования по глубине
NULL.                                    -9999.25:Признак "Нет данных"
WELL.                                       154Мх:Скважина
~Parameter Information Section
~Curve Information Section
DEPTH.M                                          :Глубина
BK.lgОмм                                         :BK     (БК)
DСР.мм                                           :DS  (ДС)
ГГКП.g/cm3                                       :GGKp
ГК.мкР/час                                       :GK          (ГК)
ГЗ1.Омм                                          :GZ1   ГЗ1(A0.4M0.1N)
ГЗ2.Омм                                          :GZ2   ГЗ2(A1.0M0.1N)
ГЗ3.Омм                                          :GZ3   ГЗ3(A2.0M0.5N)
ГЗ4.Oмм                                          :GZ4   ГЗ4(A4.0M0.5N)
ГЗ5.Oмм                                          :GZ5   ГЗ5(A8.0M0.5N)
ГЗК.Омм                                          :GZR   ГЗK(N0.5M2.0A)
ИК.мСм/м                                         :IK
НГК.усл.ед.                                      :NGK     (НГК)
РЕЗ.Омм                                          :RS (Резистивиметр)
W.                                               :W
ННКМ.усл.ед                                      :NNKm  (ННКм)
PS.мB                                            :PS       (ПС)
~ASCII LOG DATA
# ...
190.1       26.411      153.986     2.374       4.855       152.01      148.274     150.142     -9999.25    43.59       -9999.25    29.36       1.725       -9999.25    21.062      1.652       69.546      
190.2       43.394      153.408     2.383       4.578       152.01      147.234     149.702     -9999.25    43.45       -9999.25    28.65       1.784       -9999.25    19.095      1.664       70.501      
190.3       61.584      152.971     2.387       4.481       152.01      146.714     149.262     -9999.25    43.31       -9999.25    28.497      1.848       -9999.25    17.644      1.712       71.103      
190.4       71.071      152.764     2.37        4.438       153.27      146.714     149.262     -9999.25    43.31       -9999.25    28.224      1.91        -9999.25    16.393      1.794       71.629      
190.5       72.805      153.785     2.427       4.594       150.33      146.194     148.822     -9999.25    43.31       -9999.25    27.836      1.942       -9999.25    16.063      1.858       71.936      
190.6       75.929      154.574     2.48        4.637       150.33      146.194     148.822     -9999.25    43.31       -9999.25    27.836      1.959       -9999.25    16.25       1.896       -9999.25    
190.7       80.992      155.049     2.582       4.803       149.91      145.674     147.942     -9999.25    43.31       -9999.25    27.627      1.961       -9999.25    16.446      1.921       -9999.25    
190.8       86.858      154.919     2.624       4.674       148.65      145.154     147.942     -9999.25    43.31       -9999.25    27.627      1.913       -9999.25    16.924      1.932       -9999.25    
190.9       88.377      154.68      2.625       4.795       147.39      144.634     147.942     -9999.25    43.45       -9999.25    27.433      1.787       -9999.25    18.071      1.929       -9999.25    
191.0       81.97       155.057     2.539       5.103       146.97      144.114     147.942     -9999.25    43.45       -9999.25    27.421      1.637       -9999.25    19.735      1.892       -9999.25    
191.1       73.008      154.576     2.424       5.503       146.13      143.594     147.942     -9999.25    43.45       -9999.25    27.137      1.463       -9999.25    21.672      1.794       -9999.25    
191.2       54.58       154.992     2.281       5.641       145.29      143.594     144.862     -9999.25    43.59       -9999.25    26.639      1.325       -9999.25    24.309      1.658       -9999.25    
191.3       37.371      154.918     2.22        5.968       141.583     143.594     145.302     -9999.25    43.73       -9999.25    26.226      1.25        -9999.25    26.603      1.513       -9999.25    
191.4       20.059      155.245     2.227       6.006       141.843     143.594     145.302     -9999.25    43.87       -9999.25    25.616      1.335       -9999.25    27.045      1.365       -9999.25    
191.5       14.899      154.217     2.313       5.722       141.843     143.594     145.742     -9999.25    44.01       -9999.25    25.119      1.456       -9999.25    24.565      1.291       -9999.25    
191.6       16.511      153.489     2.392       5.341       141.323     143.594     146.182     -9999.25    44.01       -9999.25    24.472      1.61        -9999.25    20.566      1.335       -9999.25    
191.7       27.814      153.906     2.47        4.937       141.323     144.114     146.622     -9999.25    44.15       -9999.25    24.315      1.806       -9999.25    17.6        1.449       -9999.25    
191.8       39.223      153.893     2.507       4.64        -9999.25    144.634     147.062     -9999.25    44.85       -9999.25    24.257      1.978       -9999.25    15.84       1.602       -9999.25    
191.9       52.683      154.197     2.533       4.438       -9999.25    143.539     147.502     -9999.25    44.99       -9999.25    24.262      2.046       -9999.25    15.119      1.768       -9999.25    
192.0       57.845      154.192     2.499       4.271       -9999.25    143.539     148.382     -9999.25    44.99       -9999.25    24.413      2.074       -9999.25    15.078      1.885       -9999.25    
192.1       61.958      154.82      2.529       4.177       -9999.25    143.539     149.702     -9999.25    44.57       -9999.25    24.571      2.072       -9999.25    15.289      1.945       -9999.25    
192.2       58.858      154.756     2.52        4.347       -9999.25    143.539     150.142     -9999.25    44.01       -9999.25    24.631      2.054       -9999.25    15.199      1.971       -9999.25    
192.3       56.333      154.463     2.514       4.438       -9999.25    143.539     150.142     -9999.25    43.03       -9999.25    24.571      2.031       -9999.25    15.35       1.966       -9999.25    
192.4       55.117      155.389     2.5         4.416       -9999.25    -9999.25    149.702     -9999.25    42.19       -9999.25    24.518      1.995       -9999.25    15.494      1.949       -9999.25    
192.5       53.326      157.224     2.514       4.638       -9999.25    -9999.25    148.382     -9999.25    41.49       -9999.25    24.466      1.956       -9999.25    15.806      1.933       -9999.25    
192.6       52.943      156.22      2.509       4.925       -9999.25    -9999.25    147.502     -9999.25    41.35       -9999.25    24.216      1.898       -9999.25    16.467      1.923       -9999.25    
192.7       51.841      158.425     2.497       5.325       -9999.25    -9999.25    146.182     -9999.25    41.07       -9999.25    24.01       1.742       -9999.25    17.611      1.903       -9999.25    
192.8       54.038      157.28      2.455       5.907       -9999.25    -9999.25    144.862     -9999.25    40.93       -9999.25    23.658      1.574       -9999.25    19.257      1.855       -9999.25    
192.9       49.841      154.89      2.403       6.517       -9999.25    -9999.25    144.422     -9999.25    40.437      -9999.25    23.269      1.447       -9999.25    21.426      1.788       -9999.25    
193.0       40.069      153.848     2.365       7.072       -9999.25    -9999.25    143.982     -9999.25    40.437      -9999.25    22.882      1.347       -9999.25    23.66       1.693       -9999.25    
193.1       28.562      154.657     2.327       7.359       -9999.25    -9999.25    141.342     -9999.25    40.437      -9999.25    22.381      1.249       -9999.25    25.965      1.571       -9999.25    
193.2       21.388      155.051     2.32        7.25        -9999.25    -9999.25    139.539     -9999.25    40.437      -9999.25    21.936      1.226       -9999.25    27.397      1.462       -9999.25    
193.3       20.509      155.035     2.333       6.899       -9999.25    -9999.25    139.539     -9999.25    -9999.25    -9999.25    21.936      1.221       -9999.25    27.968      1.386       -9999.25    
193.4       22.396      154.759     2.368       6.623       -9999.25    -9999.25    139.539     -9999.25    -9999.25    -9999.25    21.549      1.209       -9999.25    27.39       1.344       -9999.25    
193.5       24.036      153.784     2.406       6.451       -9999.25    -9999.25    139.539     -9999.25    -9999.25    -9999.25    21.257      1.196       -9999.25    26.807      1.337       -9999.25    
193.6       24.768      151.596     2.425       6.395       -9999.25    -9999.25    -9999.25    -9999.25    -9999.25    -9999.25    20.893      1.219       -9999.25    26.134      1.351       -9999.25    
193.7       24.236      151.137     2.447       6.308       -9999.25    -9999.25    -9999.25    -9999.25    -9999.25    -9999.25    20.539      1.216       -9999.25    25.891      1.364       -9999.25    
193.8       22.791      149.994     2.499       6.487       -9999.25    -9999.25    -9999.25    -9999.25    -9999.25    -9999.25    20.158      1.236       -9999.25    25.754      1.378       -9999.25    
193.9       22.664      149.219     2.485       6.698       -9999.25    -9999.25    -9999.25    -9999.25    -9999.25    -9999.25    19.788      1.254       -9999.25    25.951      1.388       -9999.25    
194.0       23.292      134.484     2.451       6.654       -9999.25    -9999.25    -9999.25    -9999.25    -9999.25    -9999.25    19.468      1.288       -9999.25    26.354      1.391       -9999.25    
