~Version Information Section
VERS.                                         2.0:CWLS log ASCII Standart – VERSION 2.0
WRAP.                                          NO:One line per depth step
~Well Information Section
STRT.M                                        0.4:Начальная глубина
STOP.M                                      203.0:Конечная глубина
STEP.M                                          0:Шаг квантования по глубине
NULL.                                    -9999.25:Признак "Нет данных"
WELL.                                       128Мх:Скважина
~Parameter Information Section
~Curve Information Section
DEPTH.M                                          :Глубина
BK.Ohm*M                                         :BK     (БК)
DS.mm                                            :DS  (ДС)
GGK.g/cm3                                        :GGKp
ГК.mcr/h                                         :GK          (ГК)
ИК.Ohm*M                                         :IK
НГК.mcR/H                                        :NGK
NNKM.                                            :NNKm  (ННКм)
PS.mv                                            :PS       (ПС)
PZ.Ohm*M                                         :PZ    (КС)
RS.Ohm*M                                         :RS (Резистивиметр)
U1.mV                                            :U1
U2.mV                                            :U2
U3.mV                                            :U3
W.%                                              :W
~ASCII LOG DATA
# ...
135.4       98.401      124.093     2.161       4.528       36.403      1.356       2.583       92.523      32.671      1.1         265.672     435.171     322.84      30.322      
135.6       67.608      123.361     2.156       4.687       36.299      1.475       2.499       93.213      32.839      1.1         236.625     366.986     203.012     31.947      
135.8       54.828      123.851     2.185       4.413       36.443      1.298       2.395       95.332      33.044      1.1         171.088     321.178     169.863     34.079      
136.0       77.446      123.699     2.187       4.21        36.693      1.313       2.435       99.324      33.337      1.1         87.106      254.594     122.223     29.408      
136.2       83.946      124.321     2.187       4.551       36.299      1.396       2.603       104.843     33.784      1.1         83.409      260.589     145.902     31.275      
136.4       49.317      124.601     2.218       5.266       35.326      1.013       2.473       113.788     34.518      1.1         131.36      346.196     301.704     35.606      
136.6       45.499      124.888     2.23        5.866       35.153      1.081       2.343       130.764     35.785      1.1         194.974     364.342     246.026     35.655      
136.8       34.754      124.574     2.182       5.59        34.792      1.087       2.258       158.608     37.827      1.1         222.425     328.9       157.499     34.74       
137.0       44.978      125.117     2.135       4.777       33.86       1.16        2.234       190.738     40.541      1.1         409.305     334.558     97.259      34.549      
137.2       67.143      125.218     2.137       4.643       32.928      1.335       2.318       218.803     43.506      1.1         449.678     442.917     222.538     34.516      
137.4       75.336      125.224     2.145       4.53        32.351      1.275       2.414       239.87      46.346      1.1         272.39      430.357     298.689     33.938      
137.6       63.096      124.473     2.147       4.42        32.464      1.321       2.409       256.231     49.19       1.1         96.228      276.863     165.018     34.615      
137.8       62.661      124.217     2.177       4.584       33.047      1.303       2.424       270.449     52.466      1.1         82.097      273.911     188.82      30.152      
138.0       69.502      124.362     2.205       4.787       32.73       1.183       2.52        283.976     56.306      1.1         172.964     293.126     195.495     30.357      
138.2       57.148      124.512     2.212       5.244       32.237      1.176       2.446       297.627     60.298      1.1         402.903     357.358     126.208     36.067      
138.4       31.333      124.738     2.199       5.728       32.014      1.101       2.252       311.326     63.805      1.1         471.829     414.863     153.846     34.407      
138.6       33.266      124.584     2.211       5.588       31.183      1.187       2.255       324.46      66.588      1.1         461.807     365.199     104.542     32.836      
138.8       53.211      124.876     2.235       5.262       30.033      1.254       2.365       335.991     68.885      1.1         216.014     297.459     115.478     33.149      
139.0       51.761      124.514     2.228       5.23        28.934      1.244       2.344       345.453     71.129      1.1         177.359     332.44      200.89      32.953      
139.2       39.084      124.084     2.227       5.676       29.457      1.275       2.24        353.116     73.716      1.1         328.753     418.236     223.318     31.839      
139.4       47.643      124.343     2.246       5.322       30.563      1.305       2.34        360.606     77.285      1.1         232.874     359.934     188.012     33.248      
139.6       38.905      124.594     2.223       5.041       30.733      1.416       2.336       370.315     82.574      1.1         203.849     327.756     152.772     30.828      
139.8       47.424      125.118     2.215       5.145       30.733      1.274       2.459       382.487     89.52       1.1         272.801     347.456     142.822     30.797      
140.0       78.705      125.993     2.235       5.27        30.836      1.256       2.542       394.684     96.714      1.1         278.695     324.191     115.755     34.884      
140.2       54.325      125.613     2.256       5.394       31.221      1.181       2.427       404.318     102.522     1.1         192.948     329.907     178.852     31.787      
140.4       38.548      124.627     2.278       5.99        31.98       1.393       2.362       411.636     106.478     1.1         137.594     300.812     161.013     28.322      
140.6       58.076      125.064     2.271       5.592       32.695      1.501       2.506       418.116     109.0       1.1         218.996     342.059     182.62      27.568      
140.8       74.302      126.104     2.279       5.165       32.394      1.419       2.628       424.449     109.69      1.1         447.841     397.287     147.592     30.509      
141.0       68.077      128.054     2.298       5.223       32.014      1.372       2.626       430.313     109.69      1.1         397.768     384.657     145.202     31.182      
141.2       53.333      129.171     2.333       5.408       32.351      1.337       2.53        435.216     107.938     1.1         210.164     357.441     238.198     29.174      
141.4       53.333      129.28      2.344       5.016       32.58       1.23        2.524       438.715     104.298     1.1         150.103     362.525     369.394     28.946      
141.6       38.726      127.97      2.31        4.807       32.545      1.197       2.506       440.834     100.585     1.1         315.252     391.738     238.569     29.428      
141.8       38.019      127.383     2.274       4.744       32.343      1.419       2.513       441.894     98.113      1.1         361.141     415.475     195.102     29.906      
142.0       42.17       127.948     2.257       5.452       31.793      1.34        2.479       442.017     97.046      1.1         418.588     449.365     215.077     29.38       
142.2       55.976      127.524     2.277       5.849       31.434      1.413       2.542       441.918     96.745      1.1         286.338     383.478     197.058     29.904      
142.4       58.345      127.387     2.253       5.828       31.254      1.41        2.543       441.179     96.467      1.1         219.676     312.673     128.291     29.026      
142.6       56.364      127.066     2.248       5.267       31.61       1.317       2.559       440.095     95.6        1.1         150.092     288.063     138.404     30.473      
142.8       62.087      126.634     2.227       5.485       32.58       1.462       2.554       438.567     93.801      1.1         156.327     315.857     175.991     29.063      
143.0       65.615      126.682     2.255       5.614       33.047      1.358       2.594       436.399     91.259      1.1         160.389     316.729     197.266     27.908      
143.2       83.56       126.79      2.302       4.606       33.129      1.577       2.65        433.836     88.72       1.1         263.142     295.874     123.082     28.427      
143.4       106.906     127.88      2.301       4.779       32.928      1.607       2.719       431.348     86.876      1.1         187.501     298.883     171.727     27.03       
143.6       116.145     128.846     2.283       4.993       33.213      1.229       2.693       428.958     85.894      1.1         165.946     308.277     163.525     27.73       
143.8       87.7        128.691     2.236       5.095       33.165      1.362       2.691       426.444     85.525      1.1         310.725     359.082     141.406     30.52       
144.0       82.794      128.999     2.25        5.11        32.928      1.275       2.565       423.98      85.442      1.1         306.595     321.36      103.499     29.128      
144.2       62.661      130.293     2.287       5.326       32.315      1.556       2.504       421.837     85.442      1.1         235.937     306.593     184.464     27.031      
