~Version Information Section
VERS.                                         2.0:CWLS log ASCII Standart – VERSION 2.0
WRAP.                                          NO:One line per depth step
~Well Information Section
STRT.M                                        1.0:Начальная глубина
STOP.M                                      199.5:Конечная глубина
STEP.M                                          0:Шаг квантования по глубине
NULL.                                    -9999.25:Признак "Нет данных"
WELL.                                       122Мх:Скважина
~Parameter Information Section
~Curve Information Section
DEPTH.M                                          :Глубина
БК.Омм                                           :BK     (БК)
DСР.мм                                           :DS  (ДС)
ГК.гамма                                         :GK          (ГК)
А0.4М0.1N.Омм.ohmm                               :GZ1   ГЗ1(A0.4M0.1N)
А1.0М0.1N.Омм.ohmm                               :GZ2   ГЗ2(A1.0M0.1N)
А2.0М0.5N.Омм.ohmm                               :GZ3   ГЗ3(A2.0M0.5N)
А4.0М0.5N.Oмм.ohmm                               :GZ4   ГЗ4(A4.0M0.5N)
А8.0М1.0N.Омм.ohmm                               :GZ5   ГЗ5(A8.0M0.5N)
N0.5M2.0A.Омм.ohmm                               :GZK   ГЗK(N0.5M2.0A)
ИК.мСм/м                                         :IK
НГК.усл.ед                                       :NGK     (НГК)
ПС.mv                                            :PS       (ПС)
КС.Омм                                           :PZ    (КС)
R.Омм                                            :RS (Резистивиметр)
ПЛОТНОСТЬ.г/см3                                  :ГГКп
П.                                               :п
ННКМ.усл.ед                                      :ННКм
~ASCII LOG DATA
# ...
126.8       51.041      130.762     6.21        82.826      105.143     85.011      52.097      53.294      89.897      47.655      1.189       45.5        83.315      1.235       2.348       31.476      145.354     
126.9       52.67       130.715     6.146       80.733      103.529     84.586      52.581      53.914      91.745      48.109      1.199       46.125      82.96       1.233       2.345       31.89       144.995     
127.0       63.109      130.969     6.104       77.046      100.204     84.698      54.124      55.274      94.86       48.45       1.236       46.75       83.217      1.232       2.346       31.718      143.994     
127.1       77.505      131.335     6.108       73.276      95.243      85.446      56.633      56.907      99.38       48.761      1.279       46.875      83.837      1.233       2.352       31.436      144.652     
127.2       77.827      131.809     6.123       71.637      93.053      86.601      60.007      58.118      104.984     49.099      1.3         47.125      84.514      1.234       2.361       31.986      144.412     
127.3       70.226      132.352     6.131       71.321      95.098      89.13       64.051      59.145      110.868     48.972      1.302       47.25       85.066      1.234       2.368       33.132      145.003     
127.4       63.933      132.522     6.095       72.263      99.065      92.276      67.954      59.651      115.118     48.33       1.322       46.875      85.062      1.237       2.367       33.872      144.152     
127.5       62.386      132.439     6.013       76.367      104.381     94.708      70.531      59.694      114.167     47.817      1.367       46.5        86.061      1.244       2.357       34.634      144.683     
127.6       62.933      132.66      5.921       82.186      104.878     95.442      70.843      59.807      108.692     46.896      1.39        45.125      88.536      1.248       2.341       36.162      146.69      
127.7       61.484      132.748     5.842       82.407      99.24       93.878      69.864      60.076      101.892     45.446      1.361       43.625      91.528      1.242       2.323       38.531      147.125     
127.8       56.889      132.643     5.748       79.057      91.625      90.967      68.45       60.346      95.3        44.571      1.299       43.875      93.923      1.236       2.303       39.957      146.55      
127.9       47.062      132.798     5.553       78.292      87.63       88.527      66.783      60.95       88.834      44.512      1.24        45.5        93.76       1.233       2.282       39.538      150.138     
128.0       32.703      133.041     5.384       79.944      89.146      87.639      66.055      61.326      83.681      45.566      1.201       47.25       91.027      1.232       2.265       38.368      181.638     
128.1       30.441      133.537     5.286       82.715      93.721      88.282      67.063      61.056      81.79       47.21       1.177       50.0        85.608      1.23        2.255       37.447      200.592     
128.2       38.423      133.447     5.309       85.557      100.624     89.11       69.272      60.716      81.659      48.6        1.173       52.625      80.983      1.227       2.247       36.209      198.872     
128.3       48.196      133.51      5.289       88.152      112.266     88.219      70.572      61.257      84.917      49.895      1.179       53.75       78.485      1.222       2.239       34.964      198.765     
128.4       54.983      133.54      5.18        86.18       116.637     86.173      69.241      62.794      91.268      51.237      1.19        55.75       76.909      1.215       2.231       33.832      200.415     
128.5       64.832      133.527     4.996       73.623      103.062     82.649      66.357      63.799      97.183      51.827      1.197       57.0        77.227      1.218       2.227       33.797      197.172     
128.6       78.353      133.569     4.722       56.35       88.342      77.681      63.92       64.597      100.809     52.184      1.202       57.375      78.487      1.223       2.23        34.694      164.18      
128.7       80.709      133.596     4.616       45.837      81.868      74.491      62.797      65.623      104.287     51.889      1.217       57.375      80.832      1.227       2.239       35.712      143.682     
128.8       82.539      133.406     4.835       45.266      83.299      75.011      64.168      65.757      107.707     51.848      1.253       57.0        84.674      1.229       2.255       36.975      141.456     
128.9       77.937      133.132     5.253       50.007      89.518      77.856      67.914      65.428      109.619     52.075      1.28        57.625      88.469      1.232       2.274       37.972      141.996     
129.0       67.096      132.896     5.637       58.1        93.801      81.532      71.832      65.422      110.399     52.189      1.267       58.5        91.776      1.234       2.289       38.135      142.685     
129.1       65.564      132.521     5.8         68.147      97.069      84.385      74.869      65.229      108.826     52.247      1.219       57.625      94.763      1.235       2.295       37.625      143.657     
129.2       61.72       132.02      5.875       72.718      96.599      85.697      76.716      65.497      106.09      52.743      1.174       56.0        97.13       1.236       2.293       37.153      144.893     
129.3       60.209      131.827     5.863       73.34       91.574      86.981      77.504      66.372      102.624     52.469      1.151       55.875      98.716      1.235       2.288       36.584      145.347     
129.4       61.921      131.891     5.815       76.0        91.306      87.776      77.619      66.512      99.018      52.414      1.144       56.75       100.754     1.237       2.289       35.86       143.732     
129.5       60.573      131.989     5.774       79.964      94.886      90.539      78.344      66.065      97.73       52.26       1.141       58.375      102.497     1.236       2.296       35.386      142.074     
129.6       59.765      132.074     5.775       83.008      100.184     94.621      80.268      65.282      99.225      52.288      1.144       59.5        101.335     1.236       2.311       35.432      140.635     
129.7       60.686      132.347     5.834       89.688      111.708     97.652      81.898      64.655      100.863     52.952      1.154       59.125      98.62       1.238       2.328       35.809      140.489     
129.8       62.03       132.452     5.987       95.232      120.58      100.382     82.153      64.665      101.514     53.217      1.17        58.625      96.619      1.239       2.345       36.094      140.689     
129.9       61.71       131.747     6.32        90.09       118.493     101.646     81.89       64.553      101.876     53.425      1.189       57.375      95.372      1.24        2.353       36.277      142.179     
130.0       60.115      130.663     6.663       81.966      113.566     100.293     81.76       64.35       101.406     53.847      1.21        53.5        95.48       1.239       2.352       36.143      142.779     
130.1       60.981      129.975     6.82        78.883      112.111     97.294      81.46       64.073      100.689     54.016      1.228       50.25       97.13       1.242       2.345       35.893      142.818     
130.2       65.751      129.834     6.66        81.06       113.4       95.418      81.244      63.719      99.931      53.556      1.243       50.125      98.589      1.243       2.349       35.241      142.878     
130.3       70.603      129.881     6.497       85.609      114.988     94.464      81.224      63.29       99.512      53.807      1.255       51.375      99.725      1.243       2.362       34.551      143.158     
130.4       71.975      129.722     6.529       87.307      114.126     93.449      81.438      63.192      100.046     53.868      1.269       52.625      102.019     1.244       2.383       33.349      143.007     
