~Version Information Section
VERS.                                         2.0:CWLS log ASCII Standart – VERSION 2.0
WRAP.                                          NO:One line per depth step
~Well Information Section
STRT.M                                        1.0:Начальная глубина
STOP.M                                      199.5:Конечная глубина
STEP.M                                          0:Шаг квантования по глубине
NULL.                                    -9999.25:Признак "Нет данных"
WELL.                                       122Мх:Скважина
~Parameter Information Section
~Curve Information Section
DEPTH.M                                          :Глубина
БК.Омм                                           :BK     (БК)
DСР.мм                                           :DS  (ДС)
ГК.гамма                                         :GK          (ГК)
А0.4М0.1N.Омм.ohmm                               :GZ1   ГЗ1(A0.4M0.1N)
А1.0М0.1N.Омм.ohmm                               :GZ2   ГЗ2(A1.0M0.1N)
А2.0М0.5N.Омм.ohmm                               :GZ3   ГЗ3(A2.0M0.5N)
А4.0М0.5N.Oмм.ohmm                               :GZ4   ГЗ4(A4.0M0.5N)
А8.0М1.0N.Омм.ohmm                               :GZ5   ГЗ5(A8.0M0.5N)
N0.5M2.0A.Омм.ohmm                               :GZK   ГЗK(N0.5M2.0A)
ИК.мСм/м                                         :IK
НГК.усл.ед                                       :NGK     (НГК)
ПС.mv                                            :PS       (ПС)
КС.Омм                                           :PZ    (КС)
R.Омм                                            :RS (Резистивиметр)
ПЛОТНОСТЬ.г/см3                                  :ГГКп
П.                                               :п
ННКМ.усл.ед                                      :ННКм
~ASCII LOG DATA
# ...
152.7       18.415      167.725     9.043       28.24       28.298      27.946      29.183      31.378      25.887      18.692      1.113       92.125      25.866      1.212       2.423       37.057      123.266     
152.8       18.499      167.501     8.614       29.101      28.87       27.74       28.946      30.896      25.639      18.745      1.102       91.625      25.619      1.212       2.406       36.711      123.079     
152.9       18.562      168.448     8.232       29.919      28.533      27.481      28.407      30.294      25.294      18.826      1.11        91.5        25.571      1.212       2.39        36.401      122.829     
153.0       19.107      169.19      8.104       29.674      27.432      27.189      27.491      29.767      25.08       18.886      1.112       91.375      25.641      1.212       2.38        36.48       122.465     
153.1       19.225      167.379     8.191       29.065      26.519      26.687      26.739      29.245      25.226      18.966      1.097       91.375      25.613      1.212       2.378       36.819      122.515     
153.2       19.59       167.416     8.301       28.701      26.118      26.148      26.249      28.542      25.489      18.962      1.076       91.875      25.238      1.212       2.384       37.387      123.792     
153.3       20.494      167.569     8.533       27.986      25.985      25.722      25.503      27.821      25.474      18.945      1.055       93.0        24.759      1.212       2.401       37.514      125.296     
153.4       20.518      167.752     8.838       27.398      26.347      25.162      24.55       26.737      25.117      19.0        1.032       93.875      24.634      1.212       2.417       37.402      125.213     
153.5       19.716      168.664     9.108       26.842      25.724      24.713      23.802      26.002      24.602      19.057      1.012       93.5        24.844      1.212       2.424       37.22       124.778     
153.6       18.553      170.971     9.265       25.462      24.397      24.189      23.155      25.393      23.983      19.055      1.025       93.125      25.231      1.212       2.416       37.07       124.391     
153.7       19.094      169.393     9.281       24.837      24.107      23.3        22.514      24.839      23.522      19.047      1.075       93.625      25.627      1.212       2.398       36.723      124.758     
153.8       19.997      168.123     9.109       25.597      24.19       22.507      22.141      24.411      23.457      19.047      1.117       94.125      25.874      1.212       2.375       36.303      124.736     
153.9       20.036      168.019     8.859       26.588      24.368      22.129      22.003      24.024      23.627      19.028      1.113       94.125      25.919      1.212       2.365       36.586      124.251     
154.0       19.722      168.036     8.676       26.926      24.198      22.034      21.856      23.498      23.828      19.026      1.086       93.875      25.794      1.212       2.372       37.171      125.334     
154.1       19.569      168.184     8.661       26.844      24.229      22.068      21.714      23.177      23.997      18.998      1.091       93.5        25.63       1.212       2.396       37.63       125.719     
154.2       19.88       168.282     8.675       26.906      24.721      22.168      21.812      23.057      24.22       18.949      1.121       93.0        25.507      1.212       2.421       38.165      125.717     
154.3       20.105      168.504     8.66        26.785      25.006      22.426      22.099      23.013      24.498      18.951      1.139       92.75       25.457      1.212       2.444       38.787      125.171     
154.4       20.456      168.798     8.538       26.305      25.128      22.793      22.289      22.997      24.637      18.968      1.133       92.75       25.465      1.212       2.457       39.21       124.68      
154.5       20.601      168.741     8.396       26.408      25.901      23.015      22.281      22.868      24.706      18.894      1.126       93.0        25.497      1.212       2.463       39.164      125.644     
154.6       20.636      168.676     8.451       26.994      26.738      23.154      22.175      22.876      24.772      18.766      1.132       93.375      25.489      1.212       2.461       38.179      125.333     
154.7       21.517      168.579     8.712       27.194      26.552      23.282      21.983      22.678      24.666      18.588      1.136       93.75       25.526      1.212       2.46        37.371      125.531     
154.8       22.175      168.601     8.814       26.964      26.02       23.256      21.714      22.446      24.424      18.538      1.116       94.125      25.817      1.212       2.461       36.643      125.234     
154.9       21.733      168.675     8.494       26.602      25.483      23.161      21.605      22.197      24.09       18.389      1.089       93.5        26.246      1.212       2.462       35.497      125.411     
155.0       20.467      168.75      8.188       26.679      24.891      23.173      21.733      22.039      23.676      18.21       1.097       92.5        26.514      1.212       2.459       34.108      124.444     
155.1       19.806      170.259     8.287       27.199      24.96       23.31       21.901      21.742      23.157      18.047      1.125       92.125      26.487      1.212       2.451       32.651      124.497     
155.2       19.551      169.205     8.727       28.438      25.547      23.407      21.96       21.389      22.683      17.891      1.154       91.875      26.364      1.212       2.44        31.501      124.808     
155.3       19.428      167.751     9.262       29.382      26.276      23.409      21.925      21.224      22.527      17.774      1.135       92.0        26.227      1.212       2.426       30.896      125.576     
155.4       19.253      167.221     9.515       29.146      26.421      23.428      21.845      21.076      22.653      17.646      1.095       92.25       25.916      1.212       2.413       30.588      127.352     
155.5       19.002      167.092     9.493       28.981      26.135      23.467      21.735      20.949      22.973      17.542      1.065       92.375      25.483      1.212       2.407       30.681      128.47      
155.6       19.014      167.044     9.185       28.878      26.614      23.546      21.646      20.812      23.395      17.452      1.06        92.375      25.126      1.212       2.406       31.189      124.317     
155.7       19.391      169.435     8.885       28.366      27.284      23.775      21.558      20.782      24.148      17.353      1.066       92.25       24.859      1.212       2.412       32.395      124.834     
155.8       19.629      166.005     8.772       27.642      27.451      23.975      21.435      20.644      25.337      17.264      1.048       91.75       24.633      1.212       2.424       33.688      125.508     
155.9       19.371      165.601     8.829       26.775      27.0        23.995      21.276      20.505      26.176      17.154      1.014       91.375      24.461      1.212       2.44        34.764      124.688     
156.0       19.148      165.257     9.026       26.205      26.638      23.888      21.116      20.539      27.287      16.933      0.988       91.625      24.298      1.212       2.452       36.099      124.449     
156.1       19.07       165.661     9.233       26.154      26.573      23.672      20.972      20.694      28.927      16.805      0.99        91.875      24.152      1.212       2.452       37.558      124.706     
156.2       18.674      166.004     9.346       26.314      26.314      23.436      20.858      20.454      30.059      16.669      1.02        91.875      24.039      1.212       2.444       38.593      124.893     
156.3       17.943      163.188     9.312       26.292      25.803      23.229      20.7        20.364      30.802      16.632      1.061       91.25       23.942      1.212       2.438       38.735      125.227     
