~Version Information Section
VERS.                                         2.0:CWLS log ASCII Standart – VERSION 2.0
WRAP.                                          NO:One line per depth step
~Well Information Section
STRT.M                                        7.7:Начальная глубина
STOP.M                                      168.6:Конечная глубина
STEP.M                                          0:Шаг квантования по глубине
NULL.                                    -9999.25:Признак "Нет данных"
WELL.                                       137Мх:Скважина
~Parameter Information Section
~Curve Information Section
DEPTH.M                                          :Глубина
ГК.мкР/ч                                         :GK
U1.                                              :U1
U12.                                             :U12
U2.                                              :U2
W.усл.ед                                         :W
ЗОНД.                                            :Зонд N0
НГК.                                             :НГК
ННКМ.усл.ед                                      :ННКм
ПЛОТНОСТЬ.г/см3                                  :плотность
РЕЗИСТИВИМЕТР.Ом                                 :Резистивиметр
~ASCII LOG DATA
# ...
87.0        7.101       330.098     229.66      168.421     27.508      48.416      1.325       1.345       2.264       0.612       
87.1        6.587       252.581     206.234     176.029     26.994      45.649      1.334       1.36        2.26        0.605       
87.2        6.48        185.383     180.452     180.066     26.542      44.775      1.298       1.451       2.267       0.604       
87.3        6.579       142.548     155.965     173.706     27.165      44.861      1.243       1.438       2.289       0.604       
87.4        7.02        118.134     144.383     177.266     28.084      45.222      1.22        1.406       2.315       0.606       
87.5        7.688       112.143     145.705     190.745     29.057      45.986      1.202       1.384       2.333       0.61        
87.6        8.003       124.817     155.552     199.924     29.874      47.514      1.194       1.354       2.345       0.613       
87.7        7.664       151.779     164.668     188.059     30.359      50.687      1.215       1.376       2.352       0.615       
87.8        7.411       225.71      199.444     183.098     30.248      55.922      1.28        1.384       2.355       0.621       
87.9        7.546       332.326     260.61      206.087     29.945      63.023      1.336       1.353       2.357       0.632       
88.0        8.006       410.466     285.152     201.823     29.35       70.849      1.319       1.347       2.361       0.652       
88.1        8.454       462.861     282.826     177.373     28.714      77.549      1.296       1.342       2.36        0.67        
88.2        8.781       489.51      253.634     132.736     28.376      84.887      1.305       1.342       2.366       0.677       
88.3        8.807       467.984     237.996     124.275     27.86       94.361      1.335       1.379       2.373       0.678       
88.4        8.165       362.87      199.763     116.974     27.31       100.856     1.36        1.379       2.385       0.684       
88.5        7.48        306.389     189.749     123.721     26.9        99.925      1.349       1.441       2.403       0.691       
88.6        7.198       382.127     230.546     143.356     26.62       92.049      1.329       1.442       2.424       0.692       
88.7        6.899       495.768     302.389     187.722     26.241      80.359      1.331       1.444       2.432       0.692       
88.8        6.609       578.185     362.035     228.947     25.936      70.198      1.337       1.516       2.419       0.692       
88.9        6.087       629.379     409.484     267.031     25.804      64.544      1.34        1.564       2.377       0.686       
89.0        5.598       647.596     422.499     277.876     25.938      62.486      1.339       1.492       2.337       0.678       
89.1        5.601       569.739     393.509     276.464     25.717      62.146      1.33        1.448       2.292       0.674       
89.2        5.765       516.961     388.542     294.867     25.541      62.84       1.302       1.399       2.273       0.673       
89.3        6.237       553.526     415.463     313.907     25.586      65.009      1.271       1.401       2.268       0.673       
89.4        6.546       679.432     474.271     333.585     25.999      68.828      1.269       1.407       2.271       0.68        
89.5        6.724       796.327     485.424     305.222     26.548      73.857      1.28        1.394       2.27        0.697       
89.6        6.753       936.02      483.057     260.253     27.127      78.488      1.309       1.367       2.268       0.715       
89.7        6.514       932.641     464.027     238.226     27.585      80.845      1.334       1.389       2.266       0.728       
89.8        6.256       934.663     471.657     242.42      28.184      80.321      1.359       1.419       2.26        0.723       
89.9        6.217       942.085     505.946     272.837     28.352      77.64       1.392       1.471       2.261       0.697       
90.0        6.0         1030.643    561.088     309.771     28.256      73.855      1.383       1.51        2.256       0.674       
90.1        5.706       1029.066    607.282     366.551     28.069      69.786      1.346       1.531       2.255       0.667       
90.2        5.705       1009.649    602.211     366.481     27.783      65.768      1.318       1.536       2.241       0.667       
90.3        5.859       949.584     536.09      310.734     27.429      62.674      1.317       1.596       2.229       0.667       
90.4        6.292       848.869     408.921     199.31      27.506      61.463      1.321       1.542       2.214       0.667       
90.5        6.458       709.953     312.47      139.118     27.686      61.265      1.33        1.433       2.202       0.664       
90.6        6.397       645.782     265.472     109.137     27.84       60.713      1.328       1.433       2.211       0.657       
90.7        6.181       664.084     285.745     124.266     28.149      59.524      1.336       1.433       2.236       0.647       
90.8        5.973       690.117     323.838     154.293     28.26       58.061      1.359       1.427       2.264       0.638       
90.9        6.108       739.012     384.865     202.269     27.835      56.345      1.346       1.421       2.274       0.634       
91.0        6.594       711.935     408.554     236.213     27.456      54.47       1.302       1.436       2.275       0.625       
91.1        7.078       659.677     405.018     249.902     27.678      52.811      1.265       1.446       2.274       0.605       
91.2        7.337       567.105     369.14      240.284     28.014      51.278      1.284       1.399       2.278       0.585       
91.3        7.495       498.98      333.072     223.403     28.212      50.102      1.314       1.399       2.291       0.578       
91.4        7.422       404.511     286.705     205.484     28.477      49.694      1.298       1.425       2.305       0.578       
91.5        7.195       320.958     264.101     226.443     28.674      50.223      1.287       1.425       2.322       0.58        
91.6        7.063       274.664     275.56      287.319     28.664      52.648      1.293       1.424       2.331       0.587       
91.7        7.227       385.039     331.253     310.643     28.858      57.631      1.288       1.401       2.34        0.598       
91.8        7.874       495.207     374.639     305.663     29.46       64.429      1.236       1.343       2.341       0.609       
91.9        8.464       605.167     405.719     272.38      29.688      71.178      1.215       1.367       2.342       0.625       
92.0        8.446       597.135     427.004     308.218     29.572      74.113      1.235       1.385       2.343       0.662       
92.1        8.418       590.728     460.969     364.009     29.119      71.674      1.301       1.413       2.343       0.706       
92.2        7.822       680.159     490.893     365.98      28.342      66.691      1.386       1.427       2.34        0.7         
92.3        6.986       794.636     529.21      363.289     27.442      61.135      1.417       1.557       2.337       0.665       
92.4        6.535       934.158     575.921     355.934     27.326      56.088      1.36        1.578       2.332       0.65        
92.5        6.29        949.781     612.678     396.363     27.184      53.255      1.294       1.67        2.331       0.646       
92.6        6.032       910.674     614.367     415.464     27.647      52.547      1.274       1.576       2.325       0.646       
92.7        6.156       810.675     561.608     389.589     28.134      52.221      1.284       1.513       2.303       0.648       
92.8        6.654       700.733     484.998     336.278     28.514      51.141      1.308       1.506       2.276       0.647       
92.9        7.073       580.848     384.536     255.532     28.582      49.522      1.328       1.5         2.226       0.637       
93.0        6.868       540.529     344.729     220.396     28.714      47.647      1.353       1.493       2.191       0.621       
