~Version Information Section
VERS.                                         2.0:CWLS log ASCII Standart – VERSION 2.0
WRAP.                                          NO:One line per depth step
~Well Information Section
STRT.M                                        1.0:Начальная глубина
STOP.M                                      208.3:Конечная глубина
STEP.M                                          0:Шаг квантования по глубине
NULL.                                    -9999.25:Признак "Нет данных"
WELL.                                       131Мх:Скважина
~Parameter Information Section
~Curve Information Section
DEPTH.M                                          :Глубина
БК.Омм                                           :BK     (БК)
DСР.мм                                           :DS  (ДС)
ГК.гамма                                         :GK          (ГК)
А0.4М0.1N.Омм.ohmm                               :GZ1   ГЗ1(A0.4M0.1N)
А1.0М0.1N.Омм.ohmm                               :GZ2   ГЗ2(A1.0M0.1N)
А2.0М0.5N.Омм.ohmm                               :GZ3   ГЗ3(A2.0M0.5N)
А4.0М0.5N.Oмм.ohmm                               :GZ4   ГЗ4(A4.0M0.5N)
А8.0М1.0N.Омм.ohmm                               :GZ5   ГЗ5(A8.0M0.5N)
N0.5M2.0A.Омм.ohmm                               :GZK   ГЗK(N0.5M2.0A)
ИК.мСм/м                                         :IK
НГК.усл.ед                                       :NGK     (НГК)
ПС.mv                                            :PS       (ПС)
П.%                                              :п
PZ.Омм                                           :PZ    (КС)
R.Омм                                            :RS (Резистивиметр)
U1.мВ                                            :U1
U2.mV                                            :U2
U3.мВ                                            :U3
W.г/см3                                          :ГГКп
~ASCII LOG DATA
# ...
127.2       272.205     128.899     3.815       -9999.25    -9999.25    -9999.25    -9999.25    -9999.25    -9999.25    54.715      1.714       140.684     19.612      150.93      1.12        1457.844    1396.215    1342.046    2.396       
127.25      -9999.25    -9999.25    -9999.25    162.348     177.174     167.809     103.074     18.773      98.181      -9999.25    -9999.25    -9999.25    -9999.25    -9999.25    -9999.25    -9999.25    -9999.25    -9999.25    -9999.25    
127.3       268.873     128.942     3.581       -9999.25    -9999.25    -9999.25    -9999.25    -9999.25    -9999.25    54.708      1.807       139.978     19.672      148.654     1.12        1459.126    1381.822    1327.017    2.418       
127.35      -9999.25    -9999.25    -9999.25    154.383     162.794     152.041     103.074     18.703      90.163      -9999.25    -9999.25    -9999.25    -9999.25    -9999.25    -9999.25    -9999.25    -9999.25    -9999.25    -9999.25    
127.4       212.351     129.119     3.498       -9999.25    -9999.25    -9999.25    -9999.25    -9999.25    -9999.25    54.756      1.836       139.383     19.997      147.684     1.12        1459.126    1381.822    1311.372    2.441       
127.45      -9999.25    -9999.25    -9999.25    146.301     150.199     137.628     102.381     18.272      84.173      -9999.25    -9999.25    -9999.25    -9999.25    -9999.25    -9999.25    -9999.25    -9999.25    -9999.25    -9999.25    
127.5       157.454     129.22      3.456       -9999.25    -9999.25    -9999.25    -9999.25    -9999.25    -9999.25    54.425      1.809       138.855     20.687      147.684     1.12        1488.868    1387.017    1295.111    2.475       
127.55      -9999.25    -9999.25    -9999.25    139.91      140.859     125.431     100.53      17.36       80.026      -9999.25    -9999.25    -9999.25    -9999.25    -9999.25    -9999.25    -9999.25    -9999.25    -9999.25    -9999.25    
127.6       130.221     128.617     3.528       -9999.25    -9999.25    -9999.25    -9999.25    -9999.25    -9999.25    53.748      1.734       138.327     22.104      147.684     1.12        1569.614    1415.297    1295.111    2.47        
127.65      -9999.25    -9999.25    -9999.25    137.441     134.038     115.691     98.236      16.207      77.082      -9999.25    -9999.25    -9999.25    -9999.25    -9999.25    -9999.25    -9999.25    -9999.25    -9999.25    -9999.25    
127.7       117.593     128.647     3.648       -9999.25    -9999.25    -9999.25    -9999.25    -9999.25    -9999.25    52.995      1.641       137.654     23.547      147.684     1.12        1624.77     1457.7      1326.339    2.464       
127.75      -9999.25    -9999.25    -9999.25    137.441     129.972     107.837     95.43       15.107      74.674      -9999.25    -9999.25    -9999.25    -9999.25    -9999.25    -9999.25    -9999.25    -9999.25    -9999.25    -9999.25    
127.8       98.458      128.65      3.596       -9999.25    -9999.25    -9999.25    -9999.25    -9999.25    -9999.25    52.063      1.574       136.605     25.229      147.788     1.12        1715.15     1525.881    1377.811    2.456       
127.85      -9999.25    -9999.25    -9999.25    137.441     127.558     101.396     91.835      14.234      72.572      -9999.25    -9999.25    -9999.25    -9999.25    -9999.25    -9999.25    -9999.25    -9999.25    -9999.25    -9999.25    
127.9       86.164      129.341     3.629       -9999.25    -9999.25    -9999.25    -9999.25    -9999.25    -9999.25    50.977      1.519       134.852     26.376      148.137     1.12        1866.348    1605.717    1384.949    2.412       
127.95      -9999.25    -9999.25    -9999.25    137.441     125.488     96.433      87.623      13.605      70.701      -9999.25    -9999.25    -9999.25    -9999.25    -9999.25    -9999.25    -9999.25    -9999.25    -9999.25    -9999.25    
128.0       90.798      129.337     3.539       -9999.25    -9999.25    -9999.25    -9999.25    -9999.25    -9999.25    50.187      1.473       131.969     27.181      148.633     1.12        1935.051    1590.769    1326.552    2.375       
128.05      -9999.25    -9999.25    -9999.25    138.946     123.871     92.707      83.258      13.21       68.603      -9999.25    -9999.25    -9999.25    -9999.25    -9999.25    -9999.25    -9999.25    -9999.25    -9999.25    -9999.25    
128.1       98.023      128.974     3.435       -9999.25    -9999.25    -9999.25    -9999.25    -9999.25    -9999.25    49.59       1.408       127.531     27.685      149.463     1.12        1841.124    1585.36     1326.552    2.33        
128.15      -9999.25    -9999.25    -9999.25    143.423     122.636     89.935      79.298      13.036      66.096      -9999.25    -9999.25    -9999.25    -9999.25    -9999.25    -9999.25    -9999.25    -9999.25    -9999.25    -9999.25    
128.2       96.624      129.016     3.391       -9999.25    -9999.25    -9999.25    -9999.25    -9999.25    -9999.25    49.02       1.381       121.299     28.059      150.663     1.12        1657.867    1585.36     1399.907    2.303       
128.25      -9999.25    -9999.25    -9999.25    149.115     121.284     87.955      75.869      13.001      63.009      -9999.25    -9999.25    -9999.25    -9999.25    -9999.25    -9999.25    -9999.25    -9999.25    -9999.25    -9999.25    
128.3       92.358      129.038     3.522       -9999.25    -9999.25    -9999.25    -9999.25    -9999.25    -9999.25    48.602      1.344       113.321     28.286      152.505     1.12        1553.468    1540.696    1552.772    2.293       
128.35      -9999.25    -9999.25    -9999.25    155.046     119.386     86.59       72.924      13.001      59.142      -9999.25    -9999.25    -9999.25    -9999.25    -9999.25    -9999.25    -9999.25    -9999.25    -9999.25    -9999.25    
128.4       88.57       129.117     3.504       -9999.25    -9999.25    -9999.25    -9999.25    -9999.25    -9999.25    48.374      1.3         103.909     28.587      155.483     1.12        1501.387    1429.756    1380.894    2.298       
128.45      -9999.25    -9999.25    -9999.25    159.276     116.786     85.775      70.09       13.001      54.753      -9999.25    -9999.25    -9999.25    -9999.25    -9999.25    -9999.25    -9999.25    -9999.25    -9999.25    -9999.25    
128.5       84.475      129.262     3.627       -9999.25    -9999.25    -9999.25    -9999.25    -9999.25    -9999.25    48.135      1.279       93.657      28.784      159.988     1.12        1422.764    1374.483    1346.729    2.309       
128.55      -9999.25    -9999.25    -9999.25    161.996     113.588     85.472      67.256      13.004      50.599      -9999.25    -9999.25    -9999.25    -9999.25    -9999.25    -9999.25    -9999.25    -9999.25    -9999.25    -9999.25    
128.6       81.828      129.426     3.779       -9999.25    -9999.25    -9999.25    -9999.25    -9999.25    -9999.25    47.773      1.297       83.439      29.107      165.934     1.12        1379.581    1352.311    1344.41     2.301       
128.65      -9999.25    -9999.25    -9999.25    163.5       110.085     85.472      64.332      13.037      47.14       -9999.25    -9999.25    -9999.25    -9999.25    -9999.25    -9999.25    -9999.25    -9999.25    -9999.25    -9999.25    
128.7       80.803      129.439     3.815       -9999.25    -9999.25    -9999.25    -9999.25    -9999.25    -9999.25    47.459      1.307       74.107      29.759      173.457     1.12        1371.837    1352.311    1344.41     2.288       
128.75      -9999.25    -9999.25    -9999.25    163.788     107.085     85.472      61.851      13.115      44.666      -9999.25    -9999.25    -9999.25    -9999.25    -9999.25    -9999.25    -9999.25    -9999.25    -9999.25    -9999.25    
128.8       77.766      129.731     3.723       -9999.25    -9999.25    -9999.25    -9999.25    -9999.25    -9999.25    47.258      1.295       66.312      30.62       181.667     1.12        1371.837    1363.24     1327.207    2.262       
128.85      -9999.25    -9999.25    -9999.25    164.1       105.033     85.472      60.041      13.211      43.509      -9999.25    -9999.25    -9999.25    -9999.25    -9999.25    -9999.25    -9999.25    -9999.25    -9999.25    -9999.25    
