~Version Information Section
VERS.                                         2.0:CWLS log ASCII Standart – VERSION 2.0
WRAP.                                          NO:One line per depth step
~Well Information Section
STRT.M                                       1.07:Начальная глубина
STOP.M                                     192.17:Конечная глубина
STEP.M                                          0:Шаг квантования по глубине
NULL.                                    -9999.25:Признак "Нет данных"
WELL.                                        151К:Скважина
~Parameter Information Section
~Curve Information Section
DEPTH.M                                          :Глубина
BK.Ohm*M                                         :BK     (БК)
DS.mm                                            :DS  (ДС)
GGK.g/cm3                                        :GGKp
ГК.mcr/h                                         :GK          (ГК)
GZ1.Ohm*M                                        :GZ1   ГЗ1(A0.4M0.1N)
GZ2.Ohm*M                                        :GZ2   ГЗ2(A1.0M0.1N)
GZ3.Ohm*M                                        :GZ3   ГЗ3(A2.0M0.5N)
GZ4.Ohm*M                                        :GZ4   ГЗ4(A4.0M0.5N)
GZ5.Ohm*M                                        :GZ5   ГЗ5(A8.0M0.5N)
GZR.                                             :GZR   ГЗK(N0.5M2.0A)
ИК.Ohm*M                                         :IK
НГК.ue                                           :NGK     (НГК)
NNKM.                                            :NNKm  (ННКм)
PS.mv                                            :PS       (ПС)
PZ.Ohm*M                                         :PZ    (КС)
RS.Ohm*M                                         :RS (Резистивиметр)
W.%                                              :W
~ASCII LOG DATA
# ...
134.97      24.881      152.075     2.11        8.844       -9999.25    -9999.25    -9999.25    -9999.25    -9999.25    -9999.25    26.317      0.817       1.139       481.703     34.679      1.155       32.916      
135.0       -9999.25    -9999.25    -9999.25    -9999.25    37.567      37.391      34.941      32.367      35.682      28.993      -9999.25    -9999.25    -9999.25    -9999.25    -9999.25    -9999.25    -9999.25    
135.07      24.975      152.013     2.112       9.017       -9999.25    -9999.25    -9999.25    -9999.25    -9999.25    -9999.25    26.216      0.811       1.14        482.075     33.851      1.156       33.075      
135.1       -9999.25    -9999.25    -9999.25    -9999.25    39.746      39.015      35.353      32.912      36.659      29.473      -9999.25    -9999.25    -9999.25    -9999.25    -9999.25    -9999.25    -9999.25    
135.17      25.444      151.983     2.116       9.19        -9999.25    -9999.25    -9999.25    -9999.25    -9999.25    -9999.25    26.167      0.83        1.142       482.33      33.397      1.158       33.079      
135.2       -9999.25    -9999.25    -9999.25    -9999.25    39.95       37.928      35.703      33.414      37.694      30.208      -9999.25    -9999.25    -9999.25    -9999.25    -9999.25    -9999.25    -9999.25    
135.27      26.253      152.123     2.123       9.348       -9999.25    -9999.25    -9999.25    -9999.25    -9999.25    -9999.25    26.085      0.863       1.148       482.395     33.533      1.16        32.997      
135.3       -9999.25    -9999.25    -9999.25    -9999.25    37.13       35.268      35.999      34.074      38.62       31.248      -9999.25    -9999.25    -9999.25    -9999.25    -9999.25    -9999.25    -9999.25    
135.37      26.133      152.132     2.133       9.489       -9999.25    -9999.25    -9999.25    -9999.25    -9999.25    -9999.25    26.025      0.892       1.154       482.276     33.957      1.16        32.949      
135.4       -9999.25    -9999.25    -9999.25    -9999.25    34.716      34.047      36.202      34.697      39.387      32.362      -9999.25    -9999.25    -9999.25    -9999.25    -9999.25    -9999.25    -9999.25    
135.47      23.92       152.079     2.143       9.692       -9999.25    -9999.25    -9999.25    -9999.25    -9999.25    -9999.25    25.968      0.905       1.174       481.987     34.103      1.156       32.732      
135.5       -9999.25    -9999.25    -9999.25    -9999.25    35.031      35.915      36.63       35.222      39.816      33.121      -9999.25    -9999.25    -9999.25    -9999.25    -9999.25    -9999.25    -9999.25    
135.57      22.182      152.114     2.154       9.895       -9999.25    -9999.25    -9999.25    -9999.25    -9999.25    -9999.25    25.862      0.91        1.202       481.601     33.818      1.152       32.386      
135.6       -9999.25    -9999.25    -9999.25    -9999.25    37.789      38.082      37.438      35.869      39.717      33.282      -9999.25    -9999.25    -9999.25    -9999.25    -9999.25    -9999.25    -9999.25    
135.67      22.955      152.254     2.163       9.744       -9999.25    -9999.25    -9999.25    -9999.25    -9999.25    -9999.25    25.783      0.915       1.232       481.197     33.549      1.148       32.019      
135.7       -9999.25    -9999.25    -9999.25    -9999.25    39.61       37.36       38.065      36.403      39.408      33.133      -9999.25    -9999.25    -9999.25    -9999.25    -9999.25    -9999.25    -9999.25    
135.77      26.203      151.943     2.168       9.378       -9999.25    -9999.25    -9999.25    -9999.25    -9999.25    -9999.25    25.708      0.921       1.273       480.839     33.611      1.15        31.639      
135.8       -9999.25    -9999.25    -9999.25    -9999.25    39.78       35.855      37.773      36.295      39.284      32.673      -9999.25    -9999.25    -9999.25    -9999.25    -9999.25    -9999.25    -9999.25    
135.87      29.883      151.694     2.168       9.013       -9999.25    -9999.25    -9999.25    -9999.25    -9999.25    -9999.25    25.565      0.924       1.313       480.58      33.876      1.151       31.25       
135.9       -9999.25    -9999.25    -9999.25    -9999.25    40.679      35.334      36.727      35.44       39.059      31.671      -9999.25    -9999.25    -9999.25    -9999.25    -9999.25    -9999.25    -9999.25    
135.97      29.05       151.69      2.163       8.717       -9999.25    -9999.25    -9999.25    -9999.25    -9999.25    -9999.25    25.47       0.911       1.345       480.571     34.062      1.153       30.825      
136.0       -9999.25    -9999.25    -9999.25    -9999.25    41.048      34.684      35.612      34.418      38.429      30.633      -9999.25    -9999.25    -9999.25    -9999.25    -9999.25    -9999.25    -9999.25    
136.07      26.476      151.854     2.155       8.372       -9999.25    -9999.25    -9999.25    -9999.25    -9999.25    -9999.25    25.46       0.87        1.333       480.881     33.97       1.156       30.17       
136.1       -9999.25    -9999.25    -9999.25    -9999.25    40.422      33.641      34.555      33.501      37.38       29.809      -9999.25    -9999.25    -9999.25    -9999.25    -9999.25    -9999.25    -9999.25    
136.17      24.941      151.846     2.144       8.026       -9999.25    -9999.25    -9999.25    -9999.25    -9999.25    -9999.25    25.541      0.832       1.304       481.314     33.68       1.156       29.38       
136.2       -9999.25    -9999.25    -9999.25    -9999.25    39.297      32.842      33.564      32.558      36.411      29.101      -9999.25    -9999.25    -9999.25    -9999.25    -9999.25    -9999.25    -9999.25    
136.27      24.742      151.66      2.133       7.905       -9999.25    -9999.25    -9999.25    -9999.25    -9999.25    -9999.25    25.609      0.81        1.265       481.543     33.422      1.156       29.228      
136.3       -9999.25    -9999.25    -9999.25    -9999.25    37.996      32.424      32.554      31.572      35.598      28.568      -9999.25    -9999.25    -9999.25    -9999.25    -9999.25    -9999.25    -9999.25    
136.37      25.27       151.65      2.122       8.2         -9999.25    -9999.25    -9999.25    -9999.25    -9999.25    -9999.25    25.451      0.814       1.225       481.515     33.194      1.154       29.521      
136.4       -9999.25    -9999.25    -9999.25    -9999.25    37.493      32.305      31.703      30.66       35.007      28.179      -9999.25    -9999.25    -9999.25    -9999.25    -9999.25    -9999.25    -9999.25    
136.47      24.873      151.744     2.111       8.495       -9999.25    -9999.25    -9999.25    -9999.25    -9999.25    -9999.25    25.244      0.818       1.185       481.486     32.959      1.155       30.0        
136.5       -9999.25    -9999.25    -9999.25    -9999.25    37.568      32.319      31.175      30.072      34.535      27.996      -9999.25    -9999.25    -9999.25    -9999.25    -9999.25    -9999.25    -9999.25    
136.57      24.462      151.856     2.103       8.709       -9999.25    -9999.25    -9999.25    -9999.25    -9999.25    -9999.25    25.078      0.823       1.143       481.515     32.86       1.155       30.613      
136.6       -9999.25    -9999.25    -9999.25    -9999.25    36.66       32.196      30.84       29.841      34.028      27.986      -9999.25    -9999.25    -9999.25    -9999.25    -9999.25    -9999.25    -9999.25    
136.67      24.323      151.91      2.096       9.007       -9999.25    -9999.25    -9999.25    -9999.25    -9999.25    -9999.25    24.901      0.833       1.113       481.348     32.798      1.154       31.238      
136.7       -9999.25    -9999.25    -9999.25    -9999.25    34.942      32.266      30.732      29.812      33.471      28.134      -9999.25    -9999.25    -9999.25    -9999.25    -9999.25    -9999.25    -9999.25    
136.77      23.545      152.073     2.093       9.331       -9999.25    -9999.25    -9999.25    -9999.25    -9999.25    -9999.25    24.679      0.845       1.096       480.856     32.329      1.15        30.995      
