~Version Information Section
VERS.                                         2.0:CWLS log ASCII Standart – VERSION 2.0
WRAP.                                          NO:One line per depth step
~Well Information Section
STRT.M                                        0.4:Начальная глубина
STOP.M                                      206.4:Конечная глубина
STEP.M                                          0:Шаг квантования по глубине
NULL.                                    -9999.25:Признак "Нет данных"
WELL.                                       157Мх:Скважина
~Parameter Information Section
~Curve Information Section
DEPTH.M                                          :Глубина
BK.Ohm*M                                         :BK     (БК)
DS.mm                                            :DS  (ДС)
GGK.g/cm3                                        :GGKp
ГК.mcr/h                                         :GK          (ГК)
GZ1.Ohm*M                                        :GZ1   ГЗ1(A0.4M0.1N)
GZ2.Ohm*M                                        :GZ2   ГЗ2(A1.0M0.1N)
GZ3.Ohm*M                                        :GZ3   ГЗ3(A2.0M0.5N)
GZ4.Ohm*M                                        :GZ4   ГЗ4(A4.0M0.5N)
GZ5.Ohm*M                                        :GZ5   ГЗ5(A8.0M0.5N)
GZR.                                             :GZR   ГЗK(N0.5M2.0A)
ИК.Ohm*M                                         :IK
НГК.ue                                           :NGK     (НГК)
NNKM.                                            :NNKm  (ННКм)
PS.mv                                            :PS       (ПС)
PZ.Ohm*M                                         :PZ    (КС)
RS.Ohm*M                                         :RS (Резистивиметр)
W.%                                              :W
~ASCII LOG DATA
# ...
74.4        19.815      152.217     2.237       7.937       17.039      17.497      19.187      18.905      19.514      18.513      20.811      1.339       1.908       177.797     26.223      1.135       32.333      
74.5        18.594      152.168     2.223       7.877       16.984      16.857      19.163      18.136      19.535      18.519      20.824      1.299       1.881       177.975     26.293      1.135       32.356      
74.6        17.711      152.101     2.217       7.88        16.651      16.213      19.041      17.35       19.643      18.61       20.904      1.281       1.849       178.67      26.447      1.134       33.23       
74.7        17.313      152.002     2.22        8.247       16.064      15.724      18.949      16.674      19.845      19.059      21.022      1.275       1.822       179.749     26.67       1.133       34.05       
74.8        17.003      152.222     2.227       8.464       15.494      15.345      18.975      16.394      20.037      20.065      21.291      1.303       1.805       181.76      26.911      1.132       34.816      
74.9        17.368      152.688     2.241       8.382       15.249      15.413      19.171      16.387      20.29       21.575      21.658      1.381       1.834       184.443     27.228      1.132       35.899      
75.0        19.641      155.726     2.259       7.788       15.317      15.762      19.654      16.479      20.702      23.361      22.032      1.451       1.874       187.615     27.586      1.133       35.691      
75.1        23.222      158.159     2.279       7.08        15.708      16.237      20.357      17.023      21.259      25.05       22.522      1.48        1.958       190.919     28.018      1.134       33.592      
75.2        23.457      158.001     2.294       6.936       16.4        17.051      21.388      17.984      21.841      26.776      23.109      1.502       2.012       194.687     28.618      1.135       30.566      
75.3        24.001      155.094     2.302       7.053       17.557      17.893      22.665      19.309      22.32       28.236      23.66       1.544       2.056       198.498     29.4        1.135       28.585      
75.4        27.407      153.419     2.299       6.952       19.539      19.248      23.863      20.746      22.656      29.133      24.062      1.564       2.058       202.433     30.295      1.136       29.134      
75.5        31.085      152.206     2.293       6.583       22.607      20.65       24.579      21.983      22.85       28.977      24.164      1.533       2.087       206.778     31.101      1.137       30.813      
75.6        30.958      152.131     2.287       6.437       25.52       21.398      24.688      22.54       22.942      27.885      24.173      1.422       2.115       211.466     31.623      1.136       31.541      
75.7        27.864      152.186     2.287       6.729       26.991      21.308      24.592      22.533      23.041      25.415      24.047      1.358       2.108       216.143     31.986      1.137       30.401      
75.8        24.331      154.403     2.289       7.013       27.151      20.757      23.994      22.331      23.08       22.597      23.799      1.335       2.055       220.67      32.336      1.136       29.037      
75.9        22.311      158.929     2.293       6.833       26.962      19.894      22.925      21.424      23.082      20.624      23.541      1.391       1.965       224.963     32.773      1.134       30.116      
76.0        21.594      156.055     2.29        6.645       25.988      19.472      21.915      20.529      23.007      19.573      23.361      1.436       1.909       228.517     33.022      1.135       33.747      
76.1        21.003      158.852     2.284       6.498       24.881      19.554      21.17       20.018      22.755      19.154      23.338      1.396       1.866       231.28      32.973      1.135       36.71       
76.2        20.656      155.829     2.275       6.561       23.665      20.003      20.786      19.863      22.461      19.119      23.346      1.339       1.864       233.107     32.643      1.135       36.91       
76.3        20.225      154.459     2.272       6.787       22.518      20.564      20.606      19.855      22.27       19.139      23.282      1.232       1.862       234.267     31.959      1.136       35.177      
76.4        19.693      154.784     2.27        6.997       21.421      20.893      20.472      19.831      22.207      19.231      23.375      1.19        1.859       234.772     31.261      1.135       33.993      
76.5        19.763      154.967     2.27        7.178       20.637      21.14       20.247      19.788      22.199      19.272      23.364      1.186       1.856       234.96      30.782      1.134       33.891      
76.6        21.558      155.024     2.266       7.203       20.244      21.238      19.942      19.638      22.247      19.256      23.429      1.253       1.88        234.963     30.486      1.133       33.283      
76.7        22.041      155.112     2.261       7.203       20.164      21.202      19.566      19.47       22.322      19.16       23.449      1.336       1.914       234.95      30.315      1.133       32.122      
76.8        21.299      155.228     2.254       7.112       20.224      20.98       19.193      19.298      22.415      19.016      23.58       1.401       1.946       234.847     30.315      1.132       31.361      
76.9        21.452      155.317     2.253       7.022       20.462      20.543      18.867      19.066      22.576      18.962      23.704      1.445       1.952       234.847     30.358      1.132       31.486      
77.0        21.376      155.306     2.254       6.912       20.506      19.984      18.774      18.887      22.879      19.006      23.742      1.421       1.948       234.847     30.606      1.131       31.951      
77.1        20.651      155.471     2.259       6.944       20.74       19.879      18.814      18.857      23.379      19.302      23.72       1.385       1.948       234.898     30.986      1.13        32.165      
77.2        21.753      155.454     2.263       7.193       21.054      19.914      19.13       18.938      24.201      20.005      23.779      1.379       1.97        235.162     31.295      1.131       32.051      
77.3        23.078      155.733     2.269       7.499       21.283      20.216      19.979      19.439      25.602      21.092      23.735      1.413       1.993       235.5       31.513      1.134       32.221      
77.4        24.289      157.837     2.272       7.769       21.711      21.046      21.247      20.362      27.967      22.389      23.685      1.446       2.011       235.876     31.643      1.134       32.69       
77.5        25.319      155.486     2.276       7.618       22.399      22.073      23.024      21.616      31.163      23.986      23.546      1.463       2.017       236.068     31.743      1.134       32.566      
77.6        26.117      155.391     2.276       7.34        23.116      23.368      25.582      23.896      34.537      26.552      23.435      1.48        2.043       236.213     31.858      1.134       31.438      
77.7        24.227      155.327     2.275       6.944       24.11       25.188      29.001      27.2        37.476      29.806      23.27       1.467       2.081       236.213     31.963      1.136       30.024      
77.8        24.736      155.407     2.275       6.739       26.2        28.999      32.586      30.172      39.788      32.213      23.032      1.455       2.121       236.147     31.841      1.134       28.74       
77.9        32.94       156.017     2.284       6.436       28.182      30.496      34.745      31.502      41.562      32.814      22.816      1.5         2.151       235.737     31.193      1.135       27.367      
78.0        31.653      155.704     2.298       6.276       28.363      30.336      34.661      31.288      42.566      32.409      22.561      1.519       2.179       234.867     30.314      1.135       26.603      
