~Version Information Section
VERS.                                         2.0:CWLS log ASCII Standart – VERSION 2.0
WRAP.                                          NO:One line per depth step
~Well Information Section
STRT.M                                      -0.07:Начальная глубина
STOP.M                                     189.23:Конечная глубина
STEP.M                                          0:Шаг квантования по глубине
NULL.                                    -9999.25:Признак "Нет данных"
WELL.                                       127Мх:Скважина
~Parameter Information Section
~Curve Information Section
DEPTH.M                                          :Глубина
BK.                                              :BK
ГК.гамма                                         :GK
ИК.                                              :IK
НГК.усл.ед                                       :NGK
PSЭ3.                                            :PSэ3
PZЭ3.                                            :PZэ3
U1.                                              :U1
U2.                                              :U2
U3.                                              :U3
W.усл.ед                                         :W
ГЗ1.                                             :ГЗ1
ГЗ2.                                             :ГЗ2
ГЗ3.                                             :ГЗ3
ГЗ4.                                             :ГЗ4
ГЗ5.                                             :ГЗ5
ГЗК.                                             :ГЗК
ННКМ.усл.ед                                      :ННКм
PL.g/cm3                                         :Плотность
ПРОФ_СР.                                         :ПРОФ_СР
IS.                                              :РЕЗ
~ASCII LOG DATA
# ...
102.33      2.35        3.131       28.324      0.959       -206.239    0.247       -9999.25    -9999.25    -9999.25    40.567      0.055       19.947      10.032      20.442      22.015      10.002      1.391       1.974       101.051     1.086       
102.43      2.286       3.191       28.387      0.897       -208.083    0.242       -9999.25    -9999.25    -9999.25    42.053      0.055       19.94       10.03       20.44       21.864      10.014      1.382       1.981       101.086     1.086       
102.53      2.245       3.356       28.392      0.916       -204.228    0.251       -9999.25    -9999.25    -9999.25    43.115      0.054       19.927      10.027      20.442      21.689      10.02       1.375       1.99        101.101     1.086       
102.63      2.252       3.574       28.209      1.007       -198.439    0.298       -9999.25    -9999.25    -9999.25    42.914      0.055       19.919      10.029      20.441      21.537      10.02       1.363       1.997       101.08      1.086       
102.73      2.197       3.7         28.23       1.031       -192.861    0.311       -9999.25    -9999.25    -9999.25    42.435      0.056       19.913      10.037      20.436      21.481      10.023      1.341       2.005       101.071     1.085       
102.83      2.199       3.592       28.153      1.063       -187.389    0.338       -9999.25    -9999.25    -9999.25    42.256      0.057       19.903      10.043      20.43       21.436      10.028      1.327       2.015       101.048     1.085       
102.93      2.168       3.509       28.235      1.065       -180.133    0.366       -9999.25    -9999.25    -9999.25    42.484      0.057       19.89       10.044      20.426      21.427      10.033      1.321       2.028       101.019     1.085       
103.03      2.12        3.504       28.184      0.993       -171.5      0.387       -9999.25    -9999.25    -9999.25    42.555      0.057       19.887      10.041      20.424      21.454      10.035      1.326       2.042       101.025     1.085       
103.13      2.148       3.717       28.174      1.015       -155.817    0.419       -9999.25    -9999.25    -9999.25    43.226      0.057       19.89       10.041      20.424      21.486      10.038      1.357       2.062       101.027     1.085       
103.23      2.25        3.692       28.274      1.031       -130.311    0.452       -9999.25    -9999.25    -9999.25    43.175      0.057       19.891      10.039      20.427      21.535      10.039      1.38        2.087       101.024     1.085       
103.33      2.341       3.694       28.198      1.037       -103.089    0.482       -9999.25    -9999.25    -9999.25    41.76       0.057       19.891      10.035      20.429      21.605      10.038      1.377       2.116       101.045     1.085       
103.43      2.327       3.647       28.205      1.041       -74.544     0.499       -9999.25    -9999.25    -9999.25    41.034      0.055       19.896      10.033      20.432      21.675      10.04       1.372       2.147       101.077     1.085       
103.53      2.399       3.724       28.153      1.033       -46.661     0.506       -9999.25    -9999.25    -9999.25    41.312      0.055       19.907      10.033      20.432      21.719      10.04       1.386       2.181       101.095     1.086       
103.63      2.438       3.754       28.215      1.018       -19.383     0.533       -9999.25    -9999.25    -9999.25    41.132      0.055       19.911      10.026      20.431      21.731      10.042      1.421       2.214       101.087     1.086       
103.73      2.442       3.661       28.169      1.005       6.5         0.563       -9999.25    -9999.25    -9999.25    40.138      0.054       19.908      10.016      20.432      21.694      10.042      1.503       2.242       101.072     1.086       
103.83      2.428       3.342       28.204      0.974       31.011      0.587       -9999.25    -9999.25    -9999.25    39.721      0.053       19.906      10.007      20.43       21.563      10.041      1.651       2.263       101.069     1.086       
103.93      2.285       2.789       28.189      1.001       53.961      0.611       -9999.25    -9999.25    -9999.25    35.986      0.051       19.906      9.998       20.427      21.336      10.044      1.783       2.271       101.063     1.086       
104.03      2.031       2.4         28.245      1.176       68.939      0.633       -9999.25    -9999.25    -9999.25    31.258      0.047       19.897      9.985       20.426      21.125      10.043      1.932       2.267       101.048     1.086       
104.13      1.986       2.263       28.266      1.245       73.978      0.649       -9999.25    -9999.25    -9999.25    29.654      0.044       19.879      9.975       20.427      20.942      10.04       2.043       2.255       101.063     1.085       
104.23      2.408       2.339       28.188      1.358       77.539      0.661       -9999.25    -9999.25    -9999.25    25.725      0.042       19.873      9.975       20.431      20.763      10.037      2.071       2.237       101.098     1.085       
104.33      2.405       2.553       28.28       1.517       81.889      0.7         -9999.25    -9999.25    -9999.25    26.399      0.04        19.876      9.982       20.443      20.603      10.036      2.073       2.219       101.105     1.085       
104.43      2.434       2.807       28.249      1.678       87.094      0.773       -9999.25    -9999.25    -9999.25    28.152      0.037       19.88       9.988       20.466      20.519      10.034      1.961       2.199       101.104     1.084       
104.53      2.386       3.066       28.148      1.647       92.0        0.736       -9999.25    -9999.25    -9999.25    28.215      0.036       19.889      9.991       20.482      20.538      10.026      1.783       2.182       101.097     1.084       
104.63      2.261       3.121       28.139      1.568       98.528      0.747       -9999.25    -9999.25    -9999.25    28.968      0.037       19.899      9.996       20.492      20.561      10.02       1.656       2.165       101.071     1.084       
104.73      1.877       3.134       28.269      1.458       105.728     0.758       -9999.25    -9999.25    -9999.25    30.96       0.038       19.912      10.001      20.497      20.602      10.015      1.516       2.149       101.071     1.084       
104.83      1.016       3.293       28.274      1.224       111.911     0.756       -9999.25    -9999.25    -9999.25    33.666      0.037       19.917      9.999       20.496      20.726      10.01       1.412       2.13        101.099     1.084       
104.93      0.992       3.606       28.345      1.187       116.706     0.755       -9999.25    -9999.25    -9999.25    39.991      0.037       19.915      9.992       20.486      20.967      10.009      1.392       2.114       101.122     1.084       
105.03      1.082       3.817       28.326      1.048       119.867     0.771       -9999.25    -9999.25    -9999.25    38.768      0.037       19.912      9.985       20.465      21.172      10.006      1.381       2.098       101.128     1.085       
105.13      1.144       3.857       28.26       1.046       122.489     0.79        -9999.25    -9999.25    -9999.25    37.903      0.038       19.902      9.98        20.454      21.344      10.001      1.393       2.083       101.131     1.086       
105.23      1.146       3.747       28.212      1.083       123.922     0.782       -9999.25    -9999.25    -9999.25    38.048      0.038       19.896      9.968       20.459      21.518      10.0        1.404       2.069       101.113     1.087       
105.33      1.134       3.581       28.169      1.061       123.833     0.75        -9999.25    -9999.25    -9999.25    38.632      0.038       19.902      9.953       20.47       21.632      10.0        1.406       2.059       101.101     1.088       
105.43      1.122       3.439       28.087      0.996       122.878     0.814       -9999.25    -9999.25    -9999.25    39.564      0.038       19.912      9.949       20.481      21.636      9.999       1.405       2.055       101.116     1.089       
