~Version Information Section
VERS.                                         2.0:CWLS log ASCII Standart – VERSION 2.0
WRAP.                                          NO:One line per depth step
~Well Information Section
STRT.M                                        0.1:Начальная глубина
STOP.M                                      153.3:Конечная глубина
STEP.M                                          0:Шаг квантования по глубине
NULL.                                    -9999.25:Признак "Нет данных"
WELL.                                        144К:Скважина
~Parameter Information Section
~Curve Information Section
DEPTH.M                                          :Глубина
БК.Омм                                           :BK     (БК)
DСР.мм                                           :DS  (ДС)
ПЛОТНОСТЬ.г/см^3                                 :GGKp
ГК.мкР/ч                                         :GK          (ГК)
А0.4М0.1N.Омм                                    :GZ1   ГЗ1(A0.4M0.1N)
А1.0М0.1N.Омм                                    :GZ2   ГЗ2(A1.0M0.1N)
А2.0М0.5N.Омм                                    :GZ3   ГЗ3(A2.0M0.5N)
А4.0М0.5N.Oмм                                    :GZ4   ГЗ4(A4.0M0.5N)
А8.0М1.0N.Омм                                    :GZ5   ГЗ5(A8.0M0.5N)
N0.5M2.0A.Омм                                    :GZR   ГЗK(N0.5M2.0A)
ИК.мСм/м                                         :IK
БЗ.ue                                            :NNKb  (ННКб)
МЗ.ue                                            :NNKm  (ННКм)
ПС.mv                                            :PS       (ПС)
N11.0M0.5A.Омм                                   :PZ    (КС)
R.Омм                                            :RS (Резистивиметр)
ПОРИСТОСТЬ.                                      :W
~ASCII LOG DATA
# ...
129.6       189.175     151.021     2.534       3.692       177.372     329.875     338.609     138.23      122.788     233.099     60.753      7.551       2.673       23.317      309.979     1.147       14.192      
129.7       151.544     151.078     2.513       3.906       156.544     292.977     316.635     136.982     120.689     243.219     60.705      7.296       2.637       24.21       300.561     1.148       14.689      
129.8       121.769     151.001     2.494       4.079       137.23      250.824     295.548     136.926     120.103     257.511     60.735      7.068       2.584       25.077      294.15      1.149       15.185      
129.9       113.069     150.861     2.479       4.198       125.513     221.525     277.332     137.277     120.103     269.949     60.783      6.845       2.536       25.882      291.806     1.149       15.618      
130.0       120.062     150.911     2.47        4.187       122.68      213.9       267.225     141.572     121.865     277.914     60.783      6.693       2.51        26.569      292.548     1.148       15.974      
130.1       153.337     150.969     2.467       4.084       123.411     213.613     264.689     150.177     125.216     281.08      60.879      6.603       2.504       27.063      295.481     1.147       16.216      
130.2       219.601     151.035     2.469       3.926       126.238     216.58      267.201     160.666     129.675     281.293     61.569      6.623       2.528       27.302      300.202     1.144       16.359      
130.3       355.903     150.944     2.469       3.804       131.116     223.011     274.103     171.615     133.303     278.797     62.858      6.659       2.57        27.255      305.14      1.142       16.523      
130.4       396.544     150.822     2.466       3.723       137.064     230.202     283.252     182.041     136.236     271.37      63.299      6.616       2.596       26.909      309.426     1.14        16.72       
130.5       378.675     150.729     2.461       3.673       144.088     239.619     292.106     193.71      137.665     260.403     63.271      6.524       2.598       26.274      312.674     1.143       16.968      
130.6       411.729     150.73      2.458       3.653       151.421     250.195     299.357     204.196     140.483     249.21      63.076      6.342       2.573       25.403      313.791     1.145       17.294      
130.7       473.909     151.01      2.456       3.684       158.211     263.252     304.193     210.685     143.849     238.532     62.743      6.167       2.507       24.372      313.182     1.145       17.811      
130.8       457.864     150.998     2.454       3.762       164.774     276.902     305.869     213.476     147.947     227.911     62.286      6.01        2.451       23.29       312.379     1.146       18.474      
130.9       461.751     150.809     2.451       3.844       168.02      284.772     305.819     214.318     149.912     219.353     62.313      5.86        2.439       22.275      310.816     1.145       19.289      
131.0       423.368     150.809     2.447       3.902       167.756     287.16      304.154     215.267     151.174     213.975     61.603      5.708       2.447       21.432      308.59      1.144       19.997      
131.1       325.574     151.43      2.438       3.905       165.248     282.732     299.81      216.726     151.918     210.971     61.117      5.428       2.458       20.84       306.939     1.144       20.491      
131.2       147.995     151.032     2.421       3.886       158.301     274.6       294.823     218.209     152.977     208.99      60.588      5.111       2.421       20.527      306.366     1.145       20.89       
131.3       144.219     150.808     2.398       3.822       152.673     270.733     292.566     219.882     153.855     205.545     60.125      4.907       2.35        20.493      306.441     1.146       21.347      
131.4       211.702     150.768     2.372       3.764       151.747     270.57      293.818     222.791     154.741     197.916     59.913      4.907       2.319       20.721      307.468     1.145       21.902      
131.5       411.781     150.81      2.347       3.699       152.439     274.22      297.989     226.78      155.546     186.637     59.503      4.996       2.323       21.157      309.09      1.141       22.491      
131.6       413.615     150.792     2.323       3.675       155.103     280.465     304.651     231.067     156.099     174.617     59.308      4.945       2.329       21.724      310.806     1.139       23.122      
131.7       413.773     150.69      2.3         3.676       158.473     285.211     311.433     235.291     157.508     164.219     58.938      4.7         2.337       22.314      312.404     1.137       23.85       
131.8       389.622     150.751     2.285       3.739       159.871     288.092     316.958     239.97      159.246     154.617     58.63       4.382       2.286       22.809      313.299     1.136       24.662      
131.9       334.376     150.626     2.277       3.794       159.871     290.78      324.149     244.964     159.99      145.046     57.995      4.15        2.19        23.122      313.276     1.135       25.378      
132.0       338.158     150.243     2.271       3.865       162.158     297.681     332.261     249.896     160.395     135.782     57.042      4.036       2.128       23.205      312.608     1.134       25.893      
132.1       388.351     150.18      2.265       3.952       167.419     307.772     338.705     254.451     160.244     126.649     55.797      3.997       2.111       23.04       310.913     1.133       26.167      
132.2       444.834     150.758     2.261       4.11        173.175     315.234     341.741     257.325     159.25      116.731     55.169      4.002       2.158       22.632      307.371     1.133       26.432      
132.3       431.196     150.551     2.256       4.263       176.082     317.548     340.657     258.124     156.649     106.758     54.242      4.005       2.207       21.995      302.801     1.133       26.71       
132.4       320.791     150.557     2.246       4.399       176.206     316.301     336.054     256.259     152.399     97.603      53.045      3.968       2.21        21.162      297.402     1.134       27.033      
132.5       187.728     150.349     2.229       4.508       175.003     313.294     327.567     250.615     146.562     89.685      51.738      3.85        2.158       20.187      291.089     1.134       27.535      
132.6       173.286     150.173     2.213       4.592       172.795     308.099     317.616     241.869     141.518     83.556      50.492      3.692       2.084       19.157      285.32      1.133       28.218      
132.7       171.156     150.173     2.206       4.577       168.469     300.442     308.896     233.052     138.528     78.823      49.361      3.504       2.029       18.167      279.279     1.132       28.969      
132.8       164.511     150.378     2.205       4.49        162.346     290.352     302.118     225.443     134.644     75.295      48.323      3.36        1.992       17.305      272.059     1.133       29.528      
132.9       159.44      150.146     2.208       4.368       157.587     279.798     297.196     219.483     131.908     72.13       47.119      3.27        1.98        16.643      265.405     1.132       29.645      
133.0       157.284     150.113     2.214       4.225       155.629     271.73      293.054     215.45      128.473     69.066      45.935      3.297       1.953       16.228      260.682     1.132       29.373      
133.1       152.528     150.306     2.224       4.062       156.378     266.617     289.476     213.057     126.642     65.89       44.681      3.4         1.947       16.087      256.382     1.132       28.867      
133.2       153.026     150.342     2.234       3.96        158.44      264.251     286.705     211.887     124.252     62.447      43.59       3.559       1.98        16.231      252.376     1.133       28.301      
