~Version Information Section
VERS.                                         2.0:CWLS log ASCII Standart – VERSION 2.0
WRAP.                                          NO:One line per depth step
~Well Information Section
STRT.M                                        1.0:Начальная глубина
STOP.M                                      208.3:Конечная глубина
STEP.M                                          0:Шаг квантования по глубине
NULL.                                    -9999.25:Признак "Нет данных"
WELL.                                       131Мх:Скважина
~Parameter Information Section
~Curve Information Section
DEPTH.M                                          :Глубина
БК.Омм                                           :BK     (БК)
DСР.мм                                           :DS  (ДС)
ГК.гамма                                         :GK          (ГК)
А0.4М0.1N.Омм.ohmm                               :GZ1   ГЗ1(A0.4M0.1N)
А1.0М0.1N.Омм.ohmm                               :GZ2   ГЗ2(A1.0M0.1N)
А2.0М0.5N.Омм.ohmm                               :GZ3   ГЗ3(A2.0M0.5N)
А4.0М0.5N.Oмм.ohmm                               :GZ4   ГЗ4(A4.0M0.5N)
А8.0М1.0N.Омм.ohmm                               :GZ5   ГЗ5(A8.0M0.5N)
N0.5M2.0A.Омм.ohmm                               :GZK   ГЗK(N0.5M2.0A)
ИК.мСм/м                                         :IK
НГК.усл.ед                                       :NGK     (НГК)
ПС.mv                                            :PS       (ПС)
П.%                                              :п
PZ.Омм                                           :PZ    (КС)
R.Омм                                            :RS (Резистивиметр)
U1.мВ                                            :U1
U2.mV                                            :U2
U3.мВ                                            :U3
W.г/см3                                          :ГГКп
~ASCII LOG DATA
# ...
50.7        139.241     136.281     3.404       -9999.25    -9999.25    -9999.25    -9999.25    -9999.25    -9999.25    27.067      1.628       179.764     18.098      82.843      1.12        2033.64     1867.57     1716.413    2.454       
50.75       -9999.25    -9999.25    -9999.25    114.159     51.47       29.535      23.186      31.128      52.912      -9999.25    -9999.25    -9999.25    -9999.25    -9999.25    -9999.25    -9999.25    -9999.25    -9999.25    -9999.25    
50.8        171.896     135.595     3.177       -9999.25    -9999.25    -9999.25    -9999.25    -9999.25    -9999.25    29.033      1.753       181.34      17.626      92.083      1.12        1913.72     1847.582    1795.26     2.432       
50.85       -9999.25    -9999.25    -9999.25    126.648     59.206      29.983      24.886      31.189      49.223      -9999.25    -9999.25    -9999.25    -9999.25    -9999.25    -9999.25    -9999.25    -9999.25    -9999.25    -9999.25    
50.9        183.749     135.126     2.853       -9999.25    -9999.25    -9999.25    -9999.25    -9999.25    -9999.25    30.96       1.814       182.058     16.979      100.997     1.12        1755.558    1729.898    1728.591    2.403       
50.95       -9999.25    -9999.25    -9999.25    133.036     68.816      30.437      25.884      31.189      46.574      -9999.25    -9999.25    -9999.25    -9999.25    -9999.25    -9999.25    -9999.25    -9999.25    -9999.25    -9999.25    
51.0        208.271     135.124     2.825       -9999.25    -9999.25    -9999.25    -9999.25    -9999.25    -9999.25    32.899      1.822       182.213     15.962      108.717     1.12        1650.746    1622.309    1616.791    2.383       
51.05       -9999.25    -9999.25    -9999.25    134.264     79.499      31.287      26.125      31.262      45.194      -9999.25    -9999.25    -9999.25    -9999.25    -9999.25    -9999.25    -9999.25    -9999.25    -9999.25    -9999.25    
51.1        234.298     135.225     2.879       -9999.25    -9999.25    -9999.25    -9999.25    -9999.25    -9999.25    34.57       1.807       182.091     16.089      113.685     1.12        1553.467    1530.296    1528.743    2.367       
51.15       -9999.25    -9999.25    -9999.25    134.264     89.894      32.745      26.125      31.38       45.194      -9999.25    -9999.25    -9999.25    -9999.25    -9999.25    -9999.25    -9999.25    -9999.25    -9999.25    -9999.25    
51.2        234.58      135.403     2.959       -9999.25    -9999.25    -9999.25    -9999.25    -9999.25    -9999.25    35.815      1.79        181.506     16.561      117.074     1.12        1463.721    1453.858    1464.447    2.364       
51.25       -9999.25    -9999.25    -9999.25    134.264     99.365      34.947      26.127      31.429      45.194      -9999.25    -9999.25    -9999.25    -9999.25    -9999.25    -9999.25    -9999.25    -9999.25    -9999.25    -9999.25    
51.3        203.455     135.681     3.055       -9999.25    -9999.25    -9999.25    -9999.25    -9999.25    -9999.25    36.633      1.761       180.234     16.667      119.537     1.12        1379.146    1413.061    1464.447    2.378       
51.35       -9999.25    -9999.25    -9999.25    132.08      107.395     38.048      26.156      31.434      45.194      -9999.25    -9999.25    -9999.25    -9999.25    -9999.25    -9999.25    -9999.25    -9999.25    -9999.25    -9999.25    
51.4        158.435     136.312     2.971       -9999.25    -9999.25    -9999.25    -9999.25    -9999.25    -9999.25    37.031      1.755       178.437     16.668      121.123     1.12        1355.035    1406.497    1469.236    2.398       
51.45       -9999.25    -9999.25    -9999.25    129.508     114.605     42.009      26.156      31.617      45.209      -9999.25    -9999.25    -9999.25    -9999.25    -9999.25    -9999.25    -9999.25    -9999.25    -9999.25    -9999.25    
51.5        118.82      136.311     3.027       -9999.25    -9999.25    -9999.25    -9999.25    -9999.25    -9999.25    37.155      1.751       176.394     15.676      122.144     1.12        1355.035    1398.528    1431.662    2.428       
51.55       -9999.25    -9999.25    -9999.25    129.508     121.453     46.44       26.187      32.364      46.351      -9999.25    -9999.25    -9999.25    -9999.25    -9999.25    -9999.25    -9999.25    -9999.25    -9999.25    -9999.25    
51.6        90.026      136.362     2.965       -9999.25    -9999.25    -9999.25    -9999.25    -9999.25    -9999.25    36.933      1.789       174.273     14.629      122.492     1.12        1386.216    1385.044    1389.0      2.477       
51.65       -9999.25    -9999.25    -9999.25    129.508     128.21      51.064      26.48       33.831      47.513      -9999.25    -9999.25    -9999.25    -9999.25    -9999.25    -9999.25    -9999.25    -9999.25    -9999.25    -9999.25    
51.7        73.345      136.266     2.935       -9999.25    -9999.25    -9999.25    -9999.25    -9999.25    -9999.25    36.29       1.82        172.169     13.442      122.492     1.12        1398.406    1366.045    1353.35     2.502       
51.75       -9999.25    -9999.25    -9999.25    129.508     135.743     55.964      27.727      35.891      47.908      -9999.25    -9999.25    -9999.25    -9999.25    -9999.25    -9999.25    -9999.25    -9999.25    -9999.25    -9999.25    
51.8        66.516      135.857     2.916       -9999.25    -9999.25    -9999.25    -9999.25    -9999.25    -9999.25    35.344      1.818       170.11      12.605      122.492     1.12        1398.406    1366.045    1353.35     2.506       
51.85       -9999.25    -9999.25    -9999.25    127.517     139.665     61.44       29.33       38.197      47.908      -9999.25    -9999.25    -9999.25    -9999.25    -9999.25    -9999.25    -9999.25    -9999.25    -9999.25    -9999.25    
51.9        67.364      135.374     3.148       -9999.25    -9999.25    -9999.25    -9999.25    -9999.25    -9999.25    34.117      1.848       168.163     12.524      121.535     1.12        1405.562    1375.572    1362.698    2.489       
51.95       -9999.25    -9999.25    -9999.25    126.903     139.665     65.99       30.103      40.009      47.908      -9999.25    -9999.25    -9999.25    -9999.25    -9999.25    -9999.25    -9999.25    -9999.25    -9999.25    -9999.25    
52.0        84.234      134.92      3.12        -9999.25    -9999.25    -9999.25    -9999.25    -9999.25    -9999.25    32.758      1.909       166.414     12.005      118.635     1.12        1378.653    1386.137    1397.75     2.458       
52.05       -9999.25    -9999.25    -9999.25    126.013     139.665     68.24       30.103      40.671      46.917      -9999.25    -9999.25    -9999.25    -9999.25    -9999.25    -9999.25    -9999.25    -9999.25    -9999.25    -9999.25    
52.1        122.404     134.899     3.04        -9999.25    -9999.25    -9999.25    -9999.25    -9999.25    -9999.25    31.459      1.978       164.812     11.435      113.532     1.12        1372.018    1386.137    1413.507    2.45        
52.15       -9999.25    -9999.25    -9999.25    121.097     137.391     68.24       30.103      40.671      44.385      -9999.25    -9999.25    -9999.25    -9999.25    -9999.25    -9999.25    -9999.25    -9999.25    -9999.25    -9999.25    
52.2        143.947     134.828     2.972       -9999.25    -9999.25    -9999.25    -9999.25    -9999.25    -9999.25    30.323      2.06        163.251     11.038      106.754     1.12        1372.018    1387.299    1422.494    2.439       
52.25       -9999.25    -9999.25    -9999.25    112.366     129.51      68.24       29.668      40.542      40.438      -9999.25    -9999.25    -9999.25    -9999.25    -9999.25    -9999.25    -9999.25    -9999.25    -9999.25    -9999.25    
52.3        130.273     134.599     2.945       -9999.25    -9999.25    -9999.25    -9999.25    -9999.25    -9999.25    29.388      2.156       161.715     10.579      99.44       1.12        1373.386    1393.174    1424.71     2.402       
52.35       -9999.25    -9999.25    -9999.25    99.648      115.63      67.939      27.282      39.395      36.028      -9999.25    -9999.25    -9999.25    -9999.25    -9999.25    -9999.25    -9999.25    -9999.25    -9999.25    -9999.25    
