~Version Information Section
VERS.                                         2.0:CWLS log ASCII Standart – VERSION 2.0
WRAP.                                          NO:One line per depth step
~Well Information Section
STRT.M                                       0.67:Начальная глубина
STOP.M                                     204.27:Конечная глубина
STEP.M                                          0:Шаг квантования по глубине
NULL.                                    -9999.25:Признак "Нет данных"
WELL.                                       110Мх:Скважина
~Parameter Information Section
~Curve Information Section
DEPTH.M                                          :Глубина
БК.Омм                                           :BK     (БК)
DСР.мм                                           :DS  (ДС)
ГК.гамма                                         :GK          (ГК)
А0.4М0.1N.Омм.ohmm                               :GZ1   ГЗ1(A0.4M0.1N)
А1.0М0.1N.Омм.ohmm                               :GZ2   ГЗ2(A1.0M0.1N)
А2.0М0.5N.Омм.ohmm                               :GZ3   ГЗ3(A2.0M0.5N)
А4.0М0.5N.Oмм.ohmm                               :GZ4   ГЗ4(A4.0M0.5N)
А8.0М1.0N.Омм.ohmm                               :GZ5   ГЗ5(A8.0M0.5N)
N0.5M2.0A.Омм.ohmm                               :GZK   ГЗK(N0.5M2.0A)
ИК.мСм/м                                         :IK
НГК.усл.ед                                       :NGK     (НГК)
ПС.mv                                            :PS       (ПС)
КС.Омм                                           :PZ    (КС)
R.Омм                                            :RS (Резистивиметр)
W_SI.%                                           :п
ННКМ.имп/1,25с                                   :ННКм
ПЛОТНОСТЬГГК.г/см3                               :плотностьГГК
~ASCII LOG DATA
# ...
64.97       102.14      130.857     6.47        -9999.25    -9999.25    -9999.25    -9999.25    -9999.25    -9999.25    32.638      2.388       331.841     39.269      0.989       14.173      2.244       2.24        
65.0        -9999.25    -9999.25    -9999.25    112.295     44.936      35.121      52.684      41.021      132.434     -9999.25    -9999.25    -9999.25    -9999.25    -9999.25    -9999.25    -9999.25    -9999.25    
65.07       102.932     131.004     6.087       -9999.25    -9999.25    -9999.25    -9999.25    -9999.25    -9999.25    34.183      2.38        331.789     53.113      0.981       13.885      2.209       2.243       
65.1        -9999.25    -9999.25    -9999.25    118.98      65.518      36.401      44.951      40.545      129.438     -9999.25    -9999.25    -9999.25    -9999.25    -9999.25    -9999.25    -9999.25    -9999.25    
65.17       107.804     130.502     5.55        -9999.25    -9999.25    -9999.25    -9999.25    -9999.25    -9999.25    35.31       2.317       331.693     70.388      0.977       13.812      2.25        2.248       
65.2        -9999.25    -9999.25    -9999.25    128.497     93.959      37.254      35.161      39.803      124.883     -9999.25    -9999.25    -9999.25    -9999.25    -9999.25    -9999.25    -9999.25    -9999.25    
65.27       118.939     130.288     5.161       -9999.25    -9999.25    -9999.25    -9999.25    -9999.25    -9999.25    36.364      2.242       331.599     82.742      0.972       13.886      2.334       2.257       
65.3        -9999.25    -9999.25    -9999.25    133.185     115.296     36.926      24.453      38.846      119.159     -9999.25    -9999.25    -9999.25    -9999.25    -9999.25    -9999.25    -9999.25    -9999.25    
65.37       128.432     130.343     5.213       -9999.25    -9999.25    -9999.25    -9999.25    -9999.25    -9999.25    37.18       2.202       331.494     89.882      0.965       14.058      2.354       2.265       
65.4        -9999.25    -9999.25    -9999.25    132.314     123.989     35.741      15.332      37.919      108.913     -9999.25    -9999.25    -9999.25    -9999.25    -9999.25    -9999.25    -9999.25    -9999.25    
65.47       121.511     130.118     5.263       -9999.25    -9999.25    -9999.25    -9999.25    -9999.25    -9999.25    37.672      2.186       331.407     93.768      0.96        14.318      2.328       2.271       
65.5        -9999.25    -9999.25    -9999.25    128.7       124.05      34.404      9.741       37.96       94.556      -9999.25    -9999.25    -9999.25    -9999.25    -9999.25    -9999.25    -9999.25    -9999.25    
65.57       104.883     130.263     5.183       -9999.25    -9999.25    -9999.25    -9999.25    -9999.25    -9999.25    37.772      2.161       331.362     95.953      0.958       14.598      2.319       2.272       
65.6        -9999.25    -9999.25    -9999.25    124.606     123.848     32.757      7.832       41.76       83.978      -9999.25    -9999.25    -9999.25    -9999.25    -9999.25    -9999.25    -9999.25    -9999.25    
65.67       94.357      130.455     5.293       -9999.25    -9999.25    -9999.25    -9999.25    -9999.25    -9999.25    37.766      2.124       331.343     97.124      0.958       14.868      2.262       2.267       
65.7        -9999.25    -9999.25    -9999.25    117.736     120.905     31.153      8.418       45.021      78.822      -9999.25    -9999.25    -9999.25    -9999.25    -9999.25    -9999.25    -9999.25    -9999.25    
65.77       87.513      130.126     5.531       -9999.25    -9999.25    -9999.25    -9999.25    -9999.25    -9999.25    37.585      2.078       331.368     96.466      0.964       15.139      2.237       2.257       
65.8        -9999.25    -9999.25    -9999.25    109.703     115.999     29.955      9.721       42.085      75.448      -9999.25    -9999.25    -9999.25    -9999.25    -9999.25    -9999.25    -9999.25    -9999.25    
65.87       76.46       130.431     5.729       -9999.25    -9999.25    -9999.25    -9999.25    -9999.25    -9999.25    37.238      2.012       331.318     94.542      0.97        15.464      2.169       2.245       
65.9        -9999.25    -9999.25    -9999.25    105.049     114.615     29.016      11.141      39.429      70.035      -9999.25    -9999.25    -9999.25    -9999.25    -9999.25    -9999.25    -9999.25    -9999.25    
65.97       68.994      130.507     5.709       -9999.25    -9999.25    -9999.25    -9999.25    -9999.25    -9999.25    36.911      1.968       331.017     92.045      0.974       16.006      2.109       2.232       
66.0        -9999.25    -9999.25    -9999.25    101.737     113.451     28.479      12.345      37.22       63.139      -9999.25    -9999.25    -9999.25    -9999.25    -9999.25    -9999.25    -9999.25    -9999.25    
66.07       66.87       130.311     6.023       -9999.25    -9999.25    -9999.25    -9999.25    -9999.25    -9999.25    36.362      1.994       330.323     89.241      0.973       16.553      2.094       2.219       
66.1        -9999.25    -9999.25    -9999.25    98.84       109.795     27.926      13.429      36.092      49.412      -9999.25    -9999.25    -9999.25    -9999.25    -9999.25    -9999.25    -9999.25    -9999.25    
66.17       65.441      130.302     6.331       -9999.25    -9999.25    -9999.25    -9999.25    -9999.25    -9999.25    35.627      2.075       329.211     86.806      0.971       17.051      2.093       2.21        
66.2        -9999.25    -9999.25    -9999.25    95.865      105.343     28.286      15.281      34.564      33.514      -9999.25    -9999.25    -9999.25    -9999.25    -9999.25    -9999.25    -9999.25    -9999.25    
66.27       63.4        130.361     6.582       -9999.25    -9999.25    -9999.25    -9999.25    -9999.25    -9999.25    34.846      2.158       327.716     85.129      0.973       17.371      2.096       2.207       
66.3        -9999.25    -9999.25    -9999.25    90.852      100.063     32.51       18.379      32.862      26.047      -9999.25    -9999.25    -9999.25    -9999.25    -9999.25    -9999.25    -9999.25    -9999.25    
66.37       61.112      130.577     6.642       -9999.25    -9999.25    -9999.25    -9999.25    -9999.25    -9999.25    34.204      2.165       325.961     83.97       0.975       17.526      2.105       2.205       
66.4        -9999.25    -9999.25    -9999.25    84.246      92.834      39.856      21.995      31.044      22.187      -9999.25    -9999.25    -9999.25    -9999.25    -9999.25    -9999.25    -9999.25    -9999.25    
66.47       57.946      130.349     6.947       -9999.25    -9999.25    -9999.25    -9999.25    -9999.25    -9999.25    33.621      2.082       324.186     82.798      0.977       17.705      2.105       2.206       
66.5        -9999.25    -9999.25    -9999.25    80.792      89.65       48.413      25.305      29.016      19.469      -9999.25    -9999.25    -9999.25    -9999.25    -9999.25    -9999.25    -9999.25    -9999.25    
66.57       53.809      130.289     7.17        -9999.25    -9999.25    -9999.25    -9999.25    -9999.25    -9999.25    32.944      1.989       322.571     81.243      0.977       18.003      2.076       2.208       
66.6        -9999.25    -9999.25    -9999.25    82.558      92.033      55.132      27.978      28.422      13.702      -9999.25    -9999.25    -9999.25    -9999.25    -9999.25    -9999.25    -9999.25    -9999.25    
66.67       52.679      130.444     7.079       -9999.25    -9999.25    -9999.25    -9999.25    -9999.25    -9999.25    32.401      1.951       321.217     79.237      0.97        18.309      2.098       2.211       
66.7        -9999.25    -9999.25    -9999.25    85.408      94.086      58.991      29.48       26.861      7.842       -9999.25    -9999.25    -9999.25    -9999.25    -9999.25    -9999.25    -9999.25    -9999.25    
66.77       56.974      130.526     6.738       -9999.25    -9999.25    -9999.25    -9999.25    -9999.25    -9999.25    31.891      1.982       320.168     76.887      0.961       18.5        2.113       2.214       
