~Version Information Section
VERS.                                         2.0:CWLS log ASCII Standart – VERSION 2.0
WRAP.                                          NO:One line per depth step
~Well Information Section
STRT.M                                        1.6:Начальная глубина
STOP.M                                      212.2:Конечная глубина
STEP.M                                          0:Шаг квантования по глубине
NULL.                                    -9999.25:Признак "Нет данных"
WELL.                                       139Мх:Скважина
~Parameter Information Section
~Curve Information Section
DEPTH.M                                          :Глубина
BK.Ohm*M                                         :BK     (БК)
DS.mm                                            :DS  (ДС)
GGK.g/cm3                                        :GGKp
ГК.mcr/h                                         :GK          (ГК)
GZ1.Ohm*M                                        :GZ1   ГЗ1(A0.4M0.1N)
GZ2.Ohm*M                                        :GZ2   ГЗ2(A1.0M0.1N)
GZ3.Ohm*M                                        :GZ3   ГЗ3(A2.0M0.5N)
GZ4.Ohm*M                                        :GZ4   ГЗ4(A4.0M0.5N)
GZ5.Ohm*M                                        :GZ5   ГЗ5(A8.0M0.5N)
GZR.Ohm*M                                        :GZK   ГЗK(N0.5M2.0A)
ИК.Ohm*M                                         :IK
НГК.ue                                           :NGK     (НГК)
NNKM.                                            :NNKm  (ННКм)
PS.mv                                            :PS       (ПС)
PZ.Ohm*M                                         :PZ    (КС)
U1.mV                                            :U1
U2.mV                                            :U2
U3.mV                                            :U3
КП.%                                             :Кп
~ASCII LOG DATA
# ...
175.0       26.557      127.568     2.251       5.712       14.371      11.326      51.2        12.521      19.731      13.189      12.299      1.264       2.247       210.126     27.057      229.593     243.354     232.836     35.781      
175.1       26.857      127.559     2.244       6.005       14.378      11.379      51.576      12.265      20.729      13.212      12.299      1.179       2.22        209.98      27.114      147.84      217.667     301.276     35.595      
175.2       26.856      127.574     2.234       6.091       14.378      11.421      51.8        11.953      21.177      13.239      12.293      1.163       2.211       209.855     27.198      95.937      185.041     330.995     36.441      
175.3       26.65       127.588     2.248       5.846       14.375      11.448      51.8        11.6        21.264      13.267      12.267      1.183       2.214       209.749     27.322      77.664      148.704     296.667     37.498      
175.4       26.626      127.795     2.242       5.744       14.366      11.459      51.788      11.235      21.253      13.293      12.259      1.177       2.215       209.66      27.5        85.193      126.772     199.326     38.259      
175.5       26.912      127.668     2.239       5.882       14.35       11.459      51.7        10.906      21.143      13.316      12.252      1.136       2.216       209.588     27.746      96.49       112.147     134.417     38.41       
175.6       27.106      127.669     2.252       6.02        14.324      11.458      51.5        10.643      20.823      13.34       12.24       1.067       2.22        209.532     28.076      133.916     116.022     96.604      38.675      
175.7       26.812      127.736     2.262       5.971       14.281      11.452      51.288      10.452      20.427      13.371      12.234      1.1         2.213       209.493     28.513      179.288     124.74      83.977      38.564      
175.8       26.547      127.662     2.288       5.987       14.229      11.438      50.976      10.33       20.044      13.411      12.228      1.139       2.195       209.468     29.079      232.005     133.456     71.349      38.218      
175.9       26.328      127.541     2.301       6.044       14.179      11.422      50.388      10.269      19.685      13.46       12.195      1.182       2.18        209.461     29.794      254.227     139.008     73.651      36.723      
176.0       26.477      127.543     2.31        6.109       14.132      11.406      49.476      10.247      19.353      13.509      12.175      1.213       2.168       209.461     30.688      232.508     138.314     87.118      35.737      
176.1       26.679      127.537     2.282       5.762       14.088      11.393      48.276      10.242      19.042      13.548      12.174      1.187       2.171       209.461     31.8        167.451     120.879     94.921      35.505      
176.2       26.44       127.692     2.266       5.504       14.039      11.382      46.676      10.242      18.744      13.572      12.168      1.174       2.18        209.461     33.169      102.975     95.416      93.161      36.872      
176.3       25.982      127.57      2.281       5.324       13.979      11.361      44.724      10.243      18.456      13.58       12.163      1.113       2.198       209.472     34.838      121.86      102.274     94.34       38.648      
176.4       25.979      127.513     2.286       5.747       13.911      11.332      42.7        10.249      18.176      13.58       12.167      1.129       2.212       209.505     36.849      214.518     149.465     108.018     39.517      
176.5       26.516      127.409     2.299       5.813       13.853      11.301      40.936      10.268      17.906      13.577      12.174      1.122       2.192       209.56      39.233      297.633     198.599     128.271     39.736      
176.6       26.677      127.11      2.292       5.89        13.809      11.268      39.436      10.302      17.649      13.567      12.17       1.111       2.186       209.643     41.963      301.166     217.012     148.25      38.878      
176.7       26.559      127.284     2.265       5.887       13.785      11.236      38.536      10.342      17.405      13.549      12.125      1.124       2.208       209.754     44.972      234.686     202.781     168.593     38.153      
176.8       26.074      126.968     2.257       6.163       13.782      11.216      38.2        10.384      17.177      13.531      12.093      1.167       2.206       209.888     48.151      162.173     186.616     189.566     37.485      
176.9       25.417      127.138     2.256       6.549       13.782      11.209      38.2        10.429      16.959      13.512      12.064      1.216       2.186       210.042     51.348      102.528     178.892     271.668     36.653      
177.0       25.387      127.381     2.249       6.645       13.783      11.208      38.212      10.478      16.747      13.491      12.045      1.23        2.18        210.21      54.399      71.331      181.537     327.501     35.263      
177.1       25.896      127.542     2.245       6.667       13.787      11.207      38.324      10.535      16.54       13.466      12.043      1.223       2.183       210.384     57.183      108.659     184.925     289.338     34.381      
177.2       26.151      127.485     2.235       6.52        13.797      11.204      38.736      10.603      16.339      13.434      12.047      1.183       2.196       210.562     59.631      177.785     187.733     183.457     34.455      
177.3       26.229      127.205     2.247       6.362       13.8        11.197      39.6        10.682      16.143      13.399      12.051      1.181       2.208       210.741     61.719      210.174     191.486     125.724     35.26       
177.4       26.543      127.14      2.253       6.187       13.799      11.191      40.8        10.76       15.956      13.361      12.057      1.146       2.209       210.923     63.472      189.642     196.762     161.341     35.781      
177.5       27.056      127.292     2.276       5.867       13.792      11.187      41.988      10.828      15.779      13.329      12.044      1.117       2.195       211.109     64.937      196.22      206.868     174.476     37.046      
177.6       26.953      127.368     2.29        5.729       13.776      11.185      43.136      10.884      15.612      13.303      12.023      1.073       2.172       211.304     66.136      230.369     193.451     145.713     38.189      
177.7       26.837      127.701     2.295       5.58        13.761      11.181      44.376      10.928      15.456      13.285      11.969      1.096       2.167       211.507     67.053      212.064     150.939     97.532      39.099      
177.8       26.892      127.515     2.285       5.751       13.741      11.175      45.8        10.957      15.306      13.274      11.912      1.118       2.173       211.715     67.601      150.444     102.856     71.842      37.991      
177.9       26.395      127.409     2.28        5.84        13.708      11.163      47.0        10.977      15.161      13.266      11.878      1.115       2.188       211.918     67.757      122.102     108.91      91.392      36.461      
178.0       25.319      127.306     2.301       5.947       13.647      11.137      48.188      10.993      15.023      13.26       11.865      1.112       2.191       212.107     67.757      123.704     135.766     137.522     35.805      
178.1       24.977      127.314     2.306       6.289       13.562      11.094      49.24       11.009      14.889      13.254      11.86       1.102       2.171       212.268     67.757      125.305     162.616     197.367     36.025      
178.2       25.42       127.297     2.317       6.456       13.465      11.035      49.8        11.022      14.758      13.245      11.861      1.154       2.171       212.396     67.472      103.674     169.082     267.719     35.522      
178.3       26.131      127.402     2.31        6.614       13.375      10.969      49.8        11.032      14.629      13.233      11.861      1.197       2.187       212.476     66.685      102.958     171.057     300.213     34.054      
