~Version Information Section
VERS.                                         2.0:CWLS log ASCII Standart – VERSION 2.0
WRAP.                                          NO:One line per depth step
~Well Information Section
STRT.M                                        0.0:Начальная глубина
STOP.M                                      133.6:Конечная глубина
STEP.M                                          0:Шаг квантования по глубине
NULL.                                    -9999.25:Признак "Нет данных"
WELL.                                       118Мх:Скважина
~Parameter Information Section
~Curve Information Section
DEPTH.M                                          :Глубина
BK.Ohm*M                                         :BK     (БК)
DS.mm                                            :DS  (ДС)
GGK.g/cm3                                        :GGKp
ГК.mcr/h                                         :GK          (ГК)
GZ1.Ohm*M                                        :GZ1   ГЗ1(A0.4M0.1N)
GZ2.Ohm*M                                        :GZ2   ГЗ2(A1.0M0.1N)
GZ3.Ohm*M                                        :GZ3   ГЗ3(A2.0M0.5N)
GZ4.Ohm*M                                        :GZ4   ГЗ4(A4.0M0.5N)
GZ5.Ohm*M                                        :GZ5   ГЗ5(A8.0M0.5N)
GZR.Ohm*M                                        :GZK   ГЗK(N0.5M2.0A)
ИК.Ohm*M                                         :IK
НГК.усл.ед                                       :NGK
NNKM.                                            :NNKm  (ННКм)
PS.mv                                            :PS       (ПС)
PZ.Ohm*M                                         :PZ    (КС)
RS.Ohm*M                                         :RS (Резистивиметр)
U1.mV                                            :U1
U2.mV                                            :U2
U3.mV                                            :U3
W.%                                              :W
~ASCII LOG DATA
# ...
108.8       13.552      158.076     2.282       7.081       14.094      12.678      13.789      13.256      23.74       341.615     9.591       1.117       2.03        1044.406    29.714      1.0         689.04      599.045     611.311     36.273      
109.0       48.084      153.012     2.272       5.728       19.712      20.45       18.875      18.26       28.223      335.872     10.143      1.262       2.204       1036.726    36.939      1.0         885.636     735.16      659.536     28.426      
109.2       161.436     152.734     2.252       4.727       37.657      27.019      22.285      22.38       31.972      293.158     12.367      1.304       2.435       1026.886    60.036      1.001       744.352     587.594     511.947     26.331      
109.4       121.899     152.111     2.238       4.204       74.836      32.942      22.782      25.267      33.634      268.338     13.698      1.335       2.525       1014.646    100.699     1.003       843.129     630.831     512.757     25.54       
109.6       91.622      151.038     2.224       4.308       101.541     38.573      22.377      24.773      32.603      262.691     14.629      1.319       2.555       998.566     150.007     1.006       1404.939    1062.413    840.837     23.739      
109.8       75.336      150.445     2.193       4.008       98.223      51.22       21.903      23.679      31.458      283.213     15.161      1.399       2.45        981.046     194.456     1.01        1589.419    1200.724    945.411     23.948      
110.0       65.464      150.973     2.183       3.849       88.942      83.249      23.234      23.355      30.92       303.114     15.453      1.451       2.434       962.806     228.216     1.015       1169.358    965.383     859.136     26.393      
110.2       74.817      151.375     2.169       4.033       84.559      121.897     25.702      24.762      31.193      309.99      15.792      1.408       2.465       945.286     252.655     1.018       1044.639    847.048     798.684     26.767      
110.4       92.045      151.674     2.15        4.111       88.223      138.087     28.803      26.917      32.164      316.701     16.187      1.368       2.43        928.246     272.718     1.022       1180.316    763.37      604.23      27.75       
110.6       92.257      152.11      2.124       3.961       94.048      143.285     31.951      28.196      33.326      322.669     16.482      1.399       2.392       912.406     288.026     1.023       1073.19     841.582     799.06      27.826      
110.8       91.201      152.033     2.129       3.801       93.658      141.0       35.788      29.139      34.49       339.309     16.778      1.373       2.427       899.206     300.005     1.023       1119.674    900.065     808.487     28.701      
111.0       107.895     152.198     2.137       4.441       99.716      145.399     45.353      30.326      35.836      342.634     16.981      1.408       2.437       887.446     310.425     1.023       995.07      712.143     547.438     27.654      
111.2       109.396     152.194     2.119       4.092       100.352     157.678     71.521      32.515      36.956      332.388     17.174      1.482       2.529       874.966     321.222     1.023       692.087     484.951     376.305     21.424      
111.4       146.555     151.46      2.109       3.516       114.44      180.774     109.0       34.345      37.823      323.487     17.442      1.476       2.622       863.926     333.496     1.023       879.489     536.772     364.379     19.07       
111.6       124.451     151.441     2.128       3.76        111.674     181.6       128.209     35.995      38.777      325.382     17.598      1.564       2.609       855.046     347.918     1.023       1264.506    755.187     490.583     20.425      
111.8       108.643     151.334     2.133       3.755       112.25      186.398     138.35      36.638      39.429      330.729     17.771      1.59        2.58        848.566     365.053     1.025       1195.959    884.338     706.372     24.095      
112.0       113.501     151.371     2.142       3.603       106.433     194.732     147.773     38.025      39.938      335.255     17.797      1.535       2.633       843.526     384.659     1.027       1268.32     997.228     837.713     22.214      
112.2       116.681     151.58      2.163       3.639       103.014     199.048     159.147     40.818      40.823      335.127     17.788      1.539       2.553       840.166     405.231     1.028       1144.301    777.612     592.45      24.129      
112.4       144.877     151.806     2.149       3.77        114.168     227.887     174.206     43.717      41.595      330.431     17.899      1.565       2.658       838.726     424.837     1.029       973.466     737.989     672.583     22.05       
112.6       151.356     151.671     2.139       3.754       120.525     239.925     191.641     47.17       42.836      330.431     17.959      1.527       2.706       838.246     441.596     1.03        1105.171    747.11      628.363     18.988      
112.8       138.676     151.743     2.175       3.58        128.072     241.122     203.105     50.218      44.021      330.431     18.022      1.389       2.736       838.246     454.272     1.031       1181.272    671.092     422.384     21.674      
113.0       136.458     151.689     2.231       3.769       128.838     243.23      211.671     54.64       44.824      330.431     18.013      1.329       2.585       839.446     463.538     1.033       1067.842    622.943     396.78      26.114      
113.2       154.882     152.173     2.254       3.512       128.252     247.503     227.587     68.514      45.75       327.431     18.076      1.254       2.517       842.326     471.085     1.038       1224.833    818.67      612.554     29.575      
113.4       199.067     151.801     2.2         3.275       141.175     272.426     243.731     103.191     46.494      324.431     18.154      1.285       2.518       848.086     477.531     1.04        1554.934    1173.437    951.758     29.794      
113.6       179.061     151.973     2.165       3.541       150.318     287.011     258.769     131.24      47.175      327.431     18.211      1.283       2.452       858.166     483.09      1.041       1648.662    1067.618    735.591     30.435      
113.8       158.125     151.944     2.141       3.409       151.027     288.101     262.811     130.04      48.061      334.931     18.211      1.176       2.344       873.766     487.414     1.041       1366.047    879.942     595.533     29.788      
114.0       166.341     154.588     2.135       3.487       146.039     290.949     264.996     128.84      48.097      342.431     18.197      1.165       2.272       889.846     490.502     1.041       1265.593    914.048     701.003     31.568      
114.2       169.434     152.683     2.12        3.688       150.818     310.374     273.994     127.64      48.546      348.431     18.198      1.121       2.337       905.206     491.98      1.041       1449.521    1177.737    1010.661    34.129      
114.4       177.828     152.162     2.119       3.852       155.253     332.625     282.911     127.04      48.618      348.431     18.209      1.101       2.303       919.126     491.281     1.041       1720.059    1289.421    1021.888    33.334      
114.6       142.561     151.385     2.101       3.567       150.717     321.392     287.944     124.04      49.324      355.931     18.166      1.147       2.298       930.406     488.73      1.042       1418.807    964.724     687.995     30.047      
114.8       128.233     151.772     2.102       3.527       141.135     306.592     288.718     124.64      49.395      363.431     18.117      1.206       2.288       935.446     485.641     1.042       1093.41     773.922     581.166     30.525      
115.0       156.675     151.848     2.11        3.814       142.981     313.26      290.87      127.64      48.936      370.931     18.18       1.161       2.299       938.086     483.439     1.041       978.789     704.806     544.437     29.115      
