~Version Information Section
VERS.                                         2.0:CWLS log ASCII Standart – VERSION 2.0
WRAP.                                          NO:One line per depth step
~Well Information Section
STRT.M                                        0.1:Начальная глубина
STOP.M                                      167.0:Конечная глубина
STEP.M                                          0:Шаг квантования по глубине
NULL.                                    -9999.25:Признак "Нет данных"
WELL.                                        143К:Скважина
~Parameter Information Section
~Curve Information Section
DEPTH.M                                          :Глубина
БК.Омм                                           :BK     (БК)
DСР.мм                                           :DS  (ДС)
ПЛОТНОСТЬ.г/см^3                                 :GGKp
ГК.гамма                                         :GK          (ГК)
ИК.мСм/м                                         :IK
НГК.усл.ед                                       :NGK     (НГК)
ННКМ.усл.ед                                      :NNKm  (ННКм)
ПС.mv                                            :PS       (ПС)
N11.0M0.5A.Омм                                   :PZ    (КС)
R.Омм                                            :RS (Резистивиметр)
КП.%                                             :W
А0.4М0.1N.Омм                                    :GZ1   ГЗ1(A0.4M0.1N)
А1.0М0.1N.Омм                                    :GZ2   ГЗ2(A1.0M0.1N)
А2.0М0.5N.Омм                                    :GZ3   ГЗ3(A2.0M0.5N)
А4.0М0.5N.Oмм                                    :GZ4   ГЗ4(A4.0M0.5N)
А8.0М1.0N.Омм                                    :GZ5   ГЗ5(A8.0M0.5N)
N0.5M2.0A.Омм                                    :GZR   ГЗK(N0.5M2.0A)
~ASCII LOG DATA
# ...
159.2       9.793       150.243     2.311       9.735       10.677      1.06        2.08        -9999.25    -9999.25    -9999.25    30.522      -9999.25    21.799      16.371      -9999.25    24.485      -9999.25    
159.3       10.096      150.956     2.309       10.03       10.54       1.063       2.089       -9999.25    -9999.25    -9999.25    30.064      -9999.25    -9999.25    16.37       -9999.25    24.488      -9999.25    
159.4       10.321      151.674     2.308       10.302      10.388      1.063       2.089       -9999.25    -9999.25    -9999.25    29.71       -9999.25    -9999.25    16.37       -9999.25    24.492      -9999.25    
159.5       10.445      152.044     2.309       10.494      10.2        1.077       2.086       -9999.25    -9999.25    -9999.25    29.405      -9999.25    -9999.25    16.371      -9999.25    24.506      -9999.25    
159.6       10.502      149.988     2.312       10.578      9.957       1.096       2.084       -9999.25    -9999.25    -9999.25    29.204      -9999.25    -9999.25    16.37       -9999.25    24.521      -9999.25    
159.7       10.487      149.83      2.318       10.659      9.65        1.093       2.092       -9999.25    -9999.25    -9999.25    29.057      -9999.25    -9999.25    16.369      -9999.25    24.538      -9999.25    
159.8       10.441      149.937     2.323       10.783      9.276       1.082       2.115       -9999.25    -9999.25    -9999.25    28.804      -9999.25    -9999.25    16.37       -9999.25    24.552      -9999.25    
159.9       10.39       149.822     2.327       10.894      8.837       1.076       2.131       -9999.25    -9999.25    -9999.25    28.522      -9999.25    -9999.25    16.371      -9999.25    24.583      -9999.25    
160.0       10.352      149.075     2.328       11.029      8.357       1.058       2.138       -9999.25    -9999.25    -9999.25    28.315      -9999.25    -9999.25    16.374      -9999.25    24.59       -9999.25    
160.1       10.344      147.938     2.326       11.142      7.89        1.047       2.148       -9999.25    -9999.25    -9999.25    28.204      -9999.25    -9999.25    16.377      -9999.25    24.574      -9999.25    
160.2       10.345      147.56      2.322       11.122      7.448       1.061       2.157       -9999.25    -9999.25    -9999.25    28.262      -9999.25    -9999.25    16.384      -9999.25    24.565      -9999.25    
160.3       10.348      147.223     2.318       10.956      7.045       1.083       2.148       -9999.25    -9999.25    -9999.25    28.312      -9999.25    -9999.25    16.389      -9999.25    -9999.25    -9999.25    
160.4       10.35       147.23      2.314       11.025      6.711       1.099       2.13        -9999.25    -9999.25    -9999.25    28.404      -9999.25    -9999.25    16.388      -9999.25    -9999.25    -9999.25    
160.5       10.349      146.92      2.313       11.056      6.444       1.111       2.122       -9999.25    -9999.25    -9999.25    28.522      -9999.25    -9999.25    -9999.25    -9999.25    -9999.25    -9999.25    
160.6       10.348      146.782     2.313       10.926      6.207       1.105       2.124       -9999.25    -9999.25    -9999.25    28.624      -9999.25    -9999.25    -9999.25    -9999.25    -9999.25    -9999.25    
160.7       10.349      147.402     2.313       10.829      5.972       1.085       2.128       -9999.25    -9999.25    -9999.25    28.57       -9999.25    -9999.25    -9999.25    -9999.25    -9999.25    -9999.25    
160.8       10.353      148.035     2.312       10.796      5.728       1.066       2.118       -9999.25    -9999.25    -9999.25    28.494      -9999.25    -9999.25    -9999.25    -9999.25    -9999.25    -9999.25    
160.9       10.355      147.609     2.307       10.778      5.464       1.048       2.123       -9999.25    -9999.25    -9999.25    28.324      -9999.25    -9999.25    -9999.25    -9999.25    -9999.25    -9999.25    
161.0       10.356      147.638     2.295       10.798      5.188       1.032       2.125       -9999.25    -9999.25    -9999.25    28.199      -9999.25    -9999.25    -9999.25    -9999.25    -9999.25    -9999.25    
161.1       10.353      146.488     2.275       10.944      4.926       1.008       2.115       -9999.25    -9999.25    -9999.25    28.101      -9999.25    -9999.25    -9999.25    -9999.25    -9999.25    -9999.25    
161.2       10.352      146.864     2.247       11.131      4.713       0.986       2.091       -9999.25    -9999.25    -9999.25    28.057      -9999.25    -9999.25    -9999.25    -9999.25    -9999.25    -9999.25    
161.3       10.351      145.647     2.216       11.348      4.564       0.976       2.075       -9999.25    -9999.25    -9999.25    27.988      -9999.25    -9999.25    -9999.25    -9999.25    -9999.25    -9999.25    
161.4       10.356      146.212     2.188       11.519      4.47        0.976       2.05        -9999.25    -9999.25    -9999.25    28.13       -9999.25    -9999.25    -9999.25    -9999.25    -9999.25    -9999.25    
161.5       10.362      147.049     2.166       11.436      4.421       0.983       2.029       -9999.25    -9999.25    -9999.25    28.328      -9999.25    -9999.25    -9999.25    -9999.25    -9999.25    -9999.25    
161.6       10.367      147.219     2.154       11.202      4.405       0.993       2.006       -9999.25    -9999.25    -9999.25    28.545      -9999.25    -9999.25    -9999.25    -9999.25    -9999.25    -9999.25    
161.7       10.364      147.39      2.15        11.054      4.405       1.011       1.98        -9999.25    -9999.25    -9999.25    28.684      -9999.25    -9999.25    -9999.25    -9999.25    -9999.25    -9999.25    
161.8       10.362      147.235     2.151       10.878      4.405       1.029       1.952       -9999.25    -9999.25    -9999.25    29.012      -9999.25    -9999.25    -9999.25    -9999.25    -9999.25    -9999.25    
161.9       10.361      145.526     2.153       10.566      4.405       1.031       1.95        -9999.25    -9999.25    -9999.25    29.385      -9999.25    -9999.25    -9999.25    -9999.25    -9999.25    -9999.25    
162.0       10.362      146.167     2.152       10.628      4.405       1.027       1.942       -9999.25    -9999.25    -9999.25    29.682      -9999.25    -9999.25    -9999.25    -9999.25    -9999.25    -9999.25    
162.1       10.355      146.539     2.149       10.851      4.405       1.035       1.932       -9999.25    -9999.25    -9999.25    29.77       -9999.25    -9999.25    -9999.25    -9999.25    -9999.25    -9999.25    
162.2       10.354      144.869     2.147       10.901      4.405       1.033       1.927       -9999.25    -9999.25    -9999.25    29.85       -9999.25    -9999.25    -9999.25    -9999.25    -9999.25    -9999.25    
162.3       10.358      131.528     2.148       10.912      4.406       1.009       1.939       -9999.25    -9999.25    -9999.25    29.879      -9999.25    -9999.25    -9999.25    -9999.25    -9999.25    -9999.25    
162.4       10.366      127.935     2.153       10.947      4.406       0.999       1.937       -9999.25    -9999.25    -9999.25    29.824      -9999.25    -9999.25    -9999.25    -9999.25    -9999.25    -9999.25    
162.5       10.363      127.9       2.16        10.938      4.406       1.003       1.934       -9999.25    -9999.25    -9999.25    29.597      -9999.25    -9999.25    -9999.25    -9999.25    -9999.25    -9999.25    
162.6       10.359      127.891     2.168       10.928      4.406       1.007       1.937       -9999.25    -9999.25    -9999.25    29.307      -9999.25    -9999.25    -9999.25    -9999.25    -9999.25    -9999.25    
162.7       10.355      127.889     2.173       10.986      4.407       1.02        1.942       -9999.25    -9999.25    -9999.25    29.075      -9999.25    -9999.25    -9999.25    -9999.25    -9999.25    -9999.25    
162.8       10.358      127.862     2.173       11.004      4.407       1.038       1.945       -9999.25    -9999.25    -9999.25    28.906      -9999.25    -9999.25    -9999.25    -9999.25    -9999.25    -9999.25    
