~Version Information Section
VERS.                                         2.0:CWLS log ASCII Standart – VERSION 2.0
WRAP.                                          NO:One line per depth step
~Well Information Section
STRT.M                                        0.1:Начальная глубина
STOP.M                                      202.9:Конечная глубина
STEP.M                                          0:Шаг квантования по глубине
NULL.                                    -9999.25:Признак "Нет данных"
WELL.                                       155Мх:Скважина
~Parameter Information Section
~Curve Information Section
DEPTH.M                                          :Глубина
BK.Ohm*M                                         :BK     (БК)
DS.mm                                            :DS  (ДС)
GGK.g/cm3                                        :GGKp
ГК.mcr/h                                         :GK          (ГК)
GZ1.Ohm*M                                        :GZ1   ГЗ1(A0.4M0.1N)
GZ2.Ohm*M                                        :GZ2   ГЗ2(A1.0M0.1N)
GZ3.Ohm*M                                        :GZ3   ГЗ3(A2.0M0.5N)
GZ4.Ohm*M                                        :GZ4   ГЗ4(A4.0M0.5N)
GZ5.Ohm*M                                        :GZ5   ГЗ5(A8.0M0.5N)
GZR.                                             :GZR   ГЗK(N0.5M2.0A)
ИК.Ohm*M                                         :IK
НГК.ue                                           :NGK     (НГК)
NNKM.                                            :NNKm  (ННКм)
PS.mv                                            :PS       (ПС)
PZ.Ohm*M                                         :PZ    (КС)
RS.Ohm*M                                         :RS (Резистивиметр)
W.%                                              :W
~ASCII LOG DATA
# ...
196.2       18.8        175.795     2.359       9.36        -9999.25    24.17       23.721      -9999.25    10.715      -9999.25    18.491      0.967       1.097       -9999.25    -9999.25    -9999.25    30.431      
196.3       21.02       176.195     2.351       9.283       -9999.25    -9999.25    23.882      -9999.25    10.404      -9999.25    18.876      1.009       1.153       -9999.25    -9999.25    -9999.25    28.324      
196.4       24.176      175.774     2.34        9.141       -9999.25    -9999.25    24.04       -9999.25    10.471      -9999.25    19.407      1.049       1.231       -9999.25    -9999.25    -9999.25    26.74       
196.5       27.877      178.318     2.326       8.966       -9999.25    -9999.25    24.129      -9999.25    10.386      -9999.25    20.051      1.074       1.286       -9999.25    -9999.25    -9999.25    25.828      
196.6       33.096      178.137     2.314       8.755       -9999.25    -9999.25    24.14       -9999.25    10.443      -9999.25    20.588      1.081       1.316       -9999.25    -9999.25    -9999.25    25.377      
196.7       47.944      188.5       2.304       8.531       -9999.25    -9999.25    24.139      -9999.25    10.421      -9999.25    21.078      1.081       1.324       -9999.25    -9999.25    -9999.25    24.709      
196.8       49.308      183.266     2.298       8.306       -9999.25    -9999.25    24.141      -9999.25    10.454      -9999.25    21.515      1.075       1.312       -9999.25    -9999.25    -9999.25    24.023      
196.9       47.961      170.507     2.294       8.108       -9999.25    -9999.25    24.134      -9999.25    10.375      -9999.25    21.909      1.062       1.297       -9999.25    -9999.25    -9999.25    24.225      
197.0       47.292      168.533     2.29        7.943       -9999.25    -9999.25    24.14       -9999.25    10.375      -9999.25    22.127      1.062       1.287       -9999.25    -9999.25    -9999.25    24.718      
197.1       42.802      167.12      2.286       7.849       -9999.25    -9999.25    24.136      -9999.25    10.386      -9999.25    22.192      1.085       1.288       -9999.25    -9999.25    -9999.25    24.91       
197.2       30.146      167.296     2.283       7.835       -9999.25    -9999.25    24.134      -9999.25    10.389      -9999.25    22.109      1.114       1.276       -9999.25    -9999.25    -9999.25    25.403      
197.3       30.018      167.596     2.282       7.86        -9999.25    -9999.25    24.145      -9999.25    -9999.25    -9999.25    21.877      1.121       1.255       -9999.25    -9999.25    -9999.25    25.958      
197.4       30.083      167.265     2.285       7.852       -9999.25    -9999.25    24.142      -9999.25    -9999.25    -9999.25    21.647      1.087       1.248       -9999.25    -9999.25    -9999.25    25.688      
197.5       28.886      167.628     2.291       7.803       -9999.25    -9999.25    -9999.25    -9999.25    -9999.25    -9999.25    21.409      1.025       1.261       -9999.25    -9999.25    -9999.25    25.342      
197.6       23.956      167.735     2.299       7.755       -9999.25    -9999.25    -9999.25    -9999.25    -9999.25    -9999.25    21.142      0.969       1.276       -9999.25    -9999.25    -9999.25    25.363      
197.7       20.512      165.551     2.309       7.744       -9999.25    -9999.25    -9999.25    -9999.25    -9999.25    -9999.25    20.784      0.938       1.274       -9999.25    -9999.25    -9999.25    25.677      
197.8       19.061      165.32      2.321       7.784       -9999.25    -9999.25    -9999.25    -9999.25    -9999.25    -9999.25    20.378      0.95        1.226       -9999.25    -9999.25    -9999.25    26.245      
197.9       18.972      165.475     2.334       7.865       -9999.25    -9999.25    -9999.25    -9999.25    -9999.25    -9999.25    20.014      0.981       1.174       -9999.25    -9999.25    -9999.25    26.549      
198.0       18.753      165.573     2.349       7.978       -9999.25    -9999.25    -9999.25    -9999.25    -9999.25    -9999.25    19.58       1.001       1.141       -9999.25    -9999.25    -9999.25    26.398      
198.1       16.631      165.871     2.365       8.103       -9999.25    -9999.25    -9999.25    -9999.25    -9999.25    -9999.25    19.139      0.991       1.153       -9999.25    -9999.25    -9999.25    26.656      
198.2       16.544      166.143     2.38        8.245       -9999.25    -9999.25    -9999.25    -9999.25    -9999.25    -9999.25    18.747      0.947       1.162       -9999.25    -9999.25    -9999.25    26.947      
198.3       17.072      167.541     2.388       8.368       -9999.25    -9999.25    -9999.25    -9999.25    -9999.25    -9999.25    18.467      0.892       1.151       -9999.25    -9999.25    -9999.25    27.149      
198.4       17.37       169.506     2.388       8.425       -9999.25    -9999.25    -9999.25    -9999.25    -9999.25    -9999.25    18.207      0.867       1.113       -9999.25    -9999.25    -9999.25    27.667      
198.5       17.475      170.424     2.38        8.407       -9999.25    -9999.25    -9999.25    -9999.25    -9999.25    -9999.25    17.94       0.881       1.084       -9999.25    -9999.25    -9999.25    28.173      
198.6       17.265      170.573     2.364       8.374       -9999.25    -9999.25    -9999.25    -9999.25    -9999.25    -9999.25    17.716      0.905       1.064       -9999.25    -9999.25    -9999.25    28.07       
198.7       17.27       169.725     2.347       8.355       -9999.25    -9999.25    -9999.25    -9999.25    -9999.25    -9999.25    17.605      0.904       1.067       -9999.25    -9999.25    -9999.25    27.464      
198.8       18.467      169.933     2.334       8.38        -9999.25    -9999.25    -9999.25    -9999.25    -9999.25    -9999.25    17.565      0.899       1.076       -9999.25    -9999.25    -9999.25    26.741      
198.9       26.868      170.512     2.328       8.49        -9999.25    -9999.25    -9999.25    -9999.25    -9999.25    -9999.25    17.478      0.922       1.078       -9999.25    -9999.25    -9999.25    25.651      
199.0       45.772      170.089     2.332       8.694       -9999.25    -9999.25    -9999.25    -9999.25    -9999.25    -9999.25    17.474      0.958       1.101       -9999.25    -9999.25    -9999.25    24.8        
199.1       25.581      170.609     2.344       8.903       -9999.25    -9999.25    -9999.25    -9999.25    -9999.25    -9999.25    17.491      0.983       1.123       -9999.25    -9999.25    -9999.25    24.906      
199.2       24.515      174.595     2.36        9.043       -9999.25    -9999.25    -9999.25    -9999.25    -9999.25    -9999.25    17.521      0.984       1.182       -9999.25    -9999.25    -9999.25    25.591      
199.3       24.26       174.684     2.375       9.053       -9999.25    -9999.25    -9999.25    -9999.25    -9999.25    -9999.25    17.55       0.974       1.213       -9999.25    -9999.25    -9999.25    26.743      
199.4       24.238      174.513     2.385       8.885       -9999.25    -9999.25    -9999.25    -9999.25    -9999.25    -9999.25    17.508      0.968       1.199       -9999.25    -9999.25    -9999.25    28.405      
199.5       24.204      173.831     2.389       8.577       -9999.25    -9999.25    -9999.25    -9999.25    -9999.25    -9999.25    17.395      0.976       1.151       -9999.25    -9999.25    -9999.25    30.139      
199.6       24.196      173.858     2.387       8.245       -9999.25    -9999.25    -9999.25    -9999.25    -9999.25    -9999.25    17.172      0.989       1.117       -9999.25    -9999.25    -9999.25    30.952      
199.7       24.201      170.58      2.38        7.972       -9999.25    -9999.25    -9999.25    -9999.25    -9999.25    -9999.25    16.974      0.992       1.124       -9999.25    -9999.25    -9999.25    31.325      
199.8       24.207      167.63      2.371       7.793       -9999.25    -9999.25    -9999.25    -9999.25    -9999.25    -9999.25    16.789      0.98        1.117       -9999.25    -9999.25    -9999.25    31.244      
