~Version Information Section
VERS.                                         2.0:CWLS log ASCII Standart – VERSION 2.0
WRAP.                                          NO:One line per depth step
~Well Information Section
STRT.M                                      -0.07:Начальная глубина
STOP.M                                     189.23:Конечная глубина
STEP.M                                          0:Шаг квантования по глубине
NULL.                                    -9999.25:Признак "Нет данных"
WELL.                                       127Мх:Скважина
~Parameter Information Section
~Curve Information Section
DEPTH.M                                          :Глубина
BK.                                              :BK
ГК.гамма                                         :GK
ИК.                                              :IK
НГК.усл.ед                                       :NGK
PSЭ3.                                            :PSэ3
PZЭ3.                                            :PZэ3
U1.                                              :U1
U2.                                              :U2
U3.                                              :U3
W.усл.ед                                         :W
ГЗ1.                                             :ГЗ1
ГЗ2.                                             :ГЗ2
ГЗ3.                                             :ГЗ3
ГЗ4.                                             :ГЗ4
ГЗ5.                                             :ГЗ5
ГЗК.                                             :ГЗК
ННКМ.усл.ед                                      :ННКм
PL.g/cm3                                         :Плотность
ПРОФ_СР.                                         :ПРОФ_СР
IS.                                              :РЕЗ
~ASCII LOG DATA
# ...
182.33      15.863      5.264       10.326      1.314       116.594     35.932      1016.288    538.783     286.644     39.294      -9999.25    -9999.25    206.528     -9999.25    53.142      -9999.25    1.89        2.334       124.327     -9999.25    
182.43      18.456      5.647       10.603      1.189       123.511     34.545      997.642     519.711     272.045     37.756      -9999.25    -9999.25    206.528     -9999.25    53.142      -9999.25    1.869       2.33        124.238     -9999.25    
182.53      20.335      5.975       10.98       1.264       129.511     33.421      1013.014    511.547     262.478     35.832      -9999.25    -9999.25    206.528     -9999.25    53.142      -9999.25    1.835       2.327       124.171     -9999.25    
182.63      25.907      6.257       11.388      1.365       134.217     32.348      1011.19     517.664     272.791     34.558      -9999.25    -9999.25    206.528     -9999.25    53.142      -9999.25    1.806       2.328       124.247     -9999.25    
182.73      25.733      6.659       11.781      1.421       137.017     31.259      991.735     524.711     288.727     35.945      -9999.25    -9999.25    206.528     -9999.25    53.142      -9999.25    1.765       2.335       124.365     -9999.25    
182.83      28.592      7.216       12.117      1.291       138.433     30.14       953.627     501.542     277.025     37.299      -9999.25    -9999.25    206.528     -9999.25    53.142      -9999.25    1.685       2.342       124.388     -9999.25    
182.93      31.046      7.906       12.377      1.211       140.417     29.13       882.829     458.87      251.935     37.51       -9999.25    -9999.25    206.528     -9999.25    53.142      -9999.25    1.609       2.342       124.444     -9999.25    
183.03      29.355      8.579       12.614      1.282       142.178     28.235      775.331     419.008     236.898     38.846      -9999.25    -9999.25    206.528     -9999.25    53.142      -9999.25    1.541       2.338       124.583     -9999.25    
183.13      27.319      8.742       12.735      1.284       143.461     27.396      704.987     373.931     205.823     39.396      -9999.25    -9999.25    206.528     -9999.25    53.142      -9999.25    1.499       2.331       124.672     -9999.25    
183.23      19.732      8.636       12.823      1.181       144.794     26.524      689.158     334.285     166.627     41.007      -9999.25    -9999.25    206.528     -9999.25    -9999.25    -9999.25    1.515       2.313       124.449     -9999.25    
183.33      20.097      8.233       12.848      1.125       146.7       25.66       689.839     324.03      155.222     39.752      -9999.25    -9999.25    -9999.25    -9999.25    -9999.25    -9999.25    1.539       2.288       124.359     -9999.25    
183.43      18.775      8.39        12.833      1.139       149.233     24.887      635.764     315.333     160.846     39.147      -9999.25    -9999.25    -9999.25    -9999.25    -9999.25    -9999.25    1.577       2.263       124.357     -9999.25    
183.53      14.847      8.282       12.736      1.142       152.35      24.264      587.18      300.176     158.461     40.415      -9999.25    -9999.25    -9999.25    -9999.25    -9999.25    -9999.25    1.603       2.238       124.449     -9999.25    
183.63      12.507      7.898       12.67       1.16        156.006     23.793      533.807     277.971     149.855     41.203      -9999.25    -9999.25    -9999.25    -9999.25    -9999.25    -9999.25    1.616       2.217       124.641     -9999.25    
183.73      11.046      7.219       12.484      1.111       160.533     23.474      451.665     247.343     139.204     40.447      -9999.25    -9999.25    -9999.25    -9999.25    -9999.25    -9999.25    1.616       2.206       124.664     -9999.25    
183.83      12.537      6.875       12.304      1.146       165.294     23.202      387.535     223.243     129.874     38.952      -9999.25    -9999.25    -9999.25    -9999.25    -9999.25    -9999.25    1.587       2.207       124.68      -9999.25    
183.93      14.348      7.036       12.084      1.245       168.956     22.903      414.102     230.281     128.906     39.377      -9999.25    -9999.25    -9999.25    -9999.25    -9999.25    -9999.25    1.566       2.218       124.587     -9999.25    
184.03      15.737      7.432       11.862      1.147       171.772     22.6        437.609     240.743     133.194     40.58       -9999.25    -9999.25    -9999.25    -9999.25    -9999.25    -9999.25    1.562       2.237       124.459     -9999.25    
184.13      17.568      7.94        11.714      1.103       174.011     22.375      441.382     248.262     141.35      40.534      -9999.25    -9999.25    -9999.25    -9999.25    -9999.25    -9999.25    1.552       2.259       124.421     -9999.25    
184.23      22.241      8.338       11.636      1.113       175.6       22.189      428.811     254.995     157.322     40.37       -9999.25    -9999.25    -9999.25    -9999.25    -9999.25    -9999.25    1.524       2.277       124.438     -9999.25    
184.33      23.062      8.534       11.693      1.159       176.189     22.055      383.577     248.701     179.257     41.923      -9999.25    -9999.25    -9999.25    -9999.25    -9999.25    -9999.25    1.517       2.289       124.395     -9999.25    
184.43      23.406      8.501       11.77       1.205       175.778     21.96       305.612     222.892     193.808     45.11       -9999.25    -9999.25    -9999.25    -9999.25    -9999.25    -9999.25    1.559       2.293       124.413     -9999.25    
184.53      25.4        8.02        11.843      1.195       173.9       21.882      231.582     190.635     189.295     44.809      -9999.25    -9999.25    -9999.25    -9999.25    -9999.25    -9999.25    1.583       2.288       124.411     -9999.25    
184.63      26.909      7.417       11.851      1.159       169.433     21.751      175.112     161.769     178.75      42.991      -9999.25    -9999.25    -9999.25    -9999.25    -9999.25    -9999.25    1.569       2.278       124.386     -9999.25    
184.73      24.825      6.939       11.837      1.15        163.133     21.537      131.397     142.888     180.379     41.478      -9999.25    -9999.25    -9999.25    -9999.25    -9999.25    -9999.25    1.553       2.266       124.431     -9999.25    
184.83      21.774      6.911       11.847      1.123       157.061     21.36       124.874     143.25      180.965     40.438      -9999.25    -9999.25    -9999.25    -9999.25    -9999.25    -9999.25    1.537       2.257       124.506     -9999.25    
184.93      21.514      6.887       11.867      1.069       151.539     21.191      144.394     155.851     180.677     41.457      -9999.25    -9999.25    -9999.25    -9999.25    -9999.25    -9999.25    1.525       2.253       124.516     -9999.25    
185.03      21.764      7.033       11.842      1.134       146.533     20.991      163.943     164.354     179.904     42.969      -9999.25    -9999.25    -9999.25    -9999.25    -9999.25    -9999.25    1.52        2.255       124.582     -9999.25    
185.13      21.81       7.323       11.801      1.107       141.761     20.789      186.692     169.267     173.289     43.888      -9999.25    -9999.25    -9999.25    -9999.25    -9999.25    -9999.25    1.52        2.26        124.514     -9999.25    
185.23      19.747      7.749       11.756      1.088       137.428     20.587      214.337     171.122     153.35      44.297      -9999.25    -9999.25    -9999.25    -9999.25    -9999.25    -9999.25    1.523       2.267       124.483     -9999.25    
185.33      16.081      7.884       11.688      1.089       133.717     20.445      238.668     173.187     136.326     42.39       -9999.25    -9999.25    -9999.25    -9999.25    -9999.25    -9999.25    1.511       2.274       124.493     -9999.25    
185.43      16.088      7.785       11.683      1.151       131.0       20.364      270.68      189.611     138.128     40.66       -9999.25    -9999.25    -9999.25    -9999.25    -9999.25    -9999.25    1.487       2.276       124.509     -9999.25    
