~Version Information Section
VERS.                                         2.0:CWLS log ASCII Standart – VERSION 2.0
WRAP.                                          NO:One line per depth step
~Well Information Section
STRT.M                                       -0.3:Начальная глубина
STOP.M                                      200.8:Конечная глубина
STEP.M                                          0:Шаг квантования по глубине
NULL.                                    -9999.25:Признак "Нет данных"
WELL.                                       124Мх:Скважина
~Parameter Information Section
~Curve Information Section
DEPTH.M                                          :Глубина
U1.мВ                                            :U1
U2.                                              :U2
U3.мВ                                            :U3
БЗ.имп/мин                                       :БЗ
ГГКП.имп/мин                                     :ГГКп
ГЗ1.Омм                                          :ГЗ1
ГЗ2.Омм                                          :ГЗ2
ГЗ3.Омм                                          :ГЗ3
ГЗ4.Oмм                                          :ГЗ4
ГЗ5.Oмм                                          :ГЗ5
ГЗК.Омм                                          :ГЗК
КП.%                                             :Кп
МЗ.                                              :МЗ жесткий
НГК.усл.ед                                       :ННКб
ННКМ.усл.ед                                      :ННКм
ПРОФ_СР.мм                                       :ПРОФ_СР
ПС.мВ                                            :ПС
BK.lgОмм                                         :BK
ГК.имп/мин                                       :GK
ИК.мСм/м                                         :IK
PZ.Омм                                           :PZ
RIS.Омм                                          :RIS
~ASCII LOG DATA
# ...
121.5       1197.600342 3253.662354 1235.592041 17712.0     2.341669    15.359      14.088      28.74       31.983999   29.864      27.622999   22.446716   22693.3339843.71075     2.391115    150.181     558.711975  81.658226   4.262       30.463657   117.199997  1.06        
121.6       1226.782959 3283.981445 1265.969604 17907.6914062.348309    15.754      14.516      28.780001   32.192001   29.992001   28.704      22.633802   22963.0761723.637052    2.390337    150.210999  554.400024  86.496796   4.486       30.664499   118.239998  1.06        
121.7       1283.116089 3327.814697 1294.956421 17688.0     2.348727    15.997      14.949      28.84       32.360001   30.128      29.938      22.779419   22814.6660163.533516    2.389301    150.115005  548.856018  77.803658   4.528       30.869913   119.120003  1.06        
121.8       1311.309692 3352.114014 1314.011719 17484.2851562.349216    16.091999   15.363      28.9        32.448002   30.264      31.27       22.807413   22848.5722663.49258     2.388329    150.214005  543.312012  63.241184   4.512       30.872774   120.080002  1.06        
121.9       1311.369019 3356.884277 1323.138306 18175.7148442.344644    16.091999   15.654      28.959999   32.456001   30.416      32.618      23.35323    23000.0     3.467554    2.367872    150.362     538.383972  71.944893   4.448       30.872774   121.040001  1.06        
122.0       1322.128662 3360.860352 1322.80896  18544.2851562.337075    16.091999   15.813      29.02       32.456001   30.576      33.875      24.081854   22930.0     3.391543    2.33969     150.490005  532.840027  69.823235   4.32        30.939638   122.0       1.06        
122.1       1371.721802 3383.571533 1322.953003 19140.0     2.331459    16.027      15.849      29.059999   32.456001   30.792      34.938      24.420998   23174.2851563.279527    2.314645    150.751007  528.528015  52.601723   4.544       30.802402   122.800003  1.06        
122.2       1416.123901 3403.792969 1321.608887 20182.8574222.322876    15.841      15.849      29.08       32.375999   31.048      35.699001   24.544626   23664.2851563.228358    2.283508    151.061996  524.216003  49.317375   4.992       30.90617    123.68      1.06        
122.3       1416.491333 3402.784424 1318.303589 20417.1425782.313455    15.562      15.849      29.1        32.216      31.344      36.127998   24.349808   23658.5722663.098725    2.224118    151.494003  520.52002   49.431068   4.723       30.531555   124.480003  1.06        
122.4       1372.827637 3380.548096 1313.036987 20634.2851562.302311    15.34       15.779      29.139999   32.040001   31.672001   36.269001   23.679937   23685.7148443.175341    2.178865    150.979996  516.823975  42.364296   4.454       30.463657   125.68      1.06        
122.5       1327.084595 3358.850098 1314.442993 20620.0     2.295197    15.209      15.638      29.18       31.888      32.048      36.269001   22.988283   24474.2851563.432107    2.210452    150.565002  510.664001  45.081676   3.958       30.328764   126.879997  1.06        
122.6       1279.263184 3337.69043  1322.52124  19996.0     2.29465     15.146      15.491      29.18       31.775999   32.368      36.269001   22.644867   24378.6660163.528864    2.248352    150.447998  503.272003  68.54882    3.859       30.196882   128.080002  1.06        
122.7       1257.791138 3340.503174 1355.44165  19610.0     2.304403    15.134      15.352      29.18       31.712      32.616001   36.208      22.447186   23878.5722663.59399     2.310059    150.384003  496.496002  81.846474   4.454       30.263597   129.279999  1.06        
122.8       1264.751953 3366.749756 1406.526978 19221.4277342.319264    15.134      15.272      29.18       31.688      32.743999   36.032001   22.65892    23738.5722663.463739    2.361701    150.556     489.104004  88.715591   4.454       30.463657   130.479996  1.06        
122.9       1324.598633 3398.276611 1424.157715 19224.2851562.339273    15.134      15.253      29.18       31.688      32.743999   35.839001   22.852341   24077.1425783.356743    2.350427    151.102997  482.328003  87.498383   4.147       30.802402   131.119995  1.06        
123.0       1408.900024 3411.648682 1390.165405 19684.2851562.350575    15.134      15.253      29.16       31.688      32.743999   35.665001   23.245855   23917.1425783.311936    2.317059    151.414001  478.015991  76.913048   4.25        31.043365   131.360001  1.06        
123.1       1517.653198 3406.865967 1304.55188  20151.4277342.353472    15.151      15.249      29.059999   31.688      32.736      35.491001   23.63764    24858.5722663.319068    2.265359    151.276001  474.936005  44.668358   4.454       31.723877   131.360001  1.06        
123.2       1523.366211 3398.474121 1294.11438  20850.0     2.349911    15.151      15.214      28.959999   31.688      32.576      35.285      23.959538   25821.4277343.373415    2.214242    151.179001  471.855988  40.644329   4.31        31.833954   131.360001  1.06        
123.3       1426.034302 3386.474121 1358.856689 21457.1425782.341398    15.151      15.155      28.879999   31.704      32.327999   35.018002   24.258244   25652.8574223.308601    2.176339    151.139008  468.160004  59.156158   4.166       31.758129   131.279999  1.06        
123.4       1309.503052 3386.040039 1446.905762 21320.0     2.333196    15.139      15.116      28.780001   31.728001   32.023998   34.675999   24.614439   25598.4609383.19719     2.207117    151.246994  463.847992  72.276978   4.525       31.868448   129.919998  1.06        
123.5       1276.817993 3400.780762 1483.081055 21453.3339842.330776    15.039      15.09       28.700001   31.752001   31.743999   34.257999   24.335657   25802.6660163.243555    2.257001    151.270004  458.920013  79.983421   4.704       31.903015   125.120003  1.06        
123.6       1340.215942 3418.141113 1446.910156 21381.4277342.327077    14.89       15.072      28.66       31.775999   31.52       33.782001   23.945024   25484.2851563.304182    2.252466    151.375     453.376007  69.023979   4.608       32.090366   120.239998  1.06        
123.7       1415.858276 3422.946777 1390.260986 21596.0     2.322616    14.763      15.038      28.620001   31.799999   31.368      33.280998   23.84201    24957.3339843.350547    2.246181    151.572006  447.216003  54.325035   4.48        32.393909   114.720001  1.06        
123.8       1503.733032 3415.197998 1313.142944 22241.4277342.321479    14.66       14.973      28.620001   31.823999   31.288      32.796001   23.711267   24888.5722663.432107    2.26037     151.330002  441.671997  50.93309    3.936       32.81163    109.279999  1.06        
123.9       1488.340698 3379.06543  1260.240356 22158.5722662.318555    14.612      14.91       28.620001   31.856001   31.271999   32.366001   23.339405   24595.7148443.521733    2.293414    151.156998  435.511993  54.325035   3.982       33.285625   104.720001  1.06        
124.0       1369.678955 3314.548584 1231.555298 22157.1425782.316422    14.612      14.907      28.620001   31.912001   31.271999   32.026001   23.30323    24074.2851563.528399    2.364166    150.940994  429.967987  84.139503   4.166       33.576199   103.120003  1.06        
124.1       1265.238159 3272.842529 1228.785767 21604.2851562.318912    14.612      14.907      28.639999   31.992001   31.271999   31.792999   23.477993   23851.4277343.451798    2.389819    150.942001  425.040009  92.682983   4.045       33.984707   101.279999  1.06        
124.2       1278.287354 3282.330322 1227.714355 20712.8574222.32059     14.612      14.907      28.68       32.088001   31.271999   31.662001   23.529255   23907.1425783.479555    2.357555    150.903     420.727997  89.94976    3.802       34.111065   100.239998  1.06        
124.3       1395.273682 3329.101807 1225.28894  20489.3339842.316297    14.654      14.907      28.719999   32.200001   31.288      31.641001   23.683973   23832.0     3.577243    2.347123    150.925995  415.799988  86.099365   4.147       34.79229    99.120003   1.06        
