~Version Information Section
VERS.                                         2.0:CWLS log ASCII Standart – VERSION 2.0
WRAP.                                          NO:One line per depth step
~Well Information Section
STRT.M                                        0.7:Начальная глубина
STOP.M                                      200.1:Конечная глубина
STEP.M                                          0:Шаг квантования по глубине
NULL.                                    -9999.25:Признак "Нет данных"
WELL.                                       111Мх:Скважина
~Parameter Information Section
~Curve Information Section
DEPTH.M                                          :Глубина
DСР.mm                                           :Dср
ГК.1/min                                         :GK
ИК.mSim/m                                        :IK
N0.5M2.0A.Омм                                    :N0
НГК.усл.ед                                       :NGK
PZ.Ohm*M                                         :PZ
R.Ohm*M                                          :R
PS.mV                                            :ПС
U1.mV                                            :U1
U2.                                              :U2
U3.mV                                            :U3
А0.4М0.1N.Омм                                    :А0
А1.0М0.1N.Омм                                    :А1
А2.0М0.5N.Омм                                    :А2
А4.0М0.5N.Oмм                                    :А4
А8.0М1.0N.Омм                                    :А8
BK.Ohm*M                                         :БК
ГГК.1/min                                        :ГГК
КП.%                                             :Кп
ННКМ.усл.ед                                      :ННКм
~ASCII LOG DATA
# ...
128.7       127.911     5.107       35.846      51.13       1.704       143.8       1.06        173.466     1041.199    1234.827    1071.901    147.496     108.479     88.962      70.405      39.065      68.784      2.296       28.287      2.349       
128.8       127.746     4.954       35.067      49.411      1.651       139.7       1.06        156.464     1060.401    1265.082    1104.865    129.569     103.297     88.746      68.667      37.368      61.709      2.32        28.123      2.36        
128.9       126.988     4.954       34.198      47.92       1.704       135.8       1.06        137.122     1079.599    1289.686    1138.538    111.409     96.902      88.132      65.825      36.896      53.347      2.345       28.726      2.308       
129.0       127.112     4.954       33.245      46.622      1.592       132.1       1.06        120.736     1106.0      1306.385    1173.212    92.176      89.428      87.094      62.389      36.896      45.185      2.365       28.995      2.24        
129.1       127.435     5.169       32.265      44.998      1.632       128.7       1.06        108.293     1127.601    1320.001    1200.319    72.827      80.116      85.39       59.069      37.128      48.359      2.372       28.799      2.205       
129.2       128.792     6.029       31.566      42.802      1.578       126.0       1.06        99.792      1139.6      1333.0      1223.918    62.171      70.481      82.298      55.234      38.498      54.751      2.364       28.918      2.182       
129.3       129.701     5.338       31.301      40.089      1.637       122.3       1.06        95.726      1144.4      1348.001    1254.904    60.534      62.196      78.486      50.79       42.152      54.374      2.35        29.099      2.262       
129.4       129.344     4.646       31.094      37.044      1.507       118.1       1.06        95.726      1132.401    1366.999    1292.635    59.911      56.005      75.501      46.984      48.732      51.371      2.334       29.678      2.323       
129.5       129.44      5.234       30.757      34.175      1.632       114.0       1.06        95.726      1108.4      1383.0      1333.976    59.911      53.121      73.109      44.022      58.278      47.587      2.32        30.34       2.261       
129.6       129.839     5.626       30.497      31.916      1.637       109.7       1.06        95.726      1081.998    1396.001    1378.343    60.998      51.884      70.656      41.423      70.056      45.003      2.307       29.866      2.221       
129.7       130.346     5.446       30.185      30.281      1.374       105.3       1.06        96.589      1065.2      1406.0      1416.799    61.939      49.729      68.643      39.655      82.796      47.789      2.298       29.329      2.222       
129.8       131.908     5.357       29.736      28.924      1.487       101.1       1.06        100.408     1062.801    1414.0      1442.934    62.0        46.987      67.274      38.474      94.804      70.347      2.292       28.606      2.28        
129.9       131.984     4.685       29.444      27.437      1.517       96.8        1.06        106.814     1077.198    1418.0      1460.666    62.208      44.233      65.158      36.674      104.083     107.417     2.298       27.883      2.367       
130.0       132.273     4.656       29.463      25.724      1.58        93.3        1.06        117.41      1096.4      1425.0      1466.267    62.21       41.921      60.858      33.875      109.326     102.771     2.319       27.847      2.407       
130.1       132.597     5.184       29.716      24.485      1.613       91.5        1.06        131.701     1106.0      1433.0      1461.599    62.21       40.187      54.645      30.364      111.084     63.584      2.346       27.663      2.424       
130.2       132.516     5.318       30.088      24.161      1.664       90.6        1.06        148.702     1094.001    1440.0      1453.2      61.46       38.368      47.115      27.223      111.31      43.325      2.364       27.528      2.34        
130.3       132.237     5.587       30.49       24.161      1.516       90.6        1.06        166.69      1065.199    1446.0      1444.8      59.004      35.544      39.469      25.881      110.386     37.999      2.365       27.877      2.25        
130.4       131.417     5.923       30.779      24.161      1.493       90.6        1.06        185.293     1032.403    1452.0      1437.334    54.332      33.305      34.23       25.802      106.637     35.262      2.348       28.804      2.204       
130.5       130.617     6.259       30.9        25.255      1.501       90.6        1.06        201.062     996.441     1439.525    1412.7      49.569      32.902      32.531      25.802      99.587      33.651      2.323       30.116      2.15        
130.6       130.561     6.4         31.002      29.235      1.584       90.6        1.06        213.629     967.64      1409.215    1365.816    47.77       32.902      32.531      25.802      90.53       32.576      2.306       31.405      2.107       
130.7       130.308     6.47        31.208      36.816      1.656       90.6        1.06        222.869     953.241     1364.72     1293.08     47.77       32.902      32.531      27.276      80.501      32.552      2.3         31.943      2.071       
130.8       129.98      5.75        31.576      47.669      1.697       91.3        1.06        229.398     948.441     1320.218    1214.553    47.77       34.604      33.477      31.777      70.081      38.066      2.302       32.42       2.07        
130.9       129.68      5.606       32.23       60.948      1.797       98.0        1.06        232.971     945.241     1275.723    1133.594    47.789      39.938      37.843      39.05       60.165      102.3       2.305       31.665      2.155       
131.0       130.823     4.954       33.205      75.299      1.592       102.1       1.06        235.312     945.2       1248.623    1071.773    50.757      48.667      46.865      47.492      51.545      252.079     2.314       30.415      2.328       
131.1       131.139     4.954       34.641      89.759      1.368       105.6       1.06        236.79      947.6       1256.192    1035.004    64.519      60.076      59.373      55.559      44.42       411.147     2.332       28.42       2.543       
131.2       129.481     3.821       36.536      102.956     1.512       109.8       1.06        237.776     957.2       1297.138    1025.921    93.562      72.614      73.598      63.469      38.655      499.23      2.362       26.342      2.756       
131.3       129.292     3.744       38.397      112.535     1.392       111.9       1.06        238.392     976.401     1353.641    1026.263    135.04      84.928      88.579      71.411      34.116      530.443     2.399       24.044      2.897       
131.4       130.286     3.59        40.148      117.007     1.479       112.8       1.06        239.008     1009.997    1413.133    1034.758    177.497     96.325      101.39      77.152      30.688      564.791     2.447       21.846      2.981       
131.5       129.995     3.501       41.603      117.866     1.491       113.3       1.06        239.501     1048.4      1476.711    1057.524    215.47      106.365     108.269     79.283      28.191      621.071     2.483       19.758      3.039       
131.6       128.809     3.322       42.315      117.866     1.589       113.3       1.06        239.87      1077.202    1527.453    1094.209    247.167     115.12      110.003     79.577      26.313      545.18      2.503       18.998      3.058       
131.7       130.103     3.581       42.301      115.971     1.821       113.3       1.06        240.117     1094.0      1565.999    1136.68     265.846     123.932     110.003     79.577      24.682      297.026     2.507       18.894      2.961       
131.8       130.939     3.84        41.794      109.545     1.764       113.3       1.06        240.24      1098.799    1590.001    1160.328    271.59      131.822     109.018     79.272      23.054      172.938     2.502       18.928      2.857       
