~Version Information Section
VERS.                                         2.0:CWLS log ASCII Standart – VERSION 2.0
WRAP.                                          NO:One line per depth step
~Well Information Section
STRT.M                                        0.0:Начальная глубина
STOP.M                                      166.2:Конечная глубина
STEP.M                                          0:Шаг квантования по глубине
NULL.                                    -9999.25:Признак "Нет данных"
WELL.                                         1Мх:Скважина
~Parameter Information Section
~Curve Information Section
DEPTH.M                                          :Глубина
BK.lgОмм                                         :BK
ПРОФ_СР.мм                                       :ПРОФ_СР
GGKP.имп/мин                                     :GGKp
ГК.мкР/час                                       :GK
ИК.мСм/м                                         :IK
PS.мВ                                            :PS
PZ.Омм                                           :PZ
RIS.Омм                                          :RIS
U1.мВ                                            :U1
U2.мВ                                            :U2
U3.mv                                            :U3
WS.%                                             :WS
ГЗ1.Омм                                          :ГЗ1
ГЗ2.Омм                                          :ГЗ2
ГЗ3.Омм                                          :ГЗ3
ГЗ4.Oмм                                          :ГЗ4
ГЗК.Омм                                          :ГЗК
НГК.усл.ед                                       :ННКб
ННКМ.усл.ед                                      :ННКм
ГЗ5.Oмм                                          :ГЗ5
ПЛ1.имп/мин                                      :ПЛ1
ПЛ2.имп/мин                                      :ПЛ2
ПЛ3.имп/мин                                      :ПЛ3
ПЛ4.имп/мин                                      :ПЛ4
~ASCII LOG DATA
# ...
99.9        35.7        159.718     2.313       6.025       21.221      164.11      22.23       1.096       518.967     341.937     343.185     31.548      3.807       7.274       6.177       7.225       7.119       3.109       2.044       5.471       14520.0     22280.0     13440.0     3440.0      
100.0       36.35       160.163     2.307       6.115       21.073      164.151     21.968      1.096       509.872     338.368     343.424     32.204      3.665       7.346       6.177       7.325       7.119       3.13        2.047       5.471       12360.0     22340.0     13520.0     3380.0      
100.1       33.412      160.192     2.294       6.147       20.858      164.094     21.759      1.096       544.898     342.329     327.531     33.061      3.095       7.177       6.177       7.425       7.119       3.068       2.046       5.471       14040.0     22320.0     13840.0     3360.0      
100.2       28.169      160.455     2.283       6.217       20.603      164.088     21.505      1.096       622.952     350.223     291.845     33.554      2.631       7.153       6.277       7.425       7.019       2.964       2.031       5.471       14160.0     22120.0     14060.0     3200.0      
100.3       25.645      160.487     2.239       6.36        20.397      164.095     21.034      1.096       804.695     376.3       244.425     33.976      2.606       7.104       6.277       7.425       7.019       2.868       1.995       5.471       13800.0     22160.0     14200.0     3300.0      
100.4       25.916      160.473     2.218       6.356       20.241      164.035     20.45       1.086       1038.597    393.505     194.95      34.402      2.592       7.105       6.277       7.425       6.919       2.723       1.954       5.571       13440.0     22400.0     14300.0     3200.0      
100.5       26.757      160.428     2.212       6.367       20.175      163.94      19.941      1.086       1163.394    377.05      157.293     34.648      2.586       7.056       6.177       7.425       6.919       2.651       1.927       5.671       13560.0     23100.0     14100.0     3200.0      
100.6       26.619      160.986     2.219       6.494       20.153      163.874     19.593      1.086       1130.72     343.22      143.223     34.881      2.597       7.056       6.177       7.225       6.819       2.694       1.918       5.671       13320.0     23420.0     14160.0     3340.0      
100.7       25.698      161.052     2.229       6.423       20.175      163.889     19.378      1.086       1034.12     324.713     160.947     34.412      2.432       6.887       6.077       7.125       6.719       2.79        1.916       5.771       14520.0     23480.0     14440.0     3160.0      
100.8       25.576      160.894     2.247       6.287       20.219      163.948     19.241      1.086       916.343     329.229     210.633     34.228      2.452       6.863       6.077       7.025       6.619       2.81        1.924       5.771       12840.0     22860.0     14960.0     3500.0      
100.9       26.019      161.149     2.244       6.208       20.196      163.966     19.312      1.086       729.246     345.457     285.886     34.181      2.475       6.814       6.077       6.925       6.619       2.765       1.936       5.871       13560.0     22540.0     14640.0     3620.0      
101.0       27.46       161.168     2.257       6.436       20.286      163.989     19.478      1.086       518.817     367.007     368.037     33.861      2.582       6.959       6.077       6.825       6.619       2.741       1.932       5.871       15720.0     22300.0     14400.0     3500.0      
101.1       27.875      161.346     2.258       6.336       20.375      164.04      19.744      1.086       420.857     375.021     401.964     33.454      2.688       7.08        6.077       6.825       6.619       2.71        1.911       6.071       16440.0     22360.0     13980.0     3780.0      
101.2       26.881      161.17      2.252       6.538       20.375      164.149     19.923      1.086       429.616     373.834     393.259     33.018      2.485       6.935       6.077       6.825       6.619       2.682       1.895       6.171       14040.0     22520.0     13720.0     3560.0      
101.3       25.535      161.301     2.262       6.661       20.397      164.239     20.002      1.086       497.799     399.073     387.915     32.48       2.36        6.814       6.077       6.825       6.619       2.722       1.898       6.271       13320.0     22060.0     13780.0     3340.0      
101.4       25.388      162.298     2.259       6.81        20.511      164.281     20.069      1.086       627.553     451.695     386.054     31.813      2.307       6.766       6.077       6.825       6.619       2.821       1.904       6.171       13560.0     21580.0     13620.0     3180.0      
101.5       26.612      162.05      2.269       6.589       20.557      164.325     20.117      1.086       688.205     447.914     335.309     31.234      2.408       6.79        6.077       6.825       6.619       2.915       1.901       6.071       14160.0     21300.0     14000.0     3120.0      
101.6       27.374      161.756     2.272       6.75        20.649      164.445     20.096      1.086       709.257     430.319     291.853     31.377      2.519       6.838       5.877       6.825       6.619       2.953       1.898       6.071       12720.0     20680.0     14240.0     3200.0      
101.7       26.926      161.645     2.283       6.451       20.788      164.577     20.215      1.086       787.118     483.967     328.977     31.937      2.441       6.814       5.777       6.825       6.619       2.979       1.899       5.871       13320.0     21140.0     13900.0     3340.0      
101.8       26.371      161.675     2.295       6.45        20.811      164.713     20.42       1.086       861.683     562.844     406.301     32.075      2.456       6.742       5.777       6.925       6.619       2.993       1.901       5.771       12720.0     22100.0     14200.0     3360.0      
101.9       25.745      161.6       2.314       6.505       20.858      164.847     20.825      1.086       830.163     574.309     442.301     31.937      2.302       6.621       5.677       6.925       6.619       2.986       1.907       5.671       12720.0     22100.0     14200.0     3340.0      
102.0       27.023      161.326     2.31        6.658       21.025      165.047     21.385      1.055       748.188     545.741     447.129     32.016      2.412       6.645       5.577       6.825       6.719       2.95        1.919       5.671       14040.0     22820.0     14220.0     3380.0      
102.1       28.35       161.15      2.323       6.399       21.144      165.363     21.969      1.055       722.142     552.7       473.071     32.023      2.501       6.742       5.577       6.825       6.719       2.929       1.941       5.471       13320.0     22780.0     14340.0     3260.0      
102.2       29.061      161.328     2.311       6.504       21.442      165.669     22.581      1.055       738.44      578.022     501.417     31.609      2.293       6.742       5.577       6.825       6.719       2.97        1.968       5.371       14280.0     22120.0     14260.0     3040.0      
102.3       29.409      161.629     2.325       6.423       21.565      165.849     23.028      1.065       746.806     577.682     494.618     31.142      2.321       6.766       5.877       6.825       6.719       3.043       1.993       5.271       17520.0     22700.0     14000.0     3020.0      
102.4       30.421      161.665     2.333       6.336       21.69       165.933     23.342      1.065       769.074     581.175     485.457     31.12       2.461       6.766       5.977       6.825       6.719       3.091       2.009       5.171       16680.0     22700.0     13460.0     2960.0      
102.5       32.177      161.617     2.321       6.286       21.769      165.977     23.309      1.075       840.035     635.503     526.178     31.864      2.621       6.839       6.077       6.825       6.619       3.084       2.009       5.171       16080.0     22200.0     13420.0     2960.0      
