~Version Information Section
VERS.                                         2.0:CWLS log ASCII Standart – VERSION 2.0
WRAP.                                          NO:One line per depth step
~Well Information Section
STRT.M                                        0.0:Начальная глубина
STOP.M                                      180.0:Конечная глубина
STEP.M                                          0:Шаг квантования по глубине
NULL.                                    -9999.25:Признак "Нет данных"
WELL.                                       120Мх:Скважина
~Parameter Information Section
~Curve Information Section
DEPTH.M                                          :Глубина
BK.Ohm*M                                         :BK     (БК)
DS.mm                                            :DS  (ДС)
GGK.g/cm3                                        :GGKp
ГК.mcr/h                                         :GK          (ГК)
GZ1.Ohm*M                                        :GZ1   ГЗ1(A0.4M0.1N)
GZ2.Ohm*M                                        :GZ2   ГЗ2(A1.0M0.1N)
GZ3.Ohm*M                                        :GZ3   ГЗ3(A2.0M0.5N)
GZ4.Ohm*M                                        :GZ4   ГЗ4(A4.0M0.5N)
GZ5.Ohm*M                                        :GZ5   ГЗ5(A8.0M0.5N)
GZR.Ohm*M                                        :GZK   ГЗK(N0.5M2.0A)
ИК.Ohm*M                                         :IK
НГК.u.e.                                         :NGK
NNKM.                                            :NNKm  (ННКм)
PS.mv                                            :PS       (ПС)
PZ.Ohm*M                                         :PZ    (КС)
RS.Ohm*M                                         :RS (Резистивиметр)
U1.mV                                            :U1
U2.mV                                            :U2
U3.mV                                            :U3
КП.%                                             :Кп
~ASCII LOG DATA
# ...
128.0       119.95      133.81      2.358       4.686       71.317      41.678      20.917      61.937      78.461      30.361      11.296      1.236       2.633       571.366     152.836     1.217       757.536     475.148     332.134     24.685      
128.2       101.625     134.004     2.354       5.202       76.827      64.637      33.029      83.966      119.598     46.889      11.642      1.159       2.523       571.606     172.639     1.289       926.837     618.477     445.973     25.256      
128.4       76.208      134.058     2.38        5.359       94.931      92.772      53.242      119.195     188.808     64.652      11.764      1.185       2.426       572.086     197.956     1.323       799.761     483.116     342.719     28.942      
128.6       42.073      134.389     2.466       5.825       148.107     147.775     88.764      171.895     280.384     83.233      11.609      1.31        2.577       572.566     215.629     1.329       477.543     371.351     466.418     27.596      
128.8       80.353      133.999     2.441       6.306       190.696     230.197     132.051     235.907     331.702     96.51       11.399      1.428       2.761       573.046     232.674     1.326       819.436     638.839     612.847     23.758      
129.0       103.992     134.112     2.446       6.24        271.683     315.761     146.9       219.417     323.983     78.424      11.093      1.573       2.939       573.526     222.898     1.309       921.731     733.315     636.459     15.864      
129.2       314.051     133.854     2.39        5.912       189.498     189.905     109.767     100.6       290.672     34.197      10.659      1.849       2.975       573.968     173.266     1.288       1318.395    1034.214    859.134     13.945      
129.4       233.884     134.875     2.308       6.231       58.107      49.543      50.959      35.845      203.061     13.59       10.211      1.778       3.029       574.006     94.68       1.28        1750.239    1332.219    1049.013    14.899      
129.6       629.506     135.621     2.383       7.136       34.485      24.377      14.703      24.562      91.926      12.092      9.683       1.577       2.929       574.006     59.212      1.281       1622.094    1161.588    871.241     15.278      
129.8       61.235      131.889     2.392       6.933       28.766      20.594      8.065       22.526      26.602      12.876      8.99        1.293       2.567       573.766     53.823      1.296       1407.153    923.892     638.105     24.094      
130.0       15.885      129.318     2.328       6.284       25.95       20.695      6.622       16.363      12.585      13.389      8.176       1.129       2.205       573.286     49.311      1.329       1106.777    817.784     645.183     28.308      
130.2       14.454      129.07      2.366       6.554       24.442      17.842      5.931       21.569      10.171      13.902      7.602       1.109       2.169       572.489     42.167      1.353       828.803     681.908     615.164     30.443      
130.4       15.959      129.095     2.351       7.023       23.762      19.044      5.966       21.667      9.418       14.857      7.309       1.063       2.145       570.329     33.519      1.355       561.694     476.727     474.425     31.988      
130.6       16.672      128.181     2.302       6.797       22.978      17.348      6.911       21.667      9.073       15.696      7.175       0.966       2.068       567.008     26.25       1.347       950.341     708.669     577.689     32.498      
130.8       14.421      129.637     2.335       6.72        24.504      16.884      8.456       21.667      8.948       15.718      7.058       1.077       2.01        562.966     22.991      1.347       988.784     690.373     518.283     30.54       
131.0       14.06       130.534     2.436       6.694       26.632      16.74       11.056      27.0        8.757       15.983      6.941       1.144       2.038       558.089     22.991      1.362       1094.264    656.48      422.797     33.245      
131.2       14.158      130.229     2.425       6.487       25.98       15.554      15.75       31.0        12.212      16.488      6.936       1.104       2.174       551.964     22.991      1.389       1030.288    616.666     394.496     26.626      
131.4       17.378      129.626     2.325       6.989       25.082      15.296      17.534      33.667      22.268      17.069      6.976       1.072       2.13        546.684     22.991      1.4         872.537     524.447     340.932     25.483      
131.6       21.928      128.75      2.263       6.681       24.816      16.121      21.451      35.0        23.238      17.307      7.044       1.118       2.024       542.806     23.743      1.4         661.666     372.205     232.53      32.263      
131.8       13.836      129.682     2.356       6.233       24.964      15.917      20.419      35.667      23.2        17.328      7.066       1.135       2.046       539.648     24.996      1.4         604.797     468.654     426.682     31.522      
132.0       14.622      129.383     2.331       6.477       24.852      15.087      18.63       35.667      23.15       17.331      7.042       1.169       2.087       536.086     26.25       1.4         499.415     488.599     600.434     32.006      
132.2       14.488      132.663     2.308       7.099       24.983      15.249      17.458      35.667      23.063      17.337      7.065       1.154       2.037       532.371     26.751      1.398       198.712     224.895     407.583     29.535      
132.4       14.962      132.69      2.305       6.422       24.75       15.13       16.616      35.667      22.917      17.306      7.086       1.14        1.976       527.571     26.751      1.38        386.364     350.769     423.633     29.493      
132.6       15.101      133.214     2.345       6.989       25.159      15.266      16.005      37.0        22.772      17.393      7.082       1.111       2.008       521.408     25.874      1.348       793.355     614.889     538.168     35.142      
132.8       15.524      133.196     2.397       6.796       25.054      15.627      15.825      39.0        22.582      17.579      7.107       1.094       2.084       514.687     23.492      1.325       998.355     644.961     458.575     32.205      
133.0       16.672      132.786     2.369       6.608       25.015      15.887      15.71       44.203      22.176      17.727      7.109       1.048       1.989       507.843     22.991      1.32        543.963     335.039     268.499     35.326      
133.2       16.069      133.219     2.337       7.117       24.577      15.887      15.638      44.334      21.745      15.85       7.113       1.025       1.981       502.524     22.991      1.31        880.766     426.154     245.179     32.035      
133.4       16.331      133.324     2.336       7.274       24.532      15.887      15.593      33.667      21.622      11.899      7.109       1.014       2.002       498.886     22.991      1.28        946.326     482.991     344.557     33.432      
133.6       16.444      133.307     2.331       6.909       24.701      15.739      15.476      31.667      21.578      12.566      7.111       0.967       1.984       496.726     22.991      1.25        953.961     534.641     441.547     31.593      
133.8       16.293      132.793     2.341       6.889       24.566      15.171      15.378      31.667      21.535      17.232      7.111       1.02        1.974       495.526     22.991      1.24        748.274     488.52      460.758     31.98       
134.0       15.996      133.336     2.35        7.049       24.817      15.282      15.468      27.667      21.33       19.899      7.102       1.04        2.004       494.844     22.991      1.23        662.57      442.391     535.53      33.077      
134.2       16.406      133.958     2.366       6.917       25.382      15.858      15.517      24.334      21.225      20.566      7.103       1.019       2.022       494.768     22.74       1.195       555.999     403.454     436.707     30.553      
