~Version Information Section
VERS.                                         2.0:CWLS log ASCII Standart – VERSION 2.0
WRAP.                                          NO:One line per depth step
~Well Information Section
STRT.M                                        0.6:Начальная глубина
STOP.M                                      209.2:Конечная глубина
STEP.M                                          0:Шаг квантования по глубине
NULL.                                    -9999.25:Признак "Нет данных"
WELL.                                       107Мх:Скважина
~Parameter Information Section
~Curve Information Section
DEPTH.M                                          :Глубина
PS.mv                                            :PS       (ПС)
PZ.Ohm*M                                         :PZ    (КС)
RS.Ohm*M                                         :RS (Резистивиметр)
U1.mV                                            :U1
U2.mV                                            :U2
U3.mV                                            :U3
КП.%                                             :Кп
BK.Ohm*M                                         :BK     (БК)
DS.mm                                            :DS  (ДС)
GGK.g/cm3                                        :GGKp
ГК.mcr/h                                         :GK          (ГК)
GZ1.Ohm*M                                        :GZ1   ГЗ1(A0.4M0.1N)
GZ2.Ohm*M                                        :GZ2   ГЗ2(A1.0M0.1N)
GZ3.Ohm*M                                        :GZ3   ГЗ3(A2.0M0.5N)
GZ4.Ohm*M                                        :GZ4   ГЗ4(A4.0M0.5N)
GZ5.Ohm*M                                        :GZ5   ГЗ5(A8.0M0.5N)
GZR.Ohm*M                                        :GZK   ГЗK(N0.5M2.0A)
ИК.Ohm*M                                         :IK
НГК.u.e.                                         :NGK
NNKM.                                            :NNKm  (ННКм)
~ASCII LOG DATA
# ...
147.8       1083.526    85.407      0.992       833.227     311.538     228.239     31.238      32.211      151.667     2.343       5.399       99.51       44.274      59.062      17.783      18.67       70.12       9.9         1.179       16.314      
147.9       1083.526    86.159      0.992       822.485     321.945     251.292     31.268      31.117      151.772     2.365       5.633       99.93       45.314      60.822      18.143      18.81       70.12       9.857       1.134       15.854      
148.0       1083.526    87.287      0.993       794.917     357.636     308.767     30.83       25.763      151.566     2.356       5.994       100.35      46.354      61.702      18.263      19.09       70.12       9.857       1.093       15.104      
148.1       1083.526    88.791      0.995       756.814     413.043     389.519     30.387      22.699      151.554     2.333       6.175       100.35      46.874      62.582      18.383      19.23       69.08       9.829       1.07        14.608      
148.2       1083.526    91.047      0.997       701.205     452.369     448.972     29.491      22.387      151.379     2.317       6.294       99.93       48.954      62.582      18.383      19.37       68.04       9.829       1.081       14.421      
148.3       1083.526    93.303      0.999       718.933     491.008     480.327     28.767      23.878      151.281     2.323       6.565       99.51       49.474      62.582      18.263      19.23       67.0        9.774       1.086       14.357      
148.4       1083.526    95.559      1.0         772.432     520.509     500.428     28.752      23.878      151.79      2.333       6.652       98.67       52.594      62.582      18.143      19.09       64.92       9.746       1.093       14.745      
148.5       1083.526    97.815      1.0         747.432     493.734     493.219     30.399      21.827      151.529     2.349       6.83        96.57       52.074      61.702      18.143      18.95       63.88       9.746       1.093       15.054      
148.6       1083.526    100.071     1.0         645.617     418.103     462.199     32.307      24.547      151.437     2.327       6.918       94.89       51.034      61.262      18.023      18.81       61.8        9.76        1.089       15.42       
148.7       1083.526    102.327     1.0         579.408     371.352     443.502     32.38       31.623      151.351     2.292       7.028       94.05       51.034      60.822      17.903      18.67       59.72       9.76        1.062       15.877      
148.8       1083.526    105.335     1.0         573.236     364.956     438.672     31.238      31.623      151.706     2.265       7.213       93.63       49.994      60.382      17.903      18.39       57.64       9.773       1.064       15.507      
148.9       1083.526    108.343     1.0         618.36      369.889     418.145     30.256      23.442      151.44      2.304       7.147       93.63       48.954      59.942      17.663      17.97       56.6        9.774       1.073       14.93       
149.0       1083.526    111.351     1.0         727.384     382.765     376.904     30.414      22.029      151.307     2.315       6.977       93.63       48.434      59.502      17.543      17.69       55.56       9.774       1.075       14.566      
149.1       1083.526    113.983     1.001       943.606     409.772     325.12      30.59       22.594      151.148     2.304       6.669       93.63       47.914      59.062      17.423      17.55       54.52       9.746       1.067       14.151      
149.2       1083.526    115.863     1.002       1163.014    415.46      275.966     30.641      22.594      151.304     2.279       6.789       93.21       46.354      57.742      17.183      17.41       52.44       9.746       1.096       14.095      
149.3       1083.526    114.359     1.004       1214.353    385.962     246.527     30.212      21.727      151.392     2.317       6.849       93.21       45.834      57.302      17.063      16.85       51.4        9.746       1.091       14.37       
149.4       1083.526    111.727     1.006       1131.671    356.158     248.815     29.488      24.889      151.356     2.342       7.051       93.21       45.314      57.302      17.063      16.85       50.36       9.719       1.078       14.517      
149.5       1083.526    107.967     1.008       1020.727    352.569     289.058     29.194      25.061      150.983     2.32        6.718       93.21       44.794      56.862      16.943      16.43       50.36       9.719       1.045       14.427      
149.6       1083.526    102.703     1.01        845.1       365.823     360.503     29.994      23.988      150.917     2.296       6.894       93.21       44.274      55.982      16.823      16.29       46.2        9.719       1.015       14.355      
149.7       1083.526    97.063      1.012       623.398     387.859     447.705     30.853      23.988      150.844     2.27        6.521       93.21       43.754      55.542      16.343      16.15       47.24       9.705       0.994       14.121      
149.8       1083.526    92.927      1.015       497.143     399.027     493.222     30.643      21.777      151.333     2.267       6.587       93.21       43.234      55.102      16.223      15.45       49.32       9.691       1.005       13.829      
149.9       1083.526    89.167      1.016       489.902     402.019     492.988     29.972      23.823      152.01      2.263       6.594       93.63       40.634      54.662      16.223      15.45       49.32       9.664       0.995       13.878      
150.0       1083.501    85.783      1.017       560.389     427.938     487.151     30.304      22.909      151.393     2.282       6.685       93.21       39.074      54.222      15.983      15.59       47.24       9.664       1.039       13.985      
150.1       1083.451    83.903      1.018       675.783     469.294     475.908     31.274      22.909      151.458     2.325       6.482       92.79       38.034      53.342      15.863      15.73       46.2        9.637       1.033       14.102      
150.2       1083.375    82.399      1.018       743.103     470.877     430.27      31.672      25.41       150.982     2.332       6.343       92.37       37.514      52.902      15.743      15.87       46.2        9.585       1.029       14.297      
150.3       1083.275    80.895      1.018       780.708     467.835     399.602     31.284      29.58       150.912     2.367       6.498       91.11       36.994      52.462      15.623      16.01       44.12       9.517       0.966       14.611      
150.4       1083.149    79.391      1.019       860.986     528.248     445.483     30.27       29.58       151.077     2.362       6.588       90.27       36.474      50.702      15.503      16.01       43.08       9.479       0.941       15.2        
150.5       1082.998    78.263      1.021       914.095     596.238     518.624     29.644      25.704      151.499     2.339       6.673       89.85       35.954      50.262      15.383      16.01       41.0        9.479       0.97        15.468      
150.6       1082.822    77.135      1.023       856.479     590.436     543.637     30.595      26.485      151.554     2.304       6.513       89.43       35.954      50.262      15.383      16.01       39.96       9.44        0.99        15.123      
150.7       1082.646    75.631      1.025       784.848     569.094     553.44      32.618      22.542      151.968     2.312       6.481       89.43       34.914      49.382      15.383      15.87       39.96       9.414       0.999       14.874      
150.8       1082.445    74.503      1.026       787.135     593.482     588.948     33.676      18.967      151.561     2.319       6.491       89.43       34.914      48.942      15.383      15.87       39.96       9.377       1.035       14.922      
150.9       1082.219    73.375      1.026       799.946     605.663     598.868     32.562      18.967      151.006     2.322       6.606       89.43       34.914      48.502      15.383      15.73       39.96       9.377       1.044       14.96       
