~Version Information Section
VERS.                                         2.0:CWLS log ASCII Standart – VERSION 2.0
WRAP.                                          NO:One line per depth step
~Well Information Section
STRT.M                                       0.67:Начальная глубина
STOP.M                                     204.27:Конечная глубина
STEP.M                                          0:Шаг квантования по глубине
NULL.                                    -9999.25:Признак "Нет данных"
WELL.                                       110Мх:Скважина
~Parameter Information Section
~Curve Information Section
DEPTH.M                                          :Глубина
БК.Омм                                           :BK     (БК)
DСР.мм                                           :DS  (ДС)
ГК.гамма                                         :GK          (ГК)
А0.4М0.1N.Омм.ohmm                               :GZ1   ГЗ1(A0.4M0.1N)
А1.0М0.1N.Омм.ohmm                               :GZ2   ГЗ2(A1.0M0.1N)
А2.0М0.5N.Омм.ohmm                               :GZ3   ГЗ3(A2.0M0.5N)
А4.0М0.5N.Oмм.ohmm                               :GZ4   ГЗ4(A4.0M0.5N)
А8.0М1.0N.Омм.ohmm                               :GZ5   ГЗ5(A8.0M0.5N)
N0.5M2.0A.Омм.ohmm                               :GZK   ГЗK(N0.5M2.0A)
ИК.мСм/м                                         :IK
НГК.усл.ед                                       :NGK     (НГК)
ПС.mv                                            :PS       (ПС)
КС.Омм                                           :PZ    (КС)
R.Омм                                            :RS (Резистивиметр)
W_SI.%                                           :п
ННКМ.имп/1,25с                                   :ННКм
ПЛОТНОСТЬГГК.г/см3                               :плотностьГГК
~ASCII LOG DATA
# ...
175.97      187.796     121.356     5.182       -9999.25    -9999.25    -9999.25    -9999.25    -9999.25    -9999.25    69.033      1.597       327.407     172.8       1.131       25.287      1.885       2.216       
176.0       -9999.25    -9999.25    -9999.25    155.557     222.228     197.797     122.293     28.94       156.896     -9999.25    -9999.25    -9999.25    -9999.25    -9999.25    -9999.25    -9999.25    -9999.25    
176.07      288.26      121.421     5.238       -9999.25    -9999.25    -9999.25    -9999.25    -9999.25    -9999.25    68.906      1.529       328.674     174.817     1.118       27.05       1.843       2.234       
176.1       -9999.25    -9999.25    -9999.25    159.69      226.665     195.635     124.547     28.429      158.505     -9999.25    -9999.25    -9999.25    -9999.25    -9999.25    -9999.25    -9999.25    -9999.25    
176.17      346.506     121.63      5.356       -9999.25    -9999.25    -9999.25    -9999.25    -9999.25    -9999.25    68.705      1.495       329.368     176.574     1.106       28.661      1.827       2.247       
176.2       -9999.25    -9999.25    -9999.25    161.343     229.141     193.35      128.487     27.894      161.531     -9999.25    -9999.25    -9999.25    -9999.25    -9999.25    -9999.25    -9999.25    -9999.25    
176.27      333.135     121.863     5.315       -9999.25    -9999.25    -9999.25    -9999.25    -9999.25    -9999.25    68.116      1.474       329.336     177.992     1.096       29.927      1.819       2.259       
176.3       -9999.25    -9999.25    -9999.25    159.055     227.097     192.912     131.61      27.441      163.994     -9999.25    -9999.25    -9999.25    -9999.25    -9999.25    -9999.25    -9999.25    -9999.25    
176.37      256.178     121.918     5.161       -9999.25    -9999.25    -9999.25    -9999.25    -9999.25    -9999.25    68.019      1.439       328.486     179.136     1.08        30.551      1.813       2.268       
176.4       -9999.25    -9999.25    -9999.25    158.34      228.662     193.441     130.877     26.71       162.634     -9999.25    -9999.25    -9999.25    -9999.25    -9999.25    -9999.25    -9999.25    -9999.25    
176.47      184.452     121.936     5.121       -9999.25    -9999.25    -9999.25    -9999.25    -9999.25    -9999.25    67.965      1.4         326.726     179.128     1.056       30.704      1.808       2.273       
176.5       -9999.25    -9999.25    -9999.25    163.534     235.084     193.173     125.923     25.813      158.315     -9999.25    -9999.25    -9999.25    -9999.25    -9999.25    -9999.25    -9999.25    -9999.25    
176.57      170.029     122.152     5.23        -9999.25    -9999.25    -9999.25    -9999.25    -9999.25    -9999.25    67.844      1.356       324.01      178.171     1.068       30.762      1.757       2.275       
176.6       -9999.25    -9999.25    -9999.25    169.25      239.165     192.606     118.67      25.246      153.045     -9999.25    -9999.25    -9999.25    -9999.25    -9999.25    -9999.25    -9999.25    -9999.25    
176.67      181.947     122.373     5.217       -9999.25    -9999.25    -9999.25    -9999.25    -9999.25    -9999.25    67.81       1.336       320.651     177.016     1.087       30.841      1.736       2.275       
176.7       -9999.25    -9999.25    -9999.25    171.801     239.501     190.449     110.823     24.803      149.696     -9999.25    -9999.25    -9999.25    -9999.25    -9999.25    -9999.25    -9999.25    -9999.25    
176.77      186.18      122.415     5.123       -9999.25    -9999.25    -9999.25    -9999.25    -9999.25    -9999.25    67.701      1.333       317.207     176.003     1.089       31.223      1.751       2.269       
176.8       -9999.25    -9999.25    -9999.25    169.967     235.38      187.233     102.939     24.393      147.283     -9999.25    -9999.25    -9999.25    -9999.25    -9999.25    -9999.25    -9999.25    -9999.25    
176.87      179.915     122.341     5.156       -9999.25    -9999.25    -9999.25    -9999.25    -9999.25    -9999.25    67.289      1.355       314.18      175.379     1.079       31.718      1.757       2.266       
176.9       -9999.25    -9999.25    -9999.25    165.505     227.603     183.227     95.602      23.999      145.313     -9999.25    -9999.25    -9999.25    -9999.25    -9999.25    -9999.25    -9999.25    -9999.25    
176.97      167.472     122.219     5.268       -9999.25    -9999.25    -9999.25    -9999.25    -9999.25    -9999.25    66.878      1.384       311.956     174.538     1.088       31.652      1.747       2.262       
177.0       -9999.25    -9999.25    -9999.25    161.173     221.921     179.083     92.022      23.494      145.375     -9999.25    -9999.25    -9999.25    -9999.25    -9999.25    -9999.25    -9999.25    -9999.25    
177.07      152.197     122.171     5.302       -9999.25    -9999.25    -9999.25    -9999.25    -9999.25    -9999.25    66.769      1.398       310.876     172.845     1.104       31.349      1.738       2.256       
177.1       -9999.25    -9999.25    -9999.25    159.077     217.99      174.959     96.199      22.978      147.69      -9999.25    -9999.25    -9999.25    -9999.25    -9999.25    -9999.25    -9999.25    -9999.25    
177.17      139.128     122.166     5.196       -9999.25    -9999.25    -9999.25    -9999.25    -9999.25    -9999.25    66.555      1.399       310.701     170.613     1.117       31.185      1.79        2.251       
177.2       -9999.25    -9999.25    -9999.25    148.917     210.641     171.78      109.78      22.718      150.09      -9999.25    -9999.25    -9999.25    -9999.25    -9999.25    -9999.25    -9999.25    -9999.25    
177.27      129.744     122.118     5.094       -9999.25    -9999.25    -9999.25    -9999.25    -9999.25    -9999.25    65.97       1.399       311.264     166.922     1.129       31.042      1.813       2.247       
177.3       -9999.25    -9999.25    -9999.25    132.531     197.68      170.544     127.213     22.841      149.463     -9999.25    -9999.25    -9999.25    -9999.25    -9999.25    -9999.25    -9999.25    -9999.25    
177.37      118.415     121.971     5.103       -9999.25    -9999.25    -9999.25    -9999.25    -9999.25    -9999.25    65.774      1.411       312.911     160.887     1.139       31.035      1.811       2.246       
177.4       -9999.25    -9999.25    -9999.25    127.343     185.341     167.699     141.108     23.331      148.978     -9999.25    -9999.25    -9999.25    -9999.25    -9999.25    -9999.25    -9999.25    -9999.25    
177.47      97.434      122.023     5.188       -9999.25    -9999.25    -9999.25    -9999.25    -9999.25    -9999.25    65.642      1.422       315.616     154.584     1.14        31.076      1.805       2.25        
177.5       -9999.25    -9999.25    -9999.25    128.826     177.449     164.242     148.603     23.982      151.387     -9999.25    -9999.25    -9999.25    -9999.25    -9999.25    -9999.25    -9999.25    -9999.25    
177.57      104.203     122.144     5.128       -9999.25    -9999.25    -9999.25    -9999.25    -9999.25    -9999.25    65.15       1.428       319.12      148.128     1.134       31.004      1.806       2.255       
177.6       -9999.25    -9999.25    -9999.25    128.378     167.844     160.781     153.967     24.565      157.796     -9999.25    -9999.25    -9999.25    -9999.25    -9999.25    -9999.25    -9999.25    -9999.25    
177.67      126.753     122.307     4.979       -9999.25    -9999.25    -9999.25    -9999.25    -9999.25    -9999.25    64.841      1.444       322.957     142.782     1.121       30.892      1.822       2.262       
177.7       -9999.25    -9999.25    -9999.25    126.281     160.307     157.192     162.326     25.328      164.636     -9999.25    -9999.25    -9999.25    -9999.25    -9999.25    -9999.25    -9999.25    -9999.25    
177.77      128.751     122.525     4.939       -9999.25    -9999.25    -9999.25    -9999.25    -9999.25    -9999.25    64.811      1.467       326.569     140.85      1.11        30.933      1.829       2.267       
