~Version Information Section
VERS.                                         2.0:CWLS log ASCII Standart – VERSION 2.0
WRAP.                                          NO:One line per depth step
~Well Information Section
STRT.M                                        1.2:Начальная глубина
STOP.M                                      169.7:Конечная глубина
STEP.M                                          0:Шаг квантования по глубине
NULL.                                    -9999.25:Признак "Нет данных"
WELL.                                       115Мх:Скважина
~Parameter Information Section
~Curve Information Section
DEPTH.M                                          :Глубина
BK.Ohm*M                                         :BK     (БК)
DS.mm                                            :DS  (ДС)
GGK.g/cm3                                        :GGKp
ГК.mcr/h                                         :GK          (ГК)
GZ1.Ohm*M                                        :GZ1   ГЗ1(A0.4M0.1N)
GZ2.Ohm*M                                        :GZ2   ГЗ2(A1.0M0.1N)
GZ3.Ohm*M                                        :GZ3   ГЗ3(A2.0M0.5N)
GZ4.Ohm*M                                        :GZ4   ГЗ4(A4.0M0.5N)
GZ5.Ohm*M                                        :GZ5   ГЗ5(A8.0M0.5N)
GZR.Ohm*M                                        :GZK   ГЗK(N0.5M2.0A)
ИК.Ohm*M                                         :IK
НГК.ue                                           :NGK     (НГК)
NNKM.                                            :NNKm  (ННКм)
PS.mv                                            :PS       (ПС)
PZ.Ohm*M                                         :PZ    (КС)
RS.Ohm*M                                         :RS (Резистивиметр)
U1.mV                                            :U1
U2.mV                                            :U2
U3.mV                                            :U3
КП.%                                             :Кп
~ASCII LOG DATA
# ...
164.4       21.184      122.847     2.288       7.784       -9999.25    -9999.25    -9999.25    -9999.25    -9999.25    -9999.25    16.601      1.157       2.09        1142.326    25.748      -9999.25    565.583     587.088     608.778     31.695      
164.5       24.155      122.342     2.321       7.625       -9999.25    -9999.25    -9999.25    -9999.25    -9999.25    -9999.25    16.644      1.143       2.168       1142.566    25.364      -9999.25    516.711     563.362     614.897     29.595      
164.6       23.768      122.715     2.351       7.37        -9999.25    -9999.25    -9999.25    -9999.25    -9999.25    -9999.25    16.295      1.155       2.251       1143.046    24.839      -9999.25    511.712     558.98      611.898     27.371      
164.7       22.594      122.14      2.365       7.134       -9999.25    -9999.25    -9999.25    -9999.25    -9999.25    -9999.25    16.261      1.183       2.304       1143.766    24.206      -9999.25    561.743     581.453     603.241     26.309      
164.8       21.184      122.463     2.387       6.849       -9999.25    -9999.25    -9999.25    -9999.25    -9999.25    -9999.25    16.261      1.193       2.34        1144.726    23.475      -9999.25    621.935     604.853     586.546     27.841      
164.9       21.135      122.49      2.362       6.789       -9999.25    -9999.25    -9999.25    -9999.25    -9999.25    -9999.25    16.261      1.164       2.237       1145.686    22.648      -9999.25    650.432     607.347     563.636     30.291      
165.0       20.845      122.735     2.335       6.83        -9999.25    -9999.25    -9999.25    -9999.25    -9999.25    -9999.25    16.261      1.176       2.136       1146.646    21.746      -9999.25    654.475     614.801     579.729     32.105      
165.1       18.408      123.124     2.306       7.017       -9999.25    -9999.25    -9999.25    -9999.25    -9999.25    -9999.25    16.261      1.181       2.059       1147.366    20.826      -9999.25    645.451     656.786     682.882     33.402      
165.2       16.032      122.78      2.273       7.137       -9999.25    -9999.25    -9999.25    -9999.25    -9999.25    -9999.25    16.261      1.14        2.013       1148.086    19.949      -9999.25    702.464     749.069     823.776     32.568      
165.3       15.417      122.38      2.252       7.111       -9999.25    -9999.25    -9999.25    -9999.25    -9999.25    -9999.25    16.261      1.116       2.051       1148.566    19.166      -9999.25    902.628     888.809     915.868     31.034      
165.4       17.579      122.154     2.267       6.932       -9999.25    -9999.25    -9999.25    -9999.25    -9999.25    -9999.25    16.261      1.124       2.103       1148.806    18.5        -9999.25    1137.476    1008.776    923.682     29.824      
165.5       23.388      122.095     2.272       6.706       -9999.25    -9999.25    -9999.25    -9999.25    -9999.25    -9999.25    16.261      1.177       2.173       1149.046    17.97       -9999.25    1240.032    1055.338    903.423     29.904      
165.6       36.728      122.293     2.281       6.628       -9999.25    -9999.25    -9999.25    -9999.25    -9999.25    -9999.25    16.261      1.23        2.225       1149.286    17.576      -9999.25    1168.497    1020.289    887.94      29.168      
165.7       27.733      122.308     2.277       6.468       -9999.25    -9999.25    -9999.25    -9999.25    -9999.25    -9999.25    16.232      1.247       2.24        1149.286    17.317      -9999.25    1056.785    957.027     860.915     27.724      
165.8       19.011      121.984     2.3         6.37        -9999.25    -9999.25    -9999.25    -9999.25    -9999.25    -9999.25    16.024      1.22        2.272       1149.046    17.178      -9999.25    983.167     897.317     812.242     26.598      
165.9       18.03       122.126     2.307       6.294       -9999.25    -9999.25    -9999.25    -9999.25    -9999.25    -9999.25    15.778      1.184       2.31        1148.566    17.143      -9999.25    913.534     831.932     751.375     27.016      
166.0       18.03       122.227     2.328       6.339       -9999.25    -9999.25    -9999.25    -9999.25    -9999.25    -9999.25    15.427      1.195       2.306       1148.086    17.207      -9999.25    849.332     746.945     662.794     27.681      
166.1       18.03       122.491     2.354       6.225       -9999.25    -9999.25    -9999.25    -9999.25    -9999.25    -9999.25    15.265      1.227       2.287       1147.606    17.363      -9999.25    809.354     643.823     539.166     27.982      
166.2       18.03       122.473     2.394       6.443       -9999.25    -9999.25    -9999.25    -9999.25    -9999.25    -9999.25    15.123      1.215       2.272       1147.366    17.569      -9999.25    798.846     525.881     382.289     29.218      
166.3       18.03       122.631     2.394       6.471       -9999.25    -9999.25    -9999.25    -9999.25    -9999.25    -9999.25    15.057      1.183       2.24        1147.126    17.8        -9999.25    762.885     407.704     241.321     30.308      
166.4       18.03       122.216     2.4         6.841       -9999.25    -9999.25    -9999.25    -9999.25    -9999.25    -9999.25    14.96       1.14        2.131       1147.846    18.033      -9999.25    680.226     295.424     135.869     30.902      
166.5       18.03       121.989     2.397       7.023       -9999.25    -9999.25    -9999.25    -9999.25    -9999.25    -9999.25    14.832      1.105       2.04        1148.806    18.25       -9999.25    613.132     245.162     101.922     31.168      
166.6       18.072      122.781     2.373       7.432       -9999.25    -9999.25    -9999.25    -9999.25    -9999.25    -9999.25    14.705      1.066       2.026       1149.766    18.431      -9999.25    613.548     268.042     123.02      32.869      
166.7       18.072      122.662     2.351       7.56        -9999.25    -9999.25    -9999.25    -9999.25    -9999.25    -9999.25    14.589      1.079       1.991       1150.726    18.573      -9999.25    600.783     318.868     187.82      34.269      
166.8       18.072      121.939     2.33        7.583       -9999.25    -9999.25    -9999.25    -9999.25    -9999.25    -9999.25    14.467      1.102       1.925       1151.686    18.677      -9999.25    492.592     332.091     259.871     34.76       
166.9       18.072      120.521     2.306       7.645       -9999.25    -9999.25    -9999.25    -9999.25    -9999.25    -9999.25    14.429      1.08        1.875       1152.646    18.749      -9999.25    339.343     305.177     308.876     33.695      
167.0       -9999.25    120.537     2.3         7.665       -9999.25    -9999.25    -9999.25    -9999.25    -9999.25    -9999.25    14.438      1.022       1.86        1153.606    18.796      -9999.25    244.563     283.904     333.813     33.107      
167.1       -9999.25    119.384     2.287       7.628       -9999.25    -9999.25    -9999.25    -9999.25    -9999.25    -9999.25    14.37       0.941       1.865       1154.806    18.818      -9999.25    228.235     277.709     335.169     32.72       
167.2       -9999.25    120.086     2.275       7.578       -9999.25    -9999.25    -9999.25    -9999.25    -9999.25    -9999.25    14.355      0.939       1.892       1156.006    18.818      -9999.25    258.889     282.77      318.499     32.615      
167.3       -9999.25    120.411     2.3         7.279       -9999.25    -9999.25    -9999.25    -9999.25    -9999.25    -9999.25    14.332      0.939       1.899       1157.206    18.816      -9999.25    328.794     297.79      285.787     33.897      
167.4       -9999.25    120.307     2.309       7.045       -9999.25    -9999.25    -9999.25    -9999.25    -9999.25    -9999.25    14.288      0.987       1.888       1158.406    18.81       -9999.25    450.215     387.861     345.84      35.162      
167.5       -9999.25    120.181     2.302       7.024       -9999.25    -9999.25    -9999.25    -9999.25    -9999.25    -9999.25    14.288      1.026       1.901       1158.646    18.815      -9999.25    587.513     546.545     517.95      34.843      
