~Version Information Section
VERS.                                         2.0:CWLS log ASCII Standart – VERSION 2.0
WRAP.                                          NO:One line per depth step
~Well Information Section
STRT.M                                       -2.2:Начальная глубина
STOP.M                                      205.6:Конечная глубина
STEP.M                                          0:Шаг квантования по глубине
NULL.                                    -9999.25:Признак "Нет данных"
WELL.                                       108Мх:Скважина
~Parameter Information Section
~Curve Information Section
DEPTH.M                                          :Глубина
BK.Ohm*M                                         :BK     (БК)
DS.mm                                            :DS  (ДС)
GGK.g/cm3                                        :GGKp
ГК.mcr/h                                         :GK          (ГК)
GZ1.Ohm*M                                        :GZ1   ГЗ1(A0.4M0.1N)
GZ2.Ohm*M                                        :GZ2   ГЗ2(A1.0M0.1N)
GZ3.Ohm*M                                        :GZ3   ГЗ3(A2.0M0.5N)
GZ4.Ohm*M                                        :GZ4   ГЗ4(A4.0M0.5N)
GZ5.Ohm*M                                        :GZ5   ГЗ5(A8.0M0.5N)
GZR.Ohm*M                                        :GZK   ГЗK(N0.5M2.0A)
ИК.Ohm*M                                         :IK
НГК.ue                                           :NGK     (НГК)
NNKM.                                            :NNKm  (ННКм)
PS.mv                                            :PS       (ПС)
PZ.Ohm*M                                         :PZ    (КС)
RS.Ohm*M                                         :RS (Резистивиметр)
U1.mV                                            :U1
U2.mV                                            :U2
U3.mV                                            :U3
КП.%                                             :Кп
~ASCII LOG DATA
# ...
155.8       -9999.25    130.553     -9999.25    -9999.25    31.636      17.732      32.362      27.344      15.898      21.9        -9999.25    -9999.25    -9999.25    892.13      18.83       3.091       1119.097    1207.093    1400.88     -9999.25    
155.83      31.353      -9999.25    2.268       6.541       -9999.25    -9999.25    -9999.25    -9999.25    -9999.25    -9999.25    19.692      1.315       1.629       -9999.25    -9999.25    -9999.25    -9999.25    -9999.25    -9999.25    30.044      
155.9       -9999.25    130.701     -9999.25    -9999.25    32.133      18.79       33.008      28.533      15.676      21.853      -9999.25    -9999.25    -9999.25    890.061     18.653      3.091       1119.652    1206.169    1458.076    -9999.25    
155.93      31.455      -9999.25    2.276       6.626       -9999.25    -9999.25    -9999.25    -9999.25    -9999.25    -9999.25    19.396      1.279       1.679       -9999.25    -9999.25    -9999.25    -9999.25    -9999.25    -9999.25    31.43       
156.0       -9999.25    130.596     -9999.25    -9999.25    32.646      19.406      33.098      29.341      15.519      21.487      -9999.25    -9999.25    -9999.25    888.238     18.462      3.091       1168.865    1163.873    1359.896    -9999.25    
156.03      31.356      -9999.25    2.266       6.504       -9999.25    -9999.25    -9999.25    -9999.25    -9999.25    -9999.25    19.312      1.244       1.721       -9999.25    -9999.25    -9999.25    -9999.25    -9999.25    -9999.25    31.453      
156.1       -9999.25    129.588     -9999.25    -9999.25    33.254      19.483      32.591      29.563      15.417      21.251      -9999.25    -9999.25    -9999.25    887.46      18.264      3.091       1267.857    1083.633    1181.716    -9999.25    
156.13      30.489      -9999.25    2.25        6.294       -9999.25    -9999.25    -9999.25    -9999.25    -9999.25    -9999.25    18.969      1.246       1.754       -9999.25    -9999.25    -9999.25    -9999.25    -9999.25    -9999.25    30.819      
156.2       -9999.25    129.856     -9999.25    -9999.25    34.094      18.911      31.583      29.163      15.372      20.771      -9999.25    -9999.25    -9999.25    887.293     18.069      3.091       1387.012    1012.706    951.801     -9999.25    
156.23      31.171      -9999.25    2.246       6.087       -9999.25    -9999.25    -9999.25    -9999.25    -9999.25    -9999.25    18.823      1.293       1.76        -9999.25    -9999.25    -9999.25    -9999.25    -9999.25    -9999.25    29.821      
156.3       -9999.25    131.049     -9999.25    -9999.25    35.139      17.794      30.241      28.246      15.392      20.223      -9999.25    -9999.25    -9999.25    888.877     17.882      3.093       1464.741    975.039     816.009     -9999.25    
156.33      34.464      -9999.25    2.244       6.139       -9999.25    -9999.25    -9999.25    -9999.25    -9999.25    -9999.25    18.692      1.332       1.757       -9999.25    -9999.25    -9999.25    -9999.25    -9999.25    -9999.25    29.073      
156.4       -9999.25    129.757     -9999.25    -9999.25    36.081      16.496      28.784      26.992      15.483      19.756      -9999.25    -9999.25    -9999.25    891.266     17.708      3.094       1470.687    967.499     743.647     -9999.25    
156.43      35.638      -9999.25    2.245       6.151       -9999.25    -9999.25    -9999.25    -9999.25    -9999.25    -9999.25    18.575      1.359       1.755       -9999.25    -9999.25    -9999.25    -9999.25    -9999.25    -9999.25    28.124      
156.5       -9999.25    129.506     -9999.25    -9999.25    36.786      15.285      27.449      25.636      15.634      19.538      -9999.25    -9999.25    -9999.25    895.094     17.543      3.095       1404.52     974.481     752.69      -9999.25    
156.53      34.616      -9999.25    2.254       6.337       -9999.25    -9999.25    -9999.25    -9999.25    -9999.25    -9999.25    18.252      1.39        1.757       -9999.25    -9999.25    -9999.25    -9999.25    -9999.25    -9999.25    27.511      
156.6       -9999.25    129.7       -9999.25    -9999.25    37.174      14.328      26.405      24.427      15.887      19.202      -9999.25    -9999.25    -9999.25    899.566     17.382      3.095       1292.843    986.155     793.447     -9999.25    
156.63      31.348      -9999.25    2.276       6.683       -9999.25    -9999.25    -9999.25    -9999.25    -9999.25    -9999.25    17.914      1.407       1.747       -9999.25    -9999.25    -9999.25    -9999.25    -9999.25    -9999.25    27.285      
156.7       -9999.25    129.95      -9999.25    -9999.25    37.02       13.81       25.71       23.525      16.309      18.776      -9999.25    -9999.25    -9999.25    904.105     17.216      3.096       1149.822    984.874     853.465     -9999.25    
156.73      30.784      -9999.25    2.292       7.073       -9999.25    -9999.25    -9999.25    -9999.25    -9999.25    -9999.25    17.534      1.391       1.699       -9999.25    -9999.25    -9999.25    -9999.25    -9999.25    -9999.25    28.248      
156.8       -9999.25    130.233     -9999.25    -9999.25    36.121      13.644      25.346      22.96       16.989      18.682      -9999.25    -9999.25    -9999.25    908.522     17.036      3.095       1001.48     967.392     931.391     -9999.25    
156.83      30.045      -9999.25    2.275       7.251       -9999.25    -9999.25    -9999.25    -9999.25    -9999.25    -9999.25    17.146      1.364       1.643       -9999.25    -9999.25    -9999.25    -9999.25    -9999.25    -9999.25    29.517      
156.9       -9999.25    130.306     -9999.25    -9999.25    34.649      13.693      25.215      22.704      18.043      18.841      -9999.25    -9999.25    -9999.25    912.669     16.833      3.093       860.657     938.024     996.62      -9999.25    
156.93      26.151      -9999.25    2.246       7.087       -9999.25    -9999.25    -9999.25    -9999.25    -9999.25    -9999.25    16.794      1.321       1.611       -9999.25    -9999.25    -9999.25    -9999.25    -9999.25    -9999.25    31.032      
157.0       -9999.25    130.271     -9999.25    -9999.25    32.864      13.805      25.154      22.628      19.676      19.102      -9999.25    -9999.25    -9999.25    915.758     16.599      3.093       760.945     907.096     1046.183    -9999.25    
157.03      24.523      -9999.25    2.244       6.78        -9999.25    -9999.25    -9999.25    -9999.25    -9999.25    -9999.25    16.444      1.299       1.583       -9999.25    -9999.25    -9999.25    -9999.25    -9999.25    -9999.25    31.914      
157.1       -9999.25    131.035     -9999.25    -9999.25    30.93       13.83       25.054      22.602      22.196      19.335      -9999.25    -9999.25    -9999.25    918.151     16.331      3.094       744.57      889.057     1049.301    -9999.25    
157.13      24.171      -9999.25    2.237       6.58        -9999.25    -9999.25    -9999.25    -9999.25    -9999.25    -9999.25    16.166      1.279       1.572       -9999.25    -9999.25    -9999.25    -9999.25    -9999.25    -9999.25    32.611      
157.2       -9999.25    130.494     -9999.25    -9999.25    29.086      13.563      24.861      22.565      25.906      19.956      -9999.25    -9999.25    -9999.25    919.475     16.032      3.094       822.896     896.171     1044.276    -9999.25    
157.23      23.763      -9999.25    2.231       6.533       -9999.25    -9999.25    -9999.25    -9999.25    -9999.25    -9999.25    15.904      1.279       1.593       -9999.25    -9999.25    -9999.25    -9999.25    -9999.25    -9999.25    32.845      
157.3       -9999.25    130.746     -9999.25    -9999.25    27.457      12.988      24.556      22.501      31.252      20.454      -9999.25    -9999.25    -9999.25    920.377     15.706      3.094       953.043     916.176     988.275     -9999.25    
157.33      22.733      -9999.25    2.237       6.483       -9999.25    -9999.25    -9999.25    -9999.25    -9999.25    -9999.25    15.646      1.283       1.612       -9999.25    -9999.25    -9999.25    -9999.25    -9999.25    -9999.25    32.891      
