~Version Information Section
VERS.                                         2.0:CWLS log ASCII Standart – VERSION 2.0
WRAP.                                          NO:One line per depth step
~Well Information Section
STRT.M                                       1.07:Начальная глубина
STOP.M                                     192.17:Конечная глубина
STEP.M                                          0:Шаг квантования по глубине
NULL.                                    -9999.25:Признак "Нет данных"
WELL.                                        151К:Скважина
~Parameter Information Section
~Curve Information Section
DEPTH.M                                          :Глубина
BK.Ohm*M                                         :BK     (БК)
DS.mm                                            :DS  (ДС)
GGK.g/cm3                                        :GGKp
ГК.mcr/h                                         :GK          (ГК)
GZ1.Ohm*M                                        :GZ1   ГЗ1(A0.4M0.1N)
GZ2.Ohm*M                                        :GZ2   ГЗ2(A1.0M0.1N)
GZ3.Ohm*M                                        :GZ3   ГЗ3(A2.0M0.5N)
GZ4.Ohm*M                                        :GZ4   ГЗ4(A4.0M0.5N)
GZ5.Ohm*M                                        :GZ5   ГЗ5(A8.0M0.5N)
GZR.                                             :GZR   ГЗK(N0.5M2.0A)
ИК.Ohm*M                                         :IK
НГК.ue                                           :NGK     (НГК)
NNKM.                                            :NNKm  (ННКм)
PS.mv                                            :PS       (ПС)
PZ.Ohm*M                                         :PZ    (КС)
RS.Ohm*M                                         :RS (Резистивиметр)
W.%                                              :W
~ASCII LOG DATA
# ...
68.37       14.748      153.923     2.121       8.404       -9999.25    -9999.25    -9999.25    -9999.25    -9999.25    -9999.25    20.213      0.854       1.101       478.615     24.137      1.131       37.739      
68.4        -9999.25    -9999.25    -9999.25    -9999.25    20.523      18.824      19.826      21.755      22.709      28.354      -9999.25    -9999.25    -9999.25    -9999.25    -9999.25    -9999.25    -9999.25    
68.47       15.157      150.722     2.125       8.769       -9999.25    -9999.25    -9999.25    -9999.25    -9999.25    -9999.25    20.122      0.866       1.13        480.896     24.869      1.127       37.746      
68.5        -9999.25    -9999.25    -9999.25    -9999.25    20.302      20.231      22.586      23.859      22.996      31.372      -9999.25    -9999.25    -9999.25    -9999.25    -9999.25    -9999.25    -9999.25    
68.57       16.315      149.698     2.126       9.135       -9999.25    -9999.25    -9999.25    -9999.25    -9999.25    -9999.25    20.009      0.877       1.157       480.654     25.413      1.122       37.219      
68.6        -9999.25    -9999.25    -9999.25    -9999.25    21.958      23.523      25.09       26.231      23.06       33.984      -9999.25    -9999.25    -9999.25    -9999.25    -9999.25    -9999.25    -9999.25    
68.67       17.541      149.29      2.123       8.903       -9999.25    -9999.25    -9999.25    -9999.25    -9999.25    -9999.25    19.927      0.883       1.178       477.411     25.432      1.12        36.454      
68.7        -9999.25    -9999.25    -9999.25    -9999.25    26.255      28.572      26.353      27.822      23.131      33.484      -9999.25    -9999.25    -9999.25    -9999.25    -9999.25    -9999.25    -9999.25    
68.77       19.864      150.615     2.117       8.396       -9999.25    -9999.25    -9999.25    -9999.25    -9999.25    -9999.25    19.917      0.871       1.196       472.415     24.974      1.126       36.022      
68.8        -9999.25    -9999.25    -9999.25    -9999.25    33.241      32.369      26.997      28.068      23.194      30.472      -9999.25    -9999.25    -9999.25    -9999.25    -9999.25    -9999.25    -9999.25    
68.87       23.883      153.431     2.109       7.888       -9999.25    -9999.25    -9999.25    -9999.25    -9999.25    -9999.25    20.038      0.855       1.219       467.717     25.015      1.129       36.19       
68.9        -9999.25    -9999.25    -9999.25    -9999.25    36.057      29.975      26.223      26.845      23.152      26.466      -9999.25    -9999.25    -9999.25    -9999.25    -9999.25    -9999.25    -9999.25    
68.97       28.358      153.831     2.1         7.482       -9999.25    -9999.25    -9999.25    -9999.25    -9999.25    -9999.25    20.254      0.838       1.243       465.361     25.967      1.13        36.638      
69.0        -9999.25    -9999.25    -9999.25    -9999.25    32.91       23.924      24.579      24.198      22.96       22.821      -9999.25    -9999.25    -9999.25    -9999.25    -9999.25    -9999.25    -9999.25    
69.07       29.043      151.471     2.091       6.995       -9999.25    -9999.25    -9999.25    -9999.25    -9999.25    -9999.25    20.566      0.815       1.264       466.036     27.046      1.128       36.979      
69.1        -9999.25    -9999.25    -9999.25    -9999.25    30.416      20.604      22.105      20.948      22.216      20.552      -9999.25    -9999.25    -9999.25    -9999.25    -9999.25    -9999.25    -9999.25    
69.17       24.375      149.665     2.085       6.508       -9999.25    -9999.25    -9999.25    -9999.25    -9999.25    -9999.25    20.926      0.793       1.228       469.007     27.391      1.126       36.935      
69.2        -9999.25    -9999.25    -9999.25    -9999.25    30.331      20.929      20.037      19.032      20.84       19.55       -9999.25    -9999.25    -9999.25    -9999.25    -9999.25    -9999.25    -9999.25    
69.27       19.335      151.727     2.081       6.569       -9999.25    -9999.25    -9999.25    -9999.25    -9999.25    -9999.25    21.191      0.775       1.167       472.194     26.865      1.128       36.668      
69.3        -9999.25    -9999.25    -9999.25    -9999.25    31.201      22.581      19.327      18.493      19.374      19.295      -9999.25    -9999.25    -9999.25    -9999.25    -9999.25    -9999.25    -9999.25    
69.37       18.283      154.924     2.08        7.269       -9999.25    -9999.25    -9999.25    -9999.25    -9999.25    -9999.25    21.275      0.764       1.106       473.527     25.987      1.13        36.371      
69.4        -9999.25    -9999.25    -9999.25    -9999.25    30.611      23.019      19.111      18.247      17.682      19.35       -9999.25    -9999.25    -9999.25    -9999.25    -9999.25    -9999.25    -9999.25    
69.47       19.779      156.465     2.081       7.97        -9999.25    -9999.25    -9999.25    -9999.25    -9999.25    -9999.25    21.222      0.755       1.081       473.402     25.299      1.131       36.385      
69.5        -9999.25    -9999.25    -9999.25    -9999.25    28.512      22.479      18.827      17.656      17.035      19.072      -9999.25    -9999.25    -9999.25    -9999.25    -9999.25    -9999.25    -9999.25    
69.57       21.251      156.735     2.082       8.361       -9999.25    -9999.25    -9999.25    -9999.25    -9999.25    -9999.25    21.06       0.746       1.072       473.6       25.007      1.132       36.704      
69.6        -9999.25    -9999.25    -9999.25    -9999.25    26.991      22.246      18.378      16.833      16.992      18.584      -9999.25    -9999.25    -9999.25    -9999.25    -9999.25    -9999.25    -9999.25    
69.67       20.272      156.377     2.083       8.412       -9999.25    -9999.25    -9999.25    -9999.25    -9999.25    -9999.25    20.894      0.741       1.068       475.579     24.958      1.132       37.229      
69.7        -9999.25    -9999.25    -9999.25    -9999.25    25.82       22.546      18.162      16.243      17.18       18.63       -9999.25    -9999.25    -9999.25    -9999.25    -9999.25    -9999.25    -9999.25    
69.77       18.307      155.749     2.083       8.463       -9999.25    -9999.25    -9999.25    -9999.25    -9999.25    -9999.25    20.797      0.737       1.075       478.459     24.941      1.133       37.775      
69.8        -9999.25    -9999.25    -9999.25    -9999.25    24.722      23.126      18.352      16.061      17.021      19.545      -9999.25    -9999.25    -9999.25    -9999.25    -9999.25    -9999.25    -9999.25    
69.87       17.186      155.164     2.081       8.487       -9999.25    -9999.25    -9999.25    -9999.25    -9999.25    -9999.25    20.737      0.736       1.086       480.457     24.844      1.133       38.075      
69.9        -9999.25    -9999.25    -9999.25    -9999.25    23.41       23.408      19.027      16.342      16.938      20.921      -9999.25    -9999.25    -9999.25    -9999.25    -9999.25    -9999.25    -9999.25    
69.97       16.818      154.624     2.079       8.456       -9999.25    -9999.25    -9999.25    -9999.25    -9999.25    -9999.25    20.661      0.747       1.097       481.086     24.595      1.13        37.308      
70.0        -9999.25    -9999.25    -9999.25    -9999.25    22.707      24.44       19.584      16.79       17.274      21.893      -9999.25    -9999.25    -9999.25    -9999.25    -9999.25    -9999.25    -9999.25    
70.07       16.655      153.351     2.075       8.426       -9999.25    -9999.25    -9999.25    -9999.25    -9999.25    -9999.25    20.57       0.761       1.106       480.711     24.258      1.131       35.898      
70.1        -9999.25    -9999.25    -9999.25    -9999.25    23.796      26.01       19.992      17.272      17.797      22.226      -9999.25    -9999.25    -9999.25    -9999.25    -9999.25    -9999.25    -9999.25    
70.17       16.644      152.894     2.072       8.418       -9999.25    -9999.25    -9999.25    -9999.25    -9999.25    -9999.25    20.448      0.777       1.113       479.736     24.144      1.133       34.654      
