~Version Information Section
VERS.                                         2.0:CWLS log ASCII Standart – VERSION 2.0
WRAP.                                          NO:One line per depth step
~Well Information Section
STRT.M                                        0.0:Начальная глубина
STOP.M                                      180.0:Конечная глубина
STEP.M                                          0:Шаг квантования по глубине
NULL.                                    -9999.25:Признак "Нет данных"
WELL.                                       120Мх:Скважина
~Parameter Information Section
~Curve Information Section
DEPTH.M                                          :Глубина
BK.Ohm*M                                         :BK     (БК)
DS.mm                                            :DS  (ДС)
GGK.g/cm3                                        :GGKp
ГК.mcr/h                                         :GK          (ГК)
GZ1.Ohm*M                                        :GZ1   ГЗ1(A0.4M0.1N)
GZ2.Ohm*M                                        :GZ2   ГЗ2(A1.0M0.1N)
GZ3.Ohm*M                                        :GZ3   ГЗ3(A2.0M0.5N)
GZ4.Ohm*M                                        :GZ4   ГЗ4(A4.0M0.5N)
GZ5.Ohm*M                                        :GZ5   ГЗ5(A8.0M0.5N)
GZR.Ohm*M                                        :GZK   ГЗK(N0.5M2.0A)
ИК.Ohm*M                                         :IK
НГК.u.e.                                         :NGK
NNKM.                                            :NNKm  (ННКм)
PS.mv                                            :PS       (ПС)
PZ.Ohm*M                                         :PZ    (КС)
RS.Ohm*M                                         :RS (Резистивиметр)
U1.mV                                            :U1
U2.mV                                            :U2
U3.mV                                            :U3
КП.%                                             :Кп
~ASCII LOG DATA
# ...
83.2        226.986     126.307     2.465       4.618       75.39       69.202      46.428      53.382      66.164      38.997      13.234      1.617       3.09        498.924     119.122     1.4         1289.829    1071.558    953.602     15.994      
83.4        84.723      127.103     2.391       5.145       73.676      68.451      39.23       38.922      42.323      48.891      12.906      1.657       2.929       503.888     117.242     1.4         1348.634    1069.068    890.507     16.876      
83.6        38.371      129.214     2.281       5.319       77.83       67.409      40.943      39.543      33.374      51.406      12.345      1.432       2.436       508.726     119.748     1.4         1747.576    1248.319    926.872     28.796      
83.8        47.098      128.589     2.281       5.014       78.843      65.688      43.301      50.21       31.791      47.722      11.968      1.237       2.333       512.969     120.25      1.4         1936.051    1259.522    847.028     26.531      
84.0        52.24       128.407     2.242       4.498       73.336      72.963      45.011      53.391      30.8        43.025      11.669      1.291       2.433       516.406     112.354     1.395       1643.077    1167.194    881.31      25.631      
84.2        72.611      127.653     2.238       4.538       70.156      67.318      45.439      52.484      27.958      39.6        11.439      1.331       2.471       519.766     99.946      1.375       1374.516    1161.053    1024.909    28.986      
84.4        59.293      127.213     2.296       5.734       53.929      51.593      38.393      48.713      24.55       37.759      11.161      1.368       2.482       522.646     95.684      1.345       1259.811    1060.928    939.746     26.854      
84.6        47.098      128.475     2.344       6.716       37.754      35.433      28.251      42.956      21.465      37.416      10.849      1.371       2.392       525.728     88.164      1.325       1745.076    1254.523    955.952     26.409      
84.8        39.174      127.387     2.352       6.486       29.439      26.53       24.004      39.091      18.817      40.54       10.563      1.231       2.271       528.444     79.266      1.32        2949.907    2091.708    1539.439    25.118      
85.0        24.717      128.095     2.314       6.953       27.817      21.252      27.271      38.544      17.312      49.251      10.314      1.116       2.113       531.449     74.754      1.32        3771.497    3181.655    2732.006    31.937      
85.2        20.277      127.537     2.271       7.033       29.935      17.258      32.857      39.182      18.106      61.981      10.11       1.151       2.024       533.926     73.751      1.32        3796.497    3212.47     2756.597    34.493      
85.4        21.627      125.901     2.28        5.787       34.266      20.613      34.325      40.638      21.857      68.868      10.153      1.12        2.068       536.048     73.751      1.321       3122.281    2375.216    1841.338    34.029      
85.6        24.322      128.309     2.335       4.342       38.071      24.646      41.541      45.498      26.146      75.76       10.481      1.129       2.147       536.528     74.503      1.327       2676.987    2020.645    1554.723    33.702      
85.8        33.266      128.293     2.43        3.964       57.532      39.254      52.091      49.754      29.832      85.958      11.018      1.105       2.295       535.126     77.01       1.336       2795.66     2263.563    1868.017    36.107      
86.0        42.267      126.982     2.474       3.526       77.43       44.725      58.876      64.373      32.713      70.614      11.614      1.159       2.472       532.409     101.826     1.344       2747.605    2278.449    1923.631    30.059      
86.2        39.628      129.991     2.4         2.598       111.248     46.136      51.209      83.574      36.638      55.428      12.208      1.213       2.468       527.609     137.546     1.353       1837.469    1550.942    1356.572    35.966      
86.4        111.686     130.251     2.284       2.396       170.804     55.601      43.042      83.975      46.207      55.202      12.78       1.106       2.547       521.484     135.54      1.359       1110.308    868.168     747.475     31.716      
86.6        129.122     130.34      2.279       2.688       202.015     64.19       49.398      86.742      52.283      54.473      13.307      1.102       2.492       515.561     127.394     1.36        844.658     522.533     362.499     35.859      
86.8        119.95      130.127     2.311       2.56        197.356     78.061      58.766      88.554      58.853      60.889      13.688      1.039       2.518       510.684     118.495     1.351       705.104     477.312     358.654     33.211      
87.0        151.356     131.539     2.23        2.426       200.55      127.026     77.068      120.069     65.085      75.048      13.923      1.097       2.545       506.163     110.098     1.327       642.421     468.537     381.971     32.013      
87.2        123.027     132.307     2.251       2.168       214.607     190.972     95.882      184.896     75.798      79.59       14.038      1.118       2.475       502.563     104.458     1.306       639.179     517.28      468.24      36.527      
87.4        100.231     134.561     2.462       1.95        240.723     226.942     109.891     213.208     99.052      81.067      13.988      1.268       2.61        500.566     98.943      1.3         598.293     524.187     519.674     26.09       
87.6        154.882     135.48      2.639       2.31        239.774     219.234     131.73      236.326     121.645     96.698      13.96       1.448       3.046       499.164     94.682      1.296       479.115     453.127     520.201     21.901      
87.8        286.418     130.671     2.551       2.546       197.113     203.848     161.346     279.514     130.222     112.763     13.883      1.581       3.277       498.444     92.551      1.286       633.436     439.339     383.88      17.025      
88.0        251.768     129.293     2.512       2.496       224.862     237.749     167.754     288.427     124.555     102.953     13.677      1.63        3.198       499.203     92.551      1.27        858.268     541.21      372.44      16.145      
88.2        69.183      130.191     2.6         2.247       243.748     195.503     143.708     233.568     107.37      75.319      13.212      1.678       3.17        501.603     92.3        1.25        822.634     619.328     523.704     18.539      
88.4        166.341     131.559     2.569       2.055       199.278     115.966     91.019      152.073     82.785      43.097      12.716      1.802       3.455       504.924     88.791      1.234       933.975     828.336     792.387     11.376      
88.6        301.301     129.664     2.424       1.894       143.027     68.966      51.114      86.723      55.482      20.721      12.478      1.56        3.246       509.244     84.154      1.224       1556.964    1327.862    1181.601    18.731      
88.8        139.316     126.993     2.329       2.627       44.212      45.004      29.674      41.42       32.35       15.899      12.18       1.301       2.639       514.966     80.895      1.22        2176.29     1752.325    1447.283    30.345      
89.0        75.509      127.264     2.289       4.68        33.24       40.708      20.281      28.152      21.759      23.232      11.797      1.166       2.517       521.408     77.511      1.22        2164.137    1807.978    1557.124    27.288      
89.2        32.961      126.931     2.292       5.677       34.632      41.729      20.203      26.487      18.284      32.566      11.198      1.069       2.237       527.763     77.511      1.22        1977.061    1736.623    1575.439    27.257      
89.4        20.464      127.159     2.259       5.939       44.33       48.292      22.745      27.749      18.884      34.566      10.611      1.077       2.145       534.483     77.511      1.22        2302.653    1876.691    1568.69     29.337      
