~Version Information Section
VERS.                                         2.0:CWLS log ASCII Standart – VERSION 2.0
WRAP.                                          NO:One line per depth step
~Well Information Section
STRT.M                                       -0.5:Начальная глубина
STOP.M                                      184.3:Конечная глубина
STEP.M                                          0:Шаг квантования по глубине
NULL.                                    -9999.25:Признак "Нет данных"
WELL.                                       133Мх:Скважина
~Parameter Information Section
~Curve Information Section
DEPTH.M                                          :Глубина
DS.mm                                            :DS  (ДС)
GGK.g/cm3                                        :GGKp
ГК.mcr/h                                         :GK          (ГК)
GZ1.Ohm*M                                        :GZ1   ГЗ1(A0.4M0.1N)
GZ2.Ohm*M                                        :GZ2   ГЗ2(A1.0M0.1N)
GZ3.Ohm*M                                        :GZ3   ГЗ3(A2.0M0.5N)
GZ4.Ohm*M                                        :GZ4   ГЗ4(A4.0M0.5N)
GZ5.Ohm*M                                        :GZ5   ГЗ5(A8.0M0.5N)
GZR.Ohm*M                                        :GZK   ГЗK(N0.5M2.0A)
ИК.Ohm*M                                         :IK
НГК.ue                                           :NGK     (НГК)
NNKM.                                            :NNKm  (ННКм)
PS.mv                                            :PS       (ПС)
PZ.Ohm*M                                         :PZ    (КС)
RS.Ohm*M                                         :RS (Резистивиметр)
U1.mV                                            :U1
U2.mV                                            :U2
U3.mV                                            :U3
BK.Ohm*M                                         :БК
ПОРИСТОСТЬ.                                      :Пористость ННК
~ASCII LOG DATA
# ...
149.9       126.468     2.321       9.501       23.43       13.849      15.137      19.237      2.549       15.863      14.329      1.444       2.225       149.409     4.091       1.178       475.6       1290.786    2063.219    19.71       30.987      
150.0       126.444     2.329       9.992       23.43       13.87       15.137      19.006      2.545       15.952      14.331      1.463       2.246       150.213     4.1         1.178       475.206     1288.706    2062.768    19.683      30.879      
150.1       126.424     2.349       10.093      23.449      13.892      15.124      18.793      2.54        15.979      14.333      1.47        2.253       150.884     4.112       1.178       471.895     1285.76     2060.215    19.806      31.078      
150.2       126.423     2.356       9.875       23.482      13.885      15.107      18.567      2.537       15.979      14.343      1.471       2.269       151.403     4.128       1.178       469.899     1284.099    2058.838    19.864      31.04       
150.3       126.434     2.348       9.372       23.54       13.877      15.098      18.272      2.531       15.963      14.364      1.492       2.284       151.748     4.146       1.178       471.992     1284.034    2060.446    19.818      30.788      
150.4       126.443     2.337       8.868       23.648      13.868      15.071      17.911      2.524       15.917      14.394      1.486       2.291       151.909     4.163       1.178       475.789     1284.326    2063.132    19.913      30.586      
150.5       126.44      2.33        8.821       23.794      13.876      15.022      17.54       2.5         15.859      14.431      1.495       2.286       151.889     4.174       1.178       476.864     1284.144    2063.806    20.111      30.471      
150.6       126.43      2.322       8.864       23.939      13.934      14.964      17.194      2.47        15.796      14.462      1.514       2.279       151.696     4.178       1.178       473.62      1283.175    2061.359    20.26       30.752      
150.7       126.423     2.311       9.224       24.007      13.992      14.88       16.896      2.436       15.751      14.479      1.525       2.274       151.339     4.178       1.178       468.551     1281.69     2057.61     20.069      30.875      
150.8       126.422     2.293       9.225       24.024      14.008      14.796      16.668      2.362       15.734      14.482      1.513       2.279       150.835     4.177       1.178       465.833     1280.45     2055.635    19.946      30.169      
150.9       126.424     2.279       9.45        24.038      14.009      14.757      16.502      2.237       15.718      14.484      1.48        2.291       150.192     4.171       1.178       466.937     1280.263    2056.528    20.036      28.951      
151.0       126.425     2.275       9.267       24.05       14.009      14.742      16.357      2.12        15.698      14.484      1.484       2.303       149.425     4.156       1.178       469.868     1281.175    2058.784    19.943      28.226      
151.1       126.423     2.281       9.121       24.032      14.047      14.725      16.201      2.024       15.69       14.482      1.511       2.302       148.552     4.133       1.178       470.983     1281.991    2059.574    19.87       27.885      
151.2       126.42      2.3         8.695       23.98       14.098      14.705      16.03       1.953       15.703      14.477      1.544       2.288       147.588     4.105       1.178       468.709     1281.442    2057.711    19.956      27.983      
151.3       126.416     2.312       8.662       23.927      14.123      14.69       15.844      1.94        15.727      14.475      1.576       2.275       146.547     4.072       1.178       465.183     1279.784    2054.909    20.093      29.106      
151.4       126.413     2.319       8.704       23.903      14.153      14.68       15.654      1.94        15.753      14.472      1.553       2.266       145.447     4.035       1.178       464.024     1278.445    2054.025    20.021      30.514      
151.5       126.412     2.332       9.066       23.892      14.184      14.678      15.518      1.94        15.773      14.468      1.54        2.26        144.281     3.994       1.178       466.403     1278.462    2055.937    19.94       31.432      
151.6       126.412     2.339       9.272       23.854      14.21       14.681      15.457      1.94        15.784      14.463      1.51        2.257       143.033     3.951       1.178       469.412     1279.34     2058.266    20.035      32.52       
151.7       126.413     2.343       8.943       23.854      14.246      14.681      15.434      1.993       15.808      14.457      1.507       2.269       141.689     3.91        1.178       470.061     1279.329    2058.668    20.081      32.863      
151.8       126.413     2.344       8.644       23.881      14.26       14.686      15.412      2.19        15.908      14.45       1.487       2.284       140.233     3.872       1.178       468.188     1277.696    2057.098    20.003      32.67       
151.9       126.412     2.33        8.958       23.885      14.268      14.725      15.367      2.375       16.08       14.441      1.501       2.29        138.646     3.839       1.178       465.959     1275.574    2055.314    19.938      31.713      
152.0       126.412     2.314       9.442       23.885      14.266      14.786      15.31       2.547       16.258      14.429      1.498       2.293       136.942     3.813       1.178       466.591     1274.954    2055.805    19.903      31.123      
152.1       126.412     2.309       9.537       23.894      14.235      14.85       15.269      2.723       16.426      14.42       1.483       2.286       135.141     3.79        1.178       471.548     1276.868    2059.596    19.953      30.374      
152.2       126.414     2.308       8.821       23.935      14.223      14.906      15.212      2.909       16.584      14.415      1.441       2.281       133.257     3.766       1.178       477.634     1279.289    2064.207    20.055      29.903      
152.3       126.417     2.316       8.465       23.987      14.223      14.927      15.115      3.002       16.68       14.411      1.42        2.284       131.316     3.743       1.178       480.507     1279.54     2066.299    20.138      29.653      
152.4       126.417     2.323       8.55        23.992      14.181      14.927      14.991      3.115       16.736      14.405      1.416       2.286       129.345     3.717       1.178       479.393     1277.659    2065.291    20.161      29.472      
152.5       126.412     2.321       8.887       23.963      14.1        14.915      14.818      3.289       16.815      14.4        1.474       2.288       127.359     3.69        1.178       477.717     1275.768    2063.886    20.339      29.643      
152.6       126.406     2.311       9.052       23.933      14.02       14.858      14.617      3.594       16.926      14.397      1.527       2.283       125.395     3.664       1.178       477.837     1275.943    2064.352    20.224      29.794      
152.7       126.407     2.302       8.987       23.843      13.926      14.748      14.442      4.035       17.073      14.393      1.52        2.281       123.493     3.642       1.178       477.912     1277.991    2065.422    20.084      30.326      
152.8       126.421     2.297       9.13        23.703      13.846      14.613      14.28       4.613       17.267      14.376      1.467       2.272       121.691     3.624       1.178       476.578     1278.963    2065.125    20.015      30.632      
152.9       126.444     2.29        9.102       23.574      13.802      14.483      14.116      5.889       17.497      14.345      1.437       2.252       120.032     3.609       1.178       473.62      1276.6      2061.939    19.946      30.673      
153.0       126.464     2.289       9.079       23.48       13.786      14.389      13.978      7.911       17.773      14.309      1.467       2.245       118.558     3.599       1.178       469.574     1272.322    2056.8      19.969      30.649      
