~Version Information Section
VERS.                                         2.0:CWLS log ASCII Standart – VERSION 2.0
WRAP.                                          NO:One line per depth step
~Well Information Section
STRT.M                                        2.0:Начальная глубина
STOP.M                                      201.2:Конечная глубина
STEP.M                                          0:Шаг квантования по глубине
NULL.                                    -9999.25:Признак "Нет данных"
WELL.                                       126Мх:Скважина
~Parameter Information Section
~Curve Information Section
DEPTH.M                                          :Глубина
BK.ohmm                                          :BK
ПРОФ_СР.мм                                       :DS  (ДС)
W.g/cm3                                          :GGKp
ГК.мкР/час                                       :GK          (ГК)
ГЗ1.Омм                                          :GZ1   ГЗ1(A0.4M0.1N)
ГЗ2.Омм                                          :GZ2   ГЗ2(A1.0M0.1N)
ГЗ3.Омм                                          :GZ3   ГЗ3(A2.0M0.5N)
ГЗ4.Oмм                                          :GZ4   ГЗ4(A4.0M0.5N)
ГЗ5.Oмм                                          :GZ5   ГЗ5(A8.0M0.5N)
ГЗК.Омм                                          :GZK   ГЗK(N0.5M2.0A)
ИК.ohmm                                          :IK
НГК.усл.ед.                                      :NGK
ННКМ.усл.ед                                      :NNKm  (ННКм)
PS.мВ                                            :PS       (ПС)
PZ.Омм                                           :PZ    (КС)
RIS.Омм                                          :RS (Резистивиметр)
U1.мВ                                            :U1
U2.мВ                                            :U2
U3.mv                                            :U3
~ASCII LOG DATA
# ...
175.4       108.143     122.334     2.11        3.835       140.62      162.646     158.401     121.31      71.134      115.742     15.93       1.239       2.416       85.846      182.039     1.34        1082.021    781.961     599.868     
175.5       87.7        122.804     2.133       3.886       137.527     164.136     156.401     118.937     70.134      114.661     15.85       1.227       2.418       84.79       184.671     1.342       962.08      700.04      546.425     
175.6       79.433      122.791     2.168       3.841       143.411     168.622     154.401     116.536     69.334      109.821     15.76       1.216       2.35        83.206      187.679     1.345       911.779     637.994     484.713     
175.7       105.925     122.942     2.187       3.739       143.411     160.885     152.801     115.537     69.334      106.651     15.736      1.226       2.326       81.622      191.439     1.35        1163.964    791.082     575.343     
175.8       128.825     122.426     2.202       3.575       149.927     153.617     152.801     110.537     69.334      101.953     15.681      1.246       2.368       80.566      194.447     1.355       1409.271    944.577     668.735     
175.9       123.595     122.147     2.196       3.461       149.112     152.109     152.401     105.736     69.334      101.501     15.68       1.245       2.377       79.51       196.703     1.359       1484.927    1003.186    713.503     
176.0       111.686     122.361     2.202       3.389       149.112     145.678     150.001     102.336     69.334      103.66      15.636      1.237       2.359       77.926      198.583     1.362       1291.151    870.454     621.304     
176.1       82.035      122.414     2.196       3.385       144.851     144.078     146.001     101.336     69.334      104.799     15.639      1.249       2.357       76.342      199.711     1.364       1097.335    737.694     529.086     
176.2       90.573      121.738     2.213       3.391       144.851     143.969     142.401     100.336     69.334      110.77      15.628      1.289       2.363       74.758      199.711     1.364       992.653     682.11      503.804     
176.3       105.925     122.788     2.219       3.356       173.043     145.143     140.401     99.536      69.334      119.562     15.654      1.301       2.371       72.646      199.711     1.364       977.056     703.672     545.441     
176.4       60.395      121.484     2.226       3.259       173.043     151.592     138.401     99.336      69.334      131.818     15.641      1.25        2.378       70.006      199.711     1.364       1011.326    769.153     627.196     
176.5       62.087      121.05      2.24        3.246       173.043     148.261     136.401     98.536      69.334      130.587     15.61       1.2         2.365       67.366      199.711     1.364       908.623     718.591     615.361     
176.6       88.308      121.286     2.255       3.318       173.043     134.925     134.401     98.336      69.334      130.631     15.521      1.208       2.363       65.254      199.711     1.364       708.219     586.008     540.69      
176.7       87.498      122.099     2.261       3.435       173.043     133.093     132.401     97.336      69.334      130.337     15.484      1.249       2.399       63.67       198.959     1.364       538.477     481.802     499.696     
176.8       106.66      121.873     2.257       3.401       173.043     125.758     130.401     96.536      69.534      126.437     15.465      1.251       2.4         62.086      198.207     1.364       497.075     488.735     559.143     
176.9       121.899     121.894     2.243       3.428       173.043     125.758     128.401     96.536      70.534      116.41      15.55       1.22        2.342       61.03       197.079     1.364       577.818     575.689     663.925     
177.0       112.202     121.905     2.22        3.542       173.043     125.758     126.401     96.336      71.734      106.588     15.635      1.21        2.35        60.502      195.951     1.364       757.009     671.272     696.227     
177.1       112.461     121.784     2.211       3.654       173.043     125.758     124.401     95.136      73.734      97.593      15.796      1.234       2.415       59.974      194.823     1.364       1003.43     758.145     657.152     
177.2       116.95      121.609     2.217       3.736       173.043     125.758     121.601     93.336      75.534      99.35       15.85       1.276       2.472       59.446      194.447     1.364       1227.258    801.925     573.047     
177.3       114.025     121.321     2.226       3.747       168.248     125.758     116.001     91.137      77.934      106.742     15.934      1.307       2.526       59.446      194.447     1.364       1358.421    842.047     562.202     
177.4       97.724      120.812     2.09        3.708       168.248     125.758     112.401     84.536      85.134      117.129     16.037      1.316       2.548       59.446      194.823     1.364       1420.24     970.938     740.226     
177.5       99.77       121.409     2.128       3.637       142.248     125.758     110.001     80.536      88.534      130.059     16.061      1.3         2.557       59.974      195.951     1.364       1463.924    1177.274    1041.588    
177.6       100.0       120.889     2.155       3.616       133.892     125.758     105.601     80.536      89.934      146.585     16.23       1.279       2.589       61.03       197.455     1.364       1485.957    1350.659    1299.169    
177.7       93.972      121.239     2.191       3.719       136.459     119.161     100.401     80.536      92.734      159.382     16.236      1.266       2.598       62.614      200.463     1.364       1427.393    1352.99     1337.917    
177.8       135.207     120.768     2.22        3.652       125.793     92.753      98.801      80.736      94.734      184.784     16.39       1.271       2.557       64.726      203.095     1.364       1199.496    1138.321    1139.261    
177.9       196.789     121.143     2.246       3.678       125.793     92.608      98.801      81.736      96.934      199.386     16.516      1.287       2.532       67.366      207.983     1.364       898.457     854.316     875.851     
178.0       185.353     121.932     2.249       3.684       137.664     92.507      98.801      82.536      100.534     212.384     16.552      1.327       2.53        70.006      215.127     1.364       705.31      670.933     704.196     
178.1       169.434     121.539     2.259       3.975       142.679     93.501      98.801      82.536      106.534     223.385     16.731      1.36        2.544       73.174      222.647     1.364       714.156     676.807     706.32      
178.2       171.791     121.75      2.243       3.921       152.542     90.523      98.801      82.736      111.534     226.585     16.881      1.388       2.564       76.342      232.798     1.364       767.283     734.227     780.185     
178.3       177.419     121.572     2.238       3.748       152.542     93.233      98.801      83.536      113.534     230.985     16.986      1.38        2.559       79.51       244.079     1.364       670.205     672.546     797.211     
178.4       187.932     121.342     2.233       3.536       154.328     92.847      99.201      83.536      118.734     236.986     17.117      1.356       2.55        84.262      258.368     1.364       525.505     554.491     753.095     
178.5       235.505     120.99      2.244       3.472       150.541     91.502      101.2       83.536      130.328     241.986     17.247      1.325       2.556       88.486      273.03      1.364       512.125     502.168     669.726     
178.6       296.483     122.057     2.249       3.604       139.32      92.024      103.2       83.536      171.334     242.786     17.298      1.318       2.554       93.238      310.632     1.363       695.126     595.224     635.779     
178.7       330.37      121.736     2.27        3.44        139.32      90.899      105.2       83.736      176.733     245.184     17.384      1.316       2.523       99.046      344.468     1.361       956.769     786.511     712.795     
