~Version Information Section
VERS.                                         2.0:CWLS log ASCII Standart – VERSION 2.0
WRAP.                                          NO:One line per depth step
~Well Information Section
STRT.M                                        0.0:Начальная глубина
STOP.M                                      166.2:Конечная глубина
STEP.M                                          0:Шаг квантования по глубине
NULL.                                    -9999.25:Признак "Нет данных"
WELL.                                         1Мх:Скважина
~Parameter Information Section
~Curve Information Section
DEPTH.M                                          :Глубина
BK.lgОмм                                         :BK
ПРОФ_СР.мм                                       :ПРОФ_СР
GGKP.имп/мин                                     :GGKp
ГК.мкР/час                                       :GK
ИК.мСм/м                                         :IK
PS.мВ                                            :PS
PZ.Омм                                           :PZ
RIS.Омм                                          :RIS
U1.мВ                                            :U1
U2.мВ                                            :U2
U3.mv                                            :U3
WS.%                                             :WS
ГЗ1.Омм                                          :ГЗ1
ГЗ2.Омм                                          :ГЗ2
ГЗ3.Омм                                          :ГЗ3
ГЗ4.Oмм                                          :ГЗ4
ГЗК.Омм                                          :ГЗК
НГК.усл.ед                                       :ННКб
ННКМ.усл.ед                                      :ННКм
ГЗ5.Oмм                                          :ГЗ5
ПЛ1.имп/мин                                      :ПЛ1
ПЛ2.имп/мин                                      :ПЛ2
ПЛ3.имп/мин                                      :ПЛ3
ПЛ4.имп/мин                                      :ПЛ4
~ASCII LOG DATA
# ...
110.7       22.751      166.395     2.239       7.256       16.453      173.103     14.562      1.065       671.344     543.845     551.107     34.576      2.593       8.12        6.677       7.525       7.03        2.629       1.883       5.971       13920.0     20000.0     13060.0     2840.0      
110.8       22.874      166.242     2.249       7.105       16.464      173.056     14.371      1.065       715.719     542.403     537.065     34.553      2.539       8.29        6.777       7.425       7.007       2.665       1.878       6.071       12360.0     20320.0     13240.0     2860.0      
110.9       22.735      166.241     2.259       7.108       16.365      172.978     14.211      1.065       750.982     516.549     519.2       34.712      2.428       8.241       6.877       7.425       6.886       2.697       1.877       6.371       11400.0     20580.0     13380.0     3040.0      
111.0       22.161      165.758     2.266       7.207       16.239      172.888     14.013      1.065       777.137     466.284     485.409     34.205      2.321       8.169       7.177       7.225       6.911       2.718       1.872       6.571       11040.0     21780.0     13900.0     3280.0      
111.1       21.392      165.639     2.279       7.18        16.154      172.73      13.909      1.065       792.401     397.548     391.398     33.828      2.146       8.096       7.277       7.225       6.983       2.721       1.863       5.971       13440.0     22600.0     14020.0     3440.0      
111.2       20.846      165.84      2.293       7.173       16.08       172.52      13.745      1.065       783.431     342.66      318.865     33.867      2.055       8.072       7.377       7.225       6.911       2.681       1.858       5.971       13200.0     22920.0     14120.0     3500.0      
111.3       20.749      165.472     2.309       7.119       15.969      172.218     13.653      1.065       689.438     299.473     320.53      33.867      2.002       8.0         7.377       7.225       6.596       2.661       1.868       5.871       16080.0     23380.0     14920.0     3580.0      
111.4       20.781      165.166     2.329       6.94        15.859      171.814     13.598      1.065       561.502     267.937     344.178     33.982      1.968       7.975       7.377       7.225       6.451       2.729       1.886       5.771       13200.0     23400.0     15140.0     3520.0      
111.5       20.624      164.98      2.313       6.806       15.822      171.382     13.568      1.065       441.457     246.273     354.022     33.637      1.91        7.83        7.377       7.225       6.378       2.81        1.898       5.671       14880.0     23320.0     15180.0     3680.0      
111.6       20.115      165.006     2.315       6.955       15.751      171.037     13.579      1.065       339.008     233.42      377.837     33.004      1.78        7.709       7.277       7.225       6.427       2.829       1.898       5.671       14400.0     23020.0     15120.0     3620.0      
111.7       19.896      164.49      2.31        7.101       15.697      170.782     13.582      1.065       260.791     233.655     431.462     33.27       1.751       7.733       7.177       7.225       6.547       2.764       1.895       5.671       16320.0     22180.0     13860.0     3460.0      
111.8       20.069      164.433     2.298       7.184       15.644      170.565     13.576      1.065       240.347     256.756     480.679     33.554      1.697       7.709       7.077       7.225       6.741       2.718       1.889       5.571       13800.0     21680.0     13400.0     3160.0      
111.9       20.594      163.876     2.286       7.3         15.608      170.358     13.541      1.065       302.235     306.221     494.698     33.668      1.634       7.733       7.077       7.225       6.813       2.72        1.88        5.471       12480.0     21480.0     13260.0     2900.0      
112.0       20.702      163.025     2.265       7.397       15.539      170.179     13.502      1.065       411.903     368.131     484.452     33.735      1.606       7.709       6.977       7.225       6.717       2.742       1.879       5.471       10680.0     21580.0     13760.0     2680.0      
112.1       20.225      162.851     2.245       7.319       15.383      170.003     13.52       1.065       520.475     424.136     467.005     33.674      1.533       7.709       6.877       7.225       6.548       2.773       1.885       5.571       10680.0     22500.0     14920.0     2760.0      
112.2       19.612      162.288     2.247       7.347       15.365      169.822     13.495      1.065       617.403     471.011     444.587     33.829      1.446       7.612       6.877       7.325       6.378       2.789       1.887       5.671       12840.0     22920.0     15220.0     3040.0      
112.3       19.187      161.975     2.252       7.395       15.281      169.494     13.597      1.065       673.671     496.211     419.904     33.83       1.387       7.54        6.777       7.325       6.475       2.784       1.884       5.671       13440.0     23140.0     15639.999   3140.0      
112.4       19.055      161.59      2.272       7.412       15.206      169.052     13.936      1.065       659.044     477.089     386.462     33.744      1.296       7.515       6.777       7.325       6.524       2.783       1.886       5.771       14520.0     23000.0     15720.0     3340.0      
112.5       19.218      161.158     2.297       7.442       15.273      168.669     14.436      1.065       598.82      423.471     339.882     33.406      1.238       7.491       6.777       7.325       6.717       2.816       1.898       5.771       16080.0     22740.0     14960.0     3360.0      
112.6       20.129      160.512     2.307       7.414       15.426      168.341     15.177      1.065       535.106     371.742     298.681     32.996      1.345       7.588       6.777       7.325       6.862       2.875       1.91        5.771       15720.0     21920.0     14100.0     3220.0      
112.7       21.443      160.32      2.332       7.164       15.574      168.088     15.95       1.065       477.204     334.295     277.536     32.559      1.383       7.588       6.777       7.325       7.056       2.967       1.933       5.771       15000.0     21240.0     13420.0     3180.0      
112.8       22.653      159.556     2.33        6.758       15.741      167.998     16.589      1.065       441.77      315.344     272.509     32.418      1.451       7.588       6.677       7.225       7.056       3.029       1.973       5.771       13320.0     21100.0     12620.0     3000.0      
112.9       22.637      159.337     2.351       6.586       16.052      167.944     17.269      1.065       435.618     315.862     280.329     32.596      1.499       7.588       6.577       7.125       6.765       3.067       2.019       5.671       12120.0     21480.0     12380.0     2760.0      
113.0       21.294      159.076     2.347       6.347       16.279      167.939     17.781      1.065       465.574     336.563     296.91      32.964      1.374       7.419       6.577       7.025       6.354       3.039       2.049       5.571       12600.0     21200.0     12540.0     2600.0      
113.1       19.322      158.419     2.336       6.302       16.453      167.775     18.141      1.065       526.82      370.079     314.605     33.34       1.31        7.346       6.477       7.025       5.919       2.974       2.046       5.471       11520.0     20740.0     12420.0     2520.0      
113.2       17.49       158.372     2.298       6.436       16.571      167.022     18.314      1.065       604.903     399.475     318.203     35.173      1.2         7.25        6.477       7.025       6.119       2.857       2.02        5.371       12000.0     20480.0     12480.0     2260.0      
113.3       16.467      157.82      2.29        6.833       16.751      165.459     18.35       1.065       694.101     420.043     303.664     36.823      1.093       7.177       6.377       7.025       6.219       2.732       1.979       5.371       10320.0     19700.0     12180.0     2360.0      
