~Version Information Section
VERS.                                         2.0:CWLS log ASCII Standart – VERSION 2.0
WRAP.                                          NO:One line per depth step
~Well Information Section
STRT.M                                        0.6:Начальная глубина
STOP.M                                      143.2:Конечная глубина
STEP.M                                          0:Шаг квантования по глубине
NULL.                                    -9999.25:Признак "Нет данных"
WELL.                                       116Мх:Скважина
~Parameter Information Section
~Curve Information Section
DEPTH.M                                          :Глубина
BK.lgОмм                                         :BK     (БК)
ПРОФ_СР.мм                                       :DS  (ДС)
ГК.мкР/час                                       :GK          (ГК)
ГЗ1.Омм                                          :GZ1   ГЗ1(A0.4M0.1N)
ГЗ2.Омм                                          :GZ2   ГЗ2(A1.0M0.1N)
ГЗ3.Омм                                          :GZ3   ГЗ3(A2.0M0.5N)
ГЗ4.Oмм                                          :GZ4   ГЗ4(A4.0M0.5N)
ГЗ5.Oмм                                          :GZ5   ГЗ5(A8.0M0.5N)
ГЗК.Омм                                          :GZK   ГЗK(N0.5M2.0A)
ИК.мСм/м                                         :IK
НГК.усл.ед.                                      :NGK     (НГК)
ПС.мВ                                            :PS       (ПС)
PZ.Омм                                           :PZ    (КС)
RIS.Омм                                          :RS (Резистивиметр)
U1.мВ                                            :U1
U2.mV                                            :U2
U3.мВ                                            :U3
W.г/см3                                          :ГГКп
П.%                                              :п
ННКМ.усл.ед                                      :ННКм
~ASCII LOG DATA
# ...
23.0        36.308      163.033     5.571       17.624      28.993      31.355      26.864      21.131      72.203      13.515      1.03        425.086     95.126      1.13        726.443     932.452     1025.363    2.319       38.58       1.832       
23.1        35.563      160.981     5.319       17.107      28.979      31.291      26.595      20.926      72.198      13.737      1.016       430.356     94.8        1.13        755.461     950.165     1019.506    2.322       37.219      1.849       
23.2        40.738      160.908     5.048       16.745      28.979      31.259      26.403      20.768      72.196      14.145      1.013       435.603     94.474      1.13        762.587     968.171     880.0       2.346       35.725      1.881       
23.3        59.566      160.011     4.85        16.515      28.979      31.259      26.285      20.642      72.195      14.603      1.08        440.668     94.222      1.13        782.433     990.642     880.0       2.362       34.317      1.953       
23.4        56.105      159.965     4.891       16.384      28.979      31.259      26.234      20.537      72.195      15.09       1.163       445.436     94.074      1.13        782.433     1020.878    880.0       2.356       33.696      2.03        
23.5        60.814      159.802     4.674       16.321      28.979      31.259      26.234      20.45       72.195      15.291      1.181       449.84      94.015      1.13        763.53      1020.878    880.0       2.342       33.46       2.065       
23.6        64.714      159.789     4.443       16.302      28.993      31.259      26.234      20.378      72.195      15.763      1.153       453.969     94.0        1.13        763.53      1020.758    880.0       2.323       33.796      2.093       
23.7        58.749      159.944     4.377       16.302      29.022      31.259      26.234      20.321      72.195      16.105      1.128       457.985     94.0        1.13        713.559     985.969     880.0       2.303       34.824      2.124       
23.8        61.235      159.859     4.404       16.302      29.094      31.259      26.243      20.278      72.195      16.277      1.138       462.0       94.0        1.13        689.142     949.948     880.0       2.289       35.504      2.144       
23.9        52.966      160.192     4.517       16.302      29.223      31.259      26.307      20.248      72.195      16.47       1.147       466.061     94.0        1.13        689.142     939.047     880.0       2.299       35.9        2.107       
24.0        52.24       159.942     4.583       16.315      29.439      31.259      26.416      20.227      72.195      16.661      1.154       470.236     94.0        1.12        683.661     918.96      880.0       2.309       35.462      2.068       
24.1        47.973      159.648     4.534       16.355      29.713      31.259      26.566      20.214      72.195      16.77       1.148       474.731     94.0        1.12        683.084     903.647     870.0       2.329       34.87       2.043       
24.2        46.026      159.732     4.397       16.419      30.044      31.259      26.749      20.207      72.195      17.018      1.138       479.727     94.0        1.12        676.495     866.304     870.0       2.362       34.917      2.018       
24.3        58.479      160.123     4.298       16.517      30.39       31.259      26.95       20.204      72.195      17.063      1.113       485.317     94.0        1.12        596.216     804.842     740.0       2.375       34.544      2.004       
24.4        67.143      160.217     4.419       16.651      30.721      31.259      27.155      20.204      72.195      17.326      1.119       491.317     94.0        1.12        560.473     775.165     740.0       2.391       33.414      2.014       
24.5        66.988      160.355     4.49        16.826      30.98       31.275      27.347      20.204      72.195      17.405      1.134       497.386     94.0        1.12        560.473     765.791     740.0       2.394       32.708      2.073       
24.6        64.714      160.942     4.349       17.049      31.182      31.323      27.523      20.204      72.195      17.472      1.136       502.998     94.015      1.12        624.848     751.815     740.0       2.371       31.94       2.12        
24.7        63.533      161.891     4.09        17.322      31.34       31.435      27.67       20.205      72.195      17.438      1.188       507.789     94.059      1.12        685.253     755.469     740.0       2.348       32.299      2.132       
24.8        64.417      161.31      3.849       17.644      31.455      31.627      27.786      20.212      72.195      17.372      1.195       511.622     94.163      1.11        730.0       759.354     750.0       2.336       33.221      2.151       
24.9        64.565      161.07      3.651       18.005      31.542      31.899      27.872      20.229      72.195      17.288      1.17        514.725     94.311      1.125       733.333     789.395     770.0       2.322       33.37       2.169       
25.0        90.573      161.758     3.585       18.387      31.628      32.219      27.933      20.262      72.195      17.069      1.082       517.417     94.504      1.125       736.667     848.271     770.0       2.314       33.487      2.219       
25.1        89.743      161.513     3.77        18.757      31.715      32.571      27.968      20.318      72.195      16.987      1.027       520.018     94.696      1.125       743.333     902.531     780.0       2.321       33.434      2.264       
25.2        57.28       160.977     4.293       19.08       31.772      32.891      27.987      20.406      72.195      16.679      1.007       522.665     94.919      1.125       753.333     903.785     790.0       2.309       33.713      2.257       
25.3        37.584      162.169     4.864       19.303      31.815      33.147      27.997      20.529      72.195      16.558      0.995       525.334     95.17       1.125       763.333     903.785     820.0       2.293       35.352      2.207       
25.4        44.361      163.082     5.367       19.402      31.844      33.355      28.0        20.688      72.196      16.335      0.986       527.866     95.511      1.125       763.333     854.245     720.0       2.305       36.549      2.076       
25.5        54.828      163.341     5.697       19.402      31.844      33.547      28.0        20.874      72.197      16.19       0.97        530.102     95.896      1.125       675.195     787.231     720.0       2.32        37.208      2.013       
25.6        41.976      165.88      5.948       19.402      31.844      33.707      28.0        21.076      72.2        15.855      0.953       531.95      96.281      1.125       573.621     729.395     720.0       2.345       37.924      2.063       
25.7        27.99       168.683     6.187       19.377      31.844      33.883      28.0        21.274      72.205      15.455      0.972       533.388     96.563      1.125       469.116     701.316     730.0       2.36        38.64       2.061       
25.8        26.242      166.542     6.065       19.243      31.815      34.091      28.0        21.448      72.21       15.377      1.015       534.437     96.726      1.125       461.361     698.966     740.0       2.318       39.456      2.022       
25.9        25.704      164.173     5.988       19.026      31.758      34.315      28.0        21.581      72.21       15.266      1.051       535.167     96.785      1.125       461.361     698.966     740.0       2.281       39.956      1.896       
26.0        24.946      163.424     5.616       18.776      31.671      34.523      28.0        21.661      72.21       15.199      1.06        535.692     96.8        1.125       476.014     712.448     750.0       2.238       39.179      1.784       
26.1        24.491      163.736     5.294       18.521      31.556      34.731      28.0        21.689      72.21       15.19       1.086       536.148     96.8        1.125       568.621     785.066     760.0       2.205       38.31       1.784       
