~Version Information Section
VERS.                                         2.0:CWLS log ASCII Standart – VERSION 2.0
WRAP.                                          NO:One line per depth step
~Well Information Section
STRT.M                                       -0.5:Начальная глубина
STOP.M                                      184.3:Конечная глубина
STEP.M                                          0:Шаг квантования по глубине
NULL.                                    -9999.25:Признак "Нет данных"
WELL.                                       133Мх:Скважина
~Parameter Information Section
~Curve Information Section
DEPTH.M                                          :Глубина
DS.mm                                            :DS  (ДС)
GGK.g/cm3                                        :GGKp
ГК.mcr/h                                         :GK          (ГК)
GZ1.Ohm*M                                        :GZ1   ГЗ1(A0.4M0.1N)
GZ2.Ohm*M                                        :GZ2   ГЗ2(A1.0M0.1N)
GZ3.Ohm*M                                        :GZ3   ГЗ3(A2.0M0.5N)
GZ4.Ohm*M                                        :GZ4   ГЗ4(A4.0M0.5N)
GZ5.Ohm*M                                        :GZ5   ГЗ5(A8.0M0.5N)
GZR.Ohm*M                                        :GZK   ГЗK(N0.5M2.0A)
ИК.Ohm*M                                         :IK
НГК.ue                                           :NGK     (НГК)
NNKM.                                            :NNKm  (ННКм)
PS.mv                                            :PS       (ПС)
PZ.Ohm*M                                         :PZ    (КС)
RS.Ohm*M                                         :RS (Резистивиметр)
U1.mV                                            :U1
U2.mV                                            :U2
U3.mV                                            :U3
BK.Ohm*M                                         :БК
ПОРИСТОСТЬ.                                      :Пористость ННК
~ASCII LOG DATA
# ...
85.9        132.685     2.17        3.915       249.438     374.518     365.744     382.415     100.959     29.408      31.736      1.578       2.676       84.539      27.328      1.202       473.483     1271.364    2073.083    244.269     29.325      
86.0        132.952     2.192       3.858       209.693     380.464     365.72      386.274     93.662      28.414      30.456      1.666       2.67        88.599      17.632      1.202       467.663     1280.328    2063.609    303.579     30.015      
86.1        133.175     2.201       3.64        202.507     380.464     359.142     386.274     90.003      26.603      29.008      1.745       2.668       93.687      11.716      1.202       472.764     1285.861    2065.545    487.566     30.225      
86.2        133.118     2.212       3.609       194.021     378.243     338.431     379.772     80.98       24.105      27.488      1.806       2.694       99.626      9.024       1.202       478.697     1285.038    2072.855    549.723     29.869      
86.3        132.853     2.224       3.696       164.267     361.621     301.712     355.144     70.777      22.736      26.103      1.818       2.733       106.159     8.24        1.202       478.708     1281.826    2074.276    355.71      28.345      
86.4        132.605     2.236       3.854       114.013     314.252     253.026     308.848     64.654      22.736      24.947      1.805       2.746       113.055     8.111       1.202       476.523     1281.045    2070.417    234.875     27.285      
86.5        132.414     2.278       4.312       71.452      243.881     201.01      248.598     58.571      22.736      24.012      1.752       2.743       120.077     8.02        1.202       476.173     1282.818    2065.54     153.193     25.597      
86.6        132.262     2.318       5.298       51.787      172.96      152.637     190.322     53.368      23.051      23.211      1.621       2.69        126.987     7.874       1.202       478.391     1283.662    2062.188    106.168     25.492      
86.7        132.245     2.32        6.969       49.282      114.57      113.14      146.256     48.819      26.191      22.425      1.479       2.56        133.539     7.695       1.202       479.833     1282.748    2061.7      71.806      26.714      
86.8        132.414     2.299       9.21        50.192      72.123      85.462      118.321     45.093      33.232      21.538      1.387       2.379       139.469     7.489       1.198       479.647     1280.973    2064.434    23.964      30.555      
86.9        132.685     2.264       12.069      48.701      48.072      68.989      104.074     42.212      40.451      20.264      1.413       2.205       144.492     7.263       1.198       479.279     1280.082    2067.684    17.686      33.161      
87.0        132.964     2.244       14.12       44.356      36.455      58.58       98.305      39.242      44.726      18.571      1.485       2.158       148.419     7.073       1.198       478.473     1280.475    2068.21     16.167      35.26       
87.1        133.198     2.234       14.518      39.813      27.25       51.018      93.452      35.905      46.0        17.328      1.59        2.243       151.185     6.982       1.198       477.764     1280.763    2066.711    16.022      33.916      
87.2        133.316     2.233       13.153      36.971      19.616      43.6        84.275      32.685      46.0        16.766      1.658       2.417       152.861     6.961       1.198       478.273     1279.894    2066.106    17.586      31.961      
87.3        133.369     2.254       9.871       34.577      13.919      33.988      69.839      26.386      44.963      16.757      1.713       2.562       153.649     6.959       1.198       480.116     1278.054    2067.397    33.2        28.496      
87.4        133.616     2.268       8.103       32.238      11.79       23.835      53.25       18.852      40.757      16.707      1.712       2.564       153.816     6.961       1.198       481.493     1276.287    2068.611    47.435      27.074      
87.5        134.189     2.266       7.253       30.041      10.871      16.074      36.671      5.637       33.365      16.646      1.648       2.425       153.598     6.962       1.198       481.333     1275.853    2068.637    21.761      27.443      
87.6        134.922     2.265       8.268       28.586      9.853       10.325      21.775      5.569       26.425      16.669      1.559       2.253       153.183     6.992       1.198       480.515     1276.948    2068.114    18.445      29.934      
87.7        135.507     2.26        8.766       27.998      9.753       5.223       11.996      5.501       22.786      16.758      1.489       2.122       152.704     7.071       1.194       480.168     1278.122    2067.755    17.58       32.092      
87.8        135.714     2.247       8.718       27.707      9.753       2.61        8.505       5.432       21.566      16.884      1.486       2.043       152.228     7.169       1.194       480.606     1278.218    2067.84     17.773      34.87       
87.9        135.714     2.249       8.632       27.704      9.753       2.114       8.374       5.364       20.966      16.987      1.487       2.041       151.782     7.241       1.194       480.931     1277.772    2067.819    18.18       36.027      
88.0        135.908     2.264       8.477       28.017      10.634      2.114       8.257       5.296       20.543      17.073      1.503       2.095       151.352     7.312       1.194       480.631     1277.935    2067.459    18.293      35.708      
88.1        136.405     2.272       8.393       28.274      12.358      2.114       8.051       5.228       20.649      17.325      1.503       2.176       150.868     7.406       1.194       479.536     1278.764    2066.625    19.107      34.189      
88.2        136.851     2.276       8.207       28.257      14.092      2.215       7.82        5.16        21.09       17.786      1.527       2.281       150.209     7.535       1.194       477.408     1279.261    2065.006    20.76       33.129      
88.3        136.772     2.266       8.137       28.709      15.756      2.459       7.52        5.092       21.378      18.325      1.541       2.345       149.254     7.704       1.194       474.993     1279.214    2063.14     22.236      31.146      
88.4        136.136     2.255       8.438       29.178      16.531      3.181       7.285       5.024       21.452      18.86       1.547       2.354       147.893     7.902       1.194       473.985     1279.564    2062.361    22.093      29.835      
88.5        135.477     2.257       8.67        29.178      16.532      5.283       7.24        6.208       21.79       19.33       1.561       2.325       146.089     8.113       1.194       475.929     1281.053    2063.792    20.935      29.334      
88.6        135.451     2.292       8.69        29.069      16.958      7.59        7.24        6.937       23.509      19.706      1.619       2.273       143.894     8.34        1.194       478.076     1282.582    2065.313    20.784      29.709      
88.7        135.913     2.307       8.611       29.147      17.604      8.931       7.24        7.912       27.33       20.002      1.676       2.223       141.413     8.598       1.194       476.065     1282.572    2063.75     20.677      30.352      
88.8        136.027     2.29        8.723       29.591      17.825      10.266      7.379       9.226       32.885      20.264      1.66        2.21        138.755     8.913       1.194       471.006     1281.255    2059.999    20.528      31.409      
88.9        135.431     2.268       8.751       29.874      17.825      12.046      7.819       10.794      39.77       20.539      1.635       2.203       136.025     9.342       1.194       467.517     1280.163    2057.434    20.903      32.094      
89.0        134.55      2.241       8.728       30.136      18.879      14.471      8.645       12.39       47.587      20.832      1.622       2.198       133.314     9.981       1.194       468.189     1280.303    2057.775    20.335      32.091      
