~Version Information Section
VERS.                                         2.0:CWLS log ASCII Standart – VERSION 2.0
WRAP.                                          NO:One line per depth step
~Well Information Section
STRT.M                                        0.0:Начальная глубина
STOP.M                                      133.6:Конечная глубина
STEP.M                                          0:Шаг квантования по глубине
NULL.                                    -9999.25:Признак "Нет данных"
WELL.                                       118Мх:Скважина
~Parameter Information Section
~Curve Information Section
DEPTH.M                                          :Глубина
BK.Ohm*M                                         :BK     (БК)
DS.mm                                            :DS  (ДС)
GGK.g/cm3                                        :GGKp
ГК.mcr/h                                         :GK          (ГК)
GZ1.Ohm*M                                        :GZ1   ГЗ1(A0.4M0.1N)
GZ2.Ohm*M                                        :GZ2   ГЗ2(A1.0M0.1N)
GZ3.Ohm*M                                        :GZ3   ГЗ3(A2.0M0.5N)
GZ4.Ohm*M                                        :GZ4   ГЗ4(A4.0M0.5N)
GZ5.Ohm*M                                        :GZ5   ГЗ5(A8.0M0.5N)
GZR.Ohm*M                                        :GZK   ГЗK(N0.5M2.0A)
ИК.Ohm*M                                         :IK
НГК.усл.ед                                       :NGK
NNKM.                                            :NNKm  (ННКм)
PS.mv                                            :PS       (ПС)
PZ.Ohm*M                                         :PZ    (КС)
RS.Ohm*M                                         :RS (Резистивиметр)
U1.mV                                            :U1
U2.mV                                            :U2
U3.mV                                            :U3
W.%                                              :W
~ASCII LOG DATA
# ...
76.8        56.885      156.86      2.293       5.391       75.128      94.715      96.621      58.271      66.143      49.048      13.812      1.294       2.352       1185.526    138.781     1.031       1279.004    1033.856    877.893     24.621      
77.0        52.602      155.29      2.353       5.717       79.717      106.825     95.056      59.34       60.437      42.377      13.649      1.287       2.463       1184.806    128.092     1.031       1301.411    1040.182    883.422     24.23       
77.2        45.814      156.178     2.362       5.317       78.232      104.347     82.151      55.495      55.326      44.193      13.411      1.246       2.384       1183.126    115.469     1.031       1386.101    948.443     701.179     25.989      
77.4        24.044      157.054     2.364       4.99        57.299      75.372      64.202      47.355      51.191      50.046      13.308      1.107       2.228       1180.966    104.673     1.031       1079.357    705.019     501.997     28.183      
77.6        18.88       157.839     2.323       5.555       37.766      54.002      52.924      42.328      47.2        52.459      13.187      1.09        1.985       1178.566    98.334      1.031       736.765     582.174     520.086     33.041      
77.8        33.806      159.814     2.316       6.292       35.227      54.241      54.502      45.857      44.656      47.055      12.821      1.063       2.028       1176.646    96.105      1.03        526.341     417.829     385.702     31.089      
78.0        44.463      155.229     2.308       6.174       41.742      58.484      57.721      55.518      45.522      44.653      12.469      1.119       2.237       1174.966    96.266      1.029       385.005     273.167     236.989     26.812      
78.2        48.529      155.976     2.305       5.845       52.226      57.872      61.315      76.244      48.251      44.007      12.721      1.194       2.325       1173.766    97.287      1.028       459.767     350.067     312.567     26.234      
78.4        45.186      155.161     2.269       5.915       57.251      56.486      62.993      79.02       51.899      44.628      13.112      1.142       2.259       1173.526    99.167      1.027       549.079     429.123     381.804     29.27       
78.6        44.463      156.218     2.277       5.347       57.184      58.8        70.678      86.323      53.243      43.313      13.392      1.2         2.267       1174.486    103.061     1.026       476.308     344.891     302.524     28.387      
78.8        61.659      156.303     2.355       5.514       70.003      80.339      73.418      91.527      54.796      40.744      13.489      1.318       2.385       1175.446    108.97      1.025       460.392     362.593     486.905     25.675      
79.0        45.499      156.798     2.421       4.989       62.933      74.459      71.96       91.837      56.816      39.035      13.503      1.312       2.426       1176.406    114.529     1.023       483.488     429.015     707.894     22.188      
79.2        45.29       157.816     2.398       4.936       66.837      79.473      70.43       88.123      57.986      37.265      13.366      1.251       2.272       1177.606    115.469     1.022       610.974     526.658     731.374     25.216      
79.4        53.211      158.1       2.374       5.358       69.011      84.026      69.982      87.24       56.897      35.509      13.207      1.222       2.41        1179.046    109.453     1.02        409.571     474.076     863.434     25.141      
79.6        44.875      159.019     2.366       5.442       66.293      79.67       65.849      83.943      58.486      36.483      13.015      1.159       2.363       1179.766    98.361      1.019       428.175     502.006     786.873     24.527      
79.8        41.591      159.584     2.332       5.829       64.816      81.282      64.414      81.006      60.111      37.863      12.771      1.128       2.228       1180.966    87.162      1.018       590.14      540.212     590.353     28.127      
80.0        40.087      160.02      2.323       5.768       62.923      86.795      69.994      82.877      58.501      36.707      12.558      1.14        2.24        1182.886    79.212      1.018       592.56      444.779     384.396     27.867      
80.2        45.709      160.135     2.35        5.233       71.373      97.639      71.327      83.839      56.769      35.325      12.298      1.231       2.415       1185.046    74.942      1.017       558.88      415.818     358.172     25.943      
80.4        26.303      160.04      2.389       4.834       55.451      74.037      65.198      76.853      54.209      34.071      12.067      1.245       2.357       1187.446    72.256      1.015       565.805     493.9       500.727     27.598      
80.6        27.102      160.728     2.401       5.432       46.037      61.142      56.978      67.485      48.37       31.892      11.646      1.218       2.248       1191.046    69.544      1.012       521.993     475.14      518.007     28.627      
80.8        34.356      159.412     2.36        5.337       41.889      60.027      51.353      60.934      42.365      30.215      11.428      1.155       2.239       1194.886    66.536      1.01        574.134     405.09      345.496     31.505      
81.0        25.235      159.355     2.376       5.448       38.227      44.99       46.686      54.475      38.415      30.201      11.275      1.183       2.164       1198.006    63.474      1.008       734.294     395.246     242.621     34.001      
81.2        28.379      159.778     2.371       6.141       41.573      46.095      43.189      47.926      35.864      31.322      11.115      1.133       2.075       1200.886    60.815      1.007       848.035     398.951     216.201     34.529      
81.4        23.714      160.423     2.334       6.414       37.546      41.153      41.518      45.719      32.953      32.543      10.977      1.053       2.025       1203.046    58.854      1.005       636.782     362.807     259.694     32.574      
81.6        22.336      161.18      2.304       6.326       34.123      39.422      39.054      42.909      31.9        33.869      10.87       1.051       1.98        1203.286    57.565      1.003       645.344     472.45      396.163     34.884      
81.8        22.336      161.402     2.318       6.422       32.286      38.203      36.698      39.961      31.499      35.657      10.752      1.092       1.987       1202.806    56.786      1.002       802.01      489.163     351.904     34.332      
82.0        20.989      160.18      2.318       6.731       28.956      33.568      34.861      37.881      32.411      38.186      10.714      1.079       1.978       1201.846    56.222      1.0         576.208     312.95      218.088     32.738      
82.2        23.55       160.772     2.287       6.946       29.568      33.198      35.034      37.966      34.113      39.315      10.744      1.062       2.013       1200.886    55.793      0.998       398.152     304.687     291.448     35.711      
82.4        24.831      160.632     2.288       6.555       31.633      34.063      35.983      39.145      39.937      39.465      10.857      1.021       2.075       1199.926    55.685      0.998       431.967     280.248     239.154     31.831      
82.6        25.177      159.957     2.333       6.365       31.688      32.361      35.679      39.912      43.153      38.163      11.014      1.0         2.06        1199.686    56.034      0.998       670.134     254.796     118.367     28.957      
82.8        28.119      160.081     2.336       6.679       35.14       34.375      34.9        39.512      44.422      37.654      11.128      1.051       2.075       1199.926    56.974      0.998       916.153     326.398     142.443     31.598      
83.0        23.823      161.452     2.324       6.516       33.189      31.208      33.922      38.684      44.248      37.914      11.222      1.052       2.026       1200.406    58.237      0.999       588.001     324.202     253.259     37.636      
