~Version Information Section
VERS.                                         2.0:CWLS log ASCII Standart – VERSION 2.0
WRAP.                                          NO:One line per depth step
~Well Information Section
STRT.M                                       -0.3:Начальная глубина
STOP.M                                      200.8:Конечная глубина
STEP.M                                          0:Шаг квантования по глубине
NULL.                                    -9999.25:Признак "Нет данных"
WELL.                                       124Мх:Скважина
~Parameter Information Section
~Curve Information Section
DEPTH.M                                          :Глубина
U1.мВ                                            :U1
U2.                                              :U2
U3.мВ                                            :U3
БЗ.имп/мин                                       :БЗ
ГГКП.имп/мин                                     :ГГКп
ГЗ1.Омм                                          :ГЗ1
ГЗ2.Омм                                          :ГЗ2
ГЗ3.Омм                                          :ГЗ3
ГЗ4.Oмм                                          :ГЗ4
ГЗ5.Oмм                                          :ГЗ5
ГЗК.Омм                                          :ГЗК
КП.%                                             :Кп
МЗ.                                              :МЗ жесткий
НГК.усл.ед                                       :ННКб
ННКМ.усл.ед                                      :ННКм
ПРОФ_СР.мм                                       :ПРОФ_СР
ПС.мВ                                            :ПС
BK.lgОмм                                         :BK
ГК.имп/мин                                       :GK
ИК.мСм/м                                         :IK
PZ.Омм                                           :PZ
RIS.Омм                                          :RIS
~ASCII LOG DATA
# ...
20.0        1218.722656 3350.852295 1489.968628 20560.0     2.38563     8.354       13.31       17.388      14.864      22.888      21.799      25.115789   17870.0     2.938782    2.082847    158.580002  202.048004  34.593941   4.627       17.391304   55.279999   1.06        
20.1        1256.116577 3370.123535 1439.578979 20560.0     2.387069    8.348       13.284      17.474001   14.888      22.944      21.813      25.328102   17870.0     2.841559    2.093441    158.779007  203.895996  34.276775   5.267       17.391304   55.919998   1.06        
20.2        1277.544312 3387.672607 1443.226196 20560.0     2.379065    8.343       13.264      17.65       14.944      22.976      21.858999   25.4895     17870.0     2.852956    2.114627    160.128998  206.360001  36.982815   5.395       17.391304   56.32       1.06        
20.3        1269.28064  3383.509277 1452.112305 20560.0     2.365695    8.337       13.246      17.926001   15.024      22.983999   21.936001   25.724958   17870.0     2.88738     2.101733    161.102005  208.207993  43.752213   5.267       17.391304   57.439999   1.06        
20.4        1229.592041 3353.17749  1450.132324 20560.0     2.347769    8.329       13.226      18.313      15.128      22.983999   22.034      26.243479   17870.0     2.740224    2.07355     162.660995  211.287994  37.23917    5.274       17.391304   58.560001   1.06        
20.5        1200.077393 3336.612305 1465.72229  20324.3476562.33412     8.318       13.201      18.775999   15.232      22.983999   22.096001   26.627096   18180.8691412.573382    2.022204    163.785995  214.367996  34.673683   5.434       17.391304   59.919998   1.06        
20.6        1198.049805 3350.607666 1511.173462 19467.8261722.325283    8.301       13.173      19.285      15.336      22.968      22.096001   26.887218   18983.4785162.545471    1.962599    163.847     218.063995  31.76874    5.242       17.391304   61.279999   1.06        
20.7        1245.375244 3407.247559 1577.015503 18547.8261722.315238    8.272       13.14       19.806      15.424      22.92       22.096001   26.929499   19174.7832032.60548     1.923725    163.330994  221.143997  27.797132   4.858       17.391304   62.639999   1.06        
20.8        1333.820679 3491.374756 1637.987671 18184.5449222.299011    8.232       13.101      20.326      15.488      22.848      22.076      26.431604   18617.2734382.785905    1.900919    164.242004  225.455994  25.763212   4.867       17.391304   63.439999   1.06        
20.9        1406.996948 3548.753906 1652.539307 18857.5     2.270022    8.189       13.056      20.833      15.504      22.752001   21.927999   26.353844   18033.3339842.742708    1.907139    163.815994  229.768005  24.774223   4.877       17.391304   64.32       1.06        
21.0        1417.359375 3543.287354 1612.813721 19409.0917972.225062    8.146       13.009      21.271      15.504      22.639999   21.617001   26.531366   18048.1816412.677397    1.971281    160.858002  235.311996  24.490635   4.877       17.391304   64.879997   1.06        
21.1        1354.166138 3469.037354 1523.460327 18960.0     2.168367    8.105       12.959      21.521      15.504      22.528      21.127001   25.945574   18398.8242192.723357    2.032312    158.701996  239.623993  25.35129    4.877       17.391304   65.839996   1.06        
21.2        1345.638184 3428.583984 1453.785034 17645.7148442.110754    8.07        12.907      21.587      15.472      22.424      20.489      25.271421   18831.4277342.770619    2.032312    157.863007  244.552002  29.241522   4.445       17.391304   66.959999   1.06        
21.3        1466.424072 3481.173584 1443.662598 16624.2851562.069904    8.043       12.855      21.587      15.384      22.32       19.731001   26.02771    19512.8574222.681923    2.026247    158.445999  251.944     27.289778   4.358       17.391304   69.199997   1.06        
21.4        1623.682007 3568.199219 1464.28894  16152.0     2.065041    8.019       12.786      21.587      15.248      22.216      18.889      26.829617   19925.3339842.684095    1.995926    158.699997  258.720001  25.882128   4.762       17.391304   72.720001   1.06        
21.5        1675.579712 3593.036865 1459.583618 16596.9238282.095164    8.005       12.692      21.476      15.048      22.112      18.004      25.246887   19980.0     2.960878    1.96655     159.324005  266.112     24.660391   4.746       17.953321   76.32       1.06        
21.6        1573.145264 3520.450684 1406.993896 17204.0     2.15036     8.005       12.568      21.191      14.816      22.0        17.121      23.673716   19342.6660163.135321    1.951196    159.473007  274.735992  24.547089   4.666       18.588741   81.279999   1.06        
21.7        1451.094971 3428.006104 1339.311035 17650.7695312.212344    8.005       12.415      20.795      14.552      21.888      16.295      21.516232   18747.6914063.288519    1.993309    159.274002  283.359985  24.660391   4.352       19.368584   86.160004   1.06        
21.8        1402.243652 3368.699951 1278.592285 17738.5722662.260352    8.005       12.236      20.412001   14.272      21.792      15.574      18.214931   18220.0     3.779607    2.071834    157.139999  290.135986  24.831329   3.725       20.197531   90.959999   1.06        
21.9        1407.253662 3347.387695 1245.321655 17317.3339842.273885    8.005       12.053      20.037001   13.976      21.712      15.002      14.471094   17742.6660165.026129    2.330282    153.841995  297.528015  25.176771   3.492       20.981956   94.480003   1.06        
22.0        1408.575317 3349.047363 1252.120361 17158.4609382.264747    8.026       11.876      19.674      13.728      21.656      14.608      12.616364   17481.5390635.784533    2.609002    153.328003  303.687988  26.607248   3.398       21.468441   98.080002   1.06        
22.1        1374.877319 3359.495361 1296.007324 17061.5390632.24473     8.079       11.713      19.329      13.528      21.624001   14.608      11.048947   17355.3847666.73954     2.766243    152.774002  308.615997  47.973343   3.379       22.270723   100.32      1.06        
22.2        1331.997925 3381.344238 1379.600342 17082.8574222.225084    8.17        11.566      19.040001   13.392      21.608      14.608      10.561879   17587.1425787.138675    2.914094    152.839996  316.007996  84.722733   3.424       23.199165   102.639999  1.06        
22.3        1301.546387 3417.478027 1507.393311 17466.1542972.21357     8.297       11.46       18.823999   13.328      21.6        14.608      10.280563   17527.6914067.647346    3.025662    153.042999  322.783997  95.27961    3.648       24.338598   105.760002  1.06        
22.4        1319.664673 3461.196533 1612.109009 17497.3339842.215593    8.461       11.425      18.681999   13.328      21.6        14.726      10.461999   17758.6660167.910173    3.120708    153.085007  328.944     95.719398   3.539       25.639055   109.919998  1.06        
22.5        1415.571045 3498.41333  1604.161621 17853.8457032.221252    8.661       11.425      18.607      13.328      21.6        14.965      10.882134   18335.3847667.912727    3.182323    153.584     335.104004  97.498955   3.322       26.239143   114.080002  1.06        
22.6        1536.185791 3522.452393 1515.332886 18364.2851562.225072    8.879       11.425      18.591      13.328      21.6        15.284      11.278195   18404.2851567.453133    3.202991    153.841003  341.264008  106.414291  3.27        27.462721   118.239998  1.06        
22.7        1594.946045 3540.164551 1469.447388 18824.2851562.227393    9.124       11.425      18.591      13.336      21.6        15.642      11.445005   18717.1425787.253338    3.162173    153.723999  344.343994  105.43869   3.245       28.196018   122.32      1.06        
22.8        1556.139038 3558.171387 1532.988037 19235.7148442.231038    9.38        11.468      18.591      13.384      21.615999   16.040001   11.924238   18662.8574226.961669    3.134767    152.873993  347.424011  104.472038  2.951       28.513588   124.32      1.06        
