~Version Information Section
VERS.                                         2.0:CWLS log ASCII Standart – VERSION 2.0
WRAP.                                          NO:One line per depth step
~Well Information Section
STRT.M                                        2.1:Начальная глубина
STOP.M                                      196.8:Конечная глубина
STEP.M                                          0:Шаг квантования по глубине
NULL.                                    -9999.25:Признак "Нет данных"
WELL.                                       154Мх:Скважина
~Parameter Information Section
~Curve Information Section
DEPTH.M                                          :Глубина
BK.lgОмм                                         :BK     (БК)
DСР.мм                                           :DS  (ДС)
ГГКП.g/cm3                                       :GGKp
ГК.мкР/час                                       :GK          (ГК)
ГЗ1.Омм                                          :GZ1   ГЗ1(A0.4M0.1N)
ГЗ2.Омм                                          :GZ2   ГЗ2(A1.0M0.1N)
ГЗ3.Омм                                          :GZ3   ГЗ3(A2.0M0.5N)
ГЗ4.Oмм                                          :GZ4   ГЗ4(A4.0M0.5N)
ГЗ5.Oмм                                          :GZ5   ГЗ5(A8.0M0.5N)
ГЗК.Омм                                          :GZR   ГЗK(N0.5M2.0A)
ИК.мСм/м                                         :IK
НГК.усл.ед.                                      :NGK     (НГК)
РЕЗ.Омм                                          :RS (Резистивиметр)
W.                                               :W
ННКМ.усл.ед                                      :NNKm  (ННКм)
PS.мB                                            :PS       (ПС)
~ASCII LOG DATA
# ...
170.1       15.707      190.724     2.26        5.604       82.29       33.354      45.862      15.503      14.75       39.96       16.274      1.175       1.064       30.425      1.118       46.008      
170.2       16.699      188.638     2.158       4.664       82.71       34.394      45.862      15.743      14.89       41.0        17.023      1.249       1.063       29.752      1.125       45.472      
170.3       23.144      186.281     2.069       4.005       82.71       34.914      45.862      15.863      15.03       42.04       17.896      1.328       1.062       28.318      1.149       44.998      
170.4       48.852      185.097     2.015       3.544       82.71       35.954      45.862      16.103      15.45       44.12       18.881      1.4         1.061       26.594      1.187       44.524      
170.5       85.964      185.483     2.002       3.42        83.55       38.554      45.862      16.223      15.59       45.16       19.972      1.474       1.061       25.123      1.237       44.03       
170.6       117.424     189.034     2.02        3.341       83.97       43.234      46.302      16.703      16.15       46.2        21.014      1.54        1.061       23.822      1.294       43.543      
170.7       128.628     198.805     2.042       3.301       83.97       48.954      46.302      16.943      16.57       49.32       22.073      1.575       1.061       23.098      1.336       43.133      
170.8       129.125     176.301     2.056       3.215       84.39       53.114      46.742      17.183      16.85       55.56       23.359      1.585       1.061       22.737      1.36        42.793      
170.9       128.341     172.872     2.047       3.42        84.81       56.234      47.182      17.183      17.41       57.64       24.518      1.6         1.061       22.63       1.372       42.55       
171.0       123.78      170.357     2.055       3.449       85.23       58.314      47.622      17.663      17.69       59.72       25.616      1.625       1.061       22.747      1.371       42.318      
171.1       116.473     167.908     2.046       3.452       85.65       59.354      48.062      17.783      17.97       64.92       26.701      1.665       1.061       22.961      1.373       42.215      
171.2       109.219     166.236     2.051       3.443       86.07       62.474      49.382      18.743      18.95       71.16       27.587      1.72        1.061       23.135      1.388       42.189      
171.3       106.181     164.306     2.045       3.436       86.49       65.594      51.142      19.943      20.63       75.32       28.566      1.742       1.061       23.435      1.408       42.257      
171.4       107.365     163.393     2.049       3.388       86.91       66.114      52.462      20.543      22.45       85.72       29.377      1.763       1.061       23.228      1.428       42.357      
171.5       111.355     162.812     2.041       3.454       87.33       68.714      52.902      20.663      22.73       87.8        30.254      1.803       1.061       22.574      1.452       42.486      
171.6       113.695     163.428     2.019       3.526       87.33       71.834      53.342      20.903      27.07       90.92       30.977      1.834       1.061       21.993      1.472       42.641      
171.7       112.18      162.705     1.998       3.714       88.17       72.354      53.342      21.143      27.07       93.0        30.977      1.839       1.061       21.452      1.486       42.818      
171.8       109.668     163.217     1.998       3.905       88.59       72.874      53.782      21.503      27.07       107.56      31.772      1.841       1.061       21.059      1.5         42.947      
171.9       110.629     163.681     2.015       3.765       88.59       74.434      53.782      21.743      26.93       122.12      32.365      1.844       1.059       21.176      1.511       43.102      
172.0       113.19      178.28      2.035       3.62        107.49      74.434      53.782      21.983      26.79       127.32      33.547      1.776       1.058       21.585      1.512       43.235      
172.1       111.793     195.959     2.068       3.519       110.85      76.514      53.782      22.223      26.37       131.48      33.547      1.712       1.056       22.186      1.502       43.364      
172.2       103.745     191.205     2.084       3.422       112.53      79.114      54.222      22.343      25.95       132.52      34.013      1.652       1.053       22.821      1.486       43.444      
172.3       95.507      179.291     2.101       3.278       113.79      80.154      54.662      22.463      25.95       131.48      34.392      1.639       1.051       23.436      1.463       43.496      
172.4       92.428      181.991     2.094       3.321       114.63      79.634      54.662      22.943      25.39       130.44      34.683      1.624       1.049       23.878      1.44        43.525      
172.5       95.362      180.035     2.086       3.365       119.241     74.434      55.542      22.103      24.83       130.44      35.044      1.635       1.047       24.228      1.423       43.551      
172.6       98.116      171.547     2.075       3.431       119.241     69.754      55.982      21.383      24.41       128.36      35.276      1.62        1.045       24.206      1.412       43.551      
172.7       97.896      170.499     2.086       3.427       122.667     68.714      56.862      21.023      23.99       127.32      35.545      1.611       1.044       23.814      1.407       43.527      
172.8       97.515      169.299     2.075       3.463       123.554     68.194      68.302      20.903      23.71       126.28      35.956      1.624       1.044       23.366      1.404       43.475      
172.9       98.126      163.722     2.065       3.516       120.837     68.194      76.662      20.903      23.15       125.24      36.024      1.625       1.044       23.001      1.402       43.379      
173.0       100.314     164.316     2.063       3.653       122.6       67.674      77.982      20.903      23.15       124.2       36.06       1.626       1.044       22.536      1.411       43.276      
173.1       101.237     165.734     2.066       3.728       122.6       67.154      77.982      21.143      23.15       123.16      36.444      1.646       1.044       22.206      1.432       43.121      
173.2       101.938     176.582     2.072       3.779       126.536     67.154      77.982      21.263      23.43       123.16      36.517      1.659       1.044       22.324      1.446       42.897      
173.3       101.783     178.492     2.082       3.796       126.338     67.154      77.982      21.263      23.85       121.08      36.694      1.625       1.044       22.673      1.45        42.664      
173.4       99.814      183.955     2.086       3.853       126.338     67.154      77.542      21.383      23.99       121.08      36.802      1.58        1.044       23.299      1.453       42.281      
173.5       96.734      182.494     2.084       3.794       112.847     67.154      77.102      21.503      23.99       120.04      36.84       1.508       1.044       24.264      1.444       41.868      
173.6       96.272      162.593     2.109       3.686       109.896     67.154      77.102      21.623      24.27       120.04      36.948      1.446       1.044       26.069      1.422       41.445      
173.7       102.112     152.194     2.09        3.679       111.545     67.154      76.222      21.863      24.41       117.96      36.599      1.353       1.044       28.008      1.391       40.943      
173.8       112.582     152.152     2.114       3.557       108.812     67.154      76.222      22.103      24.55       117.96      37.349      1.264       1.044       29.798      1.358       40.478      
173.9       122.268     153.185     2.138       3.442       108.812     68.714      75.782      22.343      24.97       117.96      37.388      1.196       1.044       30.983      1.329       40.006      
174.0       127.463     154.424     2.162       3.433       106.901     71.314      75.342      22.463      25.11       120.04      37.571      1.19        1.044       32.111      1.3         39.446      
