~Version Information Section
VERS.                                         2.0:CWLS log ASCII Standart – VERSION 2.0
WRAP.                                          NO:One line per depth step
~Well Information Section
STRT.M                                        1.2:Начальная глубина
STOP.M                                      169.4:Конечная глубина
STEP.M                                          0:Шаг квантования по глубине
NULL.                                    -9999.25:Признак "Нет данных"
WELL.                                       114Мх:Скважина
~Parameter Information Section
~Curve Information Section
DEPTH.M                                          :Глубина
BK.Ohm*M                                         :BK     (БК)
DS.mm                                            :DS  (ДС)
GGK.g/cm3                                        :GGKp
ГК.mcr/h                                         :GK          (ГК)
GZ1.Ohm*M                                        :GZ1   ГЗ1(A0.4M0.1N)
GZ2.Ohm*M                                        :GZ2   ГЗ2(A1.0M0.1N)
GZ3.Ohm*M                                        :GZ3   ГЗ3(A2.0M0.5N)
GZ4.Ohm*M                                        :GZ4   ГЗ4(A4.0M0.5N)
GZ5.Ohm*M                                        :GZ5   ГЗ5(A8.0M0.5N)
GZR.Ohm*M                                        :GZK   ГЗK(N0.5M2.0A)
ИК.Ohm*M                                         :IK
НГК.ue                                           :NGK     (НГК)
NNKM.                                            :NNKm  (ННКм)
PS.mv                                            :PS       (ПС)
PZ.Ohm*M                                         :PZ    (КС)
U1.mV                                            :U1
U2.mV                                            :U2
U3.mV                                            :U3
КП.%                                             :Кп
~ASCII LOG DATA
# ...
93.0        44.361      129.343     2.225       3.769       3.609       9.767       9.377       10.925      9.171       8.919       26.603      1.406       1.492       1051.531    68.282      1546.162    1461.109    1279.709    26.519      
93.1        36.813      129.848     2.208       3.909       4.039       10.226      9.177       9.925       8.971       8.219       27.037      1.355       1.518       1053.113    68.795      1775.301    1390.787    1237.919    28.235      
93.2        29.717      130.751     2.182       3.962       4.502       10.831      8.477       9.725       8.871       7.519       27.305      1.3         1.524       1054.217    69.307      2183.623    1385.215    1231.476    28.784      
93.3        30.549      130.933     2.179       4.076       5.474       11.17       7.777       9.725       8.671       7.419       27.442      1.313       1.527       1054.15     69.82       2749.004    1564.551    1367.955    28.753      
93.4        42.462      130.469     2.201       4.209       4.787       10.323      7.777       9.325       8.571       7.119       27.598      1.275       1.513       1053.626    70.333      3336.479    1901.015    1641.47     28.531      
93.5        55.847      130.079     2.243       4.382       4.228       9.742       7.777       9.225       7.971       7.019       27.909      1.28        1.495       1053.855    70.846      3663.727    2401.936    2081.937    27.485      
93.6        65.766      129.514     2.274       4.558       3.29        8.751       7.777       9.025       7.971       6.719       28.121      1.244       1.486       1053.914    71.358      3664.661    2951.613    2590.735    26.54       
93.7        63.241      128.203     2.288       4.623       2.892       8.195       7.777       8.725       7.871       6.519       28.554      1.271       1.479       1053.776    71.7        3340.798    3278.246    2909.869    26.642      
93.8        61.235      127.628     2.301       4.644       2.584       7.784       7.677       8.325       6.871       6.519       29.489      1.292       1.513       1052.839    71.871      2921.406    3294.263    2937.046    27.495      
93.9        60.534      128.143     2.314       4.586       2.617       7.977       7.377       8.225       6.371       6.419       30.31       1.266       1.548       1051.667    71.871      2569.348    2995.224    2663.327    27.465      
94.0        63.241      128.36      2.32        4.64        3.183       8.05        7.177       8.025       6.271       6.319       31.236      1.246       1.528       1051.472    71.871      2319.678    2530.444    2182.765    26.396      
94.1        73.961      128.5       2.299       4.869       2.583       7.349       6.877       7.625       5.771       5.919       32.062      1.22        1.494       1051.599    71.7        2196.03     2119.286    1744.855    25.087      
94.2        79.068      128.649     2.27        4.956       2.72        7.18        6.677       7.525       5.671       5.719       32.719      1.257       1.417       1052.146    71.358      2050.373    1826.25     1431.181    25.154      
94.3        74.473      128.701     2.259       5.197       3.106       7.373       6.377       7.325       5.371       5.519       33.664      1.299       1.361       1052.827    71.016      1824.059    1747.346    1381.993    27.159      
94.4        93.111      128.267     2.26        5.254       2.342       7.035       5.477       7.125       5.171       5.319       34.571      1.306       1.41        1053.622    70.675      1610.789    1677.861    1363.979    29.203      
94.5        105.925     128.927     2.262       5.305       2.584       6.793       4.777       6.625       5.071       4.919       35.152      1.307       1.45        1053.797    70.162      1510.217    1530.506    1274.691    30.14       
94.6        83.56       129.875     2.288       5.021       2.757       6.769       4.477       6.325       4.971       4.819       35.988      1.196       1.447       1053.397    69.478      1495.401    1399.688    1209.686    29.13       
94.7        66.222      129.724     2.307       4.856       2.657       6.358       4.077       5.625       4.871       4.119       36.464      1.19        1.448       1052.694    68.795      1447.451    1383.416    1262.834    28.075      
94.8        61.235      129.076     2.301       4.8         2.71        5.633       3.877       5.425       4.871       3.919       37.016      1.194       1.468       1052.57     67.769      1323.786    1413.314    1333.07     27.419      
94.9        60.674      128.318     2.265       4.905       2.7         4.521       5.155       5.425       4.871       7.519       37.403      1.294       1.48        1053.363    66.573      1134.887    1349.557    1264.085    26.303      
95.0        60.256      127.848     2.247       4.798       3.337       4.11        5.277       5.625       6.371       8.519       37.642      1.35        1.469       1053.664    65.376      883.097     1149.24     1012.452    25.766      
95.1        64.121      127.462     2.255       4.802       4.409       4.642       5.177       5.025       6.671       11.819      37.736      1.289       1.458       1053.64     64.18       666.932     896.188     719.365     26.314      
95.2        69.343      127.434     2.248       4.819       5.644       4.981       5.677       4.925       6.771       12.119      37.918      1.308       1.445       1052.535    63.155      587.602     631.638     456.559     27.445      
95.3        75.336      128.923     2.253       4.91        7.064       5.294       6.677       4.925       7.071       12.519      37.969      1.284       1.442       1051.324    62.129      581.161     441.221     293.561     28.35       
95.4        74.645      129.005     2.271       4.689       8.377       6.092       7.377       15.724      7.371       12.719      37.847      1.308       1.458       1050.583    60.933      490.45      385.404     254.223     28.112      
95.5        72.778      129.029     2.299       4.701       8.521       6.31        9.177       5.525       7.471       14.119      38.085      1.237       1.475       1050.311    59.566      317.451     406.431     289.108     27.233      
95.6        77.268      128.973     2.289       4.728       8.81        6.697       13.177      5.725       7.871       14.319      38.36       1.242       1.493       1050.05     58.198      195.427     376.83      302.73      26.382      
95.7        83.176      128.682     2.249       5.001       10.101      7.615       15.277      5.925       8.571       18.119      38.676      1.3         1.485       1049.27     56.831      183.044     293.799     303.396     26.093      
95.8        84.723      127.99      2.209       4.933       11.356      8.8         15.477      6.125       8.671       19.419      38.942      1.332       1.449       1048.244    55.122      224.017     256.329     367.398     26.63       
95.9        80.168      128.117     2.216       4.986       12.646      10.297      15.777      9.725       10.771      20.119      38.87       1.371       1.444       1047.123    53.755      277.627     306.292     520.734     27.289      
96.0        72.611      127.319     2.269       5.121       13.244      12.04       16.177      12.925      11.071      20.219      38.992      1.419       1.472       1045.827    52.387      382.38      369.684     633.535     27.564      
96.1        68.865      127.973     2.333       5.364       13.853      13.054      16.477      13.025      11.171      20.719      39.276      1.525       1.534       1045.245    50.849      566.084     389.824     602.776     27.475      
96.2        67.453      128.246     2.382       5.318       14.979      14.605      17.577      13.325      11.371      20.819      39.153      1.606       1.606       1044.116    50.216      760.82      414.3       501.269     26.127      
96.3        63.387      128.415     2.414       5.127       16.788      16.656      19.077      13.625      11.971      21.719      39.067      1.644       1.684       1044.034    49.631      928.089     509.652     473.103     24.479      
