~Version Information Section
VERS.                                         2.0:CWLS log ASCII Standart – VERSION 2.0
WRAP.                                          NO:One line per depth step
~Well Information Section
STRT.M                                       1.07:Начальная глубина
STOP.M                                     192.17:Конечная глубина
STEP.M                                          0:Шаг квантования по глубине
NULL.                                    -9999.25:Признак "Нет данных"
WELL.                                        151К:Скважина
~Parameter Information Section
~Curve Information Section
DEPTH.M                                          :Глубина
BK.Ohm*M                                         :BK     (БК)
DS.mm                                            :DS  (ДС)
GGK.g/cm3                                        :GGKp
ГК.mcr/h                                         :GK          (ГК)
GZ1.Ohm*M                                        :GZ1   ГЗ1(A0.4M0.1N)
GZ2.Ohm*M                                        :GZ2   ГЗ2(A1.0M0.1N)
GZ3.Ohm*M                                        :GZ3   ГЗ3(A2.0M0.5N)
GZ4.Ohm*M                                        :GZ4   ГЗ4(A4.0M0.5N)
GZ5.Ohm*M                                        :GZ5   ГЗ5(A8.0M0.5N)
GZR.                                             :GZR   ГЗK(N0.5M2.0A)
ИК.Ohm*M                                         :IK
НГК.ue                                           :NGK     (НГК)
NNKM.                                            :NNKm  (ННКм)
PS.mv                                            :PS       (ПС)
PZ.Ohm*M                                         :PZ    (КС)
RS.Ohm*M                                         :RS (Резистивиметр)
W.%                                              :W
~ASCII LOG DATA
# ...
97.97       29.428      154.296     2.193       6.81        -9999.25    -9999.25    -9999.25    -9999.25    -9999.25    -9999.25    30.319      1.008       1.342       473.89      46.184      1.127       31.171      
98.0        -9999.25    -9999.25    -9999.25    -9999.25    43.815      51.5        55.509      30.04       10.994      35.835      -9999.25    -9999.25    -9999.25    -9999.25    -9999.25    -9999.25    -9999.25    
98.07       29.804      154.262     2.205       6.831       -9999.25    -9999.25    -9999.25    -9999.25    -9999.25    -9999.25    29.766      0.989       1.343       475.275     45.292      1.124       30.803      
98.1        -9999.25    -9999.25    -9999.25    -9999.25    43.47       51.026      55.896      30.467      11.167      35.537      -9999.25    -9999.25    -9999.25    -9999.25    -9999.25    -9999.25    -9999.25    
98.17       31.118      154.348     2.217       6.854       -9999.25    -9999.25    -9999.25    -9999.25    -9999.25    -9999.25    29.2        0.944       1.351       476.302     44.022      1.124       30.181      
98.2        -9999.25    -9999.25    -9999.25    -9999.25    46.394      52.036      55.634      30.798      11.36       34.861      -9999.25    -9999.25    -9999.25    -9999.25    -9999.25    -9999.25    -9999.25    
98.27       30.787      154.313     2.229       6.875       -9999.25    -9999.25    -9999.25    -9999.25    -9999.25    -9999.25    28.899      0.903       1.364       477.236     42.381      1.125       29.397      
98.3        -9999.25    -9999.25    -9999.25    -9999.25    49.321      52.308      54.856      30.929      11.435      34.121      -9999.25    -9999.25    -9999.25    -9999.25    -9999.25    -9999.25    -9999.25    
98.37       31.903      153.926     2.24        6.895       -9999.25    -9999.25    -9999.25    -9999.25    -9999.25    -9999.25    28.766      0.871       1.385       478.172     41.18       1.127       28.499      
98.4        -9999.25    -9999.25    -9999.25    -9999.25    48.75       46.912      53.074      30.792      11.588      32.937      -9999.25    -9999.25    -9999.25    -9999.25    -9999.25    -9999.25    -9999.25    
98.47       33.961      151.834     2.248       6.981       -9999.25    -9999.25    -9999.25    -9999.25    -9999.25    -9999.25    28.584      0.846       1.408       478.766     40.951      1.128       27.749      
98.5        -9999.25    -9999.25    -9999.25    -9999.25    43.909      40.798      49.804      29.831      11.936      31.448      -9999.25    -9999.25    -9999.25    -9999.25    -9999.25    -9999.25    -9999.25    
98.57       33.734      151.954     2.254       7.255       -9999.25    -9999.25    -9999.25    -9999.25    -9999.25    -9999.25    28.316      0.832       1.403       478.686     41.063      1.129       27.649      
98.6        -9999.25    -9999.25    -9999.25    -9999.25    40.152      38.932      47.397      28.525      12.307      30.879      -9999.25    -9999.25    -9999.25    -9999.25    -9999.25    -9999.25    -9999.25    
98.67       30.152      152.44      2.256       7.529       -9999.25    -9999.25    -9999.25    -9999.25    -9999.25    -9999.25    28.098      0.844       1.361       477.84      40.856      1.127       27.973      
98.7        -9999.25    -9999.25    -9999.25    -9999.25    39.563      38.633      45.771      28.211      12.334      31.444      -9999.25    -9999.25    -9999.25    -9999.25    -9999.25    -9999.25    -9999.25    
98.77       25.445      152.545     2.256       7.706       -9999.25    -9999.25    -9999.25    -9999.25    -9999.25    -9999.25    28.054      0.865       1.308       476.449     40.023      1.127       28.391      
98.8        -9999.25    -9999.25    -9999.25    -9999.25    39.64       40.129      44.719      29.307      12.383      32.421      -9999.25    -9999.25    -9999.25    -9999.25    -9999.25    -9999.25    -9999.25    
98.87       24.452      152.595     2.254       7.645       -9999.25    -9999.25    -9999.25    -9999.25    -9999.25    -9999.25    28.048      0.881       1.28        475.364     38.994      1.126       28.655      
98.9        -9999.25    -9999.25    -9999.25    -9999.25    38.478      40.793      44.737      30.977      12.149      33.298      -9999.25    -9999.25    -9999.25    -9999.25    -9999.25    -9999.25    -9999.25    
98.97       24.812      152.747     2.25        7.584       -9999.25    -9999.25    -9999.25    -9999.25    -9999.25    -9999.25    27.891      0.883       1.279       475.028     38.513      1.127       28.808      
99.0        -9999.25    -9999.25    -9999.25    -9999.25    37.329      38.855      44.651      32.793      12.567      34.101      -9999.25    -9999.25    -9999.25    -9999.25    -9999.25    -9999.25    -9999.25    
99.07       26.189      152.65      2.245       7.333       -9999.25    -9999.25    -9999.25    -9999.25    -9999.25    -9999.25    27.698      0.882       1.287       475.786     38.815      1.126       28.949      
99.1        -9999.25    -9999.25    -9999.25    -9999.25    36.998      36.47       43.317      33.896      12.891      34.581      -9999.25    -9999.25    -9999.25    -9999.25    -9999.25    -9999.25    -9999.25    
99.17       27.634      152.296     2.239       6.897       -9999.25    -9999.25    -9999.25    -9999.25    -9999.25    -9999.25    27.544      0.889       1.312       477.223     39.816      1.126       29.447      
99.2        -9999.25    -9999.25    -9999.25    -9999.25    36.49       36.732      40.506      34.224      13.686      35.076      -9999.25    -9999.25    -9999.25    -9999.25    -9999.25    -9999.25    -9999.25    
99.27       27.874      152.075     2.234       6.46        -9999.25    -9999.25    -9999.25    -9999.25    -9999.25    -9999.25    27.569      0.915       1.344       478.956     41.108      1.127       30.22       
99.3        -9999.25    -9999.25    -9999.25    -9999.25    37.765      36.626      38.749      34.461      14.238      36.256      -9999.25    -9999.25    -9999.25    -9999.25    -9999.25    -9999.25    -9999.25    
99.37       27.13       151.964     2.23        6.22        -9999.25    -9999.25    -9999.25    -9999.25    -9999.25    -9999.25    27.72       0.94        1.374       480.501     42.53       1.128       30.708      
99.4        -9999.25    -9999.25    -9999.25    -9999.25    38.013      33.766      37.781      35.1        14.897      38.012      -9999.25    -9999.25    -9999.25    -9999.25    -9999.25    -9999.25    -9999.25    
99.47       27.729      151.891     2.227       6.139       -9999.25    -9999.25    -9999.25    -9999.25    -9999.25    -9999.25    27.968      0.949       1.384       481.392     44.422      1.125       30.781      
99.5        -9999.25    -9999.25    -9999.25    -9999.25    37.497      32.266      36.51       35.751      16.114      39.147      -9999.25    -9999.25    -9999.25    -9999.25    -9999.25    -9999.25    -9999.25    
99.57       28.507      151.389     2.226       6.058       -9999.25    -9999.25    -9999.25    -9999.25    -9999.25    -9999.25    28.263      0.927       1.386       481.48      46.667      1.125       30.432      
99.6        -9999.25    -9999.25    -9999.25    -9999.25    40.177      32.372      36.868      36.766      16.974      41.122      -9999.25    -9999.25    -9999.25    -9999.25    -9999.25    -9999.25    -9999.25    
99.67       28.381      151.442     2.227       6.006       -9999.25    -9999.25    -9999.25    -9999.25    -9999.25    -9999.25    28.587      0.906       1.392       480.827     48.871      1.127       29.819      
99.7        -9999.25    -9999.25    -9999.25    -9999.25    42.407      32.735      39.313      39.834      19.065      45.823      -9999.25    -9999.25    -9999.25    -9999.25    -9999.25    -9999.25    -9999.25    
99.77       29.75       152.017     2.23        6.087       -9999.25    -9999.25    -9999.25    -9999.25    -9999.25    -9999.25    29.031      0.893       1.4         479.959     51.33       1.13        29.134      
