~Version Information Section
VERS.                                         2.0:CWLS log ASCII Standart – VERSION 2.0
WRAP.                                          NO:One line per depth step
~Well Information Section
STRT.M                                        0.7:Начальная глубина
STOP.M                                      200.1:Конечная глубина
STEP.M                                          0:Шаг квантования по глубине
NULL.                                    -9999.25:Признак "Нет данных"
WELL.                                       111Мх:Скважина
~Parameter Information Section
~Curve Information Section
DEPTH.M                                          :Глубина
DСР.mm                                           :Dср
ГК.1/min                                         :GK
ИК.mSim/m                                        :IK
N0.5M2.0A.Омм                                    :N0
НГК.усл.ед                                       :NGK
PZ.Ohm*M                                         :PZ
R.Ohm*M                                          :R
PS.mV                                            :ПС
U1.mV                                            :U1
U2.                                              :U2
U3.mV                                            :U3
А0.4М0.1N.Омм                                    :А0
А1.0М0.1N.Омм                                    :А1
А2.0М0.5N.Омм                                    :А2
А4.0М0.5N.Oмм                                    :А4
А8.0М1.0N.Омм                                    :А8
BK.Ohm*M                                         :БК
ГГК.1/min                                        :ГГК
КП.%                                             :Кп
ННКМ.усл.ед                                      :ННКм
~ASCII LOG DATA
# ...
176.7       123.302     3.322       62.185      187.911     1.445       311.2       1.06        350.997     1881.199    2226.0      1993.601    246.826     181.249     152.313     101.663     92.581      165.986     2.153       33.363      2.356       
176.8       123.118     3.376       62.56       192.28      1.586       310.6       1.06        337.075     1907.601    2238.0      1996.399    247.935     182.818     154.555     101.839     93.955      174.169     2.151       34.346      2.345       
176.9       123.136     3.418       62.917      194.821     1.552       310.1       1.06        323.277     1926.799    2249.999    1982.401    251.951     186.958     158.798     103.172     94.973      178.643     2.146       34.54       2.325       
177.0       123.288     3.245       63.41       195.552     1.528       309.9       1.06        309.848     1938.8      2259.0      1974.0      259.485     192.908     164.336     106.813     95.74       185.592     2.131       34.034      2.344       
177.1       123.529     3.341       63.816      195.552     1.429       309.6       1.06        298.021     1941.2      2249.999    2004.802    270.078     199.894     170.294     112.412     96.26       195.185     2.118       33.787      2.372       
177.2       123.355     3.821       64.1        195.488     1.5         309.7       1.06        287.795     1938.8      2229.001    2038.399    282.28      207.319     176.24      118.835     96.628      196.748     2.112       33.563      2.39        
177.3       123.154     3.597       64.765      194.564     1.515       310.2       1.06        279.664     1934.0      2204.999    2069.201    293.247     215.082     181.554     124.455     96.9        196.542     2.111       33.138      2.392       
177.4       123.162     3.149       65.168      192.753     1.56        311.1       1.06        272.395     1910.002    2178.002    2099.998    300.038     222.021     185.309     127.889     97.103      223.059     2.121       32.678      2.371       
177.5       123.252     3.235       65.304      190.717     1.556       312.4       1.06        265.619     1881.2      2148.0      2119.6      302.099     227.183     187.545     129.007     97.458      231.516     2.132       31.884      2.366       
177.6       123.139     3.322       65.283      188.725     1.608       314.2       1.06        258.966     1854.798    2114.998    2116.799    302.099     230.323     189.012     129.007     98.251      191.674     2.133       31.313      2.375       
177.7       123.277     3.453       65.125      186.724     1.624       316.4       1.06        252.93      1830.801    2079.001    2105.601    302.081     231.292     190.178     128.991     99.579      162.405     2.135       30.896      2.39        
177.8       123.37      3.517       65.283      184.423     1.643       318.6       1.06        247.386     1806.8      2045.999    2105.6      300.344     231.292     190.852     128.251     101.402     164.287     2.143       30.778      2.401       
177.9       123.595     3.725       65.441      181.993     1.352       320.7       1.06        242.95      1787.601    2013.002    2113.999    295.779     231.219     190.977     125.844     103.643     174.281     2.148       31.171      2.382       
178.0       123.2       3.693       65.46       179.456     1.424       320.7       1.06        239.994     1766.0      1974.0      2128.0      290.824     230.013     190.543     122.286     106.089     172.82      2.154       31.259      2.358       
178.1       123.149     3.629       65.46       176.243     1.597       321.4       1.06        238.269     1737.198    1958.999    2147.602    288.15      228.148     189.945     118.784     108.216     167.453     2.158       31.354      2.341       
178.2       123.084     3.462       65.557      171.637     1.547       322.8       1.06        237.406     1706.001    1944.001    2150.4      287.584     227.286     189.702     115.57      109.594     172.798     2.162       31.892      2.331       
178.3       122.929     3.379       65.285      165.848     1.547       325.4       1.06        237.16      1672.399    1935.0      2125.198    287.584     227.157     189.76      112.604     110.262     184.239     2.157       32.425      2.334       
178.4       123.272     3.571       64.876      159.553     1.624       328.7       1.06        237.16      1653.201    1952.998    2091.603    287.584     227.157     189.945     110.174     110.446     190.682     2.147       32.788      2.34        
178.5       123.137     3.61        65.126      153.665     1.664       332.5       1.06        237.16      1641.2      2004.0      2091.6      287.961     227.157     189.95      108.622     110.432     190.755     2.141       32.915      2.348       
178.6       123.204     3.744       65.283      149.467     1.68        337.1       1.06        237.16      1636.4      2064.005    2094.402    289.531     227.843     189.877     108.068     110.222     190.34      2.139       32.523      2.326       
178.7       123.328     3.674       65.168      147.94      1.573       342.0       1.06        237.16      1634.0      2135.998    2108.399    291.992     229.255     189.853     108.015     109.532     193.117     2.141       32.318      2.303       
178.8       122.901     3.322       65.168      147.94      1.579       346.7       1.06        237.16      1636.4      2211.002    2133.601    294.818     231.118     189.853     108.015     108.553     193.604     2.144       32.279      2.322       
178.9       122.682     3.091       65.189      147.94      1.633       349.9       1.06        237.53      1638.8      2270.997    2161.601    297.964     233.478     190.052     108.015     107.708     179.35      2.144       32.065      2.33        
179.0       122.557     2.861       65.115      148.009     1.672       352.5       1.06        238.269     1643.6      2313.0      2172.8      301.753     235.759     190.525     108.417     106.835     160.755     2.138       31.828      2.304       
179.1       122.489     3.45        64.753      149.149     1.543       354.1       1.06        239.501     1653.201    2343.002    2195.202    306.238     237.958     191.207     109.248     105.557     159.772     2.136       31.566      2.31        
179.2       122.589     3.744       64.487      151.316     1.467       355.0       1.06        241.472     1672.399    2367.0      2223.199    310.372     240.473     192.527     110.583     103.921     172.939     2.14        31.468      2.356       
179.3       122.917     3.616       64.753      153.132     1.589       355.3       1.06        244.182     1696.401    2382.0      2240.0      315.156     243.449     194.989     112.842     102.213     191.846     2.135       31.712      2.369       
179.4       122.883     3.59        65.134      153.889     1.624       355.3       1.06        246.893     1725.198    2385.0      2240.001    321.292     244.967     198.454     115.246     100.704     207.393     2.127       32.02       2.353       
179.5       122.965     3.437       65.134      153.929     1.544       355.3       1.06        249.85      1756.4      2385.0      2220.4      326.626     244.829     202.251     117.078     99.767      214.345     2.115       32.296      2.322       
179.6       122.968     3.43        64.753      153.929     1.552       355.3       1.06        252.806     1773.201    2385.0      2203.599    330.987     245.012     205.544     118.708     99.486      215.29      2.103       32.181      2.308       
179.7       123.235     3.418       64.6        153.462     1.471       355.4       1.06        255.394     1778.0      2385.0      2189.6      333.688     245.286     207.787     119.915     99.439      206.129     2.101       32.053      2.34        
179.8       123.196     3.242       64.866      151.952     1.571       356.1       1.06        257.734     1765.999    2373.0      2189.601    336.249     246.501     208.938     120.695     99.396      189.453     2.11        32.326      2.369       
