~Version Information Section
VERS.                                         2.0:CWLS log ASCII Standart – VERSION 2.0
WRAP.                                          NO:One line per depth step
~Well Information Section
STRT.M                                        1.2:Начальная глубина
STOP.M                                      169.4:Конечная глубина
STEP.M                                          0:Шаг квантования по глубине
NULL.                                    -9999.25:Признак "Нет данных"
WELL.                                       114Мх:Скважина
~Parameter Information Section
~Curve Information Section
DEPTH.M                                          :Глубина
BK.Ohm*M                                         :BK     (БК)
DS.mm                                            :DS  (ДС)
GGK.g/cm3                                        :GGKp
ГК.mcr/h                                         :GK          (ГК)
GZ1.Ohm*M                                        :GZ1   ГЗ1(A0.4M0.1N)
GZ2.Ohm*M                                        :GZ2   ГЗ2(A1.0M0.1N)
GZ3.Ohm*M                                        :GZ3   ГЗ3(A2.0M0.5N)
GZ4.Ohm*M                                        :GZ4   ГЗ4(A4.0M0.5N)
GZ5.Ohm*M                                        :GZ5   ГЗ5(A8.0M0.5N)
GZR.Ohm*M                                        :GZK   ГЗK(N0.5M2.0A)
ИК.Ohm*M                                         :IK
НГК.ue                                           :NGK     (НГК)
NNKM.                                            :NNKm  (ННКм)
PS.mv                                            :PS       (ПС)
PZ.Ohm*M                                         :PZ    (КС)
U1.mV                                            :U1
U2.mV                                            :U2
U3.mV                                            :U3
КП.%                                             :Кп
~ASCII LOG DATA
# ...
137.2       16.293      124.978     2.205       4.847       5.765       9.163       7.677       9.225       6.771       8.019       28.255      1.433       1.346       1059.409    112.803     831.924     603.956     620.749     39.436      
137.3       25.882      124.687     2.149       4.175       6.152       9.428       7.877       9.225       6.971       8.219       28.975      1.545       1.596       1051.763    116.467     766.535     741.577     663.878     38.443      
137.4       48.865      123.733     2.125       3.719       6.098       9.356       7.977       9.425       7.071       8.319       29.35       1.645       1.71        1044.079    119.159     656.592     751.629     674.213     32.313      
137.5       76.384      123.678     2.132       3.386       5.899       9.235       8.077       9.725       7.171       8.619       29.54       1.73        1.738       1036.342    121.974     620.236     693.07      623.404     23.895      
137.6       97.051      123.832     2.147       3.427       5.928       9.307       8.177       9.825       7.271       8.719       30.532      1.796       1.746       1028.498    124.633     731.07      573.746     501.511     19.669      
137.7       96.161      123.279     2.142       3.624       6.0         9.356       8.377       9.925       7.571       8.619       31.815      1.816       1.738       1021.097    128.122     1016.735    512.128     423.108     18.232      
137.8       111.173     123.566     2.104       3.906       6.118       9.428       8.877       9.925       7.371       7.719       32.266      1.894       1.725       1014.906    132.299     1366.46     594.837     481.773     17.73       
137.9       117.761     123.988     2.058       4.149       6.017       9.331       8.877       9.825       6.371       6.819       35.547      1.916       1.709       1010.792    137.136     1584.37     827.523     669.541     17.273      
138.0       108.893     124.503     2.034       4.283       5.965       9.356       8.777       9.725       4.871       6.119       35.547      1.955       1.691       1008.046    142.164     1575.521    1089.021    862.89      16.763      
138.1       98.175      124.552     2.034       4.388       6.005       9.403       8.077       9.625       4.171       5.619       35.547      1.924       1.676       1006.516    147.229     1332.524    1239.616    964.327     16.791      
138.2       98.401      124.134     2.045       4.3         5.952       9.307       7.377       9.525       3.871       5.119       35.547      1.988       1.733       1005.449    152.107     1068.506    1236.882    966.974     17.332      
138.3       101.158     123.81      2.043       4.008       5.957       9.282       6.677       9.425       3.271       5.019       35.827      1.935       1.808       1004.321    156.52      932.594     1083.508    879.784     16.82       
138.4       100.693     123.576     2.033       3.906       5.947       9.283       6.377       8.925       2.871       4.819       35.461      1.966       1.79        1003.558    160.489     950.814     949.089     850.39      15.534      
138.5       104.954     123.631     2.023       4.031       6.252       9.45        6.177       7.725       2.371       4.419       36.196      1.929       1.75        1003.202    163.862     1067.886    882.555     857.438     14.833      
138.6       112.98      123.801     2.01        3.97        6.181       9.354       5.577       6.025       2.271       4.119       36.919      1.978       1.746       1003.987    166.736     1141.595    854.209     828.268     15.279      
138.7       115.611     123.815     1.983       3.978       6.01        9.065       5.177       5.125       2.071       4.019       37.827      1.913       1.75        1005.541    169.0       1084.54     796.031     675.834     16.24       
138.8       108.643     123.439     1.965       3.611       5.823       8.847       4.677       4.325       1.771       3.919       38.459      1.833       1.693       1008.51     170.148     978.026     746.188     556.449     16.54       
138.9       100.925     123.72      1.987       3.745       5.554       8.606       4.177       3.925       1.671       3.819       39.11       1.758       1.637       1012.443    171.214     975.953     767.944     636.173     17.08       
139.0       96.383      124.124     2.051       3.665       5.285       8.171       3.777       3.725       1.471       3.719       39.785      1.706       1.65        1016.954    171.782     1067.698    842.642     822.095     17.529      
139.1       93.541      124.117     2.107       3.739       4.978       7.615       3.177       3.425       1.471       3.419       40.087      1.652       1.658       1021.864    172.383     1083.914    912.911     912.011     18.644      
139.2       90.782      124.194     2.132       3.649       4.612       6.6         2.877       3.025       1.071       3.219       40.617      1.662       1.64        1026.922    172.404     940.074     918.796     825.01      19.554      
139.3       91.201      124.099     2.13        3.526       4.17        4.498       1.977       4.325       1.871       3.119       40.705      1.706       1.63        1031.963    172.243     733.291     846.641     669.186     20.434      
139.4       91.833      123.993     2.107       3.486       4.403       0.678       1.877       5.425       2.271       3.119       41.022      1.806       1.648       1037.107    171.668     591.235     715.814     541.096     20.425      
139.5       94.406      123.806     2.088       3.376       6.276       1.406       1.977       6.125       2.371       2.919       40.979      1.865       1.663       1042.095    171.084     577.331     569.686     439.428     19.722      
139.6       91.411      123.807     2.071       3.434       8.9         3.023       2.377       7.025       4.771       2.919       41.391      1.886       1.661       1046.731    170.451     785.534     467.266     366.437     18.727      
139.7       92.257      123.742     2.066       3.55        12.891      4.351       3.677       7.425       5.471       3.019       41.391      1.893       1.669       1050.209    169.718     1093.134    438.548     334.575     17.685      
139.8       106.906     123.755     2.057       3.727       18.89       5.175       4.277       8.725       7.371       3.119       41.764      1.885       1.694       1052.878    169.474     1248.611    522.841     356.042     17.236      
139.9       111.944     123.837     2.048       3.65        25.236      5.657       5.277       8.925       8.571       3.919       42.146      1.863       1.704       1054.578    169.409     1178.278    665.178     412.249     16.816      
140.0       107.399     123.814     2.055       3.531       27.634      6.213       5.977       9.825       10.971      4.719       42.443      1.808       1.688       1055.315    169.544     1090.746    771.704     488.41      16.689      
140.1       97.499      123.775     2.059       3.338       30.13       7.373       6.177       10.025      13.071      4.919       42.339      1.808       1.677       1055.574    169.946     1149.51     809.416     573.617     16.698      
140.2       100.0       123.844     2.063       3.298       30.592      8.775       8.777       10.325      14.071      5.319       42.686      1.819       1.677       1055.458    169.598     1224.455    870.842     703.204     17.181      
140.3       106.66      124.229     2.054       3.439       30.181      10.709      10.177      10.525      14.871      6.819       43.131      1.795       1.677       1055.178    169.74      1190.097    988.481     845.971     17.836      
140.4       111.944     124.205     2.037       3.443       29.589      13.997      11.777      10.725      15.071      8.019       43.131      1.79        1.676       1054.688    170.067     1072.281    1030.752    873.585     18.322      
140.5       113.24      124.183     2.027       3.624       28.286      16.941      13.377      11.025      15.771      12.419      43.491      1.718       1.668       1054.273    170.595     962.482     933.349     751.742     18.4        
