~Version Information Section
VERS.                                         2.0:CWLS log ASCII Standart – VERSION 2.0
WRAP.                                          NO:One line per depth step
~Well Information Section
STRT.M                                        1.2:Начальная глубина
STOP.M                                      169.7:Конечная глубина
STEP.M                                          0:Шаг квантования по глубине
NULL.                                    -9999.25:Признак "Нет данных"
WELL.                                       115Мх:Скважина
~Parameter Information Section
~Curve Information Section
DEPTH.M                                          :Глубина
BK.Ohm*M                                         :BK     (БК)
DS.mm                                            :DS  (ДС)
GGK.g/cm3                                        :GGKp
ГК.mcr/h                                         :GK          (ГК)
GZ1.Ohm*M                                        :GZ1   ГЗ1(A0.4M0.1N)
GZ2.Ohm*M                                        :GZ2   ГЗ2(A1.0M0.1N)
GZ3.Ohm*M                                        :GZ3   ГЗ3(A2.0M0.5N)
GZ4.Ohm*M                                        :GZ4   ГЗ4(A4.0M0.5N)
GZ5.Ohm*M                                        :GZ5   ГЗ5(A8.0M0.5N)
GZR.Ohm*M                                        :GZK   ГЗK(N0.5M2.0A)
ИК.Ohm*M                                         :IK
НГК.ue                                           :NGK     (НГК)
NNKM.                                            :NNKm  (ННКм)
PS.mv                                            :PS       (ПС)
PZ.Ohm*M                                         :PZ    (КС)
RS.Ohm*M                                         :RS (Резистивиметр)
U1.mV                                            :U1
U2.mV                                            :U2
U3.mV                                            :U3
КП.%                                             :Кп
~ASCII LOG DATA
# ...
46.0        -9999.25    100.142     -9999.25    5.077       -9999.25    -9999.25    -9999.25    -9999.25    -9999.25    -9999.25    -9999.25    0.742       1.308       -9999.25    -9999.25    -9999.25    -9999.25    -9999.25    -9999.25    37.088      
46.1        -9999.25    100.104     -9999.25    5.016       -9999.25    -9999.25    -9999.25    -9999.25    -9999.25    -9999.25    -9999.25    0.759       1.279       -9999.25    -9999.25    -9999.25    -9999.25    -9999.25    -9999.25    37.375      
46.2        -9999.25    100.135     -9999.25    4.796       -9999.25    -9999.25    -9999.25    -9999.25    -9999.25    -9999.25    -9999.25    0.768       1.264       -9999.25    -9999.25    -9999.25    -9999.25    -9999.25    -9999.25    38.529      
46.3        -9999.25    100.13      -9999.25    4.865       -9999.25    -9999.25    -9999.25    -9999.25    -9999.25    -9999.25    -9999.25    0.755       1.264       -9999.25    -9999.25    -9999.25    -9999.25    -9999.25    -9999.25    40.686      
46.4        -9999.25    100.1       -9999.25    4.764       -9999.25    -9999.25    -9999.25    -9999.25    -9999.25    -9999.25    -9999.25    0.738       1.235       -9999.25    -9999.25    -9999.25    -9999.25    -9999.25    -9999.25    41.57       
46.5        -9999.25    100.102     -9999.25    4.672       -9999.25    -9999.25    -9999.25    -9999.25    -9999.25    -9999.25    -9999.25    0.724       1.2         -9999.25    -9999.25    -9999.25    -9999.25    -9999.25    -9999.25    40.444      
46.6        -9999.25    100.112     -9999.25    4.753       -9999.25    -9999.25    -9999.25    -9999.25    -9999.25    -9999.25    -9999.25    0.732       1.231       923.409     -9999.25    -9999.25    -9999.25    -9999.25    -9999.25    38.221      
46.7        -9999.25    100.131     -9999.25    4.912       -9999.25    -9999.25    -9999.25    -9999.25    -9999.25    -9999.25    -9999.25    0.739       1.277       922.866     -9999.25    -9999.25    -9999.25    -9999.25    -9999.25    37.345      
46.8        -9999.25    100.1       -9999.25    5.061       -9999.25    -9999.25    -9999.25    -9999.25    -9999.25    -9999.25    -9999.25    0.738       1.274       922.258     -9999.25    -9999.25    -9999.25    -9999.25    -9999.25    40.666      
46.9        -9999.25    100.118     -9999.25    5.009       -9999.25    -9999.25    -9999.25    -9999.25    -9999.25    -9999.25    18.352      0.716       1.26        922.221     -9999.25    -9999.25    -9999.25    -9999.25    -9999.25    42.983      
47.0        -9999.25    100.122     -9999.25    4.941       -9999.25    -9999.25    -9999.25    -9999.25    -9999.25    -9999.25    18.339      0.731       1.22        923.061     -9999.25    -9999.25    -9999.25    -9999.25    -9999.25    42.732      
47.1        -9999.25    100.122     -9999.25    4.934       -9999.25    -9999.25    -9999.25    -9999.25    -9999.25    -9999.25    18.313      0.728       1.182       925.254     -9999.25    -9999.25    -9999.25    -9999.25    -9999.25    38.389      
47.2        -9999.25    100.114     -9999.25    5.067       -9999.25    -9999.25    -9999.25    -9999.25    -9999.25    -9999.25    18.32       0.746       1.246       928.566     32.361      -9999.25    -9999.25    -9999.25    -9999.25    35.381      
47.3        21.577      100.144     -9999.25    5.148       -9999.25    -9999.25    -9999.25    -9999.25    -9999.25    -9999.25    18.326      0.754       1.305       933.2       31.923      -9999.25    -9999.25    -9999.25    -9999.25    36.572      
47.4        20.512      100.08      -9999.25    5.278       2.168       6.479       5.177       6.625       4.271       5.819       18.335      0.789       1.293       939.061     31.429      1.008       -9999.25    -9999.25    -9999.25    39.432      
47.5        19.543      100.085     -9999.25    5.552       2.11        6.31        5.177       6.525       4.271       5.819       18.392      0.803       1.274       946.08      30.877      1.008       -9999.25    -9999.25    -9999.25    42.838      
47.6        17.298      100.126     -9999.25    5.951       2.003       6.117       5.077       6.525       4.271       5.619       18.447      0.813       1.241       953.823     30.265      1.008       -9999.25    -9999.25    -9999.25    44.769      
47.7        16.711      100.711     -9999.25    6.251       1.863       5.681       4.977       6.525       4.271       5.619       18.527      0.812       1.315       962.159     29.593      1.008       -9999.25    -9999.25    -9999.25    42.863      
47.8        17.022      107.016     -9999.25    6.347       2.1         5.295       4.977       6.525       4.271       5.519       18.678      0.868       1.507       971.303     28.863      1.008       -9999.25    -9999.25    -9999.25    39.729      
47.9        15.417      114.519     -9999.25    6.529       2.409       5.585       4.877       6.525       4.271       5.419       18.891      0.905       1.648       980.789     28.041      1.008       -9999.25    -9999.25    -9999.25    38.232      
48.0        14.521      132.533     -9999.25    6.798       2.612       5.923       4.877       6.525       4.271       5.419       19.17       0.961       1.723       989.946     27.172      1.003       -9999.25    -9999.25    -9999.25    39.543      
48.1        15.922      142.421     -9999.25    7.009       2.714       6.02        4.877       6.525       4.271       5.319       19.596      0.983       1.73        998.265     26.315      1.003       -9999.25    -9999.25    -9999.25    40.79       
48.2        18.707      143.77      -9999.25    7.005       2.694       5.972       4.877       6.525       4.271       5.319       20.188      1.004       1.696       1005.311    25.515      1.003       -9999.25    -9999.25    -9999.25    40.049      
48.3        23.659      142.025     -9999.25    6.851       2.782       5.924       4.877       6.525       4.271       5.319       20.928      0.996       1.721       1011.588    24.793      0.999       -9999.25    -9999.25    -9999.25    38.074      
48.4        29.174      143.761     -9999.25    6.701       2.801       5.851       4.877       6.525       4.271       5.219       21.784      0.976       1.767       1016.663    24.175      0.994       -9999.25    -9999.25    -9999.25    37.139      
48.5        33.42       142.976     -9999.25    6.922       2.942       5.754       4.877       6.525       4.271       5.119       22.547      0.954       1.771       1020.952    23.681      0.994       388.684     213.855     116.105     35.973      
48.6        37.844      141.272     -9999.25    6.832       3.299       5.875       4.877       6.525       4.271       5.119       23.046      0.94        1.766       1023.469    23.31       0.994       401.766     220.597     122.384     35.862      
48.7        40.087      140.179     -9999.25    6.91        3.346       6.093       4.877       6.525       4.271       4.919       23.449      0.911       1.763       1024.532    23.052      0.994       408.995     240.376     148.254     37.539      
48.8        40.179      140.166     -9999.25    6.968       3.457       6.141       4.877       6.625       4.271       4.919       23.797      0.898       1.76        1024.304    22.895      0.994       408.933     276.392     198.522     39.594      
48.9        38.107      139.367     -9999.25    7.314       3.556       6.237       4.877       6.625       4.271       4.919       23.993      0.887       1.729       1023.796    22.835      0.99        402.718     323.275     272.201     41.117      
49.0        38.371      139.404     -9999.25    7.099       3.626       6.358       4.877       6.725       4.371       4.919       24.037      0.942       1.698       1023.854    22.856      0.99        391.733     372.983     369.581     40.277      
49.1        39.084      140.582     -9999.25    6.708       3.704       6.431       4.877       6.825       4.471       4.919       24.01       0.966       1.704       1024.018    22.923      0.99        364.734     400.661     449.937     38.685      
