~Version Information Section
VERS.                                         2.0:CWLS log ASCII Standart – VERSION 2.0
WRAP.                                          NO:One line per depth step
~Well Information Section
STRT.M                                        0.0:Начальная глубина
STOP.M                                      133.6:Конечная глубина
STEP.M                                          0:Шаг квантования по глубине
NULL.                                    -9999.25:Признак "Нет данных"
WELL.                                       118Мх:Скважина
~Parameter Information Section
~Curve Information Section
DEPTH.M                                          :Глубина
BK.Ohm*M                                         :BK     (БК)
DS.mm                                            :DS  (ДС)
GGK.g/cm3                                        :GGKp
ГК.mcr/h                                         :GK          (ГК)
GZ1.Ohm*M                                        :GZ1   ГЗ1(A0.4M0.1N)
GZ2.Ohm*M                                        :GZ2   ГЗ2(A1.0M0.1N)
GZ3.Ohm*M                                        :GZ3   ГЗ3(A2.0M0.5N)
GZ4.Ohm*M                                        :GZ4   ГЗ4(A4.0M0.5N)
GZ5.Ohm*M                                        :GZ5   ГЗ5(A8.0M0.5N)
GZR.Ohm*M                                        :GZK   ГЗK(N0.5M2.0A)
ИК.Ohm*M                                         :IK
НГК.усл.ед                                       :NGK
NNKM.                                            :NNKm  (ННКм)
PS.mv                                            :PS       (ПС)
PZ.Ohm*M                                         :PZ    (КС)
RS.Ohm*M                                         :RS (Резистивиметр)
U1.mV                                            :U1
U2.mV                                            :U2
U3.mV                                            :U3
W.%                                              :W
~ASCII LOG DATA
# ...
6.4         -9999.25    165.351     2.014       5.7         -9999.25    -9999.25    -9999.25    -9999.25    -9999.25    -9999.25    -9999.25    1.019       1.634       852.166     39.272      1.068       1084.236    744.503     575.766     41.071      
6.6         -9999.25    171.859     2.032       5.401       -9999.25    -9999.25    -9999.25    -9999.25    -9999.25    -9999.25    -9999.25    1.139       1.73        843.286     38.366      1.065       1067.663    773.633     604.269     37.718      
6.8         -9999.25    159.405     2.153       4.387       -9999.25    -9999.25    -9999.25    -9999.25    -9999.25    -9999.25    -9999.25    1.222       2.134       833.446     37.571      1.065       760.941     618.44      555.575     29.459      
7.0         -9999.25    154.606     2.278       3.749       -9999.25    -9999.25    -9999.25    -9999.25    -9999.25    -9999.25    -9999.25    1.318       2.349       823.606     36.704      1.065       715.971     522.905     432.549     25.366      
7.2         -9999.25    154.015     2.311       3.808       -9999.25    -9999.25    -9999.25    -9999.25    -9999.25    -9999.25    -9999.25    1.333       2.275       812.086     35.547      1.073       945.919     566.365     377.706     26.856      
7.4         -9999.25    159.192     2.257       3.906       -9999.25    -9999.25    -9999.25    -9999.25    -9999.25    -9999.25    -9999.25    1.208       2.099       799.846     34.027      1.073       765.398     496.203     395.88      26.805      
7.6         -9999.25    158.372     2.227       3.498       -9999.25    -9999.25    -9999.25    -9999.25    -9999.25    -9999.25    -9999.25    1.221       2.316       787.366     32.36       1.073       368.107     367.425     520.359     29.443      
7.8         -9999.25    154.653     2.246       3.354       -9999.25    -9999.25    -9999.25    -9999.25    -9999.25    -9999.25    -9999.25    1.103       2.336       775.366     30.984      1.073       340.389     338.262     565.88      27.55       
8.0         -9999.25    152.019     2.257       3.648       -9999.25    -9999.25    -9999.25    -9999.25    -9999.25    -9999.25    -9999.25    1.223       2.204       763.366     30.256      1.076       647.248     377.991     322.338     26.408      
8.2         -9999.25    151.78      2.233       3.682       -9999.25    -9999.25    -9999.25    -9999.25    -9999.25    -9999.25    -9999.25    1.283       2.234       751.606     30.168      1.077       781.368     454.307     334.624     27.202      
8.4         -9999.25    152.919     2.203       3.64        -9999.25    -9999.25    -9999.25    -9999.25    -9999.25    -9999.25    -9999.25    1.206       2.246       741.286     30.295      1.078       550.891     436.812     498.09      35.087      
8.6         -9999.25    155.515     2.217       3.525       -9999.25    -9999.25    -9999.25    -9999.25    -9999.25    -9999.25    -9999.25    1.173       2.319       731.926     30.151      1.079       692.683     433.198     377.295     31.547      
8.8         -9999.25    156.932     2.24        3.852       -9999.25    -9999.25    -9999.25    -9999.25    -9999.25    -9999.25    -9999.25    1.147       2.247       722.566     29.585      1.08        606.031     325.864     208.175     28.862      
9.0         -9999.25    155.499     2.231       4.846       -9999.25    -9999.25    -9999.25    -9999.25    -9999.25    -9999.25    -9999.25    1.07        2.2         712.966     28.828      1.08        452.974     313.344     261.782     30.657      
9.2         -9999.25    162.113     2.188       4.998       -9999.25    -9999.25    -9999.25    -9999.25    -9999.25    -9999.25    -9999.25    1.024       1.952       704.086     28.256      1.081       417.839     360.588     405.018     39.358      
9.4         -9999.25    164.1       2.192       5.15        -9999.25    -9999.25    -9999.25    -9999.25    -9999.25    -9999.25    -9999.25    1.01        1.819       696.166     28.054      1.082       336.938     315.746     400.089     42.726      
9.6         -9999.25    164.568     2.203       4.825       -9999.25    -9999.25    -9999.25    -9999.25    -9999.25    -9999.25    -9999.25    0.973       1.898       688.006     27.972      1.082       553.27      446.904     421.561     44.764      
9.8         -9999.25    166.006     2.211       5.037       -9999.25    -9999.25    -9999.25    -9999.25    -9999.25    -9999.25    -9999.25    0.934       1.85        679.606     27.602      1.082       1027.558    654.974     525.47      44.935      
10.0        -9999.25    164.896     2.185       5.217       -9999.25    -9999.25    -9999.25    -9999.25    -9999.25    -9999.25    -9999.25    0.941       1.797       672.406     26.705      1.082       1266.695    507.843     304.606     40.159      
10.2        -9999.25    164.709     2.167       5.483       -9999.25    -9999.25    -9999.25    -9999.25    -9999.25    -9999.25    -9999.25    0.879       1.872       665.686     25.644      1.082       1027.883    585.593     419.238     41.541      
10.4        -9999.25    166.721     2.173       5.794       -9999.25    -9999.25    -9999.25    -9999.25    -9999.25    -9999.25    -9999.25    0.968       1.76        659.446     25.125      1.082       656.518     524.106     484.638     44.097      
10.6        -9999.25    168.087     2.257       5.769       -9999.25    -9999.25    -9999.25    -9999.25    -9999.25    -9999.25    -9999.25    0.93        1.72        653.446     25.613      1.081       380.992     335.584     367.873     41.071      
10.8        -9999.25    171.282     2.262       5.41        -9999.25    -9999.25    -9999.25    -9999.25    -9999.25    -9999.25    -9999.25    1.022       1.821       647.926     26.855      1.08        650.462     513.446     463.036     45.473      
11.0        -9999.25    165.998     2.205       5.648       -9999.25    -9999.25    -9999.25    -9999.25    -9999.25    25.947      -9999.25    1.056       1.967       642.646     28.287      1.079       1022.346    791.516     653.614     39.262      
11.2        -9999.25    164.254     2.155       5.749       -9999.25    -9999.25    -9999.25    -9999.25    -9999.25    24.189      -9999.25    1.029       1.996       637.126     29.519      1.077       920.403     718.581     604.341     36.868      
11.4        -9999.25    163.474     2.176       5.517       -9999.25    -9999.25    -9999.25    27.458      -9999.25    18.892      -9999.25    1.045       1.997       631.366     30.799      1.075       662.293     563.779     537.599     38.426      
11.6        -9999.25    164.506     2.203       5.093       -9999.25    -9999.25    -9999.25    27.29       -9999.25    15.697      -9999.25    1.039       1.957       625.366     32.963      1.074       582.318     568.205     633.099     36.426      
11.8        -9999.25    164.551     2.212       4.692       -9999.25    -9999.25    -9999.25    23.065      -9999.25    16.427      -9999.25    1.04        2.004       618.886     36.384      1.072       554.997     501.705     609.829     33.669      
12.0        -9999.25    164.596     2.201       4.419       -9999.25    -9999.25    -9999.25    21.671      -9999.25    16.595      -9999.25    1.083       1.885       612.166     40.499      1.07        758.727     385.343     336.174     40.957      
12.2        -9999.25    159.574     2.157       4.542       -9999.25    -9999.25    -9999.25    23.252      -9999.25    15.032      -9999.25    1.024       1.888       605.686     44.21       1.069       628.888     355.038     281.884     39.722      
12.4        -9999.25    159.761     2.147       5.171       -9999.25    -9999.25    -9999.25    23.215      -9999.25    14.078      -9999.25    1.021       1.954       599.926     46.826      1.067       490.68      383.193     347.945     37.073      
12.6        -9999.25    165.209     2.167       5.347       -9999.25    -9999.25    -9999.25    20.902      -9999.25    13.875      -9999.25    1.063       1.928       594.646     48.445      1.066       496.502     337.965     271.491     37.055      
