~Version Information Section
VERS.                                         2.0:CWLS log ASCII Standart – VERSION 2.0
WRAP.                                          NO:One line per depth step
~Well Information Section
STRT.M                                        1.2:Начальная глубина
STOP.M                                      169.7:Конечная глубина
STEP.M                                          0:Шаг квантования по глубине
NULL.                                    -9999.25:Признак "Нет данных"
WELL.                                       115Мх:Скважина
~Parameter Information Section
~Curve Information Section
DEPTH.M                                          :Глубина
BK.Ohm*M                                         :BK     (БК)
DS.mm                                            :DS  (ДС)
GGK.g/cm3                                        :GGKp
ГК.mcr/h                                         :GK          (ГК)
GZ1.Ohm*M                                        :GZ1   ГЗ1(A0.4M0.1N)
GZ2.Ohm*M                                        :GZ2   ГЗ2(A1.0M0.1N)
GZ3.Ohm*M                                        :GZ3   ГЗ3(A2.0M0.5N)
GZ4.Ohm*M                                        :GZ4   ГЗ4(A4.0M0.5N)
GZ5.Ohm*M                                        :GZ5   ГЗ5(A8.0M0.5N)
GZR.Ohm*M                                        :GZK   ГЗK(N0.5M2.0A)
ИК.Ohm*M                                         :IK
НГК.ue                                           :NGK     (НГК)
NNKM.                                            :NNKm  (ННКм)
PS.mv                                            :PS       (ПС)
PZ.Ohm*M                                         :PZ    (КС)
RS.Ohm*M                                         :RS (Резистивиметр)
U1.mV                                            :U1
U2.mV                                            :U2
U3.mV                                            :U3
КП.%                                             :Кп
~ASCII LOG DATA
# ...
142.0       121.619     124.257     1.986       3.834       35.99       36.984      40.877      36.925      37.171      42.219      46.151      2.387       2.98        1052.882    164.434     1.106       906.684     792.475     775.149     17.815      
142.1       133.66      124.03      2.029       3.816       37.359      37.564      40.877      36.825      36.971      42.419      46.566      2.21        2.904       1052.889    163.964     1.106       1041.782    754.569     641.875     19.739      
142.2       137.721     123.91      2.064       3.683       37.135      36.387      40.977      36.725      36.871      43.219      46.2        1.957       2.836       1052.754    163.454     1.101       1148.916    685.609     452.31      20.722      
142.3       136.773     123.722     2.088       3.656       36.589      35.413      40.977      36.625      37.471      43.819      46.151      1.798       2.788       1052.671    162.921     1.097       1130.19     669.925     406.568     23.851      
142.4       133.968     123.618     2.101       3.69        38.33       36.943      40.977      36.525      39.371      44.619      46.666      1.669       2.708       1052.427    162.355     1.097       1032.209    659.104     426.748     26.234      
142.5       127.057     123.674     2.105       3.749       40.737      39.434      41.077      36.725      40.071      44.719      46.566      1.558       2.584       1051.792    161.795     1.092       971.941     602.506     378.186     27.64       
142.6       134.586     124.011     2.094       3.692       43.382      41.698      42.577      36.825      40.271      44.819      45.92       1.456       2.497       1051.34     161.29      1.092       1019.174    631.034     407.092     27.827      
142.7       142.233     124.018     2.083       3.65        44.083      42.599      43.377      44.925      43.271      44.919      45.971      1.356       2.476       1051.254    160.886     1.092       1137.757    788.695     579.475     30.338      
142.8       128.233     125.031     2.08        3.653       45.024      44.018      44.077      46.025      45.471      44.419      45.971      1.295       2.427       1050.661    160.565     1.092       1327.043    1071.231    889.635     32.947      
142.9       127.644     125.25      2.085       3.874       45.493      45.735      45.377      45.425      45.671      44.319      45.971      1.249       2.349       1049.972    160.347     1.092       1492.146    1208.241    998.969     34.195      
143.0       137.404     124.891     2.112       4.005       46.326      47.016      46.777      44.925      45.971      44.019      45.971      1.239       2.334       1049.142    160.282     1.088       1626.773    1200.208    911.601     32.677      
143.1       137.721     124.607     2.138       4.164       46.489      47.276      46.477      49.425      46.271      43.919      46.331      1.253       2.413       1048.269    160.415     1.088       1608.383    1063.891    714.789     30.876      
143.2       136.458     124.216     2.163       4.058       46.999      48.041      46.177      48.725      45.571      44.019      46.566      1.286       2.487       1047.479    160.68      1.084       1465.762    943.126     604.656     29.433      
143.3       129.42      124.47      2.181       3.939       46.101      46.967      45.977      47.625      45.371      45.819      46.382      1.323       2.532       1046.771    160.955     1.084       1276.474    870.188     590.602     28.857      
143.4       122.462     124.073     2.201       3.82        45.587      44.275      45.477      46.525      44.971      46.819      45.693      1.334       2.542       1046.479    161.144     1.084       1168.338    837.897     597.096     29.155      
143.5       114.288     124.191     2.2         3.789       46.588      44.372      44.577      45.625      44.471      47.219      46.801      1.319       2.526       1045.977    161.31      1.084       1183.109    899.422     684.775     29.464      
143.6       106.906     124.16      2.216       3.73        48.221      45.493      44.377      46.125      50.771      47.619      45.92       1.3         2.517       1045.769    161.519     1.084       1249.473    1021.87     840.057     29.159      
143.7       114.288     124.51      2.233       3.536       48.296      44.686      44.377      48.025      50.371      52.219      46.049      1.319       2.513       1045.722    161.706     1.084       1368.308    1192.608    1041.683    28.572      
143.8       131.522     124.644     2.237       3.25        49.843      45.402      44.377      52.225      49.071      54.419      45.744      1.328       2.525       1045.797    161.748     1.084       1533.429    1301.37     1114.016    28.2        
143.9       129.122     124.51      2.235       3.151       54.138      49.026      45.277      52.425      53.471      55.319      45.92       1.308       2.548       1046.117    161.608     1.084       1706.618    1331.545    1054.197    28.545      
144.0       123.88      124.534     2.23        3.241       50.118      46.905      45.477      54.225      54.171      55.619      45.92       1.261       2.529       1046.067    161.25      1.079       1643.715    1186.186    859.771     29.311      
144.1       125.314     124.618     2.213       3.426       50.945      48.355      53.277      54.525      54.371      56.319      46.331      1.239       2.495       1045.926    160.578     1.079       1344.343    947.644     663.618     29.82       
144.2       125.603     124.528     2.194       3.548       57.261      53.542      54.577      54.625      54.871      58.519      45.971      1.231       2.498       1045.239    159.546     1.079       1063.169    780.333     569.045     29.912      
144.3       126.765     124.89      2.186       3.513       58.765      56.455      57.777      58.925      55.071      58.819      45.92       1.23        2.512       1044.907    158.231     1.079       1010.184    767.245     578.136     29.656      
144.4       128.529     124.566     2.171       3.398       59.553      58.316      60.477      62.525      55.571      59.819      46.566      1.239       2.522       1044.614    156.79      1.079       1011.93     781.964     599.871     30.003      
144.5       128.825     124.326     2.168       3.36        58.508      59.924      60.677      63.525      56.471      61.819      45.971      1.256       2.528       1044.096    155.279     1.079       891.968     700.023     546.419     30.602      
144.6       122.18      123.968     2.169       3.439       57.822      62.279      64.877      64.225      57.171      62.119      46.151      1.264       2.525       1043.782    153.687     1.079       841.679     637.994     484.713     31.278      
144.7       121.339     123.897     2.17        3.472       57.644      64.813      66.277      64.825      58.171      62.719      46.1        1.277       2.521       1043.516    151.992     1.079       1093.864    791.112     575.343     31.292      
144.8       122.462     124.193     2.177       3.484       57.141      66.764      67.077      65.025      58.371      64.619      46.1        1.295       2.529       1043.293    150.289     1.079       1339.181    944.569     668.741     30.663      
144.9       118.304     124.339     2.19        3.552       56.184      68.949      67.377      68.625      59.271      64.719      46.762      1.313       2.538       1042.888    148.8       1.075       1414.846    1003.193    713.512     30.018      
145.0       123.311     124.201     2.194       3.638       54.307      69.731      67.677      67.925      62.071      65.319      46.762      1.295       2.524       1042.942    147.582     1.07        1221.041    870.44      621.299     29.967      
145.1       127.644     124.013     2.205       3.64        53.582      70.221      67.977      67.225      64.371      65.519      46.762      1.286       2.51        1043.544    146.778     1.07        1027.235    737.708     529.086     30.607      
