~Version Information Section
VERS.                                         2.0:CWLS log ASCII Standart – VERSION 2.0
WRAP.                                          NO:One line per depth step
~Well Information Section
STRT.M                                        1.0:Начальная глубина
STOP.M                                      192.9:Конечная глубина
STEP.M                                          0:Шаг квантования по глубине
NULL.                                    -9999.25:Признак "Нет данных"
WELL.                                       123Мх:Скважина
~Parameter Information Section
~Curve Information Section
DEPTH.M                                          :Глубина
BK.lgОмм                                         :BK     (БК)
ПРОФ_СР.мм                                       :DS  (ДС)
ГК.мкР/час                                       :GK          (ГК)
ГЗ1.Омм                                          :GZ1   ГЗ1(A0.4M0.1N)
ГЗ2.Омм                                          :GZ2   ГЗ2(A1.0M0.1N)
ГЗ3.Омм                                          :GZ3   ГЗ3(A2.0M0.5N)
ГЗ4.Oмм                                          :GZ4   ГЗ4(A4.0M0.5N)
ГЗ5.Oмм                                          :GZ5   ГЗ5(A8.0M0.5N)
ГЗК.Омм                                          :GZK   ГЗK(N0.5M2.0A)
ИК.мСм/м                                         :IK
НГК.усл.ед.                                      :NGK     (НГК)
PS.мВ                                            :PS       (ПС)
PZ.Омм                                           :PZ    (КС)
RIS.Омм                                          :RS (Резистивиметр)
U1.мВ                                            :U1
U2.мВ                                            :U2
U3.mv                                            :U3
W.                                               :W
П.%                                              :п
ННКМ.усл.ед                                      :ННКм
~ASCII LOG DATA
# ...
100.2       193.642     127.519     3.794       127.08      97.58       130.134     60.536      82.001      96.786      12.754      1.252       310.537     126.015     1.396       745.407     481.392     340.66      2.493       22.445      0.28        
100.3       149.969     127.51      4.055       123.12      92.48       116.134     52.203      80.001      90.119      12.392      1.25        310.915     115.111     1.4         675.957     359.16      235.699     2.475       23.414      0.27        
100.4       82.794      126.812     4.549       112.32      90.44       103.468     44.203      78.334      83.453      12.148      1.27        311.292     106.087     1.402       801.31      285.541     143.611     2.473       24.007      0.27        
100.5       39.537      126.701     5.001       101.88      88.06       95.468      36.869      76.667      75.786      11.755      1.259       311.669     97.815      1.403       999.263     304.363     132.422     2.467       23.614      0.272       
100.6       27.102      126.388     5.613       92.16       85.68       90.801      31.536      74.667      72.453      11.519      1.25        312.046     91.799      1.403       1045.244    359.126     189.338     2.435       23.75       0.273       
100.7       24.946      126.955     6.033       84.96       77.18       83.467      28.203      72.667      69.119      11.346      1.203       312.423     86.911      1.403       889.95      433.883     307.882     2.41        24.147      0.26        
100.8       27.102      129.937     6.057       77.4        69.7        75.468      25.869      70.667      66.786      11.221      1.158       312.8       83.527      1.403       743.556     451.144     352.448     2.38        25.483      0.238       
100.9       24.66       131.168     6.054       71.28       62.56       68.801      24.869      67.667      64.453      11.201      1.129       313.177     79.767      1.403       653.081     395.489     295.109     2.368       26.491      0.22        
101.0       29.512      129.675     6.042       69.84       62.56       64.134      24.869      63.334      62.453      11.165      1.186       313.555     77.135      1.403       658.883     370.015     256.416     2.364       27.38       0.213       
101.1       36.308      128.52      6.177       68.4        62.56       58.801      26.203      59.334      61.786      11.093      1.236       313.932     74.127      1.403       720.523     452.754     341.596     2.349       27.613      0.209       
101.2       29.992      128.941     6.245       66.24       62.22       54.134      28.536      56.667      61.786      11.04       1.213       314.309     71.495      1.403       831.534     644.245     563.264     2.352       27.558      0.203       
101.3       21.135      130.048     6.493       64.44       61.54       50.801      30.869      55.667      61.453      10.989      1.167       314.686     68.863      1.403       951.901     839.894     800.394     2.345       27.103      0.21        
101.4       24.547      128.452     6.461       62.64       60.18       49.468      32.536      54.334      60.453      10.984      1.101       314.686     66.607      1.404       1016.433    962.287     976.559     2.341       26.691      0.214       
101.5       28.314      129.379     5.944       61.56       58.82       51.468      32.869      53.334      58.453      11.022      1.15        314.686     63.975      1.405       1016.147    1015.756    1089.065    2.346       27.091      0.201       
101.6       30.549      135.525     5.174       60.48       56.44       55.468      32.536      52.334      56.453      11.201      1.232       314.686     61.719      1.408       950.701     1001.808    1138.41     2.364       28.042      0.194       
101.7       49.888      129.699     4.738       59.04       54.4        59.468      31.203      51.334      53.119      11.307      1.288       314.686     59.839      1.411       987.838     1008.851    1125.032    2.376       28.626      0.201       
101.8       68.234      127.661     4.882       57.24       51.68       60.801      29.869      50.001      50.453      11.405      1.289       314.686     57.583      1.413       1142.329    1045.727    1050.987    2.363       28.411      0.21        
101.9       76.913      129.908     5.425       55.8        49.64       60.134      28.536      48.667      47.786      11.502      1.27        314.686     55.327      1.415       1289.831    1071.559    953.6       2.349       27.756      0.213       
102.0       75.162      128.096     6.296       55.08       47.6        59.468      27.536      47.001      46.786      11.5        1.278       314.686     53.447      1.416       1314.634    1056.436    891.254     2.342       27.039      0.222       
102.1       53.58       128.473     6.983       55.08       45.56       57.468      26.869      45.667      45.119      11.403      1.26        314.686     51.943      1.416       1348.636    1069.069    890.507     2.343       26.212      0.231       
102.2       29.377      128.59      7.317       55.08       43.52       55.468      26.203      44.001      43.786      11.328      1.21        314.686     51.191      1.416       1520.621    1152.581    914.742     2.347       25.673      0.232       
102.3       24.434      127.68      7.291       55.08       41.48       53.468      25.536      43.001      42.119      11.218      1.144       314.686     51.943      1.416       1747.576    1248.319    926.872     2.359       25.719      0.232       
102.4       22.646      128.363     6.947       55.08       38.42       52.801      24.869      42.001      40.786      11.22       1.1         314.686     53.447      1.416       1888.353    1284.802    904.223     2.367       26.514      0.227       
102.5       21.038      129.257     6.414       55.08       35.7        51.468      24.536      41.667      39.453      11.218      1.056       314.309     56.079      1.416       1936.049    1259.523    847.031     2.369       27.8        0.215       
102.6       20.045      130.286     5.739       55.08       33.32       49.468      24.536      41.001      38.453      11.351      1.095       313.932     59.087      1.416       1852.193    1219.534    839.411     2.367       29.343      0.206       
102.7       22.336      130.898     5.085       55.44       32.98       48.134      24.536      40.334      37.786      11.577      1.136       313.555     62.471      1.416       1643.077    1167.194    881.31      2.385       31.443      0.195       
102.8       26.182      131.858     4.579       55.8        33.32       49.468      24.536      39.334      36.453      11.832      1.199       313.177     67.359      1.417       1442.86     1144.603    960.775     2.406       32.898      0.189       
102.9       32.885      131.319     4.262       56.16       34.0        53.468      24.536      38.334      35.453      12.274      1.199       312.8       72.623      1.418       1374.518    1161.054    1024.911    2.41        33.729      0.191       
103.0       46.345      131.284     4.061       56.52       35.02       60.134      24.536      37.667      34.786      12.573      1.178       312.046     80.143      1.421       1350.173    1142.747    1011.752    2.421       33.335      0.199       
103.1       41.976      128.774     3.704       57.24       36.38       65.468      24.536      37.001      34.786      12.989      1.142       311.292     88.791      1.424       1259.807    1060.925    939.742     2.426       32.393      0.214       
103.2       36.728      125.304     3.145       57.96       37.74       68.801      24.869      36.334      36.119      13.269      1.16        310.915     96.687      1.426       1363.919    1074.148    900.343     2.423       30.68       0.223       
103.3       40.644      125.002     2.586       58.32       39.1        68.801      25.536      35.667      39.119      13.617      1.18        310.537     102.327     1.428       1745.076    1254.523    955.952     2.412       29.309      0.233       
