~Version Information Section
VERS.                                         2.0:CWLS log ASCII Standart – VERSION 2.0
WRAP.                                          NO:One line per depth step
~Well Information Section
STRT.M                                      -0.07:Начальная глубина
STOP.M                                     189.23:Конечная глубина
STEP.M                                          0:Шаг квантования по глубине
NULL.                                    -9999.25:Признак "Нет данных"
WELL.                                       127Мх:Скважина
~Parameter Information Section
~Curve Information Section
DEPTH.M                                          :Глубина
BK.                                              :BK
ГК.гамма                                         :GK
ИК.                                              :IK
НГК.усл.ед                                       :NGK
PSЭ3.                                            :PSэ3
PZЭ3.                                            :PZэ3
U1.                                              :U1
U2.                                              :U2
U3.                                              :U3
W.усл.ед                                         :W
ГЗ1.                                             :ГЗ1
ГЗ2.                                             :ГЗ2
ГЗ3.                                             :ГЗ3
ГЗ4.                                             :ГЗ4
ГЗ5.                                             :ГЗ5
ГЗК.                                             :ГЗК
ННКМ.усл.ед                                      :ННКм
PL.g/cm3                                         :Плотность
ПРОФ_СР.                                         :ПРОФ_СР
IS.                                              :РЕЗ
~ASCII LOG DATA
# ...
92.73       1.349       3.896       28.281      1.001       -9999.25    -9999.25    -9999.25    -9999.25    -9999.25    40.744      0.049       19.939      10.035      20.442      19.105      9.998       1.282       2.046       100.954     1.087       
92.83       1.44        3.312       28.294      0.895       -9999.25    -9999.25    -9999.25    -9999.25    -9999.25    41.257      0.047       19.934      10.035      20.426      18.784      9.992       1.319       2.046       100.961     1.086       
92.93       1.603       2.676       28.207      0.952       -9999.25    -9999.25    -9999.25    -9999.25    -9999.25    39.324      0.047       19.926      10.034      20.418      17.51       9.988       1.396       2.046       100.974     1.085       
93.03       1.581       2.307       28.165      0.995       -9999.25    -9999.25    -9999.25    -9999.25    -9999.25    39.773      0.048       19.927      10.027      20.413      17.065      9.99        1.531       2.043       100.976     1.085       
93.13       1.592       2.758       28.234      0.964       -9999.25    -9999.25    -9999.25    -9999.25    -9999.25    40.762      0.049       19.929      10.017      20.408      15.463      10.0        1.573       2.043       100.96      1.085       
93.23       1.568       3.83        28.198      0.909       -9999.25    -9999.25    -9999.25    -9999.25    -9999.25    37.061      0.049       19.927      10.013      20.407      16.128      10.002      1.448       2.043       100.939     1.085       
93.33       1.55        4.776       28.25       0.897       -9999.25    -9999.25    -9999.25    -9999.25    -9999.25    36.481      0.05        19.931      10.013      20.406      17.644      10.01       1.358       2.048       100.953     1.084       
93.43       1.518       4.964       28.184      0.991       -9999.25    -9999.25    -9999.25    -9999.25    -9999.25    39.321      0.051       19.933      10.019      20.412      18.077      10.022      1.348       2.058       100.966     1.085       
93.53       1.541       4.638       28.12       0.981       -9999.25    -9999.25    -9999.25    -9999.25    -9999.25    40.274      0.052       19.932      10.021      20.416      19.353      10.033      1.349       2.071       100.983     1.085       
93.63       1.572       4.354       28.121      0.89        -9999.25    -9999.25    -9999.25    -9999.25    -9999.25    41.754      0.052       19.93       10.025      20.419      19.755      10.035      1.393       2.085       100.986     1.085       
93.73       1.57        4.065       28.179      0.832       -9999.25    -9999.25    -9999.25    -9999.25    -9999.25    43.272      0.053       19.929      10.033      20.424      21.228      10.037      1.448       2.102       100.972     1.084       
93.83       1.583       3.749       28.18       0.848       -9999.25    -9999.25    -9999.25    -9999.25    -9999.25    41.933      0.053       19.927      10.026      20.43       21.069      10.043      1.435       2.119       100.948     1.084       
93.93       1.561       3.678       28.129      1.038       -9999.25    -9999.25    -9999.25    -9999.25    -9999.25    39.037      0.052       19.928      10.019      20.429      20.958      10.044      1.361       2.132       100.922     1.085       
94.03       1.554       3.854       28.139      1.105       -9999.25    -9999.25    -9999.25    -9999.25    -9999.25    39.321      0.054       19.923      10.013      20.42       20.928      10.037      1.323       2.137       100.895     1.085       
94.13       1.548       3.892       28.121      0.995       -9999.25    -9999.25    -9999.25    -9999.25    -9999.25    41.45       0.054       19.926      10.009      20.415      20.999      10.033      1.335       2.134       100.887     1.085       
94.23       1.531       3.587       28.109      0.905       -9999.25    -9999.25    -9999.25    -9999.25    -9999.25    40.864      0.053       19.931      10.007      20.416      21.115      10.033      1.366       2.122       100.901     1.085       
94.33       1.551       2.983       28.091      0.914       -9999.25    -9999.25    -9999.25    -9999.25    -9999.25    40.85       0.054       19.929      10.007      20.419      21.251      10.028      1.448       2.104       100.881     1.085       
94.43       1.606       2.545       28.041      0.952       -9999.25    -9999.25    -9999.25    -9999.25    -9999.25    42.422      0.054       19.935      10.008      20.424      21.385      10.029      1.537       2.079       100.885     1.085       
94.53       1.663       2.425       28.103      0.928       -9999.25    -9999.25    -9999.25    -9999.25    -9999.25    41.644      0.055       19.932      10.013      20.434      21.542      10.034      1.552       2.054       100.911     1.085       
94.63       1.727       2.851       28.154      0.969       -9999.25    -9999.25    -9999.25    -9999.25    -9999.25    40.401      0.055       19.938      10.015      20.451      21.685      10.041      1.515       2.034       100.927     1.085       
94.73       1.757       3.418       28.081      1.031       -9999.25    -9999.25    -9999.25    -9999.25    -9999.25    39.037      0.056       19.941      10.009      20.46       21.732      10.045      1.428       2.02        100.922     1.084       
94.83       1.705       3.985       28.068      0.993       -9999.25    -9999.25    -9999.25    -9999.25    -9999.25    36.708      0.057       19.947      10.006      20.457      21.671      10.041      1.3         2.009       100.96      1.084       
94.93       1.685       4.342       28.219      0.991       -9999.25    -9999.25    -9999.25    -9999.25    -9999.25    38.017      0.054       19.953      10.004      20.442      21.619      10.04       1.254       2.004       100.976     1.085       
95.03       1.779       4.461       28.308      1.01        -9999.25    -9999.25    -9999.25    -9999.25    -9999.25    42.618      0.052       19.952      10.005      20.439      21.759      10.038      1.306       2.0         100.95      1.085       
95.13       1.841       4.283       28.241      0.943       -9999.25    -9999.25    -9999.25    -9999.25    -9999.25    43.79       0.05        19.953      10.004      20.477      21.74       10.029      1.352       1.998       100.926     1.085       
95.23       1.696       4.03        28.224      0.874       -9999.25    -9999.25    -9999.25    -9999.25    -9999.25    44.145      0.046       19.954      9.998       20.476      21.718      10.03       1.403       1.998       100.947     1.085       
95.33       1.366       3.878       28.261      0.913       -9999.25    -9999.25    -9999.25    -9999.25    -9999.25    41.725      0.042       19.958      10.001      20.484      21.736      10.025      1.441       1.997       100.925     1.085       
95.43       1.365       3.705       28.13       0.979       -9999.25    -9999.25    -9999.25    -9999.25    -9999.25    37.323      0.039       19.952      10.002      20.501      21.081      10.025      1.452       1.995       100.947     1.085       
95.53       1.311       3.601       28.258      1.068       -9999.25    -9999.25    -9999.25    -9999.25    -9999.25    36.818      0.038       19.955      9.998       20.509      19.478      10.026      1.461       1.997       100.963     1.085       
95.63       1.269       3.369       28.264      1.176       -9999.25    -9999.25    -9999.25    -9999.25    -9999.25    37.248      0.038       19.959      9.994       20.488      19.386      10.029      1.455       2.001       100.972     1.085       
95.73       1.113       3.429       28.289      1.231       -9999.25    -9999.25    -9999.25    -9999.25    -9999.25    37.273      0.039       19.961      9.999       20.464      18.747      10.032      1.441       2.004       100.967     1.085       
95.83       0.685       3.532       28.197      1.132       -9999.25    -9999.25    -9999.25    -9999.25    -9999.25    36.96       0.04        19.959      10.005      20.467      16.568      10.033      1.424       2.008       100.97      1.085       
