~Version Information Section
VERS.                                         2.0:CWLS log ASCII Standart – VERSION 2.0
WRAP.                                          NO:One line per depth step
~Well Information Section
STRT.M                                        0.6:Начальная глубина
STOP.M                                      202.6:Конечная глубина
STEP.M                                          0:Шаг квантования по глубине
NULL.                                    -9999.25:Признак "Нет данных"
WELL.                                       130Мх:Скважина
~Parameter Information Section
~Curve Information Section
DEPTH.M                                          :Глубина
БК.Омм                                           :BK     (БК)
DСР.мм                                           :DS  (ДС)
W.g/cm3                                          :GGKp
ГК.гамма                                         :GK          (ГК)
А0.4М0.1N.Омм.ohmm                               :GZ1   ГЗ1(A0.4M0.1N)
А1.0М0.1N.Омм.ohmm                               :GZ2   ГЗ2(A1.0M0.1N)
А2.0М0.5N.Омм.ohmm                               :GZ3   ГЗ3(A2.0M0.5N)
А4.0М0.5N.Oмм.ohmm                               :GZ4   ГЗ4(A4.0M0.5N)
А8.0М1.0N.Омм.ohmm                               :GZ5   ГЗ5(A8.0M0.5N)
N0.5M2.0A.Омм.ohmm                               :GZK   ГЗK(N0.5M2.0A)
ИК.мСм/м                                         :IK
НГК.усл.ед                                       :NNKb  (ННКб)
ННКМ.усл.ед                                      :NNKm  (ННКм)
ПС.мВ                                            :PS       (ПС)
КС.Омм                                           :PZ    (КС)
R.Омм                                            :RS (Резистивиметр)
U1.мВ                                            :U1
U2.mV                                            :U2
U3.мВ                                            :U3
КП.%                                             :Кп
~ASCII LOG DATA
# ...
32.6        990.695     138.636     2.227       4.889       20.39       18.357      27.303      15.677      2.969       18.209      15.707      2.434       1.693       287.382     52.04       1.08        1443.091    814.48      455.808     36.663      
32.7        774.655     138.853     2.219       4.934       21.982      18.914      27.998      15.731      3.044       17.347      15.915      2.363       1.67        287.382     51.768      1.08        1538.235    878.645     497.17      37.42       
32.8        233.944     138.781     2.215       4.845       23.003      19.394      28.032      15.731      3.109       16.422      16.003      2.254       1.635       287.382     51.608      1.08        1562.439    919.881     518.324     38.091      
32.9        158.609     138.37      2.217       4.85        23.327      19.057      28.032      15.495      3.14        15.626      15.979      2.287       1.581       287.366     51.576      1.08        1552.721    934.275     543.216     36.652      
33.0        437.506     137.757     2.227       4.791       23.327      18.227      27.51       14.844      3.313       15.201      15.873      2.321       1.538       287.261     51.576      1.08        1544.979    974.512     600.583     34.307      
33.1        464.153     137.668     2.241       4.636       23.028      17.375      26.366      14.111      3.601       14.929      15.809      2.205       1.557       287.093     51.576      1.08        1558.232    1031.599    684.254     33.609      
33.2        409.167     137.889     2.26        4.592       22.295      16.979      24.916      13.388      3.953       14.562      15.753      2.035       1.573       286.905     51.576      1.08        1502.754    1085.475    758.366     33.929      
33.3        236.355     137.97      2.283       4.494       21.418      16.979      23.344      12.749      4.34        14.235      15.782      2.049       1.574       286.726     51.576      1.08        1548.623    1144.392    832.473     33.544      
33.4        74.532      137.268     2.305       4.596       20.721      17.002      22.025      12.401      4.76        14.052      15.788      2.077       1.569       286.573     51.688      1.08        1740.046    1247.12     889.897     31.286      
33.5        121.913     137.29      2.317       4.442       20.226      17.25       20.977      12.28       5.006       14.005      15.741      2.109       1.537       286.457     51.952      1.08        1957.974    1337.39     909.821     28.429      
33.6        111.854     137.35      2.318       4.824       19.916      17.57       20.363      12.27       5.16        14.005      15.636      2.173       1.542       286.378     52.368      1.08        2083.905    1384.885    916.426     25.813      
33.7        73.128      137.634     2.308       4.762       19.648      17.517      20.223      12.27       5.256       14.005      15.542      2.281       1.636       286.329     52.92       1.08        2183.779    1432.383    937.876     24.313      
33.8        35.467      137.324     2.289       4.683       19.451      17.446      20.223      12.27       5.418       14.045      15.521      2.377       1.693       286.289     53.56       1.08        2238.651    1486.598    987.301     25.107      
33.9        23.189      137.086     2.268       4.304       19.451      17.736      20.223      12.629      5.562       14.555      15.592      2.37        1.678       286.233     54.208      1.08        2195.528    1538.647    1084.527    27.022      
34.0        22.477      136.788     2.251       4.239       19.67       18.219      20.853      14.199      5.8         15.985      15.607      2.396       1.677       286.132     54.8        1.08        2146.135    1568.564    1149.344    28.658      
34.1        22.152      136.305     2.236       4.24        20.412      19.419      22.742      17.421      6.068       17.807      15.462      2.513       1.704       285.951     55.272      1.08        2157.528    1596.156    1185.343    28.951      
34.2        21.52       135.833     2.22        4.25        22.703      21.487      25.404      22.074      6.372       19.069      15.204      2.687       1.744       285.664     55.616      1.08        2141.995    1621.843    1221.344    28.166      
34.3        20.979      136.277     2.206       4.16        26.528      23.216      27.79       27.255      6.61        19.575      14.894      2.994       1.788       285.258     55.816      1.08        2062.115    1613.894    1253.758    27.834      
34.4        26.808      135.975     2.194       4.004       30.646      24.094      29.178      31.41       6.715       19.682      14.741      3.16        1.849       284.736     55.904      1.08        1884.031    1497.515    1181.872    31.274      
34.5        44.431      135.885     2.195       3.847       34.911      25.28       29.583      33.256      6.715       19.682      14.785      2.997       1.927       284.112     55.904      1.08        1647.721    1334.849    1073.829    35.673      
34.6        47.63       135.856     2.212       3.869       37.484      26.18       29.583      33.483      6.715       19.215      14.737      2.82        1.906       283.417     55.904      1.08        1421.629    1200.433    998.724     37.261      
34.7        36.454      136.022     2.231       3.922       37.853      26.18       29.204      33.483      6.579       17.693      14.402      2.629       1.786       282.68      55.84       1.08        1269.613    1082.491    930.092     35.312      
34.8        29.424      136.042     2.25        4.018       37.853      25.26       27.648      32.388      6.28        15.84       13.859      2.508       1.719       281.921     55.72       1.08        1234.458    1058.698    924.448     32.47       
34.9        25.036      136.611     2.263       3.973       35.762      22.79       24.896      29.285      6.081       14.845      13.191      2.45        1.707       281.15      55.576      1.08        1319.156    1135.308    978.322     32.695      
35.0        25.757      139.789     2.258       4.053       31.24       20.75       22.004      25.223      6.081       14.65       12.64       2.362       1.656       280.386     55.416      1.08        1466.584    1247.048    1045.602    33.939      
35.1        21.083      141.753     2.248       4.08        26.345      20.119      19.839      21.72       6.081       14.65       12.159      2.17        1.598       279.643     55.248      1.08        1644.889    1347.992    1076.603    35.273      
35.2        14.921      137.221     2.244       4.333       21.132      19.32       18.516      19.529      6.081       14.65       11.672      2.077       1.499       278.946     55.072      1.08        1833.672    1424.165    1090.737    35.824      
35.3        13.64       135.71      2.245       4.873       16.826      18.16       17.709      18.352      6.215       14.767      11.236      1.952       1.391       278.332     54.88       1.08        1897.248    1416.2      1017.5      35.63       
35.4        14.832      136.276     2.245       5.304       15.097      17.213      17.134      17.755      7.113       15.334      11.048      2.031       1.44        277.842     54.64       1.08        1903.874    1368.133    946.263     37.093      
35.5        16.318      137.111     2.248       5.184       14.924      16.558      16.657      17.484      8.635       16.372      11.089      2.267       1.526       277.499     54.336      1.08        1885.76     1360.99     962.57      39.049      
35.6        18.915      136.647     2.247       4.867       14.873      15.976      16.237      17.212      10.098      17.366      11.134      2.238       1.564       277.291     53.944      1.08        1910.388    1434.152    1074.749    40.3        
35.7        19.769      136.754     2.242       4.702       14.672      15.605      15.884      16.868      11.226      17.968      11.185      2.186       1.587       277.221     53.464      1.08        1899.654    1476.92     1136.471    40.048      
