~Version Information Section
VERS.                                         2.0:CWLS log ASCII Standart – VERSION 2.0
WRAP.                                          NO:One line per depth step
~Well Information Section
STRT.M                                        1.0:Начальная глубина
STOP.M                                      203.4:Конечная глубина
STEP.M                                          0:Шаг квантования по глубине
NULL.                                    -9999.25:Признак "Нет данных"
WELL.                                         3Мх:Скважина
~Parameter Information Section
~Curve Information Section
DEPTH.M                                          :Глубина
BK.Ohm*M                                         :BK
DS.mm                                            :DS  (ДС)
ГК.mcr/h                                         :GK          (ГК)
GZ1.Ohm*M                                        :GZ1   ГЗ1(A0.4M0.1N)
GZ2.Ohm*M                                        :GZ2   ГЗ2(A1.0M0.1N)
GZ3.Ohm*M                                        :GZ3   ГЗ3(A2.0M0.5N)
GZ4.Ohm*M                                        :GZ4   ГЗ4(A4.0M0.5N)
GZ5.Ohm*M                                        :GZ5   ГЗ5(A8.0M0.5N)
U2.mV                                            :U2
U3.mV                                            :U3
W.                                               :W
КП.%                                             :Кп
НГК.усл.ед                                       :ННКб
ННКМ.усл.ед                                      :ННКм
GZR.Ohm*M                                        :GZK   ГЗK(N0.5M2.0A)
ИК.Ohm*M                                         :IK
PS.mv                                            :PS       (ПС)
PZ.Ohm*M                                         :PZ    (КС)
RS.Ohm*M                                         :RS (Резистивиметр)
U1.mV                                            :U1
~ASCII LOG DATA
# ...
84.2        33.651      150.974     4.877       1.24        6.31        5.277       7.025       5.271       414.716     271.038     2.395       33.362      3.586       2.211       5.519       23.428      161.529     19.253      0.99        715.321     
84.3        34.356      151.235     5.108       1.215       6.044       5.277       6.925       5.271       372.332     214.596     2.406       34.792      3.406       2.149       5.519       23.248      163.65      20.053      0.99        691.884     
84.4        29.785      152.079     5.232       1.351       5.827       5.177       6.925       5.071       360.921     218.57      2.386       37.523      3.135       2.104       5.419       23.244      162.563     20.774      0.99        634.441     
84.5        24.946      152.615     5.275       1.53        5.779       5.077       6.825       4.971       407.995     295.331     2.378       40.362      3.071       2.112       5.319       23.149      158.613     21.164      0.99        606.931     
84.6        21.928      152.903     5.064       1.756       5.803       5.077       6.725       4.871       484.682     411.051     2.371       41.954      3.028       2.169       5.219       22.903      153.775     21.196      0.99        606.127     
84.7        21.086      153.033     4.701       1.96        5.875       4.977       6.625       4.771       555.352     530.342     2.365       42.24       3.151       2.227       5.119       22.642      148.562     20.862      0.99        607.131     
84.8        20.045      151.116     4.299       2.162       5.996       4.977       6.625       4.671       577.621     616.256     2.356       41.229      3.335       2.312       5.019       22.442      141.822     20.32       0.99        563.365     
84.9        20.045      151.34      4.018       2.323       6.213       4.777       6.625       4.671       560.857     666.695     2.346       39.86       3.424       2.361       5.019       22.147      133.005     19.634      0.99        493.164     
85.0        22.961      151.308     3.874       2.386       6.31        4.777       6.625       4.571       522.191     676.945     2.339       38.409      3.512       2.356       5.019       21.955      122.614     19.031      0.99        429.469     
85.1        25.645      151.157     3.816       2.424       6.358       4.677       6.625       4.571       486.503     639.705     2.321       37.055      3.609       2.365       5.019       21.846      113.633     18.564      0.99        419.801     
85.2        29.377      151.286     3.828       2.443       6.455       4.677       6.625       4.571       463.235     558.724     2.315       36.274      3.754       2.394       5.019       21.872      107.496     18.321      0.99        470.226     
85.3        33.113      151.441     3.867       2.491       6.479       4.677       6.625       4.571       457.566     459.703     2.32        35.875      3.748       2.411       5.019       21.952      105.127     18.187      0.985       560.626     
85.4        34.674      151.57      3.958       2.525       6.503       4.777       6.525       4.571       465.322     383.503     2.32        36.123      3.74        2.411       5.019       22.19       105.002     18.131      0.981       645.821     
85.5        36.728      151.679     4.072       2.55        6.552       4.777       6.525       4.571       473.82      339.314     2.326       36.605      3.708       2.412       5.019       22.252      106.208     18.104      0.981       702.585     
85.6        37.844      151.973     4.224       2.584       6.673       4.977       6.525       4.571       466.516     312.214     2.365       36.516      3.661       2.414       5.019       22.414      107.586     18.055      0.981       723.688     
85.7        37.239      152.335     4.437       2.603       6.769       5.077       6.525       4.571       438.254     283.538     2.389       35.485      3.696       2.394       5.019       22.257      109.999     18.084      0.981       714.542     
85.8        35.81       153.9       4.738       2.623       6.842       5.177       6.525       4.571       398.911     263.488     2.398       34.15       3.749       2.339       5.119       22.169      114.74      18.261      0.981       665.66      
85.9        34.198      154.928     5.084       2.636       6.938       5.277       6.525       4.571       365.19      267.669     2.434       33.254      3.669       2.279       5.219       21.988      123.201     18.624      0.981       579.472     
86.0        32.434      153.823     5.414       2.642       7.035       5.377       6.525       4.571       345.385     296.744     2.461       33.499      3.507       2.197       5.319       21.7        132.657     18.966      0.981       473.682     
86.1        31.261      155.161     5.7         2.641       7.083       5.477       6.525       4.571       335.645     324.49      2.482       34.42       3.334       2.111       5.419       21.408      139.464     19.231      0.976       389.079     
86.2        28.907      157.772     5.888       2.604       7.108       5.577       6.525       4.571       327.146     327.353     2.513       35.684      3.075       2.032       5.519       20.939      139.105     19.502      0.976       349.58      
86.3        25.061      159.619     6.088       2.575       7.083       5.677       6.525       4.571       312.995     299.352     2.547       37.723      3.011       1.977       5.519       20.422      133.203     19.847      0.976       353.33      
86.4        21.727      160.203     6.209       2.772       7.204       5.877       6.625       4.571       293.513     262.422     2.543       39.194      2.754       1.941       5.519       19.994      124.295     20.051      0.976       366.943     
86.5        19.364      160.199     6.273       2.931       7.422       5.977       6.825       4.571       274.649     243.401     2.5         40.694      2.721       1.903       5.619       19.558      117.384     19.968      0.976       361.52      
86.6        18.793      162.439     5.958       3.033       7.591       6.077       6.925       4.571       262.516     249.646     2.43        40.845      2.591       1.863       5.619       19.185      113.47      19.673      0.976       335.999     
86.7        18.621      171.644     5.664       3.062       7.687       6.277       7.025       4.671       258.11      258.702     2.36        42.137      2.617       1.83        5.619       18.75       113.278     19.47       0.976       322.912     
86.8        16.749      183.795     5.47        3.116       7.809       6.277       7.125       5.271       259.396     249.003     2.319       42.648      2.721       1.923       5.619       18.508      115.213     19.394      0.976       346.359     
86.9        14.454      189.745     5.742       3.23        7.954       6.277       7.225       5.571       266.77      224.231     2.323       41.132      2.77        2.011       5.619       18.284      118.551     19.314      0.976       398.664     
87.0        13.804      177.467     5.902       2.855       7.784       6.277       7.325       5.571       293.489     222.638     2.362       38.409      3.014       1.978       5.619       18.125      122.064     19.052      0.976       452.66      
87.1        14.388      167.183     6.033       2.143       7.373       6.277       7.425       5.671       359.274     276.528     2.405       37.023      3.014       1.95        5.619       17.991      126.021     18.627      0.976       510.868     
87.2        15.453      164.939     5.867       1.883       7.228       6.077       7.425       5.671       468.637     383.581     2.431       38.109      2.838       1.934       5.619       17.943      130.664     18.136      0.976       597.724     
87.3        15.996      166.637     5.775       1.685       7.132       6.077       7.425       5.671       584.859     489.256     2.427       40.423      2.831       1.928       5.619       17.989      134.721     17.607      0.976       716.938     
