~Version Information Section
VERS.                                         2.0:CWLS log ASCII Standart – VERSION 2.0
WRAP.                                          NO:One line per depth step
~Well Information Section
STRT.M                                       -0.3:Начальная глубина
STOP.M                                      200.8:Конечная глубина
STEP.M                                          0:Шаг квантования по глубине
NULL.                                    -9999.25:Признак "Нет данных"
WELL.                                       124Мх:Скважина
~Parameter Information Section
~Curve Information Section
DEPTH.M                                          :Глубина
U1.мВ                                            :U1
U2.                                              :U2
U3.мВ                                            :U3
БЗ.имп/мин                                       :БЗ
ГГКП.имп/мин                                     :ГГКп
ГЗ1.Омм                                          :ГЗ1
ГЗ2.Омм                                          :ГЗ2
ГЗ3.Омм                                          :ГЗ3
ГЗ4.Oмм                                          :ГЗ4
ГЗ5.Oмм                                          :ГЗ5
ГЗК.Омм                                          :ГЗК
КП.%                                             :Кп
МЗ.                                              :МЗ жесткий
НГК.усл.ед                                       :ННКб
ННКМ.усл.ед                                      :ННКм
ПРОФ_СР.мм                                       :ПРОФ_СР
ПС.мВ                                            :ПС
BK.lgОмм                                         :BK
ГК.имп/мин                                       :GK
ИК.мСм/м                                         :IK
PZ.Омм                                           :PZ
RIS.Омм                                          :RIS
~ASCII LOG DATA
# ...
133.1       1436.152344 3429.193359 1370.34729  18727.1425782.403589    14.818      15.043      28.219999   29.775999   29.191999   30.43       24.654282   25532.8574223.224175    2.190974    151.128006  416.415985  69.662659   4.57        30.497103   98.800003   1.06        
133.2       1575.064453 3429.966309 1309.183838 18575.3847662.409652    14.766      14.657      27.719999   29.511999   28.903999   30.739      24.054737   24992.3085943.334409    2.222848    151.417007  413.951996  82.413811   4.394       30.700272   99.279999   1.06        
133.3       1728.518799 3435.993652 1255.627075 18104.0     2.41821     14.618      14.221      27.639999   29.327999   28.632      30.959999   23.476954   24974.6660163.582207    2.260305    151.539993  411.488007  84.333473   4.256       30.396063   99.519997   1.06        
133.4       1757.331055 3434.658447 1238.170776 17676.9238282.42185     14.439      13.775      27.559999   29.216      28.448      31.087      22.937208   24806.1542973.726097    2.298788    151.776993  409.640015  73.282455   3.744       30.463657   99.519997   1.06        
133.5       1644.349731 3423.811279 1257.915649 17160.0     2.415091    14.297      13.393      27.5        29.167999   28.327999   31.138      22.554543   24482.8574223.832163    2.415346    152.014999  407.175995  70.469315   3.731       30.766392   99.519997   1.06        
133.6       1510.143311 3415.171631 1291.052612 16580.0     2.40172     14.167      13.099      27.48       29.167999   28.271999   31.138      22.607546   23980.0     3.773517    2.561324    151.641998  404.096008  103.752846  3.706       30.802402   99.519997   1.06        
133.7       1456.366577 3416.647461 1313.258911 16227.6923832.385885    14.056      12.902      27.48       29.167999   28.271999   31.138      22.475645   23872.3085943.591199    2.564297    150.953995  400.399994  154.881683  4.31        31.077131   99.120003   1.06        
133.8       1458.747314 3423.659668 1323.538696 16529.3339842.374432    13.997      12.878      27.48       29.167999   28.271999   31.15       22.44096    24006.6660163.550728    2.509485    150.699997  396.088013  146.217697  4.915       31.649574   98.720001   1.06        
133.9       1481.584106 3429.051025 1319.25769  16804.2851562.367198    13.977      12.878      27.48       29.167999   28.271999   31.15       22.574703   23838.5722663.472578    2.42825     150.679993  391.776001  129.717896  4.493       31.903015   98.400002   1.06        
134.0       1519.947998 3434.549805 1305.730347 17308.5722662.36264     13.956      12.878      27.48       29.191999   28.280001   31.15       22.421143   24388.5722663.59198     2.356129    150.914993  388.079987  99.3116     4.282       32.694698   97.839996   1.06        
134.1       1557.00769  3444.019287 1298.353149 17670.0     2.359624    13.929      12.878      27.5        29.264      28.360001   31.15       22.227959   24147.1425783.774941    2.336106    151.110992  386.231995  91.622055   4.01        33.285625   97.440002   1.06        
134.2       1581.004272 3454.864502 1301.258789 17425.7148442.358458    13.884      13.037      27.540001   29.375999   28.496      31.181      22.445227   23692.8574223.751686    2.323507    150.807007  385.0       87.498383   3.955       33.772373   97.040001   1.06        
134.3       1599.444092 3457.855225 1298.536987 17622.8574222.357575    13.821      13.317      27.6        29.535999   28.704      31.288      22.562037   23867.1425783.716146    2.368017    150.481995  384.384003  90.991325   4.435       33.897156   96.639999   1.06        
134.4       1621.68103  3449.716797 1280.107178 17291.4277342.356745    13.717      13.674      27.66       29.743999   28.976      31.493      22.715967   23702.8574223.658371    2.429013    150.567993  382.536011  92.682983   4.413       34.148338   96.160004   1.06        
134.5       1621.403687 3430.708496 1262.677368 17257.3339842.358711    13.578      14.051      27.74       29.992001   29.304001   31.809999   22.987223   23714.6660163.62004     2.476831    150.472     380.071991  96.827774   4.282       34.238365   96.0        1.06        
134.6       1536.339844 3400.339355 1284.463135 17757.1425782.358892    13.413      14.38       27.82       30.224001   29.672001   32.235001   23.031822   24377.1425783.596316    2.452217    150.391998  377.608002  104.954224  4.365       34.238365   95.919998   1.06        
134.7       1394.423584 3364.303223 1330.967651 18390.0     2.358869    13.253      14.632      27.879999   30.448      30.048      32.743999   22.908234   25450.0     3.557478    2.371367    150.401993  374.528015  91.622055   4.531       34.7174     95.839996   1.06        
134.8       1293.827881 3340.851807 1352.635132 19166.6660162.355984    13.097      14.847      27.959999   30.648001   30.384001   33.294998   22.643021   26805.3339843.490334    2.353537    150.106003  372.063995  81.096115   4.301       34.699329   95.839996   1.06        
134.9       1285.170288 3336.127197 1328.822021 19792.3085942.355048    12.952      15.038      28.02       30.799999   30.672001   33.834      22.296707   28189.2304693.52452     2.375306    149.707993  370.216003  85.901352   4.07        34.886967   95.839996   1.06        
135.0       1314.104004 3339.027344 1294.233032 20377.3339842.35316     12.802      15.188      28.059999   30.903999   30.912001   34.292      22.107105   29140.0     3.600502    2.386256    149.473999  367.752014  86.099365   4.058       34.79229    95.839996   1.06        
135.1       1307.476929 3334.646484 1286.849365 20320.0     2.351138    12.642      15.29       28.08       30.976      31.120001   34.578999   22.096401   29171.4277343.600502    2.385543    149.382004  364.056     86.099365   4.051       34.829857   95.839996   1.06        
135.2       1279.521973 3327.634277 1300.067261 20126.1542972.351651    12.473      15.34       28.1        31.007999   31.288      34.658001   22.050316   28580.0     3.590036    2.359109    149.494995  360.976013  85.310013   4.896       34.924736   95.919998   1.06        
135.3       1274.074341 3332.881348 1314.949097 19786.6660162.352171    12.307      15.34       28.1        31.007999   31.424      34.658001   22.372185   27960.0     3.555147    2.330278    149.576004  357.895996  79.250145   4.896       34.924736   96.0        1.06        
135.4       1286.820557 3346.363525 1327.862427 18964.6152342.353663    12.142      15.34       28.1        31.007999   31.535999   34.658001   22.629902   27229.2304693.54282     2.309871    149.903     355.432007  68.233871   3.898       34.79229    96.080002   1.06        
135.5       1296.130615 3349.905273 1324.548706 17780.0     2.354349    11.988      15.333      28.1        31.0        31.568001   34.518002   22.854971   26657.1425783.57709     2.307343    150.378006  353.584015  66.221649   4.035       34.962589   96.400002   1.06        
135.6       1286.752441 3334.727783 1303.461548 16264.0     2.358979    11.848      15.277      28.08       30.952      31.568001   34.179001   23.146917   25908.0     3.564441    2.329502    150.542007  352.967987  68.233871   4.723       34.699329   96.800003   1.06        
135.7       1272.369019 3307.918213 1267.118896 14767.6923832.36175     11.706      15.201      28.02       30.856001   31.568001   33.686001   23.048317   24975.3847663.496688    2.327362    150.535004  351.735992  70.307236   4.614       34.699329   97.279999   1.06        
135.8       1269.503662 3284.866943 1229.394287 14282.6669922.367529    11.57       15.12       27.940001   30.728001   31.511999   33.130001   22.688639   24288.0     3.486998    2.307537    150.505005  350.503998  74.81694    4.397       34.924736   97.839996   1.06        
135.9       1276.458374 3268.013184 1195.419922 14078.5712892.373721    11.457      15.037      27.84       30.552      31.392      32.563      22.330441   23852.8574223.502479    2.323601    150.653     349.272003  74.81694    4.55        34.569778   98.480003   1.06        
