~Version Information Section
VERS.                                         2.0:CWLS log ASCII Standart – VERSION 2.0
WRAP.                                          NO:One line per depth step
~Well Information Section
STRT.M                                        0.1:Начальная глубина
STOP.M                                      167.0:Конечная глубина
STEP.M                                          0:Шаг квантования по глубине
NULL.                                    -9999.25:Признак "Нет данных"
WELL.                                        143К:Скважина
~Parameter Information Section
~Curve Information Section
DEPTH.M                                          :Глубина
БК.Омм                                           :BK     (БК)
DСР.мм                                           :DS  (ДС)
ПЛОТНОСТЬ.г/см^3                                 :GGKp
ГК.гамма                                         :GK          (ГК)
ИК.мСм/м                                         :IK
НГК.усл.ед                                       :NGK     (НГК)
ННКМ.усл.ед                                      :NNKm  (ННКм)
ПС.mv                                            :PS       (ПС)
N11.0M0.5A.Омм                                   :PZ    (КС)
R.Омм                                            :RS (Резистивиметр)
КП.%                                             :W
А0.4М0.1N.Омм                                    :GZ1   ГЗ1(A0.4M0.1N)
А1.0М0.1N.Омм                                    :GZ2   ГЗ2(A1.0M0.1N)
А2.0М0.5N.Омм                                    :GZ3   ГЗ3(A2.0M0.5N)
А4.0М0.5N.Oмм                                    :GZ4   ГЗ4(A4.0M0.5N)
А8.0М1.0N.Омм                                    :GZ5   ГЗ5(A8.0M0.5N)
N0.5M2.0A.Омм                                    :GZR   ГЗK(N0.5M2.0A)
~ASCII LOG DATA
# ...
74.1        18.758      224.171     2.234       7.206       25.497      1.15        1.763       53.468      43.076      1.28        32.823      24.57       34.077      31.699      22.624      34.942      24.102      
74.2        19.168      223.751     2.246       6.77        25.414      1.146       1.786       52.259      43.076      1.28        33.421      24.57       34.077      31.856      23.144      37.826      28.431      
74.3        23.699      223.401     2.251       6.51        25.414      1.139       1.823       50.988      43.293      1.28        33.565      25.181      34.122      34.177      25.949      43.929      35.266      
74.4        29.349      223.439     2.249       6.328       25.5        1.131       1.853       49.687      44.037      1.279       33.527      26.541      34.253      40.33       32.274      52.921      45.314      
74.5        33.14       223.493     2.249       6.24        25.895      1.134       1.868       48.391      45.335      1.278       33.339      28.139      35.747      49.925      41.737      64.142      57.698      
74.6        33.615      224.04      2.255       6.175       26.618      1.151       1.87        47.134      47.106      1.275       33.071      30.165      40.311      62.613      53.924      76.22       71.209      
74.7        32.798      228.817     2.273       6.164       27.571      1.189       1.873       45.953      49.439      1.272       32.642      33.376      47.921      78.547      68.574      88.187      83.542      
74.8        33.638      226.351     2.301       5.913       28.631      1.247       1.888       44.878      52.331      1.267       32.018      38.71       57.545      96.196      83.721      99.946      91.578      
74.9        36.857      223.951     2.338       5.609       29.712      1.318       1.921       43.939      55.854      1.262       30.941      47.249      68.162      111.006     95.584      108.545     94.233      
75.0        42.587      222.275     2.377       5.267       30.746      1.392       1.99        43.157      60.331      1.258       29.411      59.798      78.381      119.787     101.997     112.092     94.233      
75.1        53.223      222.03      2.411       5.045       31.661      1.458       2.085       42.552      65.894      1.252       27.485      74.958      87.097      122.552     103.808     112.092     93.865      
75.2        64.807      221.761     2.434       4.895       32.364      1.494       2.176       42.136      71.546      1.245       25.552      88.897      94.207      122.552     103.808     112.092     90.633      
75.3        76.471      221.776     2.443       4.691       32.772      1.493       2.249       41.918      75.435      1.238       23.868      98.521      100.915     122.306     102.851     110.151     82.736      
75.4        84.652      222.077     2.439       4.555       32.862      1.46        2.294       41.902      76.832      1.229       22.686      102.659     107.105     118.041     97.992      103.805     72.336      
75.5        90.105      222.012     2.424       4.487       32.862      1.404       2.282       42.092      76.944      1.218       22.245      103.261     110.684     106.947     88.257      93.018      61.611      
75.6        92.832      222.204     2.4         4.251       32.862      1.337       2.225       42.494      76.944      1.208       22.717      103.261     111.618     92.649      76.649      80.708      51.351      
75.7        92.832      222.526     2.372       4.006       32.761      1.268       2.149       43.108      75.636      1.198       23.992      100.505     111.176     78.588      65.56       68.263      42.344      
75.8        90.259      222.202     2.345       4.167       32.301      1.211       2.068       43.936      71.509      1.186       25.729      91.99       109.451     65.165      55.258      56.875      34.705      
75.9        85.115      222.352     2.323       4.43        31.465      1.167       1.994       44.972      65.181      1.174       27.574      79.749      104.444     52.636      45.95       46.263      28.396      
76.0        77.397      222.238     2.306       4.736       30.36       1.127       1.929       46.205      58.479      1.162       29.186      67.399      95.106      42.138      38.155      37.122      23.917      
76.1        69.68       222.871     2.295       5.443       29.077      1.099       1.876       47.615      52.195      1.147       30.446      55.909      82.749      33.99       31.742      29.769      21.42       
76.2        61.963      222.976     2.287       6.18        27.75       1.088       1.835       49.172      46.356      1.133       31.26       44.978      69.44       27.705      26.445      23.947      20.626      
76.3        53.219      222.965     2.275       6.886       26.462      1.078       1.801       50.842      41.33       1.12        31.788      35.891      57.869      23.185      22.288      19.423      20.626      
76.4        43.901      223.04      2.255       7.435       25.242      1.066       1.768       52.589      37.375      1.107       32.219      29.483      49.178      20.429      19.17       16.305      20.626      
76.5        34.775      222.982     2.23        7.906       24.094      1.072       1.738       54.366      34.494      1.094       32.675      24.831      42.079      19.254      17.028      14.067      20.715      
76.6        28.067      223.195     2.202       8.161       23.023      1.083       1.702       56.117      32.43       1.085       33.184      21.437      36.077      19.005      15.703      12.451      21.663      
76.7        24.029      223.532     2.177       8.238       22.034      1.091       1.662       57.777      30.962      1.077       33.848      19.454      32.017      19.005      14.91       11.395      23.898      
76.8        21.826      224.283     2.161       8.067       21.152      1.102       1.621       59.279      29.96       1.069       34.543      18.676      29.494      19.005      14.501      10.856      27.01       
76.9        20.343      225.356     2.158       8.102       20.434      1.121       1.6         60.555      29.288      1.062       35.145      18.505      27.679      19.368      14.302      10.766      30.72       
77.0        19.364      226.525     2.164       8.185       19.934      1.145       1.593       61.542      28.824      1.055       35.585      18.505      26.26       20.44       14.087      10.766      34.763      
77.1        19.166      228.661     2.181       8.211       19.691      1.156       1.604       62.186      28.559      1.048       35.637      18.505      24.807      21.968      13.762      10.766      39.172      
77.2        19.716      231.497     2.202       8.275       19.654      1.156       1.628       62.452      28.475      1.04        35.335      18.374      23.133      23.462      13.475      10.766      44.221      
77.3        20.784      232.255     2.222       8.421       19.654      1.16        1.66        62.32       28.471      1.033       34.852      18.244      21.331      24.651      13.376      11.126      50.19       
77.4        22.059      232.294     2.236       8.403       19.714      1.155       1.678       61.779      28.471      1.027       34.293      18.213      19.599      25.444      13.376      12.2        58.053      
77.5        23.126      231.988     2.241       8.347       19.978      1.127       1.689       60.82       28.471      1.023       33.813      18.006      18.378      25.943      13.376      14.507      69.945      
77.6        23.917      232.038     2.238       8.253       20.436      1.105       1.696       59.456      28.624      1.021       33.63       17.793      17.965      26.691      13.582      17.875      88.852      
77.7        24.336      235.811     2.229       8.205       21.023      1.1         1.701       57.717      29.073      1.02        33.746      17.81       17.965      28.669      14.545      21.957      116.756     
