~Version Information Section
VERS.                                         2.0:CWLS log ASCII Standart – VERSION 2.0
WRAP.                                          NO:One line per depth step
~Well Information Section
STRT.M                                       0.67:Начальная глубина
STOP.M                                     204.27:Конечная глубина
STEP.M                                          0:Шаг квантования по глубине
NULL.                                    -9999.25:Признак "Нет данных"
WELL.                                       110Мх:Скважина
~Parameter Information Section
~Curve Information Section
DEPTH.M                                          :Глубина
БК.Омм                                           :BK     (БК)
DСР.мм                                           :DS  (ДС)
ГК.гамма                                         :GK          (ГК)
А0.4М0.1N.Омм.ohmm                               :GZ1   ГЗ1(A0.4M0.1N)
А1.0М0.1N.Омм.ohmm                               :GZ2   ГЗ2(A1.0M0.1N)
А2.0М0.5N.Омм.ohmm                               :GZ3   ГЗ3(A2.0M0.5N)
А4.0М0.5N.Oмм.ohmm                               :GZ4   ГЗ4(A4.0M0.5N)
А8.0М1.0N.Омм.ohmm                               :GZ5   ГЗ5(A8.0M0.5N)
N0.5M2.0A.Омм.ohmm                               :GZK   ГЗK(N0.5M2.0A)
ИК.мСм/м                                         :IK
НГК.усл.ед                                       :NGK     (НГК)
ПС.mv                                            :PS       (ПС)
КС.Омм                                           :PZ    (КС)
R.Омм                                            :RS (Резистивиметр)
W_SI.%                                           :п
ННКМ.имп/1,25с                                   :ННКм
ПЛОТНОСТЬГГК.г/см3                               :плотностьГГК
~ASCII LOG DATA
# ...
87.17       50.355      132.757     6.041       -9999.25    -9999.25    -9999.25    -9999.25    -9999.25    -9999.25    23.112      1.543       332.985     45.096      0.96        25.614      1.809       2.407       
87.2        -9999.25    -9999.25    -9999.25    104.308     69.962      48.384      17.675      39.494      43.811      -9999.25    -9999.25    -9999.25    -9999.25    -9999.25    -9999.25    -9999.25    -9999.25    
87.27       56.747      132.496     5.964       -9999.25    -9999.25    -9999.25    -9999.25    -9999.25    -9999.25    22.582      1.53        334.662     44.189      0.96        26.031      1.85        2.414       
87.3        -9999.25    -9999.25    -9999.25    95.015      59.661      42.967      14.11       34.811      37.462      -9999.25    -9999.25    -9999.25    -9999.25    -9999.25    -9999.25    -9999.25    -9999.25    
87.37       55.053      133.767     5.655       -9999.25    -9999.25    -9999.25    -9999.25    -9999.25    -9999.25    21.781      1.471       336.523     44.806      0.96        26.581      1.867       2.414       
87.4        -9999.25    -9999.25    -9999.25    72.593      47.185      36.942      12.168      31.32       29.562      -9999.25    -9999.25    -9999.25    -9999.25    -9999.25    -9999.25    -9999.25    -9999.25    
87.47       40.847      135.052     5.487       -9999.25    -9999.25    -9999.25    -9999.25    -9999.25    -9999.25    20.866      1.412       338.41      46.793      0.96        27.199      1.809       2.408       
87.5        -9999.25    -9999.25    -9999.25    55.99       39.497      31.3        11.8        27.991      23.365      -9999.25    -9999.25    -9999.25    -9999.25    -9999.25    -9999.25    -9999.25    -9999.25    
87.57       26.746      135.085     5.735       -9999.25    -9999.25    -9999.25    -9999.25    -9999.25    -9999.25    20.065      1.333       340.125     46.419      0.96        27.885      1.781       2.398       
87.6        -9999.25    -9999.25    -9999.25    45.326      34.87       26.91       12.686      24.101      19.562      -9999.25    -9999.25    -9999.25    -9999.25    -9999.25    -9999.25    -9999.25    -9999.25    
87.67       20.001      135.405     6.673       -9999.25    -9999.25    -9999.25    -9999.25    -9999.25    -9999.25    19.345      1.232       341.465     43.601      0.96        29.128      1.656       2.378       
87.7        -9999.25    -9999.25    -9999.25    37.679      31.868      24.287      13.717      20.841      16.692      -9999.25    -9999.25    -9999.25    -9999.25    -9999.25    -9999.25    -9999.25    -9999.25    
87.77       17.238      136.413     7.985       -9999.25    -9999.25    -9999.25    -9999.25    -9999.25    -9999.25    18.705      1.158       342.387     39.932      0.96        30.61       1.547       2.358       
87.8        -9999.25    -9999.25    -9999.25    31.914      31.504      22.138      14.415      17.845      15.81       -9999.25    -9999.25    -9999.25    -9999.25    -9999.25    -9999.25    -9999.25    -9999.25    
87.87       15.857      137.557     8.943       -9999.25    -9999.25    -9999.25    -9999.25    -9999.25    -9999.25    18.176      1.14        342.958     35.701      0.96        31.975      1.48        2.342       
87.9        -9999.25    -9999.25    -9999.25    28.194      31.616      21.207      14.87       15.732      15.824      -9999.25    -9999.25    -9999.25    -9999.25    -9999.25    -9999.25    -9999.25    -9999.25    
87.97       15.624      138.976     9.44        -9999.25    -9999.25    -9999.25    -9999.25    -9999.25    -9999.25    17.736      1.167       343.24      31.841      0.96        33.217      1.406       2.334       
88.0        -9999.25    -9999.25    -9999.25    26.649      31.411      21.215      15.615      14.947      16.144      -9999.25    -9999.25    -9999.25    -9999.25    -9999.25    -9999.25    -9999.25    -9999.25    
88.07       16.032      138.703     9.43        -9999.25    -9999.25    -9999.25    -9999.25    -9999.25    -9999.25    17.357      1.192       343.308     29.683      0.96        34.129      1.343       2.332       
88.1        -9999.25    -9999.25    -9999.25    25.14       30.856      21.409      16.684      14.442      16.617      -9999.25    -9999.25    -9999.25    -9999.25    -9999.25    -9999.25    -9999.25    -9999.25    
88.17       16.398      138.786     9.426       -9999.25    -9999.25    -9999.25    -9999.25    -9999.25    -9999.25    17.119      1.21        343.237     28.692      0.96        34.487      1.326       2.336       
88.2        -9999.25    -9999.25    -9999.25    24.004      30.587      21.422      17.537      14.023      16.866      -9999.25    -9999.25    -9999.25    -9999.25    -9999.25    -9999.25    -9999.25    -9999.25    
88.27       16.175      139.033     9.444       -9999.25    -9999.25    -9999.25    -9999.25    -9999.25    -9999.25    16.961      1.197       343.01      27.477      0.96        34.696      1.325       2.344       
88.3        -9999.25    -9999.25    -9999.25    23.644      29.628      21.205      17.743      13.898      16.921      -9999.25    -9999.25    -9999.25    -9999.25    -9999.25    -9999.25    -9999.25    -9999.25    
88.37       16.101      139.363     9.473       -9999.25    -9999.25    -9999.25    -9999.25    -9999.25    -9999.25    16.859      1.142       342.637     25.795      0.96        34.992      1.31        2.351       
88.4        -9999.25    -9999.25    -9999.25    23.592      27.157      20.684      17.543      13.973      16.897      -9999.25    -9999.25    -9999.25    -9999.25    -9999.25    -9999.25    -9999.25    -9999.25    
88.47       17.028      138.521     9.583       -9999.25    -9999.25    -9999.25    -9999.25    -9999.25    -9999.25    16.794      1.103       342.143     24.408      0.96        35.253      1.304       2.356       
88.5        -9999.25    -9999.25    -9999.25    23.718      24.212      19.956      17.748      14.195      16.439      -9999.25    -9999.25    -9999.25    -9999.25    -9999.25    -9999.25    -9999.25    -9999.25    
88.57       17.678      137.79      9.565       -9999.25    -9999.25    -9999.25    -9999.25    -9999.25    -9999.25    16.73       1.11        341.591     23.36       0.96        35.194      1.368       2.356       
88.6        -9999.25    -9999.25    -9999.25    23.074      21.595      19.732      18.65       14.431      15.937      -9999.25    -9999.25    -9999.25    -9999.25    -9999.25    -9999.25    -9999.25    -9999.25    
88.67       17.325      136.605     9.315       -9999.25    -9999.25    -9999.25    -9999.25    -9999.25    -9999.25    16.693      1.125       341.079     22.428      0.96        35.01       1.413       2.354       
88.7        -9999.25    -9999.25    -9999.25    22.268      20.008      20.66       19.873      14.659      15.96       -9999.25    -9999.25    -9999.25    -9999.25    -9999.25    -9999.25    -9999.25    -9999.25    
88.77       16.742      134.682     8.996       -9999.25    -9999.25    -9999.25    -9999.25    -9999.25    -9999.25    16.666      1.081       340.709     21.787      0.96        34.61       1.414       2.348       
88.8        -9999.25    -9999.25    -9999.25    23.919      20.467      22.579      21.313      14.955      16.146      -9999.25    -9999.25    -9999.25    -9999.25    -9999.25    -9999.25    -9999.25    -9999.25    
88.87       16.346      133.911     8.805       -9999.25    -9999.25    -9999.25    -9999.25    -9999.25    -9999.25    16.653      1.05        340.537     21.477      0.96        34.003      1.405       2.344       
88.9        -9999.25    -9999.25    -9999.25    26.799      22.438      24.455      23.334      15.763      15.979      -9999.25    -9999.25    -9999.25    -9999.25    -9999.25    -9999.25    -9999.25    -9999.25    
88.97       17.399      134.096     8.908       -9999.25    -9999.25    -9999.25    -9999.25    -9999.25    -9999.25    16.719      1.105       340.538     21.405      0.96        33.412      1.413       2.338       
