~Version Information Section
VERS.                                         2.0:CWLS log ASCII Standart – VERSION 2.0
WRAP.                                          NO:One line per depth step
~Well Information Section
STRT.M                                        1.0:Начальная глубина
STOP.M                                      151.7:Конечная глубина
STEP.M                                          0:Шаг квантования по глубине
NULL.                                    -9999.25:Признак "Нет данных"
WELL.                                       117Мх:Скважина
~Parameter Information Section
~Curve Information Section
DEPTH.M                                          :Глубина
DСР.мм                                           :Dср
ГК.гамма                                         :GK
ИК.мСм/м                                         :IK
N0.5M2.0A.Омм.                                   :N0.5M2.0A.Омм
R.Омм                                            :R
U1.                                              :U1
U2.                                              :U2
U3.                                              :U3
W.имп/1,25с                                      :W
А0.4М0.1N.Омм.                                   :А0.4М0.1N.Омм
А1.0М0.1N.Омм.                                   :А1.0М0.1N.Омм
А2.0М0.5N.Омм.                                   :А2.0М0.5N.Омм
А4.0М0.5N.Oмм.                                   :А4.0М0.5N.Oмм
А8.0М1.0N.Омм.                                   :А8.0М1.0N.Омм
БЗ.имп/мин                                       :БЗ
БК.Омм                                           :БК
КС.Омм                                           :КС
ПС.                                              :ПС
МЗ.имп/мин                                       :МЗ
НГК.имп/1,25с                                    :ННКб
ННКМ.имп/1,25с                                   :ННКм
ПЛОТНОСТЬГГК.г/см3                               :плотностьГГК
~ASCII LOG DATA
# ...
24.2        137.07      7.817       13.023      14.91       1.23        264.832     98.743      170.821     34.634      17.278      23.744      24.944      10.636      10.518      16100.0     16.204      19.338      185.748     6700.0      1.901       1.389       2.203       
24.3        137.493     7.792       12.84       15.763      1.229       278.223     107.63      183.652     34.424      16.67       23.248      24.951      9.971       10.376      16020.0     15.381      18.517      185.746     6680.0      1.888       1.373       2.204       
24.4        138.177     7.957       12.696      16.561      1.234       295.056     109.351     193.373     34.373      16.43       22.61       24.843      10.267      10.212      15780.0     14.509      17.876      185.746     6560.0      1.87        1.347       2.203       
24.5        137.62      8.083       12.593      17.24       1.231       305.982     106.58      196.129     34.49       16.505      22.346      24.938      11.618      10.062      15920.0     13.765      17.33       185.746     6340.0      1.845       1.32        2.204       
24.6        137.869     8.087       12.502      17.406      1.23        316.907     103.809     198.885     34.726      16.267      21.479      25.11       12.796      9.898       16120.0     13.34       16.88       185.746     6440.0      1.806       1.296       2.207       
24.7        137.811     8.113       12.385      16.306      1.232       320.35      96.643      195.775     35.11       15.503      19.602      25.069      13.58       9.638       15860.0     13.202      16.545      185.746     6560.0      1.765       1.296       2.216       
24.8        138.327     8.182       12.29       14.674      1.229       323.792     89.478      192.665     35.739      15.068      18.551      24.579      14.349      9.329       15960.0     13.159      16.306      185.746     6520.0      1.727       1.296       2.223       
24.9        138.886     8.21        12.234      13.308      1.228       323.792     89.478      192.665     36.279      14.727      17.477      23.416      15.2        9.144       15940.0     13.206      16.19       185.746     6600.0      1.701       1.296       2.229       
25.0        138.489     8.283       12.208      12.591      1.228       323.792     89.478      192.665     36.466      14.068      15.707      21.988      16.267      9.167       15820.0     13.268      16.191      185.746     6640.0      1.667       1.297       2.235       
25.1        137.732     8.459       12.236      12.696      1.233       320.032     95.459      195.215     36.205      13.129      14.225      20.52       16.742      9.3         15760.0     13.311      16.321      185.746     6760.0      1.622       1.303       2.237       
25.2        137.674     8.559       12.297      12.828      1.249       316.272     101.441     197.764     35.773      12.411      12.84       19.144      15.41       9.524       15320.0     13.386      16.595      185.746     6640.0      1.662       1.308       2.238       
25.3        137.804     8.479       12.409      12.557      1.253       305.225     104.749     195.725     35.333      12.743      12.057      17.969      13.33       9.925       15160.0     13.347      16.983      185.746     6540.0      1.8         1.336       2.234       
25.4        137.881     8.299       12.582      12.433      1.251       294.178     108.057     193.686     34.807      13.816      12.385      16.847      13.076      10.527      14960.0     13.091      17.441      185.746     6560.0      1.944       1.36        2.227       
25.5        137.395     7.964       12.745      13.446      1.257       281.079     109.07      189.664     34.122      13.858      11.608      16.188      14.774      11.174      15240.0     12.98       17.905      185.746     6600.0      1.984       1.375       2.222       
25.6        138.01      7.649       12.89       15.107      1.265       271.741     104.101     183.093     33.512      12.944      10.34       16.233      16.765      11.589      15620.0     14.183      18.348      185.746     6620.0      1.942       1.366       2.213       
25.7        137.029     7.39        13.035      15.991      1.263       260.767     99.951      175.333     33.121      11.987      9.874       16.682      18.191      11.789      15720.0     17.033      18.811      185.746     6660.0      1.954       1.384       2.201       
25.8        138.39      7.189       13.183      16.712      1.244       257.08      98.474      172.161     32.928      13.267      11.672      17.403      20.679      11.924      16540.0     20.477      19.271      185.746     6800.0      2.02        1.44        2.192       
25.9        136.23      7.039       13.35       19.187      1.237       256.409     94.946      169.439     32.786      15.401      14.603      18.68       25.841      11.969      16860.0     24.131      19.716      185.746     6820.0      2.116       1.495       2.185       
26.0        136.434     7.04        13.543      21.742      1.233       257.788     93.713      168.7       32.717      15.9        15.465      19.867      28.747      12.127      16660.0     28.298      20.106      185.746     6840.0      2.199       1.518       2.185       
26.1        137.789     7.037       13.811      22.519      1.231       250.269     93.823      163.12      32.865      16.476      16.195      20.965      25.132      12.795      16640.0     31.417      20.387      185.746     6660.0      2.244       1.512       2.191       
26.2        136.387     7.016       14.2        21.74       1.234       244.385     93.115      158.731     33.293      18.902      18.873      21.506      19.771      13.76       17320.0     31.636      20.617      185.746     6660.0      2.251       1.518       2.203       
26.3        135.998     7.014       14.596      19.757      1.267       241.687     89.27       155.294     33.895      24.164      21.941      21.267      17.391      14.233      16780.0     29.646      20.951      185.746     6500.0      2.2         1.528       2.218       
26.4        136.156     7.081       14.873      18.154      1.278       235.974     87.476      151.407     34.417      27.896      20.642      20.555      16.79       13.959      15760.0     26.502      21.39       185.746     6260.0      2.081       1.515       2.239       
26.5        136.764     7.133       15.026      17.097      1.249       233.606     88.452      150.561     34.49       25.868      17.002      18.663      15.572      13.5        14860.0     22.25       21.699      185.746     6100.0      1.929       1.484       2.257       
26.6        137.62      7.073       15.045      18.756      1.239       240.137     88.086      154.555     34.336      22.437      14.646      16.34       14.459      13.298      14420.0     17.865      21.593      185.746     6160.0      1.836       1.443       2.265       
26.7        137.073     6.965       14.9        25.0        1.236       251.526     90.808      162.673     34.04       19.863      12.607      16.532      17.38       13.29       13200.0     16.007      21.033      185.746     6100.0      1.846       1.402       2.267       
26.8        136.219     6.894       14.658      29.162      1.235       259.729     96.668      169.84      33.655      18.066      12.319      19.404      23.431      13.33       12960.0     18.536      20.296      185.746     6040.0      2.005       1.371       2.265       
26.9        136.538     6.831       14.402      28.652      1.234       267.871     101.538     176.574     33.104      20.838      17.79       23.007      28.866      13.306      13000.0     22.576      19.577      185.746     6160.0      2.237       1.463       2.255       
27.0        136.468     6.837       14.173      26.79       1.233       272.669     103.638     180.267     32.562      26.132      29.24       25.65       33.543      12.91       14080.0     24.765      18.987      185.769     6520.0      2.407       1.577       2.243       
