~Version Information Section
VERS.                                         2.0:CWLS log ASCII Standart – VERSION 2.0
WRAP.                                          NO:One line per depth step
~Well Information Section
STRT.M                                        0.5:Начальная глубина
STOP.M                                      201.9:Конечная глубина
STEP.M                                          0:Шаг квантования по глубине
NULL.                                    -9999.25:Признак "Нет данных"
WELL.                                       138Мх:Скважина
~Parameter Information Section
~Curve Information Section
DEPTH.M                                          :Глубина
БК.Омм                                           :BK     (БК)
DСР.мм                                           :DS  (ДС)
W.g/cm3                                          :GGKp
ГК.гамма                                         :GK          (ГК)
А0.4М0.1N.Омм.ohmm                               :GZ1   ГЗ1(A0.4M0.1N)
А1.0М0.1N.Омм.ohmm                               :GZ2   ГЗ2(A1.0M0.1N)
А2.0М0.5N.Омм.ohmm                               :GZ3   ГЗ3(A2.0M0.5N)
А4.0М0.5N.Oмм.ohmm                               :GZ4   ГЗ4(A4.0M0.5N)
А8.0М1.0N.Омм.ohmm                               :GZ5   ГЗ5(A8.0M0.5N)
N0.5M2.0A.Омм.ohmm                               :GZK   ГЗK(N0.5M2.0A)
ИК.мСм/м                                         :IK
ННКМ.усл.ед                                      :NNKm  (ННКм)
ПС.мВ                                            :PS       (ПС)
КС.Омм                                           :PZ    (КС)
R.Омм                                            :RS (Резистивиметр)
U1.мВ                                            :U1
U2.mV                                            :U2
U3.мВ                                            :U3
КП.%                                             :Кп
НГК.усл.ед                                       :NGK
~ASCII LOG DATA
# ...
83.7        47.944      141.888     2.068       4.6         31.259      29.283      29.202      26.342      13.844      18.584      19.617      1.55        267.8       68.469      1.08        899.252     545.121     301.538     36.006      1.205       
83.8        46.363      141.455     2.071       4.573       28.51       27.855      28.654      25.506      13.844      18.584      19.241      1.489       268.056     67.488      1.08        859.417     480.426     275.972     37.442      1.212       
83.9        43.132      141.029     2.071       4.842       26.06       26.751      28.255      25.1        13.844      18.584      18.802      1.465       268.328     66.445      1.08        813.749     466.424     276.61      38.184      1.138       
84.0        36.749      141.531     2.072       5.168       24.158      25.992      28.056      25.008      13.844      18.584      18.361      1.456       268.632     65.398      1.08        769.131     446.534     263.702     38.894      1.063       
84.1        29.454      141.336     2.073       5.443       22.877      25.476      28.019      25.008      13.844      18.733      17.977      1.463       268.968     64.411      1.08        721.576     410.609     234.504     39.178      1.026       
84.2        26.698      141.894     2.074       5.325       22.219      25.11       28.019      25.008      13.924      19.219      17.654      1.443       269.336     63.536      1.08        670.376     374.685     204.669     38.947      1.046       
84.3        24.94       142.891     2.073       5.195       22.062      24.917      28.019      25.008      14.244      20.087      17.406      1.414       269.704     62.802      1.08        598.61      358.65      188.379     39.452      1.063       
84.4        24.211      143.224     2.072       5.27        22.062      24.764      28.019      25.071      14.801      21.386      17.182      1.427       270.056     62.203      1.08        509.194     364.637     216.082     40.073      1.053       
84.5        25.737      143.261     2.062       5.451       22.062      24.452      28.206      25.24       15.575      23.032      16.977      1.449       270.408     61.715      1.08        441.95      397.616     315.567     39.919      1.018       
84.6        27.994      143.013     2.047       5.409       22.062      23.939      28.732      25.346      16.499      24.667      16.791      1.507       270.76      61.302      1.08        417.997     445.247     453.66      38.932      0.994       
84.7        27.978      143.187     2.028       5.178       22.206      23.265      29.321      25.303      17.488      25.856      16.651      1.566       271.112     60.931      1.08        417.137     487.436     562.94      38.177      1.007       
84.8        26.242      143.534     2.012       4.552       22.708      22.441      29.631      24.993      18.356      26.289      16.578      1.598       271.464     60.579      1.08        420.393     485.07      535.219     38.076      1.063       
84.9        25.235      143.868     1.999       4.154       23.421      21.462      29.692      24.185      18.898      26.274      16.594      1.62        271.848     60.242      1.08        430.225     448.473     403.02      37.675      1.094       
85.0        29.191      141.693     1.999       4.096       23.983      20.339      29.405      22.903      19.085      25.789      16.72       1.607       272.184     59.928      1.08        481.043     411.33      269.088     37.557      1.092       
85.1        39.139      141.281     2.011       4.549       24.19       19.235      28.426      21.382      19.085      24.539      16.947      1.581       272.472     59.653      1.08        589.402     391.751     200.375     37.972      1.091       
85.2        48.036      141.318     2.03        4.82        24.188      18.288      26.784      19.971      18.92       22.928      17.257      1.537       272.712     59.429      1.08        664.157     386.369     197.537     38.694      1.157       
85.3        49.249      141.391     2.052       5.029       24.05       17.545      24.903      18.947      18.475      21.412      17.517      1.511       272.936     59.266      1.08        668.778     380.343     198.438     39.089      1.155       
85.4        45.998      141.578     2.071       4.989       23.657      17.173      23.172      18.412      17.943      20.292      17.613      1.51        273.096     59.162      1.08        611.588     374.318     204.067     38.198      1.109       
85.5        34.087      141.961     2.084       5.202       23.117      17.104      21.821      18.268      17.515      19.63       17.612      1.518       273.24      59.109      1.08        577.024     373.676     218.375     37.083      1.095       
85.6        26.154      142.541     2.088       5.216       22.67       17.104      20.939      18.268      17.297      19.345      17.491      1.529       273.352     59.102      1.08        561.878     365.671     227.615     35.758      1.097       
85.7        26.157      142.624     2.088       5.604       22.442      17.104      20.419      18.268      17.297      19.287      17.349      1.549       273.4       59.102      1.08        525.083     344.928     225.152     35.363      1.088       
85.8        28.919      142.785     2.085       5.778       22.371      17.104      20.119      18.268      17.297      19.287      17.254      1.568       273.4       59.102      1.08        492.682     324.184     214.01      34.592      1.026       
85.9        29.669      142.677     2.081       5.824       22.364      17.304      19.98       18.313      17.297      19.287      17.278      1.567       273.4       59.102      1.08        470.016     311.447     207.035     34.21       1.041       
86.0        28.594      142.442     2.079       5.748       22.364      17.781      19.955      18.52       17.297      19.287      17.373      1.563       273.368     59.142      1.08        492.242     335.939     230.144     34.789      1.072       
86.1        28.061      142.288     2.08        5.675       22.364      18.371      19.955      18.913      17.369      19.341      17.483      1.547       273.288     59.232      1.08        495.418     351.739     251.623     36.037      1.068       
86.2        28.371      142.395     2.083       5.632       22.364      19.002      19.955      19.458      17.71       19.549      17.632      1.535       273.144     59.382      1.08        498.595     367.54      269.767     37.607      1.046       
86.3        29.031      142.119     2.088       5.494       22.413      19.632      19.955      20.18       18.257      19.967      17.756      1.556       272.936     59.61       1.08        479.544     358.848     264.801     37.783      1.11        
86.4        30.021      142.042     2.09        5.318       22.634      20.243      20.046      21.087      18.988      20.615      17.902      1.575       272.712     59.93       1.08        534.223     373.319     261.467     37.072      1.179       
86.5        30.195      142.039     2.087       5.012       23.139      20.821      20.363      22.162      19.841      21.462      18.035      1.586       272.472     60.347      1.08        734.643     452.729     285.737     35.652      1.236       
86.6        29.114      142.279     2.079       4.632       23.967      21.441      20.955      23.358      20.754      22.424      18.167      1.606       272.2       60.864      1.08        1002.376    568.27      325.739     34.462      1.249       
86.7        28.244      142.28      2.067       4.541       25.118      22.179      21.844      24.554      21.72       23.407      18.296      1.638       271.896     61.477      1.08        1178.867    685.677     381.842     35.078      1.211       
86.8        30.25       141.871     2.052       4.496       26.577      23.03       22.988      25.604      22.731      24.272      18.425      1.641       271.592     62.178      1.08        1179.996    769.248     461.465     36.432      1.224       
