~Version Information Section
VERS.                                         2.0:CWLS log ASCII Standart – VERSION 2.0
WRAP.                                          NO:One line per depth step
~Well Information Section
STRT.M                                        0.6:Начальная глубина
STOP.M                                      209.2:Конечная глубина
STEP.M                                          0:Шаг квантования по глубине
NULL.                                    -9999.25:Признак "Нет данных"
WELL.                                       107Мх:Скважина
~Parameter Information Section
~Curve Information Section
DEPTH.M                                          :Глубина
PS.mv                                            :PS       (ПС)
PZ.Ohm*M                                         :PZ    (КС)
RS.Ohm*M                                         :RS (Резистивиметр)
U1.mV                                            :U1
U2.mV                                            :U2
U3.mV                                            :U3
КП.%                                             :Кп
BK.Ohm*M                                         :BK     (БК)
DS.mm                                            :DS  (ДС)
GGK.g/cm3                                        :GGKp
ГК.mcr/h                                         :GK          (ГК)
GZ1.Ohm*M                                        :GZ1   ГЗ1(A0.4M0.1N)
GZ2.Ohm*M                                        :GZ2   ГЗ2(A1.0M0.1N)
GZ3.Ohm*M                                        :GZ3   ГЗ3(A2.0M0.5N)
GZ4.Ohm*M                                        :GZ4   ГЗ4(A4.0M0.5N)
GZ5.Ohm*M                                        :GZ5   ГЗ5(A8.0M0.5N)
GZR.Ohm*M                                        :GZK   ГЗK(N0.5M2.0A)
ИК.Ohm*M                                         :IK
НГК.u.e.                                         :NGK
NNKM.                                            :NNKm  (ННКм)
~ASCII LOG DATA
# ...
64.6        1099.215    148.951     1.026       1207.788    1013.885    1233.804    30.658      33.651      153.619     2.357       3.676       105.81      69.234      79.742      21.143      24.55       116.92      8.659       1.287       17.249      
64.7        1099.291    150.831     1.026       1100.042    1072.701    1384.008    30.695      23.174      153.948     2.368       3.647       105.81      67.674      79.742      21.023      24.55       113.8       8.596       1.231       16.854      
64.8        1099.341    152.711     1.026       1116.958    1162.381    1473.234    31.215      17.783      154.887     2.338       3.803       105.81      67.154      79.742      20.903      24.41       112.76      8.501       1.156       16.347      
64.9        1099.366    154.215     1.026       1260.746    1254.854    1464.961    31.685      16.181      153.888     2.28        4.133       105.81      64.554      79.302      20.423      24.27       110.68      8.48        1.121       15.387      
65.0        1099.366    155.343     1.026       1422.552    1260.67     1344.659    31.629      16.181      153.271     2.249       4.502       105.81      63.514      78.862      20.303      23.99       106.52      8.449       1.131       14.62       
65.1        1099.391    156.471     1.026       1577.74     1185.325    1140.499    31.796      17.579      153.171     2.243       4.931       105.81      61.954      77.982      20.183      23.57       106.52      8.453       1.128       14.627      
65.2        1099.441    157.223     1.026       1730.469    1141.635    986.614     32.8        20.512      153.37      2.251       4.759       105.81      61.434      77.982      20.063      23.15       104.44      8.394       1.113       14.635      
65.3        1099.542    159.103     1.026       1881.724    1156.135    914.556     33.592      15.453      154.299     2.287       4.812       105.81      60.914      77.542      19.943      22.87       103.4       8.386       1.066       14.551      
65.4        1099.693    162.111     1.026       2008.055    1227.629    938.797     33.17       13.9        154.807     2.294       4.913       105.81      60.914      76.662      19.943      22.73       102.36      8.368       1.087       14.446      
65.5        1099.894    165.119     1.026       2017.615    1345.053    1103.449    32.291      14.555      154.031     2.298       5.491       106.65      60.914      76.662      19.823      22.73       101.32      8.307       1.06        14.268      
65.6        1100.145    166.999     1.026       1937.472    1472.527    1329.006    32.677      14.791      154.272     2.286       5.747       107.07      60.914      76.222      19.823      22.73       100.28      8.264       1.087       14.058      
65.7        1100.472    168.503     1.026       1849.197    1564.681    1513.021    33.894      15.524      154.083     2.291       5.648       107.07      60.914      75.782      19.703      22.73       100.28      8.278       1.028       14.103      
65.8        1100.849    167.751     1.026       1761.207    1595.234    1615.136    32.61       16.444      153.77      2.284       5.269       107.49      61.434      75.342      19.583      22.59       100.28      8.278       1.038       14.265      
65.9        1101.277    165.495     1.026       1641.841    1493.017    1541.339    30.356      16.444      153.814     2.264       4.96        107.07      61.434      75.342      19.463      22.45       100.28      8.315       1.03        14.284      
66.0        1101.729    162.111     1.026       1508.809    1271.436    1280.838    27.736      16.558      154.0       2.254       5.189       106.23      61.954      74.902      19.343      22.45       100.28      8.4         1.066       14.206      
66.1        1102.207    158.727     1.026       1367.541    1040.124    1003.068    27.348      16.558      154.089     2.234       5.89        106.23      61.434      74.902      19.223      22.45       100.28      8.425       1.095       14.154      
66.2        1102.71     155.343     1.026       1217.82     824.645     749.654     27.381      16.749      154.023     2.247       6.019       105.39      61.434      74.902      19.103      22.31       100.28      8.454       1.126       14.069      
66.3        1103.238    152.711     1.026       1051.568    634.921     554.007     28.101      23.335      153.495     2.246       5.749       104.97      60.914      74.902      19.103      22.31       100.28      8.458       1.12        14.167      
66.4        1103.766    150.079     1.026       865.168     526.699     543.79      29.069      23.335      153.536     2.299       5.208       104.13      60.394      74.902      18.983      22.17       100.28      8.429       1.069       14.974      
66.5        1104.294    148.199     1.026       773.344     547.918     667.334     30.004      31.405      153.51      2.31        5.122       102.87      59.874      74.902      18.503      21.61       100.28      8.295       1.058       15.619      
66.6        1104.797    147.071     1.026       774.557     629.048     807.279     31.089      34.041      153.523     2.313       4.822       102.45      59.874      71.822      18.383      21.47       100.28      8.127       1.09        15.776      
66.7        1105.275    146.319     1.026       849.301     735.986     928.711     33.52       31.623      153.518     2.243       4.43        101.19      59.354      70.062      18.143      21.33       97.16       8.127       1.15        15.934      
66.8        1105.702    145.567     1.026       963.972     814.001     973.195     35.105      27.669      153.644     2.224       4.313       100.77      59.354      68.742      18.143      21.19       96.12       8.028       1.147       15.754      
66.9        1106.079    145.191     1.026       1147.039    874.272     902.684     34.589      25.41       153.598     2.23        4.512       100.35      58.834      68.302      18.023      21.05       94.04       7.909       1.125       15.574      
67.0        1106.406    145.191     1.026       1279.897    905.202     823.696     32.499      25.41       153.728     2.288       4.583       99.93       58.314      67.862      17.903      21.05       90.92       7.834       1.085       15.217      
67.1        1106.683    145.191     1.026       1330.624    902.388     764.386     32.472      18.664      153.79      2.308       5.236       99.51       57.794      67.862      17.783      20.91       89.88       7.762       1.047       14.623      
67.2        1106.884    145.191     1.026       1302.937    875.37      738.146     34.076      12.503      155.399     2.298       5.896       99.09       57.274      67.422      17.663      20.77       88.84       7.762       1.003       14.165      
67.3        1107.035    145.191     1.026       1212.605    864.639     801.886     34.971      12.56       158.439     2.266       6.696       98.67       55.194      67.422      17.543      20.63       86.76       7.712       0.998       13.615      
67.4        1107.135    145.567     1.026       1084.84     876.104     941.391     34.093      12.56       154.936     2.262       6.826       98.67       54.154      67.422      17.543      20.63       85.72       7.658       1.045       13.34       
67.5        1107.211    146.319     1.026       1010.968    894.394     1039.37     33.268      15.066      155.315     2.28        6.78        98.25       53.634      67.422      17.423      20.49       83.64       7.633       1.07        13.557      
67.6        1107.261    145.567     1.026       1010.347    915.926     1074.765    33.184      14.588      155.755     2.283       6.785       97.83       53.634      67.422      17.423      20.49       83.64       7.638       1.051       13.689      
67.7        1107.286    142.559     1.026       1082.045    945.867     1072.714    33.772      13.152      155.388     2.278       6.709       97.83       53.634      67.422      17.303      20.49       83.64       7.619       1.003       13.535      
