~Version Information Section
VERS.                                         2.0:CWLS log ASCII Standart – VERSION 2.0
WRAP.                                          NO:One line per depth step
~Well Information Section
STRT.M                                        0.2:Начальная глубина
STOP.M                                      176.0:Конечная глубина
STEP.M                                          0:Шаг квантования по глубине
NULL.                                    -9999.25:Признак "Нет данных"
WELL.                                       112Мх:Скважина
~Parameter Information Section
~Curve Information Section
DEPTH.M                                          :Глубина
BK.Ohm*M                                         :BK     (БК)
DS.mm                                            :DS  (ДС)
GGK.g/cm3                                        :GGKp
ГК.mcr/h                                         :GK          (ГК)
GZ1.Ohm*M                                        :GZ1   ГЗ1(A0.4M0.1N)
GZ2.Ohm*M                                        :GZ2   ГЗ2(A1.0M0.1N)
GZ3.Ohm*M                                        :GZ3   ГЗ3(A2.0M0.5N)
GZ4.Ohm*M                                        :GZ4   ГЗ4(A4.0M0.5N)
GZ5.Ohm*M                                        :GZ5   ГЗ5(A8.0M0.5N)
GZR.Ohm*M                                        :GZK   ГЗK(N0.5M2.0A)
ИК.Ohm*M                                         :IK
НГК.ue                                           :NGK     (НГК)
NNKM.                                            :NNKm  (ННКм)
PS.mv                                            :PS       (ПС)
PZ.Ohm*M                                         :PZ    (КС)
U1.mV                                            :U1
U2.mV                                            :U2
U3.mV                                            :U3
КП.%                                             :Кп
~ASCII LOG DATA
# ...
112.4       41.56       137.461     2.353       5.002       29.596      25.361      25.26       18.115      24.162      24.527      24.112      1.128       2.152       307.7       79.32       410.171     2662.564    417.015     38.03       
112.5       45.248      137.304     2.369       4.793       32.15       26.852      29.027      21.591      28.817      29.41       24.665      1.168       2.206       308.48      81.92       409.566     2642.15     379.48      35.356      
112.6       47.737      136.54      2.399       4.696       35.503      28.88       34.005      25.857      33.703      34.406      25.21       1.24        2.273       309.42      84.72       372.147     2599.445    333.357     32.75       
112.7       52.224      135.483     2.446       4.527       39.383      31.084      39.17       29.944      37.778      38.275      25.573      1.303       2.348       310.44      86.96       284.278     2566.699    333.357     30.936      
112.8       75.342      135.384     2.491       4.22        43.421      32.839      42.966      32.626      40.081      40.139      25.939      1.267       2.492       311.42      88.36       196.409     2533.953    375.915     28.519      
112.9       123.091     136.206     2.517       3.873       47.226      33.818      44.491      33.586      40.594      40.446      26.436      1.266       2.655       312.24      88.96       196.409     2533.953    398.493     28.184      
113.0       158.279     136.447     2.511       4.118       50.482      34.136      44.483      33.559      40.596      40.339      26.918      1.289       2.724       312.88      88.96       312.048     2583.069    378.514     29.865      
113.1       198.349     137.331     2.481       4.678       52.961      34.132      44.256      33.248      40.108      39.457      26.943      1.295       2.698       313.32      88.96       427.687     2632.185    358.534     34.522      
113.2       145.192     138.117     2.441       5.271       54.574      34.067      42.791      31.896      37.907      36.921      26.499      1.364       2.58        313.48      88.84       388.485     2653.804    358.534     36.902      
113.3       55.027      137.929     2.412       5.449       55.336      33.781      39.045      29.046      34.076      33.345      25.979      1.486       2.37        313.48      88.16       233.643     2626.308    494.827     35.588      
113.4       44.389      137.987     2.401       5.109       55.49       33.351      34.199      25.671      29.581      29.883      25.323      1.656       2.237       313.44      87.44       233.643     2597.798    507.223     32.381      
113.5       46.377      137.454     2.405       4.712       55.456      33.212      29.682      22.752      25.323      27.215      24.769      1.629       2.196       313.12      86.76       270.458     2569.289    383.326     29.903      
113.6       48.77       136.784     2.412       4.22        55.169      33.212      26.225      20.526      21.81       25.366      24.13       1.522       2.351       312.28      86.0        307.273     2540.779    259.43      30.059      
113.7       75.099      136.84      2.416       4.56        54.289      33.235      23.825      18.918      19.134      24.124      23.591      1.374       2.507       310.84      85.08       326.958     2540.779    259.43      30.095      
113.8       128.681     136.562     2.405       4.941       52.822      33.427      22.172      17.697      17.158      23.214      23.434      1.385       2.431       308.86      84.0        309.829     2572.952    331.375     32.251      
113.9       112.767     136.543     2.387       5.307       50.886      33.996      20.901      16.604      15.685      22.469      23.354      1.338       2.347       306.54      82.8        260.927     2591.897    403.32      35.845      
114.0       65.406      137.098     2.371       5.067       48.567      34.819      19.785      15.546      14.546      21.882      22.942      1.378       2.286       304.1       81.48       212.025     2578.67     465.798     39.066      
114.1       53.349      138.112     2.365       5.047       45.978      35.586      18.805      14.549      13.628      21.491      22.329      1.344       2.218       301.8       80.16       212.025     2564.351    440.372     39.958      
114.2       45.97       137.86      2.369       5.094       43.268      36.045      18.031      13.669      12.887      21.306      21.661      1.336       2.136       299.84      78.92       248.129     2550.031    352.466     39.078      
114.3       40.648      139.0       2.384       5.383       40.571      36.144      17.515      12.965      12.331      21.274      20.997      1.333       2.067       298.34      77.8        284.234     2535.712    264.561     38.688      
114.4       39.441      139.436     2.397       5.294       37.984      36.124      17.278      12.476      11.96       21.274      20.358      1.325       2.045       297.4       76.76       305.722     2535.712    264.561     38.665      
114.5       39.707      138.489     2.406       5.189       35.675      35.953      17.253      12.201      11.747      21.285      19.861      1.318       2.049       297.02      75.88       291.106     2554.223    309.748     39.351      
114.6       38.292      139.54      2.398       5.14        33.728      35.422      17.253      12.112      11.656      21.38       19.487      1.264       2.062       296.96      75.08       280.889     2543.143    307.796     40.514      
114.7       34.672      139.136     2.389       5.151       32.09       34.565      17.277      12.112      11.639      21.682      19.1        1.212       2.026       296.96      74.32       270.672     2513.552    260.657     40.846      
114.8       29.891      138.824     2.39        5.533       30.725      33.569      17.483      12.114      11.639      22.212      18.649      1.228       1.992       296.96      73.48       245.563     2513.552    260.657     40.34       
114.9       28.116      138.219     2.403       5.602       29.64       32.557      18.122      12.135      11.641      22.944      18.271      1.237       2.01        297.12      72.6        220.454     2516.852    293.821     38.885      
115.0       29.251      138.302     2.426       5.425       28.762      31.509      19.221      12.214      11.656      23.822      18.071      1.238       2.03        297.66      71.68       220.454     2520.152    326.985     37.764      
115.1       30.052      137.316     2.446       5.342       28.03       30.344      20.716      12.339      11.689      24.75       17.982      1.201       2.043       298.54      70.84       276.784     2563.983    355.97      37.612      
115.2       31.356      138.201     2.446       5.3         27.423      29.011      22.434      12.413      11.711      25.624      18.018      1.142       2.08        299.56      70.08       333.115     2607.813    384.956     37.976      
115.3       31.461      138.024     2.424       5.54        26.939      27.526      24.051      12.431      11.716      26.355      18.032      1.109       2.137       300.62      69.56       361.369     2636.884    413.138     40.35       
115.4       28.739      137.974     2.391       5.449       26.567      25.962      25.267      12.425      11.711      26.893      18.061      1.126       2.121       301.7       69.24       333.293     2622.124    412.336     42.248      
115.5       26.046      138.906     2.362       5.155       26.325      24.45       25.954      12.371      11.678      27.24       18.107      1.153       2.055       302.72      69.08       333.293     2622.124    412.336     42.511      
115.6       25.761      139.04      2.342       5.351       26.224      23.168      26.177      12.198      11.583      27.432      18.134      1.2         2.002       303.68      69.0        421.724     2663.573    412.953     41.649      
115.7       24.828      138.181     2.333       5.502       26.224      22.25       26.174      11.909      11.422      27.521      18.085      1.224       1.966       304.7       69.0        466.491     2682.784    408.304     42.103      
