~Version Information Section
VERS.                                         2.0:CWLS log ASCII Standart – VERSION 2.0
WRAP.                                          NO:One line per depth step
~Well Information Section
STRT.M                                        0.5:Начальная глубина
STOP.M                                      201.9:Конечная глубина
STEP.M                                          0:Шаг квантования по глубине
NULL.                                    -9999.25:Признак "Нет данных"
WELL.                                       138Мх:Скважина
~Parameter Information Section
~Curve Information Section
DEPTH.M                                          :Глубина
БК.Омм                                           :BK     (БК)
DСР.мм                                           :DS  (ДС)
W.g/cm3                                          :GGKp
ГК.гамма                                         :GK          (ГК)
А0.4М0.1N.Омм.ohmm                               :GZ1   ГЗ1(A0.4M0.1N)
А1.0М0.1N.Омм.ohmm                               :GZ2   ГЗ2(A1.0M0.1N)
А2.0М0.5N.Омм.ohmm                               :GZ3   ГЗ3(A2.0M0.5N)
А4.0М0.5N.Oмм.ohmm                               :GZ4   ГЗ4(A4.0M0.5N)
А8.0М1.0N.Омм.ohmm                               :GZ5   ГЗ5(A8.0M0.5N)
N0.5M2.0A.Омм.ohmm                               :GZK   ГЗK(N0.5M2.0A)
ИК.мСм/м                                         :IK
ННКМ.усл.ед                                      :NNKm  (ННКм)
ПС.мВ                                            :PS       (ПС)
КС.Омм                                           :PZ    (КС)
R.Омм                                            :RS (Резистивиметр)
U1.мВ                                            :U1
U2.mV                                            :U2
U3.мВ                                            :U3
КП.%                                             :Кп
НГК.усл.ед                                       :NGK
~ASCII LOG DATA
# ...
170.1       32.72       127.678     2.178       6.035       17.361      14.449      16.269      19.197      1.747       16.869      12.969      1.69        255.144     53.506      1.08        294.775     245.563     194.003     31.143      1.191       
170.2       31.926      127.717     2.172       6.058       17.394      14.453      16.186      18.935      1.747       16.949      12.999      1.672       254.792     53.082      1.08        242.624     216.034     174.917     31.047      1.147       
170.3       32.107      127.778     2.172       6.376       17.415      14.469      16.147      18.73       1.749       17.048      13.009      1.662       254.344     52.461      1.08        257.906     215.772     162.62      29.973      1.112       
170.4       31.867      127.866     2.169       6.936       17.437      14.497      16.139      18.566      1.749       17.171      13.033      1.681       253.8       51.715      1.08        282.381     230.856     178.459     29.63       1.109       
170.5       31.017      127.908     2.167       6.921       17.475      14.536      16.139      18.426      1.749       17.314      13.085      1.692       253.176     50.89       1.08        306.862     261.937     227.369     30.014      1.084       
170.6       30.194      127.961     2.168       6.617       17.548      14.59       16.139      18.296      1.751       17.446      13.132      1.66        252.504     50.032      1.08        316.06      308.131     308.272     30.094      1.044       
170.7       30.567      127.987     2.168       6.172       17.688      14.672      16.139      18.161      1.76        17.533      13.216      1.651       251.832     49.182      1.08        323.741     352.106     377.58      29.33       1.024       
170.8       32.136      128.023     2.165       6.164       17.912      14.794      16.151      18.012      1.779       17.562      13.295      1.677       251.192     48.373      1.08        347.788     360.752     371.193     29.319      1.054       
170.9       32.808      127.985     2.164       6.36        18.208      14.945      16.184      17.849      1.811       17.559      13.371      1.688       250.616     47.638      1.08        367.715     345.427     332.824     29.994      1.111       
171.0       32.67       128.068     2.159       6.44        18.55       15.109      16.228      17.673      1.854       17.521      13.464      1.687       250.12      46.998      1.08        374.01      317.224     290.188     29.72       1.123       
171.1       31.845      128.068     2.153       6.404       18.905      15.279      16.275      17.487      1.906       17.427      13.537      1.716       249.72      46.454      1.08        363.941     308.364     291.174     28.466      1.129       
171.2       31.597      128.056     2.148       5.978       19.226      15.438      16.318      17.306      1.969       17.309      13.629      1.747       249.384     46.003      1.08        357.988     342.707     361.015     27.855      1.101       
171.3       32.673      128.131     2.144       5.86        19.477      15.567      16.355      17.149      2.045       17.202      13.683      1.733       249.08      45.642      1.08        373.309     388.312     417.592     28.064      1.115       
171.4       34.005      128.141     2.145       5.962       19.65       15.678      16.387      17.012      2.134       17.12       13.718      1.718       248.808     45.35       1.08        369.761     421.819     473.17      27.657      1.105       
171.5       34.168      128.161     2.151       6.042       19.749      15.782      16.419      16.884      2.241       17.07       13.782      1.719       248.536     45.107      1.08        320.791     374.362     427.82      27.011      1.111       
171.6       33.438      128.154     2.16        6.06        19.784      15.888      16.45       16.755      2.364       17.047      13.803      1.706       248.248     44.893      1.08        250.224     286.609     335.088     27.024      1.14        
171.7       32.638      128.153     2.17        6.136       19.788      16.004      16.481      16.614      2.489       17.042      13.818      1.681       247.96      44.688      1.08        198.532     210.959     242.374     28.134      1.203       
171.8       31.897      128.186     2.179       6.402       19.778      16.135      16.514      16.447      2.61        17.042      13.809      1.691       247.688     44.472      1.08        192.259     181.921     181.713     28.953      1.166       
171.9       31.017      128.181     2.189       6.556       19.751      16.262      16.552      16.255      2.717       17.042      13.787      1.72        247.4       44.24       1.08        220.163     198.533     186.056     29.446      1.15        
172.0       30.733      128.017     2.191       6.413       19.711      16.365      16.594      16.054      2.826       17.042      13.777      1.713       247.128     44.0        1.08        260.188     236.056     212.86      29.294      1.093       
172.1       31.28       128.019     2.189       6.691       19.673      16.439      16.641      15.856      2.959       17.044      13.785      1.699       246.872     43.763      1.08        300.211     275.814     241.249     29.534      1.14        
172.2       31.439      128.028     2.188       6.591       19.642      16.483      16.694      15.671      3.147       17.055      13.786      1.705       246.616     43.544      1.08        312.326     298.54      241.4       29.588      1.101       
172.3       30.453      128.066     2.184       6.864       19.62       16.498      16.753      15.506      3.421       17.072      13.777      1.712       246.36      43.36       1.08        327.204     300.359     219.086     29.202      1.118       
172.4       29.615      128.025     2.176       6.667       19.612      16.5        16.82       15.361      3.839       17.098      13.785      1.726       246.136     43.219      1.08        344.504     299.944     195.194     28.308      1.157       
172.5       29.162      127.867     2.173       6.562       19.612      16.503      16.895      15.23       4.424       17.131      13.787      1.724       245.928     43.12       1.08        327.78      304.957     209.892     27.682      1.23        
172.6       28.413      128.172     2.172       6.427       19.612      16.503      16.986      15.109      5.171       17.174      13.771      1.698       245.752     43.058      1.08        296.176     314.422     286.466     28.191      1.225       
172.7       27.105      128.242     2.171       6.493       19.612      16.505      17.101      14.991      6.139       17.231      13.759      1.683       245.592     43.024      1.08        262.151     333.866     379.813     29.009      1.188       
172.8       26.838      128.275     2.175       6.558       19.613      16.508      17.235      14.872      7.549       17.297      13.75       1.68        245.464     43.008      1.08        285.133     366.134     431.625     29.857      1.165       
172.9       26.939      128.264     2.179       6.359       19.62       16.507      17.379      14.738      9.516       17.368      13.734      1.71        245.352     43.003      1.08        356.054     410.159     421.565     29.681      1.172       
173.0       26.904      128.206     2.181       6.303       19.63       16.501      17.517      14.555      11.913      17.443      13.711      1.748       245.24      43.003      1.08        456.268     453.043     394.709     28.306      1.229       
173.1       27.688      128.032     2.182       6.279       19.632      16.481      17.619      14.313      14.649      17.51       13.722      1.743       245.112     43.003      1.08        533.498     453.278     367.786     27.433      1.229       
173.2       28.473      127.806     2.182       6.66        19.626      16.446      17.66       14.029      17.523      17.556      13.715      1.734       245.0       43.003      1.08        562.776     418.457     309.518     27.272      1.221       
