~Version Information Section
VERS.                                         2.0:CWLS log ASCII Standart – VERSION 2.0
WRAP.                                          NO:One line per depth step
~Well Information Section
STRT.M                                        0.6:Начальная глубина
STOP.M                                      208.2:Конечная глубина
STEP.M                                          0:Шаг квантования по глубине
NULL.                                    -9999.25:Признак "Нет данных"
WELL.                                       156Мх:Скважина
~Parameter Information Section
~Curve Information Section
DEPTH.M                                          :Глубина
БК.Ом                                            :BK     (БК)
DСР.мм                                           :DS  (ДС)
ПЛОТНОСТЬ.г/см^3                                 :GGKp
ГК.мкР/час                                       :GK          (ГК)
А0.4М0.1N.Ом                                     :GZ1   ГЗ1(A0.4M0.1N)
А1.0М0.1N.Ом                                     :GZ2   ГЗ2(A1.0M0.1N)
А2.0М0.5N.Ом                                     :GZ3   ГЗ3(A2.0M0.5N)
А4.0М0.5N.Oм                                     :GZ4   ГЗ4(A4.0M0.5N)
А8.0М1.0N.Ом                                     :GZ5   ГЗ5(A8.0M0.5N)
N0.5M2.0A.Ом                                     :GZR   ГЗK(N0.5M2.0A)
ИК.мСм/м                                         :IK
НГК.усл.ед                                       :NGK     (НГК)
ННКМ.усл.ед                                      :NNKm  (ННКм)
ПС.mv                                            :PS       (ПС)
N11.0M0.5A.Ом                                    :PZ    (КС)
РЕЗИСТИВИМЕТР.Ом                                 :RS (Резистивиметр)
КПSIO.%                                          :W
~ASCII LOG DATA
# ...
48.7        20.396      160.09      2.286       6.571       44.439      23.969      24.807      23.133      16.938      36.121      15.072      1.046       1.108       22.47       21.781      1.31        31.827      
48.8        28.789      160.392     2.306       5.7         43.183      19.756      24.37       19.568      16.628      38.208      15.728      1.061       1.159       22.765      22.359      1.31        30.281      
48.9        35.586      160.695     2.314       5.251       35.458      14.225      22.12       15.607      16.033      37.503      16.425      1.076       1.224       22.611      23.288      1.31        29.126      
49.0        38.538      159.791     2.304       5.003       27.382      10.429      18.456      12.09       15.316      34.146      17.044      1.089       1.271       21.975      24.138      1.31        28.485      
49.1        37.462      158.091     2.282       5.271       22.58       9.489       15.026      9.944       15.151      29.4        17.451      1.088       1.303       20.889      24.414      1.31        28.418      
49.2        35.629      159.577     2.255       5.906       20.404      10.667      13.334      9.483       16.284      24.507      17.543      1.062       1.309       19.467      24.147      1.31        28.797      
49.3        24.148      155.666     2.23        6.689       19.664      12.988      13.942      11.115      18.064      20.507      17.327      1.028       1.303       17.956      23.952      1.31        29.449      
49.4        15.34       156.147     2.213       7.336       19.566      15.783      17.306      15.017      19.648      18.199      16.904      0.996       1.241       16.633      24.394      1.31        30.137      
49.5        13.365      157.671     2.21        7.574       21.574      23.387      22.47       19.856      20.338      17.987      16.427      0.969       1.179       15.788      25.163      1.31        30.652      
49.6        13.316      161.456     2.223       7.498       27.594      37.048      27.115      23.662      21.175      19.857      16.056      0.957       1.133       15.484      25.749      1.31        30.86       
49.7        13.713      160.902     2.247       7.178       32.053      45.239      29.447      25.188      22.693      25.762      15.914      0.966       1.107       15.701      25.82       1.31        30.717      
49.8        16.588      157.888     2.27        6.858       29.743      39.495      28.68       23.885      24.749      36.41       16.021      0.982       1.095       16.43       25.552      1.31        30.387      
49.9        19.138      158.519     2.29        6.621       21.955      24.182      24.412      19.723      26.684      47.276      16.318      1.002       1.131       17.605      24.873      1.31        29.893      
50.0        16.839      156.611     2.296       6.657       15.892      12.302      17.759      14.273      27.895      52.5        16.727      1.02        1.174       18.834      22.994      1.31        29.579      
50.1        15.953      159.239     2.281       6.843       14.529      7.915       11.731      10.234      27.724      50.121      17.159      1.026       1.219       19.871      20.056      1.31        29.71       
50.2        18.624      156.422     2.243       6.969       14.949      6.496       8.766       9.122       26.755      42.773      17.567      1.019       1.223       20.83       17.312      1.31        30.324      
50.3        17.86       156.714     2.197       7.137       16.393      6.847       8.964       10.865      26.655      33.409      17.906      1.004       1.213       21.748      16.115      1.31        31.127      
50.4        13.736      156.783     2.151       7.444       17.925      7.933       11.264      14.971      28.5        25.222      18.197      0.982       1.196       22.56       17.091      1.31        32.031      
50.5        12.787      157.119     2.113       7.675       19.258      10.141      15.161      20.883      32.086      21.506      18.487      0.973       1.156       23.327      20.253      1.31        32.594      
50.6        12.788      156.194     2.089       7.527       21.424      14.554      19.795      27.708      36.205      23.023      18.854      0.99        1.099       23.981      24.559      1.31        32.541      
50.7        13.427      155.528     2.091       7.378       26.795      21.622      24.406      34.633      40.549      29.574      19.381      1.029       1.098       24.575      28.235      1.31        31.716      
50.8        15.462      156.19      2.113       7.164       35.09       28.581      28.413      40.5        44.8        40.203      20.127      1.084       1.107       24.889      30.438      1.31        30.161      
50.9        19.04       156.456     2.137       6.798       44.09       32.586      31.194      43.995      48.6        52.748      21.147      1.152       1.132       24.323      31.898      1.31        28.088      
51.0        22.529      155.732     2.156       6.479       55.647      33.872      32.312      44.851      51.714      63.783      22.471      1.24        1.192       22.995      33.68       1.31        25.9        
51.1        24.825      153.763     2.173       6.236       70.961      34.32       32.151      44.218      53.433      71.226      24.072      1.341       1.269       21.642      36.513      1.31        23.795      
51.2        43.414      152.819     2.181       5.93        86.931      35.634      31.667      43.506      53.876      74.692      25.839      1.43        1.37        20.788      40.855      1.31        22.053      
51.3        92.095      153.434     2.178       5.667       97.831      38.701      31.491      43.249      53.417      73.574      27.629      1.511       1.464       20.247      46.913      1.31        20.846      
51.4        109.821     153.948     2.177       5.455       102.48      44.367      31.957      43.509      53.016      68.849      29.311      1.587       1.543       19.433      56.848      1.311       19.959      
51.5        86.14       152.69      2.19        5.26        105.839     53.629      33.095      44.014      52.693      63.105      30.718      1.638       1.603       18.553      70.885      1.311       19.252      
51.6        77.796      150.417     2.215       5.137       111.234     70.207      34.765      44.346      52.205      58.741      31.645      1.668       1.651       18.056      85.832      1.311       18.689      
51.7        79.998      149.999     2.249       5.084       118.661     94.689      36.894      44.085      51.243      56.189      31.998      1.702       1.656       17.748      97.02       1.31        18.099      
51.8        81.769      150.0       2.289       5.027       125.124     120.761     40.311      42.8        49.53       54.984      31.84       1.731       1.661       17.2        102.762     1.31        17.41       
51.9        82.554      150.125     2.334       4.938       128.935     139.761     45.761      40.051      46.823      54.559      31.364      1.751       1.67        16.025      105.273     1.31        16.757      
52.0        84.882      150.219     2.374       4.777       131.452     149.104     50.811      35.87       43.398      54.236      30.73       1.754       1.682       14.457      105.465     1.31        16.181      
52.1        91.053      150.366     2.4         4.617       131.188     149.027     51.701      30.849      39.442      53.259      30.052      1.733       1.714       13.223      103.217     1.31        16.029      
52.2        97.165      150.454     2.407       4.489       120.245     134.198     47.132      25.781      34.907      51.116      29.343      1.684       1.746       12.511      98.481      1.31        16.357      
52.3        97.616      150.644     2.396       4.438       95.089      104.328     39.358      21.126      29.934      47.573      28.666      1.627       1.774       12.191      92.054      1.31        17.166      
