~Version Information Section
VERS.                                         2.0:CWLS log ASCII Standart – VERSION 2.0
WRAP.                                          NO:One line per depth step
~Well Information Section
STRT.M                                        1.0:Начальная глубина
STOP.M                                      151.7:Конечная глубина
STEP.M                                          0:Шаг квантования по глубине
NULL.                                    -9999.25:Признак "Нет данных"
WELL.                                       117Мх:Скважина
~Parameter Information Section
~Curve Information Section
DEPTH.M                                          :Глубина
DСР.мм                                           :Dср
ГК.гамма                                         :GK
ИК.мСм/м                                         :IK
N0.5M2.0A.Омм.                                   :N0.5M2.0A.Омм
R.Омм                                            :R
U1.                                              :U1
U2.                                              :U2
U3.                                              :U3
W.имп/1,25с                                      :W
А0.4М0.1N.Омм.                                   :А0.4М0.1N.Омм
А1.0М0.1N.Омм.                                   :А1.0М0.1N.Омм
А2.0М0.5N.Омм.                                   :А2.0М0.5N.Омм
А4.0М0.5N.Oмм.                                   :А4.0М0.5N.Oмм
А8.0М1.0N.Омм.                                   :А8.0М1.0N.Омм
БЗ.имп/мин                                       :БЗ
БК.Омм                                           :БК
КС.Омм                                           :КС
ПС.                                              :ПС
МЗ.имп/мин                                       :МЗ
НГК.имп/1,25с                                    :ННКб
ННКМ.имп/1,25с                                   :ННКм
ПЛОТНОСТЬГГК.г/см3                               :плотностьГГК
~ASCII LOG DATA
# ...
15.5        142.964     6.874       -9999.25    17.428      1.235       394.885     200.634     292.013     34.78       16.617      16.049      16.451      19.658      19.77       14340.0     -9999.25    16.538      182.793     6420.0      1.881       1.372       2.237       
15.6        142.791     6.962       -9999.25    17.297      1.236       403.442     209.021     300.033     34.811      16.379      15.771      15.835      19.708      19.605      14360.0     -9999.25    16.438      182.962     6380.0      1.815       1.367       2.228       
15.7        142.859     7.045       -9999.25    17.473      1.234       407.202     205.334     300.74      34.608      16.087      15.392      15.787      20.872      18.713      14520.0     -9999.25    16.392      183.131     6420.0      1.803       1.384       2.218       
15.8        142.844     7.212       -9999.25    17.531      1.233       403.772     197.778     296.861     34.27       15.333      15.369      15.826      21.531      17.998      14960.0     -9999.25    16.415      183.3       6320.0      1.841       1.38        2.212       
15.9        142.906     7.4         -9999.25    17.626      1.232       397.376     200.269     295.191     33.87       15.038      15.963      15.839      21.688      18.079      15420.0     -9999.25    16.461      183.468     6340.0      1.912       1.363       2.208       
16.0        143.07      7.469       -9999.25    17.94       1.236       389.612     198.242     290.086     33.468      15.194      16.078      15.991      21.279      18.236      15540.0     -9999.25    16.51       183.637     6260.0      1.974       1.348       2.211       
16.1        142.685     7.523       -9999.25    18.116      1.239       381.922     192.627     284.185     33.138      15.176      15.595      16.139      20.277      18.279      15460.0     -9999.25    16.597      183.806     6180.0      2.011       1.35        2.217       
16.2        142.605     7.601       -9999.25    17.917      1.241       379.029     199.085     285.598     32.965      15.253      15.523      15.977      19.095      18.472      15240.0     -9999.25    16.757      183.974     6220.0      2.004       1.355       2.222       
16.3        142.561     7.686       -9999.25    17.785      1.242       377.222     209.802     288.621     32.892      15.395      15.342      15.663      18.343      19.221      14760.0     -9999.25    16.964      184.143     6140.0      1.953       1.367       2.228       
16.4        142.462     7.686       -9999.25    18.073      1.242       378.382     210.474     289.435     32.891      15.162      14.458      15.496      18.542      20.176      14200.0     -9999.25    17.19       184.312     6080.0      1.904       1.378       2.228       
16.5        142.398     7.57        -9999.25    18.466      1.24        391.077     221.179     299.589     32.9        14.404      13.477      15.497      19.03       20.698      13820.0     -9999.25    17.435      184.48      5980.0      1.894       1.376       2.229       
16.6        142.359     7.383       -9999.25    19.105      1.242       403.699     235.474     310.538     32.959      13.94       13.245      15.629      19.528      20.93       14060.0     -9999.25    17.699      184.649     6140.0      1.942       1.366       2.228       
16.7        142.335     7.172       -9999.25    20.098      1.244       423.328     238.501     319.821     32.964      14.34       13.933      15.966      20.465      21.118      14520.0     -9999.25    17.982      184.818     6180.0      2.024       1.382       2.224       
16.8        142.212     6.837       -9999.25    20.876      1.241       441.87      237.268     327.494     32.905      14.684      14.533      16.473      21.399      21.203      14820.0     -9999.25    18.297      184.987     6280.0      2.101       1.412       2.218       
16.9        141.666     6.402       -9999.25    21.431      1.239       452.637     217.419     326.809     32.875      15.042      14.97       16.999      21.705      21.179      15880.0     -9999.25    18.629      185.155     6460.0      2.125       1.453       2.213       
17.0        141.384     6.071       -9999.25    22.209      1.24        451.868     187.536     316.785     33.046      15.587      15.335      17.738      21.552      21.068      16480.0     -9999.25    18.963      185.324     6920.0      2.104       1.474       2.206       
17.1        141.221     5.968       -9999.25    23.174      1.24        451.099     157.654     306.761     33.509      15.872      15.317      18.299      21.129      20.889      16740.0     -9999.25    19.314      185.493     7100.0      2.088       1.495       2.201       
17.2        141.057     5.987       -9999.25    23.691      1.241       454.114     172.436     316.185     34.129      16.415      15.849      18.347      20.027      20.75       17100.0     -9999.25    19.705      185.661     7140.0      2.094       1.513       2.192       
17.3        140.938     6.223       -9999.25    23.835      1.242       457.129     187.219     325.608     34.644      17.661      16.475      18.144      19.153      20.609      17580.0     -9999.25    20.174      185.83      7180.0      2.071       1.504       2.184       
17.4        140.458     6.553       -9999.25    24.194      1.243       465.857     224.61      343.839     34.886      18.41       16.22       18.028      19.262      20.161      17300.0     -9999.25    20.676      185.999     7000.0      2.001       1.49        2.181       
17.5        140.323     6.816       -9999.25    24.687      1.245       474.585     262.0       362.07      34.908      17.769      15.352      17.942      19.211      19.49       17060.0     -9999.25    21.136      186.168     6780.0      1.945       1.467       2.176       
17.6        140.18      6.961       -9999.25    25.325      1.239       484.436     302.539     381.767     34.781      17.15       14.818      17.463      18.538      18.97       17020.0     -9999.25    21.567      186.336     6560.0      1.949       1.466       2.177       
17.7        140.122     7.033       -9999.25    26.195      1.238       483.496     309.68      383.684     34.518      17.261      14.918      17.12       18.077      18.671      16800.0     20.945      21.98       186.505     6440.0      1.998       1.464       2.183       
17.8        140.394     6.961       -9999.25    27.095      1.239       478.039     308.569     380.415     34.069      17.472      15.345      17.2        17.931      18.505      16000.0     19.085      22.358      186.674     6280.0      2.029       1.459       2.19        
17.9        140.35      6.939       -9999.25    27.715      1.239       474.646     303.467     376.697     33.497      17.929      16.56       17.451      17.656      18.373      15740.0     16.917      22.711      186.842     6360.0      2.058       1.453       2.199       
18.0        138.614     7.048       -9999.25    27.747      1.237       466.528     300.598     371.068     32.974      18.481      17.546      17.657      17.42       18.132      16000.0     15.004      23.022      187.01      6240.0      2.105       1.455       2.204       
18.1        138.207     7.1         -9999.25    27.396      1.238       457.288     294.58      363.972     32.577      18.519      18.2        17.568      17.228      17.795      15500.0     12.473      23.297      187.173     6340.0      2.155       1.476       2.207       
18.2        137.805     7.022       -9999.25    27.3        1.237       435.376     269.092     340.651     32.4        18.435      18.128      17.302      17.437      17.435      15200.0     10.337      23.542      187.328     6380.0      2.163       1.468       2.21        
18.3        138.208     6.971       -9999.25    27.465      1.235       417.981     251.856     322.516     32.396      17.646      16.836      16.977      17.258      16.959      15200.0     10.512      23.695      187.474     6320.0      2.126       1.452       2.21        
