~Version Information Section
VERS.                                         2.0:CWLS log ASCII Standart – VERSION 2.0
WRAP.                                          NO:One line per depth step
~Well Information Section
STRT.M                                        0.6:Начальная глубина
STOP.M                                      143.2:Конечная глубина
STEP.M                                          0:Шаг квантования по глубине
NULL.                                    -9999.25:Признак "Нет данных"
WELL.                                       116Мх:Скважина
~Parameter Information Section
~Curve Information Section
DEPTH.M                                          :Глубина
BK.lgОмм                                         :BK     (БК)
ПРОФ_СР.мм                                       :DS  (ДС)
ГК.мкР/час                                       :GK          (ГК)
ГЗ1.Омм                                          :GZ1   ГЗ1(A0.4M0.1N)
ГЗ2.Омм                                          :GZ2   ГЗ2(A1.0M0.1N)
ГЗ3.Омм                                          :GZ3   ГЗ3(A2.0M0.5N)
ГЗ4.Oмм                                          :GZ4   ГЗ4(A4.0M0.5N)
ГЗ5.Oмм                                          :GZ5   ГЗ5(A8.0M0.5N)
ГЗК.Омм                                          :GZK   ГЗK(N0.5M2.0A)
ИК.мСм/м                                         :IK
НГК.усл.ед.                                      :NGK     (НГК)
ПС.мВ                                            :PS       (ПС)
PZ.Омм                                           :PZ    (КС)
RIS.Омм                                          :RS (Резистивиметр)
U1.мВ                                            :U1
U2.mV                                            :U2
U3.мВ                                            :U3
W.г/см3                                          :ГГКп
П.%                                              :п
ННКМ.усл.ед                                      :ННКм
~ASCII LOG DATA
# ...
48.6        23.121      163.528     5.431       24.673      40.671      42.107      34.013      24.724      79.268      21.522      1.261       503.66      95.941      1.125       633.333     780.0       950.0       2.428       28.249      2.286       
48.7        34.435      162.079     5.628       24.593      40.455      42.155      34.003      24.682      79.058      21.522      1.274       502.61      95.837      1.125       650.0       780.0       950.0       2.439       27.907      2.191       
48.8        34.435      162.353     5.629       24.53       40.225      42.219      34.0        24.644      78.834      22.604      1.275       501.447     95.674      1.125       673.333     780.0       950.0       2.462       27.623      2.211       
48.9        53.333      162.603     5.521       24.481      40.009      42.267      34.0        24.611      78.601      22.604      1.268       500.306     95.437      1.125       683.333     780.0       950.0       2.471       25.767      2.259       
49.0        46.559      162.145     5.375       24.447      39.822      42.267      34.0        24.582      78.368      23.233      1.293       499.257     95.141      1.125       686.667     790.0       950.0       2.458       24.753      2.402       
49.1        48.529      161.6       5.282       24.425      39.649      42.267      34.0        24.554      78.141      23.844      1.326       498.23      94.8        1.125       686.667     800.0       943.333     2.448       25.231      2.527       
49.2        60.534      161.717     4.83        24.412      39.491      42.267      34.0        24.526      77.921      24.377      1.352       497.044     94.459      1.125       680.0       820.0       933.333     2.436       25.719      2.494       
49.3        47.863      161.774     4.623       24.405      39.361      42.203      34.0        24.498      77.708      25.0        1.36        495.561     94.163      1.125       670.0       840.0       923.333     2.43        26.216      2.474       
49.4        47.863      161.519     4.447       24.402      39.246      42.075      34.0        24.47       77.504      25.0        1.374       493.735     93.911      1.125       663.333     840.0       923.333     2.438       25.826      2.48        
49.5        46.559      161.792     4.459       24.401      39.159      41.883      34.0        24.441      77.307      25.528      1.38        491.728     93.689      1.125       660.0       850.0       923.333     2.437       24.99       2.484       
49.6        55.976      162.46      4.478       24.401      39.102      41.643      34.0        24.411      77.122      26.006      1.365       489.697     93.437      1.125       660.0       860.0       933.333     2.433       24.856      2.485       
49.7        40.644      162.252     4.473       24.401      39.073      41.387      34.0        24.38       76.952      26.484      1.338       487.849     93.156      1.125       660.0       850.0       946.667     2.429       24.716      2.506       
49.8        40.644      161.569     4.659       24.401      39.059      41.147      34.0        24.35       76.802      26.696      1.293       486.229     92.859      1.125       680.0       830.0       960.0       2.427       24.641      2.522       
49.9        62.517      161.821     4.467       24.401      39.059      40.891      33.997      24.32       76.675      27.168      1.265       484.86      92.607      1.125       700.0       810.0       966.667     2.444       24.355      2.478       
50.0        62.517      162.121     4.448       24.402      39.059      40.635      33.974      24.294      76.568      27.598      1.272       483.674     92.415      1.125       716.667     800.0       973.333     2.452       23.729      2.482       
50.1        51.761      162.235     4.247       24.407      39.059      40.411      33.917      24.272      76.477      27.598      1.286       482.625     92.267      1.125       716.667     770.0       976.667     2.441       23.506      2.568       
50.2        46.881      162.284     4.275       24.417      39.059      40.187      33.805      24.257      76.398      27.598      1.288       481.598     92.133      1.125       706.667     750.0       980.0       2.451       23.277      2.582       
50.3        53.827      162.317     4.257       24.437      39.059      39.947      33.616      24.248      76.323      27.818      1.29        480.434     91.985      1.125       693.333     750.0       980.0       2.434       23.069      2.538       
50.4        74.473      162.461     4.03        24.472      39.044      39.739      33.354      24.248      76.246      28.073      1.325       479.02      91.807      1.125       693.333     750.0       980.0       2.442       22.834      2.533       
50.5        74.473      162.666     3.947       24.523      39.001      39.547      33.04       24.248      76.164      27.933      1.362       477.354     91.6        1.125       693.333     750.0       980.0       2.466       23.501      2.556       
50.6        90.157      163.091     3.904       24.589      38.929      39.355      32.704      24.248      76.073      27.933      1.433       475.598     91.407      1.125       700.0       750.0       980.0       2.459       24.188      2.633       
50.7        72.946      163.506     3.988       24.653      38.814      39.179      32.378      24.248      75.972      27.933      1.464       473.932     91.259      1.125       706.667     750.0       980.0       2.438       24.485      2.715       
50.8        50.582      163.787     3.882       24.686      38.641      39.019      32.099      24.256      75.859      27.711      1.485       472.518     91.141      1.125       706.667     780.0       976.667     2.429       24.927      2.766       
50.9        55.719      164.047     3.755       24.686      38.425      38.875      31.872      24.274      75.734      27.463      1.395       471.354     90.978      1.125       590.0       800.0       976.667     2.415       25.721      2.731       
51.0        57.412      164.219     3.909       24.686      38.195      38.747      31.686      24.299      75.597      27.219      1.369       470.305     90.741      1.125       590.0       800.0       976.667     2.407       26.383      2.593       
51.1        57.412      164.779     4.334       24.664      37.95       38.619      31.52       24.329      75.448      27.219      1.37        469.141     90.459      1.125       600.0       800.0       973.333     2.414       27.029      2.485       
51.2        49.659      165.597     4.642       24.567      37.705      38.475      31.357      24.353      75.289      26.239      1.363       467.681     90.237      1.125       610.0       730.0       970.0       2.42        26.227      2.438       
51.3        36.644      166.052     4.723       24.386      37.489      38.299      31.174      24.364      75.121      26.239      1.276       465.879     90.148      1.125       620.0       710.0       973.333     2.42        26.021      2.474       
51.4        44.668      165.921     4.769       24.129      37.302      38.075      30.97       24.364      74.945      25.842      1.217       463.825     90.148      1.125       630.0       670.0       973.333     2.411       26.987      2.504       
51.5        56.234      167.013     4.871       23.818      37.115      37.787      30.752      24.364      74.764      25.344      1.24        461.726     90.252      1.125       630.0       670.0       973.333     2.419       28.214      2.416       
51.6        56.234      168.243     4.794       23.474      36.927      37.467      30.541      24.354      74.578      24.744      1.254       459.787     90.533      1.125       640.0       670.0       983.333     2.408       29.403      2.352       
51.7        38.194      167.644     4.484       23.117      36.74       37.163      30.346      24.322      74.392      24.312      1.16        458.19      90.963      1.125       640.0       790.0       986.667     2.392       30.346      2.377       
