~Version Information Section
VERS.                                         2.0:CWLS log ASCII Standart – VERSION 2.0
WRAP.                                          NO:One line per depth step
~Well Information Section
STRT.M                                        0.6:Начальная глубина
STOP.M                                      208.2:Конечная глубина
STEP.M                                          0:Шаг квантования по глубине
NULL.                                    -9999.25:Признак "Нет данных"
WELL.                                       156Мх:Скважина
~Parameter Information Section
~Curve Information Section
DEPTH.M                                          :Глубина
БК.Ом                                            :BK     (БК)
DСР.мм                                           :DS  (ДС)
ПЛОТНОСТЬ.г/см^3                                 :GGKp
ГК.мкР/час                                       :GK          (ГК)
А0.4М0.1N.Ом                                     :GZ1   ГЗ1(A0.4M0.1N)
А1.0М0.1N.Ом                                     :GZ2   ГЗ2(A1.0M0.1N)
А2.0М0.5N.Ом                                     :GZ3   ГЗ3(A2.0M0.5N)
А4.0М0.5N.Oм                                     :GZ4   ГЗ4(A4.0M0.5N)
А8.0М1.0N.Ом                                     :GZ5   ГЗ5(A8.0M0.5N)
N0.5M2.0A.Ом                                     :GZR   ГЗK(N0.5M2.0A)
ИК.мСм/м                                         :IK
НГК.усл.ед                                       :NGK     (НГК)
ННКМ.усл.ед                                      :NNKm  (ННКм)
ПС.mv                                            :PS       (ПС)
N11.0M0.5A.Ом                                    :PZ    (КС)
РЕЗИСТИВИМЕТР.Ом                                 :RS (Резистивиметр)
КПSIO.%                                          :W
~ASCII LOG DATA
# ...
122.7       203.438     150.507     2.324       3.143       146.888     288.001     61.323      98.453      67.043      92.286      52.618      1.439       1.752       56.519      286.695     1.367       20.794      
122.8       190.291     150.388     2.322       3.154       151.386     303.23      75.376      119.212     80.057      98.229      52.855      1.408       1.748       55.169      284.821     1.369       20.91       
122.9       174.444     150.286     2.319       3.199       156.591     331.144     98.971      147.064     93.609      108.35      53.003      1.387       1.745       54.244      284.175     1.376       21.037      
123.0       163.851     149.976     2.32        3.389       164.111     378.202     138.518     179.133     106.167     122.908     53.031      1.377       1.735       53.631      285.139     1.384       20.965      
123.1       165.202     150.847     2.329       3.75        178.525     441.488     211.138     209.886     117.693     144.671     52.861      1.384       1.707       53.388      287.032     1.39        20.682      
123.2       175.861     150.989     2.344       4.128       202.982     509.48      327.931     232.145     126.862     175.127     52.516      1.412       1.688       53.423      288.572     1.391       20.141      
123.3       180.441     151.075     2.364       4.459       232.495     564.163     468.415     240.031     133.059     210.986     52.069      1.484       1.682       53.627      288.177     1.384       19.275      
123.4       169.726     151.219     2.384       4.639       258.366     589.979     591.132     231.948     134.468     246.494     51.453      1.594       1.685       53.978      284.806     1.368       18.147      
123.5       141.408     151.279     2.399       4.649       274.548     581.101     661.886     210.092     131.049     274.894     50.726      1.706       1.745       54.394      278.174     1.348       17.072      
123.6       178.894     151.292     2.403       4.426       276.412     537.892     669.517     178.771     123.048     290.335     50.071      1.81        1.813       54.852      268.027     1.33        16.279      
123.7       383.125     151.43      2.394       4.043       254.689     457.398     618.636     142.759     111.057     288.957     49.695      1.859       1.9         55.439      254.086     1.318       16.005      
123.8       735.478     151.947     2.374       3.767       206.304     345.891     521.656     106.997     95.975      270.901     49.49       1.813       1.988       56.148      236.254     1.311       16.292      
123.9       713.416     152.874     2.35        3.744       149.84      236.763     403.662     75.983      79.434      241.122     49.281      1.703       2.01        56.844      213.771     1.31        17.311      
124.0       384.191     156.715     2.328       3.761       110.267     168.647     294.55      53.043      62.632      206.38      48.802      1.564       1.982       57.492      186.701     1.31        18.829      
124.1       234.138     160.736     2.311       4.038       95.386      148.399     216.019     39.166      46.985      173.104     47.948      1.405       1.91        58.046      159.26      1.31        20.604      
124.2       126.187     159.648     2.301       4.701       96.126      153.802     170.688     31.744      34.07       145.822     46.689      1.27        1.773       58.464      139.0       1.31        22.375      
124.3       61.679      160.098     2.301       5.285       100.361     158.464     144.814     27.252      24.926      126.856     45.191      1.177       1.593       58.797      129.722     1.31        23.869      
124.4       39.123      156.804     2.308       5.657       97.019      145.742     124.58      23.474      19.561      116.797     43.788      1.117       1.469       58.98       127.258     1.31        24.841      
124.5       42.433      151.469     2.311       5.829       83.171      117.372     104.753     19.725      16.592      112.568     42.762      1.083       1.352       58.973      124.764     1.31        25.835      
124.6       61.217      151.418     2.302       5.809       66.493      89.657      86.148      16.518      14.899      109.042     42.285      1.069       1.305       58.952      119.484     1.31        26.743      
124.7       82.942      151.486     2.283       5.569       57.41       76.88       72.291      14.749      13.49       103.186     42.282      1.062       1.278       58.886      113.365     1.31        27.564      
124.8       91.554      151.511     2.251       5.364       57.589      78.208      66.346      14.777      12.117      96.251      42.423      1.069       1.295       58.781      109.477     1.31        28.532      
124.9       71.393      151.05      2.21        5.244       63.006      87.687      67.812      16.226      10.961      91.538      42.32       1.082       1.312       58.769      108.921     1.31        29.612      
125.0       41.18       150.972     2.173       5.265       71.142      99.534      72.815      18.748      10.236      91.65       41.86       1.103       1.286       58.914      110.624     1.31        30.294      
125.1       38.747      150.877     2.15        5.243       77.715      106.142     78.284      22.925      9.965       96.869      41.255      1.121       1.228       59.225      112.685     1.31        30.755      
125.2       46.532      151.106     2.144       5.195       80.891      105.095     82.67       28.487      9.918       103.959     40.873      1.139       1.214       59.544      113.202     1.31        30.654      
125.3       54.592      151.716     2.157       5.082       82.73       100.184     85.24       33.81       9.848       108.505     40.922      1.157       1.2         59.541      111.305     1.31        29.992      
125.4       68.272      151.574     2.185       4.967       85.405      95.977      86.715      37.577      9.677       108.481     41.43       1.187       1.223       59.312      107.679     1.31        29.02       
125.5       93.635      150.369     2.216       4.923       87.631      92.451      88.926      39.989      9.488       104.795     42.14       1.224       1.283       59.112      104.407     1.31        27.848      
125.6       111.34      150.471     2.246       4.89        87.383      88.49       93.094      42.226      9.633       99.053      42.945      1.251       1.346       58.966      103.347     1.31        26.594      
125.7       96.394      150.619     2.27        4.801       83.667      84.12       99.068      44.74       10.22       92.627      43.678      1.266       1.373       59.005      104.954     1.31        25.89       
125.8       84.142      150.763     2.283       4.759       78.061      81.123      106.144     47.776      11.158      86.628      44.255      1.28        1.4         59.132      108.17      1.31        25.837      
125.9       78.795      151.952     2.284       4.67        73.445      82.655      113.084     51.509      12.231      82.336      44.604      1.277       1.377       59.22       111.078     1.31        26.206      
126.0       73.782      154.438     2.278       4.453       73.188      91.752      118.973     55.942      13.625      80.622      44.726      1.248       1.353       59.442      112.289     1.31        26.904      
126.1       71.913      152.533     2.266       4.279       75.812      103.062     124.251     60.973      15.556      82.419      44.738      1.224       1.311       59.913      112.005     1.31        27.817      
126.2       66.102      151.321     2.247       4.233       77.615      109.364     130.449     66.436      17.88       88.118      44.595      1.216       1.276       60.561      111.525     1.31        28.709      
126.3       59.135      152.219     2.225       4.25        78.15       110.42      138.109     72.267      20.52       95.882      44.476      1.201       1.247       61.468      111.64      1.31        29.277      
