~Version Information Section
VERS.                                         2.0:CWLS log ASCII Standart – VERSION 2.0
WRAP.                                          NO:One line per depth step
~Well Information Section
STRT.M                                        0.6:Начальная глубина
STOP.M                                      209.2:Конечная глубина
STEP.M                                          0:Шаг квантования по глубине
NULL.                                    -9999.25:Признак "Нет данных"
WELL.                                       107Мх:Скважина
~Parameter Information Section
~Curve Information Section
DEPTH.M                                          :Глубина
PS.mv                                            :PS       (ПС)
PZ.Ohm*M                                         :PZ    (КС)
RS.Ohm*M                                         :RS (Резистивиметр)
U1.mV                                            :U1
U2.mV                                            :U2
U3.mV                                            :U3
КП.%                                             :Кп
BK.Ohm*M                                         :BK     (БК)
DS.mm                                            :DS  (ДС)
GGK.g/cm3                                        :GGKp
ГК.mcr/h                                         :GK          (ГК)
GZ1.Ohm*M                                        :GZ1   ГЗ1(A0.4M0.1N)
GZ2.Ohm*M                                        :GZ2   ГЗ2(A1.0M0.1N)
GZ3.Ohm*M                                        :GZ3   ГЗ3(A2.0M0.5N)
GZ4.Ohm*M                                        :GZ4   ГЗ4(A4.0M0.5N)
GZ5.Ohm*M                                        :GZ5   ГЗ5(A8.0M0.5N)
GZR.Ohm*M                                        :GZK   ГЗK(N0.5M2.0A)
ИК.Ohm*M                                         :IK
НГК.u.e.                                         :NGK
NNKM.                                            :NNKm  (ННКм)
~ASCII LOG DATA
# ...
202.2       1128.205    323.791     -9999.25    421.831     323.782     413.068     29.224      16.711      117.428     2.422       7.071       -9999.25    -9999.25    119.342     -9999.25    35.89       -9999.25    7.886       1.206       17.077      
202.3       1128.23     323.791     -9999.25    491.503     376.245     449.087     28.78       15.382      117.552     2.432       7.057       -9999.25    -9999.25    119.342     -9999.25    35.89       -9999.25    7.897       1.156       16.852      
202.4       1128.129    323.791     -9999.25    587.1       465.332     529.679     27.514      15.205      117.442     2.442       7.193       -9999.25    -9999.25    119.782     -9999.25    35.89       -9999.25    7.874       1.159       16.612      
202.5       1127.928    323.791     -9999.25    677.496     547.708     601.345     25.928      14.791      117.646     2.393       7.002       -9999.25    -9999.25    119.782     -9999.25    35.89       -9999.25    7.888       1.157       16.258      
202.6       1127.601    323.791     -9999.25    740.571     604.876     652.227     25.291      14.454      117.797     2.423       7.459       -9999.25    -9999.25    119.782     -9999.25    35.89       -9999.25    7.886       1.154       15.968      
202.7       1127.149    324.167     -9999.25    767.797     612.881     656.583     24.527      14.521      118.063     2.433       7.399       -9999.25    -9999.25    120.222     -9999.25    35.89       -9999.25    7.87        1.134       15.938      
202.8       1126.545    326.047     -9999.25    756.2       549.724     575.948     24.049      15.311      118.123     2.44        7.703       -9999.25    -9999.25    120.222     -9999.25    35.89       -9999.25    7.834       1.198       15.914      
202.9       1125.791    330.559     -9999.25    720.414     446.448     444.44      23.576      18.578      118.114     2.415       7.663       -9999.25    -9999.25    120.222     -9999.25    35.89       -9999.25    7.764       1.233       16.678      
203.0       1124.886    335.447     -9999.25    689.07      352.288     325.664     23.387      18.578      118.364     2.4         7.413       -9999.25    -9999.25    120.222     -9999.25    35.89       -9999.25    7.74        1.224       17.443      
203.1       1123.855    345.6       -9999.25    666.672     286.48      245.072     24.259      17.378      117.794     2.425       7.163       -9999.25    -9999.25    120.222     -9999.25    -9999.25    -9999.25    7.658       1.165       17.261      
203.2       1122.673    357.631     -9999.25    648.229     276.114     238.306     27.007      16.827      117.654     2.407       6.862       -9999.25    -9999.25    120.222     -9999.25    -9999.25    -9999.25    7.65        1.179       17.034      
203.3       1121.341    368.159     -9999.25    622.222     306.076     292.657     29.47       17.14       117.696     2.431       7.352       -9999.25    -9999.25    -9999.25    -9999.25    -9999.25    -9999.25    7.644       1.17        16.848      
203.4       1119.883    381.318     -9999.25    563.482     318.985     348.985     30.389      14.894      117.812     2.461       7.411       -9999.25    -9999.25    -9999.25    -9999.25    -9999.25    -9999.25    7.65        1.144       16.673      
203.5       1118.324    398.991     -9999.25    484.499     311.572     391.274     29.612      13.213      118.185     2.419       7.718       -9999.25    -9999.25    -9999.25    -9999.25    -9999.25    -9999.25    7.658       1.085       16.271      
203.6       1116.639    412.528     -9999.25    427.038     301.063     408.546     29.363      12.647      118.058     2.365       7.668       -9999.25    -9999.25    -9999.25    -9999.25    -9999.25    -9999.25    7.661       1.06        15.811      
203.7       1114.854    426.814     -9999.25    411.108     280.551     384.872     29.571      12.274      117.486     2.266       8.087       -9999.25    -9999.25    -9999.25    -9999.25    -9999.25    -9999.25    7.686       1.023       15.322      
203.8       1112.993    445.239     -9999.25    448.835     257.737     333.99      29.453      12.882      117.812     2.317       8.314       -9999.25    -9999.25    -9999.25    -9999.25    -9999.25    -9999.25    7.673       1.011       14.527      
203.9       1111.083    457.646     -9999.25    528.743     259.038     289.657     29.176      14.689      117.557     2.332       8.685       -9999.25    -9999.25    -9999.25    -9999.25    -9999.25    -9999.25    7.692       0.989       14.352      
204.0       1109.121    464.791     -9999.25    591.684     278.086     270.503     28.278      15.311      117.672     2.383       8.785       -9999.25    -9999.25    -9999.25    -9999.25    -9999.25    -9999.25    7.712       1.052       14.907      
204.1       1107.11     470.807     -9999.25    609.237     297.552     281.813     27.601      14.689      117.584     2.326       8.55        -9999.25    -9999.25    -9999.25    -9999.25    -9999.25    -9999.25    7.716       1.096       15.265      
204.2       1105.073    472.687     -9999.25    601.069     321.685     320.163     27.204      15.453      117.271     2.304       8.486       -9999.25    -9999.25    -9999.25    -9999.25    -9999.25    -9999.25    7.779       1.118       15.33       
204.3       1103.087    470.431     -9999.25    568.889     351.936     374.973     27.482      16.711      117.63      2.286       8.504       -9999.25    -9999.25    -9999.25    -9999.25    -9999.25    -9999.25    7.808       1.1         15.333      
204.4       1101.151    465.919     -9999.25    527.609     374.993     420.304     28.141      15.524      117.668     2.326       8.851       -9999.25    -9999.25    -9999.25    -9999.25    -9999.25    -9999.25    7.814       1.075       15.243      
204.5       1099.265    448.623     -9999.25    511.056     378.042     426.889     28.521      13.552      117.468     2.329       8.815       -9999.25    -9999.25    -9999.25    -9999.25    -9999.25    -9999.25    7.843       1.082       15.171      
204.6       1097.405    429.821     -9999.25    532.349     381.817     417.544     29.579      13.836      117.028     2.33        9.036       -9999.25    -9999.25    -9999.25    -9999.25    -9999.25    -9999.25    7.85        1.1         15.078      
204.7       1095.62     409.896     -9999.25    585.347     408.737     425.015     30.412      15.101      117.335     2.289       9.235       -9999.25    -9999.25    -9999.25    -9999.25    -9999.25    -9999.25    7.877       1.108       15.004      
204.8       1093.935    389.214     -9999.25    638.204     442.099     443.013     29.585      15.959      118.017     2.249       9.513       -9999.25    -9999.25    -9999.25    -9999.25    -9999.25    -9999.25    7.986       1.115       14.88       
204.9       1092.326    370.791     -9999.25    667.787     471.951     473.86      27.158      15.996      117.51      2.236       9.305       -9999.25    -9999.25    -9999.25    -9999.25    -9999.25    -9999.25    7.993       1.089       14.755      
205.0       1090.742    365.527     -9999.25    683.438     513.085     543.811     24.952      15.849      117.202     2.244       8.989       -9999.25    -9999.25    -9999.25    -9999.25    -9999.25    -9999.25    8.058       1.124       14.792      
205.1       1089.208    361.767     -9999.25    666.667     544.688     639.46      24.456      14.454      116.994     2.296       8.643       -9999.25    -9999.25    -9999.25    -9999.25    -9999.25    -9999.25    8.135       1.107       14.83       
205.2       1087.725    359.887     -9999.25    599.047     539.274     725.282     24.688      12.972      117.044     2.329       8.683       -9999.25    -9999.25    -9999.25    -9999.25    -9999.25    -9999.25    8.195       1.11        15.134      
205.3       1086.317    358.383     -9999.25    535.787     519.66      768.176     23.893      13.772      117.294     2.362       8.812       -9999.25    -9999.25    -9999.25    -9999.25    -9999.25    -9999.25    8.236       1.084       15.439      
