~Version Information Section
VERS.                                         2.0:CWLS log ASCII Standart – VERSION 2.0
WRAP.                                          NO:One line per depth step
~Well Information Section
STRT.M                                       1.07:Начальная глубина
STOP.M                                     192.17:Конечная глубина
STEP.M                                          0:Шаг квантования по глубине
NULL.                                    -9999.25:Признак "Нет данных"
WELL.                                        151К:Скважина
~Parameter Information Section
~Curve Information Section
DEPTH.M                                          :Глубина
BK.Ohm*M                                         :BK     (БК)
DS.mm                                            :DS  (ДС)
GGK.g/cm3                                        :GGKp
ГК.mcr/h                                         :GK          (ГК)
GZ1.Ohm*M                                        :GZ1   ГЗ1(A0.4M0.1N)
GZ2.Ohm*M                                        :GZ2   ГЗ2(A1.0M0.1N)
GZ3.Ohm*M                                        :GZ3   ГЗ3(A2.0M0.5N)
GZ4.Ohm*M                                        :GZ4   ГЗ4(A4.0M0.5N)
GZ5.Ohm*M                                        :GZ5   ГЗ5(A8.0M0.5N)
GZR.                                             :GZR   ГЗK(N0.5M2.0A)
ИК.Ohm*M                                         :IK
НГК.ue                                           :NGK     (НГК)
NNKM.                                            :NNKm  (ННКм)
PS.mv                                            :PS       (ПС)
PZ.Ohm*M                                         :PZ    (КС)
RS.Ohm*M                                         :RS (Резистивиметр)
W.%                                              :W
~ASCII LOG DATA
# ...
57.27       26.765      143.93      2.098       5.497       -9999.25    -9999.25    -9999.25    -9999.25    -9999.25    -9999.25    30.742      0.904       1.251       446.222     41.901      1.127       30.403      
57.3        -9999.25    -9999.25    -9999.25    -9999.25    37.654      36.169      35.686      26.373      42.26       27.094      -9999.25    -9999.25    -9999.25    -9999.25    -9999.25    -9999.25    -9999.25    
57.37       25.708      144.645     2.088       5.481       -9999.25    -9999.25    -9999.25    -9999.25    -9999.25    -9999.25    30.81       0.903       1.255       445.49      42.102      1.125       30.89       
57.4        -9999.25    -9999.25    -9999.25    -9999.25    37.312      38.074      37.375      27.987      43.707      28.436      -9999.25    -9999.25    -9999.25    -9999.25    -9999.25    -9999.25    -9999.25    
57.47       26.197      146.113     2.078       5.45        -9999.25    -9999.25    -9999.25    -9999.25    -9999.25    -9999.25    30.772      0.905       1.262       444.459     42.28       1.123       30.856      
57.5        -9999.25    -9999.25    -9999.25    -9999.25    38.036      41.039      39.273      29.986      45.313      29.958      -9999.25    -9999.25    -9999.25    -9999.25    -9999.25    -9999.25    -9999.25    
57.57       27.627      146.072     2.069       5.42        -9999.25    -9999.25    -9999.25    -9999.25    -9999.25    -9999.25    30.672      0.908       1.271       443.824     42.561      1.123       30.577      
57.6        -9999.25    -9999.25    -9999.25    -9999.25    40.642      44.624      41.401      31.975      46.807      30.945      -9999.25    -9999.25    -9999.25    -9999.25    -9999.25    -9999.25    -9999.25    
57.67       29.382      145.961     2.061       5.467       -9999.25    -9999.25    -9999.25    -9999.25    -9999.25    -9999.25    30.538      0.914       1.281       443.899     42.958      1.123       30.28       
57.7        -9999.25    -9999.25    -9999.25    -9999.25    43.888      47.37       43.21       33.606      47.793      31.422      -9999.25    -9999.25    -9999.25    -9999.25    -9999.25    -9999.25    -9999.25    
57.77       31.989      147.207     2.056       5.517       -9999.25    -9999.25    -9999.25    -9999.25    -9999.25    -9999.25    30.463      0.932       1.301       444.457     43.215      1.122       30.046      
57.8        -9999.25    -9999.25    -9999.25    -9999.25    46.18       49.197      44.414      34.618      48.01       31.242      -9999.25    -9999.25    -9999.25    -9999.25    -9999.25    -9999.25    -9999.25    
57.87       34.525      147.689     2.052       5.568       -9999.25    -9999.25    -9999.25    -9999.25    -9999.25    -9999.25    30.366      0.952       1.325       445.148     42.928      1.121       29.865      
57.9        -9999.25    -9999.25    -9999.25    -9999.25    49.351      51.282      45.101      34.726      48.116      30.409      -9999.25    -9999.25    -9999.25    -9999.25    -9999.25    -9999.25    -9999.25    
57.97       35.436      147.725     2.05        5.431       -9999.25    -9999.25    -9999.25    -9999.25    -9999.25    -9999.25    30.263      0.964       1.344       445.859     41.972      1.122       29.874      
58.0        -9999.25    -9999.25    -9999.25    -9999.25    53.61       52.4        45.343      34.109      48.193      28.873      -9999.25    -9999.25    -9999.25    -9999.25    -9999.25    -9999.25    -9999.25    
58.07       35.039      148.209     2.052       5.238       -9999.25    -9999.25    -9999.25    -9999.25    -9999.25    -9999.25    30.252      0.954       1.332       447.056     40.995      1.124       29.969      
58.1        -9999.25    -9999.25    -9999.25    -9999.25    54.454      50.412      45.128      33.339      47.897      27.516      -9999.25    -9999.25    -9999.25    -9999.25    -9999.25    -9999.25    -9999.25    
58.17       35.616      150.272     2.056       5.045       -9999.25    -9999.25    -9999.25    -9999.25    -9999.25    -9999.25    30.242      0.939       1.307       448.5       40.569      1.127       30.013      
58.2        -9999.25    -9999.25    -9999.25    -9999.25    50.902      45.523      44.44       32.921      47.058      26.491      -9999.25    -9999.25    -9999.25    -9999.25    -9999.25    -9999.25    -9999.25    
58.27       35.264      147.665     2.064       5.309       -9999.25    -9999.25    -9999.25    -9999.25    -9999.25    -9999.25    30.153      0.925       1.281       450.101     40.314      1.127       30.395      
58.3        -9999.25    -9999.25    -9999.25    -9999.25    45.332      40.958      43.332      33.74       45.724      25.762      -9999.25    -9999.25    -9999.25    -9999.25    -9999.25    -9999.25    -9999.25    
58.37       32.039      146.121     2.074       5.623       -9999.25    -9999.25    -9999.25    -9999.25    -9999.25    -9999.25    29.914      0.911       1.262       451.741     39.397      1.125       31.277      
58.4        -9999.25    -9999.25    -9999.25    -9999.25    42.709      41.151      42.482      35.737      44.084      25.803      -9999.25    -9999.25    -9999.25    -9999.25    -9999.25    -9999.25    -9999.25    
58.47       27.163      146.679     2.087       5.938       -9999.25    -9999.25    -9999.25    -9999.25    -9999.25    -9999.25    29.226      0.897       1.247       453.307     37.337      1.125       32.397      
58.5        -9999.25    -9999.25    -9999.25    -9999.25    44.066      45.266      42.445      38.034      42.31       25.977      -9999.25    -9999.25    -9999.25    -9999.25    -9999.25    -9999.25    -9999.25    
58.57       24.778      149.858     2.102       5.901       -9999.25    -9999.25    -9999.25    -9999.25    -9999.25    -9999.25    28.432      0.884       1.258       454.424     35.0        1.127       32.886      
58.6        -9999.25    -9999.25    -9999.25    -9999.25    44.9        48.103      42.964      40.658      40.602      26.057      -9999.25    -9999.25    -9999.25    -9999.25    -9999.25    -9999.25    -9999.25    
58.67       26.78       152.153     2.116       5.86        -9999.25    -9999.25    -9999.25    -9999.25    -9999.25    -9999.25    27.614      0.873       1.297       454.509     33.227      1.128       32.748      
58.7        -9999.25    -9999.25    -9999.25    -9999.25    42.508      46.665      43.046      42.695      38.992      25.771      -9999.25    -9999.25    -9999.25    -9999.25    -9999.25    -9999.25    -9999.25    
58.77       29.765      152.787     2.129       5.819       -9999.25    -9999.25    -9999.25    -9999.25    -9999.25    -9999.25    26.782      0.862       1.344       454.754     32.066      1.128       32.046      
58.8        -9999.25    -9999.25    -9999.25    -9999.25    40.492      44.635      42.159      42.869      37.578      25.036      -9999.25    -9999.25    -9999.25    -9999.25    -9999.25    -9999.25    -9999.25    
58.87       29.58       154.082     2.138       6.014       -9999.25    -9999.25    -9999.25    -9999.25    -9999.25    -9999.25    26.037      0.846       1.336       456.273     31.084      1.129       31.586      
58.9        -9999.25    -9999.25    -9999.25    -9999.25    40.446      44.029      40.098      41.422      36.132      24.113      -9999.25    -9999.25    -9999.25    -9999.25    -9999.25    -9999.25    -9999.25    
58.97       27.151      154.283     2.142       6.278       -9999.25    -9999.25    -9999.25    -9999.25    -9999.25    -9999.25    25.213      0.814       1.283       459.594     29.51       1.129       31.436      
59.0        -9999.25    -9999.25    -9999.25    -9999.25    39.569      42.354      37.627      38.661      34.515      22.895      -9999.25    -9999.25    -9999.25    -9999.25    -9999.25    -9999.25    -9999.25    
59.07       25.02       157.37      2.141       6.542       -9999.25    -9999.25    -9999.25    -9999.25    -9999.25    -9999.25    24.396      0.779       1.22        463.205     27.691      1.132       31.747      
