~Version Information Section
VERS.                                         2.0:CWLS log ASCII Standart – VERSION 2.0
WRAP.                                          NO:One line per depth step
~Well Information Section
STRT.M                                       1.07:Начальная глубина
STOP.M                                     192.17:Конечная глубина
STEP.M                                          0:Шаг квантования по глубине
NULL.                                    -9999.25:Признак "Нет данных"
WELL.                                        151К:Скважина
~Parameter Information Section
~Curve Information Section
DEPTH.M                                          :Глубина
BK.Ohm*M                                         :BK     (БК)
DS.mm                                            :DS  (ДС)
GGK.g/cm3                                        :GGKp
ГК.mcr/h                                         :GK          (ГК)
GZ1.Ohm*M                                        :GZ1   ГЗ1(A0.4M0.1N)
GZ2.Ohm*M                                        :GZ2   ГЗ2(A1.0M0.1N)
GZ3.Ohm*M                                        :GZ3   ГЗ3(A2.0M0.5N)
GZ4.Ohm*M                                        :GZ4   ГЗ4(A4.0M0.5N)
GZ5.Ohm*M                                        :GZ5   ГЗ5(A8.0M0.5N)
GZR.                                             :GZR   ГЗK(N0.5M2.0A)
ИК.Ohm*M                                         :IK
НГК.ue                                           :NGK     (НГК)
NNKM.                                            :NNKm  (ННКм)
PS.mv                                            :PS       (ПС)
PZ.Ohm*M                                         :PZ    (КС)
RS.Ohm*M                                         :RS (Резистивиметр)
W.%                                              :W
~ASCII LOG DATA
# ...
157.17      146.073     144.723     2.039       5.501       -9999.25    -9999.25    -9999.25    -9999.25    -9999.25    -9999.25    74.054      1.25        1.503       418.23      211.468     1.133       21.786      
157.2       -9999.25    -9999.25    -9999.25    -9999.25    163.009     234.087     154.257     31.925      48.494      226.16      -9999.25    -9999.25    -9999.25    -9999.25    -9999.25    -9999.25    -9999.25    
157.27      143.004     144.685     2.043       5.323       -9999.25    -9999.25    -9999.25    -9999.25    -9999.25    -9999.25    75.177      1.26        1.472       420.341     209.19      1.133       22.097      
157.3       -9999.25    -9999.25    -9999.25    -9999.25    163.849     237.121     166.555     31.557      47.635      220.423     -9999.25    -9999.25    -9999.25    -9999.25    -9999.25    -9999.25    -9999.25    
157.37      138.733     144.619     2.048       5.14        -9999.25    -9999.25    -9999.25    -9999.25    -9999.25    -9999.25    76.275      1.274       1.451       421.405     205.59      1.134       22.38       
157.4       -9999.25    -9999.25    -9999.25    -9999.25    162.301     236.82      175.861     31.35       46.814      218.014     -9999.25    -9999.25    -9999.25    -9999.25    -9999.25    -9999.25    -9999.25    
157.47      134.964     144.579     2.053       5.044       -9999.25    -9999.25    -9999.25    -9999.25    -9999.25    -9999.25    77.681      1.284       1.458       421.8       201.512     1.14        22.634      
157.5       -9999.25    -9999.25    -9999.25    -9999.25    160.406     236.872     184.081     31.598      45.908      219.193     -9999.25    -9999.25    -9999.25    -9999.25    -9999.25    -9999.25    -9999.25    
157.57      130.747     144.588     2.058       5.226       -9999.25    -9999.25    -9999.25    -9999.25    -9999.25    -9999.25    79.041      1.288       1.474       421.931     198.246     1.14        22.742      
157.6       -9999.25    -9999.25    -9999.25    -9999.25    153.019     234.556     192.151     32.341      44.806      221.494     -9999.25    -9999.25    -9999.25    -9999.25    -9999.25    -9999.25    -9999.25    
157.67      123.669     144.593     2.062       5.409       -9999.25    -9999.25    -9999.25    -9999.25    -9999.25    -9999.25    79.53       1.288       1.481       421.477     195.536     1.136       22.695      
157.7       -9999.25    -9999.25    -9999.25    -9999.25    141.526     230.683     198.155     33.309      43.885      222.532     -9999.25    -9999.25    -9999.25    -9999.25    -9999.25    -9999.25    -9999.25    
157.77      113.485     144.681     2.064       5.411       -9999.25    -9999.25    -9999.25    -9999.25    -9999.25    -9999.25    79.503      1.28        1.478       419.787     192.242     1.134       22.594      
157.8       -9999.25    -9999.25    -9999.25    -9999.25    139.099     235.076     201.789     34.122      42.937      220.828     -9999.25    -9999.25    -9999.25    -9999.25    -9999.25    -9999.25    -9999.25    
157.87      98.259      144.752     2.067       5.167       -9999.25    -9999.25    -9999.25    -9999.25    -9999.25    -9999.25    79.592      1.266       1.475       417.478     189.255     1.135       22.693      
157.9       -9999.25    -9999.25    -9999.25    -9999.25    142.631     239.466     203.52      34.429      42.261      216.66      -9999.25    -9999.25    -9999.25    -9999.25    -9999.25    -9999.25    -9999.25    
157.97      99.068      144.827     2.07        4.923       -9999.25    -9999.25    -9999.25    -9999.25    -9999.25    -9999.25    78.44       1.235       1.481       416.884     188.007     1.136       22.933      
158.0       -9999.25    -9999.25    -9999.25    -9999.25    140.834     232.076     203.38      34.17       41.814      211.83      -9999.25    -9999.25    -9999.25    -9999.25    -9999.25    -9999.25    -9999.25    
158.07      122.76      144.86      2.074       4.9         -9999.25    -9999.25    -9999.25    -9999.25    -9999.25    -9999.25    76.894      1.197       1.491       419.118     188.183     1.135       23.151      
158.1       -9999.25    -9999.25    -9999.25    -9999.25    138.343     222.934     201.421     33.573      41.382      206.558     -9999.25    -9999.25    -9999.25    -9999.25    -9999.25    -9999.25    -9999.25    
158.17      131.838     145.196     2.077       5.012       -9999.25    -9999.25    -9999.25    -9999.25    -9999.25    -9999.25    76.994      1.16        1.496       423.338     187.748     1.135       23.184      
158.2       -9999.25    -9999.25    -9999.25    -9999.25    141.309     218.285     199.349     33.182      40.901      203.902     -9999.25    -9999.25    -9999.25    -9999.25    -9999.25    -9999.25    -9999.25    
158.27      120.688     145.448     2.08        5.147       -9999.25    -9999.25    -9999.25    -9999.25    -9999.25    -9999.25    77.335      1.135       1.494       427.155     185.953     1.14        23.107      
158.3       -9999.25    -9999.25    -9999.25    -9999.25    144.072     214.253     199.631     33.395      40.071      205.365     -9999.25    -9999.25    -9999.25    -9999.25    -9999.25    -9999.25    -9999.25    
158.37      114.609     145.268     2.08        5.423       -9999.25    -9999.25    -9999.25    -9999.25    -9999.25    -9999.25    77.085      1.124       1.488       428.161     183.989     1.138       23.193      
158.4       -9999.25    -9999.25    -9999.25    -9999.25    138.473     208.353     202.006     34.121      39.099      206.908     -9999.25    -9999.25    -9999.25    -9999.25    -9999.25    -9999.25    -9999.25    
158.47      115.254     144.998     2.078       5.676       -9999.25    -9999.25    -9999.25    -9999.25    -9999.25    -9999.25    77.042      1.127       1.468       426.612     181.145     1.135       23.905      
158.5       -9999.25    -9999.25    -9999.25    -9999.25    132.466     206.266     204.157     35.102      38.469      208.577     -9999.25    -9999.25    -9999.25    -9999.25    -9999.25    -9999.25    -9999.25    
158.57      109.256     144.972     2.073       5.816       -9999.25    -9999.25    -9999.25    -9999.25    -9999.25    -9999.25    77.446      1.153       1.445       423.885     177.502     1.14        24.981      
158.6       -9999.25    -9999.25    -9999.25    -9999.25    135.746     209.686     204.678     36.394      37.976      212.386     -9999.25    -9999.25    -9999.25    -9999.25    -9999.25    -9999.25    -9999.25    
158.67      96.078      145.033     2.066       5.633       -9999.25    -9999.25    -9999.25    -9999.25    -9999.25    -9999.25    77.604      1.175       1.426       421.759     175.743     1.142       25.737      
158.7       -9999.25    -9999.25    -9999.25    -9999.25    135.436     204.267     204.405     38.165      37.572      214.868     -9999.25    -9999.25    -9999.25    -9999.25    -9999.25    -9999.25    -9999.25    
158.77      97.617      145.064     2.058       5.45        -9999.25    -9999.25    -9999.25    -9999.25    -9999.25    -9999.25    77.777      1.17        1.429       420.707     177.049     1.138       25.854      
158.8       -9999.25    -9999.25    -9999.25    -9999.25    123.361     192.186     203.509     41.403      37.338      213.587     -9999.25    -9999.25    -9999.25    -9999.25    -9999.25    -9999.25    -9999.25    
158.87      109.915     145.074     2.052       5.241       -9999.25    -9999.25    -9999.25    -9999.25    -9999.25    -9999.25    77.843      1.129       1.441       419.93      179.827     1.136       25.495      
158.9       -9999.25    -9999.25    -9999.25    -9999.25    118.116     188.568     200.929     49.078      37.013      211.339     -9999.25    -9999.25    -9999.25    -9999.25    -9999.25    -9999.25    -9999.25    
158.97      99.42       145.056     2.048       5.099       -9999.25    -9999.25    -9999.25    -9999.25    -9999.25    -9999.25    78.305      1.091       1.436       418.749     182.3       1.136       24.703      
