~Version Information Section
VERS.                                         2.0:CWLS log ASCII Standart – VERSION 2.0
WRAP.                                          NO:One line per depth step
~Well Information Section
STRT.M                                        0.6:Начальная глубина
STOP.M                                      202.6:Конечная глубина
STEP.M                                          0:Шаг квантования по глубине
NULL.                                    -9999.25:Признак "Нет данных"
WELL.                                       130Мх:Скважина
~Parameter Information Section
~Curve Information Section
DEPTH.M                                          :Глубина
БК.Омм                                           :BK     (БК)
DСР.мм                                           :DS  (ДС)
W.g/cm3                                          :GGKp
ГК.гамма                                         :GK          (ГК)
А0.4М0.1N.Омм.ohmm                               :GZ1   ГЗ1(A0.4M0.1N)
А1.0М0.1N.Омм.ohmm                               :GZ2   ГЗ2(A1.0M0.1N)
А2.0М0.5N.Омм.ohmm                               :GZ3   ГЗ3(A2.0M0.5N)
А4.0М0.5N.Oмм.ohmm                               :GZ4   ГЗ4(A4.0M0.5N)
А8.0М1.0N.Омм.ohmm                               :GZ5   ГЗ5(A8.0M0.5N)
N0.5M2.0A.Омм.ohmm                               :GZK   ГЗK(N0.5M2.0A)
ИК.мСм/м                                         :IK
НГК.усл.ед                                       :NNKb  (ННКб)
ННКМ.усл.ед                                      :NNKm  (ННКм)
ПС.мВ                                            :PS       (ПС)
КС.Омм                                           :PZ    (КС)
R.Омм                                            :RS (Резистивиметр)
U1.мВ                                            :U1
U2.mV                                            :U2
U3.мВ                                            :U3
КП.%                                             :Кп
~ASCII LOG DATA
# ...
144.6       34.884      136.684     2.244       6.342       29.175      28.605      25.431      23.489      13.903      25.334      20.589      2.271       1.576       222.57      67.064      1.08        286.703     267.815     253.638     23.039      
144.7       32.499      137.211     2.252       6.569       28.418      27.333      24.795      22.551      13.844      25.334      20.356      2.222       1.559       223.768     67.016      1.08        313.382     294.315     272.56      20.412      
144.8       32.837      137.051     2.274       6.871       28.418      27.333      24.795      22.551      13.815      25.334      20.229      2.257       1.556       224.666     67.0        1.08        349.983     320.545     275.557     20.687      
144.9       36.411      137.099     2.3         6.984       28.418      27.333      24.795      22.551      13.8        25.43       20.216      2.361       1.555       225.224     67.0        1.08        397.841     335.697     275.656     26.136      
145.0       37.766      136.109     2.324       6.642       28.745      27.358      25.881      23.012      13.8        26.178      20.339      2.565       1.559       225.506     67.0        1.08        408.259     340.251     270.583     30.986      
145.1       40.826      135.431     2.345       5.944       31.083      29.299      29.306      24.616      13.8        27.227      20.562      2.73        1.62        225.598     67.0        1.08        397.11      343.199     293.656     34.469      
145.2       52.29       135.546     2.353       5.395       34.707      31.883      33.769      26.343      13.904      27.625      20.864      2.959       1.737       225.598     67.0        1.08        385.963     355.885     352.77      33.153      
145.3       84.352      135.931     2.343       5.171       37.124      32.843      36.911      26.996      13.904      27.625      21.045      3.095       1.869       225.607     67.0        1.08        380.213     380.738     415.015     30.985      
145.4       109.867     136.458     2.325       5.058       38.238      33.136      38.004      27.063      13.904      27.514      21.003      3.202       1.98        225.639     67.0        1.08        376.572     416.404     459.355     29.612      
145.5       96.051      136.761     2.298       5.243       38.549      33.136      38.078      27.063      13.873      26.75       20.752      3.075       1.914       225.639     66.976      1.08        443.412     456.719     493.891     28.653      
145.6       50.259      137.483     2.27        5.609       38.549      33.105      38.078      26.531      13.382      24.875      20.3        2.684       1.785       225.639     66.904      1.08        510.224     491.963     493.075     28.528      
145.7       38.959      137.804     2.248       5.852       38.238      32.216      36.845      24.852      12.52       22.325      19.685      2.44        1.654       225.668     66.76       1.08        577.022     504.007     444.417     30.75       
145.8       34.205      137.464     2.236       6.029       36.588      29.46       33.638      22.284      11.457      20.13       19.182      2.076       1.523       225.822     66.496      1.08        632.563     491.601     387.663     33.252      
145.9       34.514      137.102     2.233       6.033       33.948      27.103      29.959      20.091      10.795      18.833      18.844      2.126       1.511       226.16      66.064      1.08        646.774     462.429     344.666     34.716      
146.0       37.129      137.279     2.241       6.038       32.152      26.6        27.319      18.989      10.665      18.218      18.672      2.253       1.529       226.691     65.488      1.08        606.693     425.266     301.678     34.023      
146.1       40.127      137.593     2.251       6.189       31.123      26.556      26.159      18.546      10.654      18.033      18.584      2.309       1.548       227.428     64.784      1.08        577.293     390.49      259.869     32.165      
146.2       42.881      136.899     2.264       6.307       30.206      26.556      25.932      18.432      10.617      18.033      18.48       2.387       1.568       228.327     63.968      1.08        547.898     378.569     258.967     31.122      
146.3       43.897      137.739     2.272       6.125       29.343      26.729      25.932      18.432      10.617      18.033      18.268      2.394       1.572       229.337     63.128      1.08        518.198     394.9       302.163     30.825      
146.4       40.188      137.45      2.279       5.779       28.91       27.26       25.932      18.57       10.801      18.183      17.952      2.322       1.573       230.421     62.344      1.08        519.476     439.547     364.335     31.39       
146.5       31.666      138.697     2.285       5.665       29.196      27.789      26.351      19.023      11.255      18.835      17.642      2.248       1.552       231.554     61.616      1.08        544.516     463.252     388.513     30.569      
146.6       32.041      138.5       2.293       5.88        29.511      28.403      27.495      19.753      12.058      19.982      17.39       2.137       1.52        232.73      60.96       1.08        589.281     478.756     388.641     29.166      
146.7       34.751      136.408     2.301       5.902       29.585      29.28       28.809      20.734      12.692      21.22       17.26       2.2         1.535       233.969     60.384      1.08        625.987     481.71      371.71      28.531      
146.8       36.399      136.76      2.308       5.669       29.376      29.667      29.799      22.087      13.185      22.532      17.293      2.412       1.566       235.291     59.824      1.08        589.432     463.029     368.577     29.428      
146.9       40.74       136.839     2.31        5.469       28.884      29.623      30.307      23.591      13.652      23.814      17.406      2.464       1.635       236.718     59.24       1.08        531.251     421.99      395.985     31.473      
147.0       49.331      136.575     2.309       5.329       28.811      29.422      30.414      24.673      13.963      24.612      17.443      2.496       1.712       238.263     58.632      1.08        506.386     450.5       463.33      32.621      
147.1       49.117      138.325     2.306       5.311       29.002      28.953      30.414      25.323      14.207      25.021      17.386      2.439       1.707       239.932     58.0        1.08        642.397     592.861     549.636     32.13       
147.2       42.237      142.69      2.303       5.249       28.983      28.116      30.205      25.732      14.367      25.306      17.216      2.279       1.687       241.693     57.368      1.08        813.63      777.209     624.152     30.587      
147.3       34.201      138.484     2.303       5.395       28.729      26.389      29.653      25.963      14.373      25.507      16.969      2.299       1.636       243.496     56.784      1.08        1005.674    881.635     632.215     29.538      
147.4       29.911      139.807     2.3         5.544       27.931      24.387      29.085      26.07       14.373      25.66       16.723      2.415       1.579       245.209     56.272      1.08        1159.725    933.017     573.655     30.085      
147.5       31.257      139.634     2.296       5.582       27.175      23.41       28.709      25.902      14.214      25.757      16.556      2.365       1.563       246.616     55.848      1.08        1241.312    917.335     501.592     30.332      
147.6       31.899      139.162     2.291       5.788       26.83       23.093      28.381      25.611      14.031      25.89       16.536      2.249       1.556       247.427     55.512      1.08        1112.764    787.615     427.547     29.969      
147.7       33.706      138.012     2.287       5.888       26.26       22.46       27.953      25.318      13.979      26.043      16.571      2.235       1.538       247.499     55.24       1.08        909.72      622.143     385.805     29.197      
