~Version Information Section
VERS.                                         2.0:CWLS log ASCII Standart – VERSION 2.0
WRAP.                                          NO:One line per depth step
~Well Information Section
STRT.M                                        0.0:Начальная глубина
STOP.M                                      180.0:Конечная глубина
STEP.M                                          0:Шаг квантования по глубине
NULL.                                    -9999.25:Признак "Нет данных"
WELL.                                       120Мх:Скважина
~Parameter Information Section
~Curve Information Section
DEPTH.M                                          :Глубина
BK.Ohm*M                                         :BK     (БК)
DS.mm                                            :DS  (ДС)
GGK.g/cm3                                        :GGKp
ГК.mcr/h                                         :GK          (ГК)
GZ1.Ohm*M                                        :GZ1   ГЗ1(A0.4M0.1N)
GZ2.Ohm*M                                        :GZ2   ГЗ2(A1.0M0.1N)
GZ3.Ohm*M                                        :GZ3   ГЗ3(A2.0M0.5N)
GZ4.Ohm*M                                        :GZ4   ГЗ4(A4.0M0.5N)
GZ5.Ohm*M                                        :GZ5   ГЗ5(A8.0M0.5N)
GZR.Ohm*M                                        :GZK   ГЗK(N0.5M2.0A)
ИК.Ohm*M                                         :IK
НГК.u.e.                                         :NGK
NNKM.                                            :NNKm  (ННКм)
PS.mv                                            :PS       (ПС)
PZ.Ohm*M                                         :PZ    (КС)
RS.Ohm*M                                         :RS (Резистивиметр)
U1.mV                                            :U1
U2.mV                                            :U2
U3.mV                                            :U3
КП.%                                             :Кп
~ASCII LOG DATA
# ...
160.0       372.392     124.285     2.553       3.053       397.667     272.125     202.737     204.334     217.225     217.899     15.998      2.428       3.594       469.884     459.652     1.44        464.168     401.277     470.516     6.087       
160.2       347.536     124.136     2.572       3.326       393.0       274.125     203.404     207.667     222.558     219.899     15.94       2.464       3.577       471.804     463.412     1.438       588.85      338.379     240.842     7.473       
160.4       351.56      124.24      2.522       3.309       382.333     294.793     203.404     207.667     233.225     222.566     15.87       2.371       3.489       473.964     461.156     1.425       977.757     567.94      354.306     8.976       
160.6       257.632     123.865     2.498       3.338       375.667     297.458     202.071     207.667     232.558     224.566     15.826      2.172       3.331       476.124     457.772     1.408       1000.397    645.136     446.954     8.026       
160.8       243.781     123.783     2.419       3.153       365.0       290.792     196.737     207.667     215.225     222.566     15.745      2.04        3.292       478.486     457.522     1.398       964.426     704.809     553.708     10.11       
161.0       211.349     124.152     2.488       3.229       349.001     304.791     195.404     207.667     227.225     209.233     15.665      1.988       3.335       480.924     459.778     1.381       1037.747    846.417     729.083     9.813       
161.2       244.343     124.132     2.535       3.561       330.334     325.458     204.07      207.667     234.559     196.566     15.586      2.067       3.394       483.526     456.519     1.353       884.431     720.743     730.906     10.266      
161.4       357.273     124.167     2.51        3.526       337.0       297.457     218.737     209.0       229.892     209.233     15.541      2.192       3.472       485.926     448.874     1.343       695.532     644.589     602.997     7.427       
161.6       322.849     124.305     2.37        3.222       365.001     254.124     212.071     215.001     250.559     226.566     15.484      2.233       3.302       488.124     442.857     1.355       650.358     551.801     538.602     11.502      
161.8       333.426     124.078     2.392       2.994       373.667     230.792     206.071     222.334     275.225     239.899     15.376      2.172       3.373       490.524     450.503     1.385       720.169     592.861     584.649     10.898      
162.0       351.56      124.247     2.44        3.03        367.0       208.792     219.403     228.333     247.226     265.898     15.246      1.998       3.268       493.164     452.759     1.399       831.055     851.592     732.496     15.103      
162.2       368.129     124.459     2.318       3.474       345.668     192.125     284.069     244.333     215.226     264.567     15.037      1.874       3.068       495.804     445.615     1.4         892.649     1024.069    909.084     15.962      
162.4       141.254     124.049     2.295       3.216       313.666     180.791     320.071     253.0       193.891     220.565     14.895      1.7         3.048       498.608     429.196     -9999.25    703.745     802.305     753.025     15.087      
162.6       295.121     124.077     2.566       3.109       290.333     161.458     330.737     210.332     183.225     188.565     14.648      1.9         3.264       501.286     439.349     -9999.25    609.293     683.21      547.693     11.445      
162.8       467.735     124.046     2.564       3.193       273.667     141.458     300.071     172.334     179.892     174.566     14.408      2.235       3.54        504.166     481.711     -9999.25    601.079     687.321     584.649     7.858       
163.0       467.735     124.23      2.51        3.084       249.667     122.792     230.072     161.667     177.225     167.899     14.085      2.399       3.635       506.806     493.116     -9999.25    486.09      580.543     638.036     6.916       
163.2       407.38      124.265     2.561       3.177       231.001     116.125     180.072     159.0       173.225     157.899     13.772      2.321       3.406       509.004     482.213     -9999.25    506.624     465.556     371.099     8.777       
163.4       309.03      124.173     2.595       3.318       211.0       116.125     153.403     155.0       171.225     149.899     13.252      2.163       3.394       511.126     465.292     -9999.25    486.092     428.599     376.999     10.396      
163.6       234.423     123.962     2.423       3.481       203.667     118.125     140.071     149.0       169.225     147.899     12.651      2.215       3.435       512.489     431.452     -9999.25    543.583     481.983     218.369     8.158       
163.8       194.984     124.146     2.344       3.862       197.667     120.792     134.737     145.667     167.225     153.232     11.943      2.076       3.026       511.971     393.977     -9999.25    576.441     539.478     428.428     13.499      
164.0       46.774      124.118     2.348       4.218       194.333     122.125     129.404     145.667     167.225     164.565     10.887      1.699       2.706       509.129     364.901     -9999.25    506.624     527.156     518.943     17.298      
164.2       10.715      124.155     2.191       4.445       193.0       123.458     126.071     145.667     167.225     174.565     9.753       1.482       2.592       504.127     344.221     -9999.25    502.521     486.095     494.307     21.902      
164.4       7.762       123.878     2.153       4.932       193.0       124.125     124.071     145.667     167.225     183.232     8.495       1.323       2.468       497.408     323.665     -9999.25    576.439     551.799     514.839     28.684      
164.6       6.166       123.71      2.259       5.222       191.0       124.792     121.404     145.667     167.892     185.899     7.43        1.262       2.473       489.766     314.892     -9999.25    576.438     605.182     539.477     26.085      
164.8       12.882      123.254     2.651       5.408       189.667     126.125     121.404     145.667     169.225     185.899     6.894       1.303       2.602       482.403     314.391     -9999.25    617.505     658.572     605.185     18.487      
165.0       4.677       123.57      2.621       5.699       193.0       128.125     122.071     146.334     171.225     186.566     6.466       1.438       2.605       476.604     313.263     -9999.25    592.864     629.825     596.972     15.844      
165.2       9.333       123.174     2.323       7.055       201.0       132.792     124.737     149.0       174.558     189.899     5.708       1.383       2.347       472.438     307.372     -9999.25    609.295     633.933     633.934     20.368      
165.4       7.762       123.424     2.222       7.274       207.0       136.125     128.737     151.0       176.558     195.233     4.639       1.198       2.006       471.363     300.604     -9999.25    654.465     656.67      629.825     30.898      
165.6       6.166       123.307     2.363       6.934       209.667     137.458     132.737     151.667     178.558     199.899     4.43        1.052       2.018       472.246     296.092     -9999.25    609.292     563.365     658.571     33.732      
165.8       6.166       123.575     2.504       7.188       211.0       139.458     137.404     153.0       179.892     199.899     4.974       1.045       2.022       474.204     295.716     -9999.25    629.824     581.449     622.299     30.899      
166.0       8.511       123.855     2.33        7.226       211.0       140.125     140.737     153.667     183.892     199.899     5.372       1.083       2.02        477.286     297.095     -9999.25    686.81      607.346     563.636     29.796      
166.2       8.128       123.711     2.335       6.698       211.0       140.125     141.404     154.334     188.558     199.899     5.326       1.125       1.977       480.924     300.479     -9999.25    715.551     656.793     682.882     30.984      
