~Version Information Section
VERS.                                         2.0:CWLS log ASCII Standart – VERSION 2.0
WRAP.                                          NO:One line per depth step
~Well Information Section
STRT.M                                       1.07:Начальная глубина
STOP.M                                     192.17:Конечная глубина
STEP.M                                          0:Шаг квантования по глубине
NULL.                                    -9999.25:Признак "Нет данных"
WELL.                                        151К:Скважина
~Parameter Information Section
~Curve Information Section
DEPTH.M                                          :Глубина
BK.Ohm*M                                         :BK     (БК)
DS.mm                                            :DS  (ДС)
GGK.g/cm3                                        :GGKp
ГК.mcr/h                                         :GK          (ГК)
GZ1.Ohm*M                                        :GZ1   ГЗ1(A0.4M0.1N)
GZ2.Ohm*M                                        :GZ2   ГЗ2(A1.0M0.1N)
GZ3.Ohm*M                                        :GZ3   ГЗ3(A2.0M0.5N)
GZ4.Ohm*M                                        :GZ4   ГЗ4(A4.0M0.5N)
GZ5.Ohm*M                                        :GZ5   ГЗ5(A8.0M0.5N)
GZR.                                             :GZR   ГЗK(N0.5M2.0A)
ИК.Ohm*M                                         :IK
НГК.ue                                           :NGK     (НГК)
NNKM.                                            :NNKm  (ННКм)
PS.mv                                            :PS       (ПС)
PZ.Ohm*M                                         :PZ    (КС)
RS.Ohm*M                                         :RS (Резистивиметр)
W.%                                              :W
~ASCII LOG DATA
# ...
27.67       0.226       226.802     1.534       2.295       -9999.25    -9999.25    -9999.25    -9999.25    -9999.25    -9999.25    -68.72      0.682       0.692       499.125     0.047       1.158       49.475      
27.7        -9999.25    -9999.25    -9999.25    -9999.25    0.51        0.022       0.211       -0.006      0.523       -0.028      -9999.25    -9999.25    -9999.25    -9999.25    -9999.25    -9999.25    -9999.25    
27.77       0.172       226.755     1.553       2.354       -9999.25    -9999.25    -9999.25    -9999.25    -9999.25    -9999.25    -68.521     0.661       0.66        499.824     0.047       1.157       54.135      
27.8        -9999.25    -9999.25    -9999.25    -9999.25    0.513       0.033       0.2         -0.006      0.434       -0.033      -9999.25    -9999.25    -9999.25    -9999.25    -9999.25    -9999.25    -9999.25    
27.87       0.117       226.775     1.589       2.698       -9999.25    -9999.25    -9999.25    -9999.25    -9999.25    -9999.25    -68.307     0.637       0.647       498.866     0.05        1.158       56.691      
27.9        -9999.25    -9999.25    -9999.25    -9999.25    0.527       0.022       0.211       0.0         0.234       -0.033      -9999.25    -9999.25    -9999.25    -9999.25    -9999.25    -9999.25    -9999.25    
27.97       0.207       226.755     1.641       3.043       -9999.25    -9999.25    -9999.25    -9999.25    -9999.25    -9999.25    -68.606     0.627       0.655       496.582     0.051       1.159       57.853      
28.0        -9999.25    -9999.25    -9999.25    -9999.25    0.534       0.014       0.217       0.0         -0.017      -0.033      -9999.25    -9999.25    -9999.25    -9999.25    -9999.25    -9999.25    -9999.25    
28.07       0.274       226.775     1.703       3.461       -9999.25    -9999.25    -9999.25    -9999.25    -9999.25    -9999.25    -69.435     0.646       0.669       494.054     0.051       1.159       57.266      
28.1        -9999.25    -9999.25    -9999.25    -9999.25    0.542       0.014       0.2         0.017       -0.3        -0.017      -9999.25    -9999.25    -9999.25    -9999.25    -9999.25    -9999.25    -9999.25    
28.17       0.316       226.902     1.773       3.765       -9999.25    -9999.25    -9999.25    -9999.25    -9999.25    -9999.25    -71.237     0.668       0.689       492.654     0.051       1.159       55.157      
28.2        -9999.25    -9999.25    -9999.25    -9999.25    0.561       0.011       0.203       0.008       0.1         -0.008      -9999.25    -9999.25    -9999.25    -9999.25    -9999.25    -9999.25    -9999.25    
28.27       0.313       227.061     1.845       4.07        -9999.25    -9999.25    -9999.25    -9999.25    -9999.25    -9999.25    -72.91      0.678       0.709       494.983     0.052       1.158       52.55       
28.3        -9999.25    -9999.25    -9999.25    -9999.25    0.567       0.011       0.214       -0.1        0.133       0.0         -9999.25    -9999.25    -9999.25    -9999.25    -9999.25    -9999.25    -9999.25    
28.37       0.324       227.153     1.914       4.179       -9999.25    -9999.25    -9999.25    -9999.25    -9999.25    -9999.25    -73.148     0.67        0.732       501.927     0.052       1.158       51.105      
28.4        -9999.25    -9999.25    -9999.25    -9999.25    0.568       0.006       0.234       -0.067      0.2         -0.017      -9999.25    -9999.25    -9999.25    -9999.25    -9999.25    -9999.25    -9999.25    
28.47       0.413       227.673     1.975       4.108       -9999.25    -9999.25    -9999.25    -9999.25    -9999.25    -9999.25    -69.833     0.662       0.752       512.414     0.05        1.156       50.431      
28.5        -9999.25    -9999.25    -9999.25    -9999.25    0.577       0.017       0.25        0.052       0.256       -0.048      -9999.25    -9999.25    -9999.25    -9999.25    -9999.25    -9999.25    -9999.25    
28.57       0.656       226.72      2.025       4.037       -9999.25    -9999.25    -9999.25    -9999.25    -9999.25    -9999.25    -62.877     0.658       0.769       525.239     0.049       1.156       49.877      
28.6        -9999.25    -9999.25    -9999.25    -9999.25    0.58        0.044       0.247       0.043       0.289       -0.04       -9999.25    -9999.25    -9999.25    -9999.25    -9999.25    -9999.25    -9999.25    
28.67       0.767       226.045     2.059       3.826       -9999.25    -9999.25    -9999.25    -9999.25    -9999.25    -9999.25    -57.761     0.658       0.787       540.387     0.049       1.158       48.852      
28.7        -9999.25    -9999.25    -9999.25    -9999.25    0.587       0.036       0.242       0.017       0.523       -0.033      -9999.25    -9999.25    -9999.25    -9999.25    -9999.25    -9999.25    -9999.25    
28.77       0.607       226.008     2.078       3.634       -9999.25    -9999.25    -9999.25    -9999.25    -9999.25    -9999.25    -55.623     0.656       0.805       556.084     0.049       1.159       47.121      
28.8        -9999.25    -9999.25    -9999.25    -9999.25    0.6         0.019       0.228       0.0         0.65        -0.028      -9999.25    -9999.25    -9999.25    -9999.25    -9999.25    -9999.25    -9999.25    
28.87       0.555       226.063     2.083       3.429       -9999.25    -9999.25    -9999.25    -9999.25    -9999.25    -9999.25    -54.613     0.651       0.822       565.787     0.05        1.16        45.15       
28.9        -9999.25    -9999.25    -9999.25    -9999.25    0.604       0.022       0.222       -0.008      0.801       -0.028      -9999.25    -9999.25    -9999.25    -9999.25    -9999.25    -9999.25    -9999.25    
28.97       0.516       226.134     2.075       3.297       -9999.25    -9999.25    -9999.25    -9999.25    -9999.25    -9999.25    -54.656     0.645       0.822       563.457     0.051       1.159       43.72       
29.0        -9999.25    -9999.25    -9999.25    -9999.25    0.606       0.028       0.22        -0.014      1.168       -0.033      -9999.25    -9999.25    -9999.25    -9999.25    -9999.25    -9999.25    -9999.25    
29.07       0.646       226.199     2.058       3.165       -9999.25    -9999.25    -9999.25    -9999.25    -9999.25    -9999.25    -56.284     0.641       0.798       549.993     0.053       1.159       42.726      
29.1        -9999.25    -9999.25    -9999.25    -9999.25    0.61        0.025       0.214       -0.006      1.502       -0.022      -9999.25    -9999.25    -9999.25    -9999.25    -9999.25    -9999.25    -9999.25    
29.17       0.989       226.231     2.035       3.273       -9999.25    -9999.25    -9999.25    -9999.25    -9999.25    -9999.25    -57.753     0.642       0.768       532.677     0.054       1.16        42.389      
29.2        -9999.25    -9999.25    -9999.25    -9999.25    0.613       0.014       0.214       -0.008      1.379       -0.014      -9999.25    -9999.25    -9999.25    -9999.25    -9999.25    -9999.25    -9999.25    
29.27       0.745       226.204     2.009       3.73        -9999.25    -9999.25    -9999.25    -9999.25    -9999.25    -9999.25    -57.375     0.645       0.757       518.105     0.054       1.16        42.497      
29.3        -9999.25    -9999.25    -9999.25    -9999.25    0.612       0.017       0.214       -0.025      1.112       -0.019      -9999.25    -9999.25    -9999.25    -9999.25    -9999.25    -9999.25    -9999.25    
29.37       0.523       226.23      1.982       4.187       -9999.25    -9999.25    -9999.25    -9999.25    -9999.25    -9999.25    -56.966     0.655       0.763       508.522     0.05        1.161       42.704      
29.4        -9999.25    -9999.25    -9999.25    -9999.25    0.604       0.022       0.222       -0.017      0.934       -0.019      -9999.25    -9999.25    -9999.25    -9999.25    -9999.25    -9999.25    -9999.25    
29.47       0.449       226.225     1.954       4.308       -9999.25    -9999.25    -9999.25    -9999.25    -9999.25    -9999.25    -58.342     0.671       0.771       503.097     0.048       1.16        42.804      
