~Version Information Section
VERS.                                         2.0:CWLS log ASCII Standart – VERSION 2.0
WRAP.                                          NO:One line per depth step
~Well Information Section
STRT.M                                        7.7:Начальная глубина
STOP.M                                      168.6:Конечная глубина
STEP.M                                          0:Шаг квантования по глубине
NULL.                                    -9999.25:Признак "Нет данных"
WELL.                                       137Мх:Скважина
~Parameter Information Section
~Curve Information Section
DEPTH.M                                          :Глубина
ГК.мкР/ч                                         :GK
U1.                                              :U1
U12.                                             :U12
U2.                                              :U2
W.усл.ед                                         :W
ЗОНД.                                            :Зонд N0
НГК.                                             :НГК
ННКМ.усл.ед                                      :ННКм
ПЛОТНОСТЬ.г/см3                                  :плотность
РЕЗИСТИВИМЕТР.Ом                                 :Резистивиметр
~ASCII LOG DATA
# ...
50.4        7.895       943.199     402.102     184.508     36.729      20.38       1.238       1.126       2.286       0.919       
50.5        6.846       712.994     287.418     128.637     36.386      19.64       1.237       1.145       2.319       0.923       
50.6        6.161       512.746     222.138     108.629     35.042      18.885      1.207       1.264       2.36        0.915       
50.7        5.92        342.455     206.261     124.483     32.963      18.388      1.183       1.335       2.39        0.912       
50.8        5.615       301.248     199.349     138.658     30.562      18.136      1.192       1.475       2.404       0.905       
50.9        5.55        252.79      185.868     144.474     29.099      18.012      1.226       1.435       2.384       0.897       
51.0        5.73        197.081     165.819     141.934     28.404      17.755      1.266       1.395       2.362       0.887       
51.1        6.368       204.916     173.897     154.761     28.495      17.222      1.29        1.323       2.337       0.875       
51.2        7.072       196.12      191.132     199.848     28.586      16.524      1.298       1.294       2.329       0.864       
51.3        7.487       225.665     204.734     219.102     28.722      15.787      1.271       1.323       2.326       0.851       
51.4        7.41        310.179     205.548     180.263     28.644      15.057      1.235       1.334       2.322       0.842       
51.5        7.49        286.475     183.265     163.857     28.868      14.556      1.229       1.354       2.313       0.84        
51.6        7.5         261.352     180.615     168.695     29.232      14.41       1.219       1.345       2.304       0.84        
51.7        7.577       234.812     197.598     194.778     29.692      14.455      1.221       1.33        2.291       0.841       
51.8        7.706       307.815     218.263     166.114     30.724      14.527      1.213       1.276       2.27        0.843       
51.9        7.749       318.591     212.671     141.985     31.784      14.594      1.188       1.239       2.257       0.831       
52.0        7.966       310.484     204.359     134.742     32.224      14.644      1.161       1.172       2.253       0.813       
52.1        8.371       345.717     219.584     139.849     31.933      14.788      1.152       1.163       2.271       0.807       
52.2        8.601       295.949     229.773     225.455     31.774      15.125      1.166       1.209       2.275       0.807       
52.3        8.682       226.14      212.859     259.22      31.613      15.62       1.196       1.209       2.273       0.81        
52.4        8.95        136.291     168.842     241.144     31.355      16.344      1.205       1.209       2.257       0.818       
52.5        9.132       196.507     158.7       151.31      31.634      17.228      1.187       1.184       2.256       0.819       
52.6        9.114       228.572     161.204     118.744     32.24       17.882      1.138       1.151       2.272       0.79        
52.7        9.021       232.486     176.356     143.445     32.334      17.958      1.104       1.148       2.298       0.753       
52.8        8.904       197.819     179.772     169.539     31.758      17.351      1.096       1.145       2.313       0.738       
52.9        8.96        176.977     178.7       180.745     31.233      16.236      1.103       1.174       2.313       0.73        
53.0        9.16        169.963     173.138     177.063     31.005      15.197      1.129       1.179       2.294       0.723       
53.1        9.286       145.446     155.068     166.132     30.507      14.566      1.166       1.189       2.285       0.72        
53.2        9.15        179.298     178.186     179.3       30.278      14.219      1.191       1.192       2.271       0.72        
53.3        8.939       217.951     202.486     190.234     30.821      14.095      1.184       1.206       2.27        0.72        
53.4        8.656       261.403     227.968     198.934     31.595      14.095      1.147       1.177       2.266       0.72        
53.5        8.533       254.659     218.285     187.178     31.758      14.132      1.091       1.134       2.268       0.72        
53.6        8.467       231.472     203.949     181.904     32.149      14.062      1.062       1.152       2.276       0.72        
53.7        8.588       191.843     184.958     183.11      32.842      13.707      1.065       1.17        2.278       0.72        
53.8        8.6         153.301     170.796     194.754     33.017      13.274      1.083       1.203       2.29        0.72        
53.9        8.489       135.661     170.958     216.232     32.954      13.038      1.107       1.213       2.282       0.72        
54.0        8.407       142.126     173.904     217.182     33.634      12.985      1.095       1.18        2.271       0.72        
54.1        8.46        151.794     165.31      187.769     34.663      13.095      1.072       1.166       2.244       0.72        
54.2        8.701       186.526     181.042     179.457     35.226      13.552      1.088       1.095       2.229       0.72        
54.3        9.009       206.084     197.288     189.78      35.316      14.379      1.127       1.082       2.231       0.72        
54.4        9.084       210.465     214.05      218.737     35.469      15.379      1.152       1.049       2.237       0.72        
54.5        8.939       257.243     191.088     167.844     34.988      16.99       1.154       1.036       2.25        0.72        
54.6        8.644       287.553     182.05      140.136     34.229      19.716      1.168       1.027       2.253       0.72        
54.7        8.552       301.395     186.937     135.612     33.453      22.823      1.195       1.03        2.257       0.72        
54.8        8.462       232.024     194.378     179.166     32.888      26.731      1.21        1.032       2.278       0.72        
54.9        8.636       175.341     186.077     200.59      31.608      32.312      1.23        1.085       2.291       0.72        
55.0        9.193       138.231     168.484     212.679     30.415      37.431      1.258       1.094       2.316       0.72        
55.1        9.536       108.006     157.343     237.561     29.213      39.44       1.242       1.223       2.313       0.718       
55.2        9.347       114.103     155.272     225.018     28.914      37.347      1.196       1.228       2.307       0.708       
55.3        8.764       132.477     166.789     221.915     29.146      32.564      1.189       1.248       2.287       0.692       
55.4        8.03        163.129     191.894     228.25      29.837      27.501      1.188       1.264       2.267       0.683       
55.5        7.153       178.138     209.926     252.049     30.218      22.791      1.19        1.289       2.271       0.68        
55.6        6.581       194.663     209.916     233.653     30.964      19.199      1.191       1.28        2.275       0.68        
55.7        6.656       209.804     200.634     195.694     31.333      17.381      1.182       1.274       2.29        0.68        
55.8        7.05        194.03      184.935     177.784     31.4        16.402      1.164       1.225       2.29        0.68        
55.9        7.637       162.632     167.969     177.35      31.297      15.575      1.135       1.213       2.284       0.68        
56.0        7.839       118.512     140.965     171.761     31.923      14.939      1.13        1.113       2.286       0.68        
56.1        8.029       89.682      119.11      163.599     32.075      14.58       1.117       1.094       2.282       0.68        
56.2        8.478       89.132      118.826     162.342     31.878      14.481      1.089       1.047       2.29        0.68        
56.3        8.744       142.194     142.074     160.509     31.569      14.531      1.038       1.07        2.284       0.68        
56.4        8.762       248.868     188.854     158.102     31.94       14.76       1.002       1.088       2.278       0.68        
