~Version Information Section
VERS.                                         2.0:CWLS log ASCII Standart – VERSION 2.0
WRAP.                                          NO:One line per depth step
~Well Information Section
STRT.M                                        0.5:Начальная глубина
STOP.M                                      201.9:Конечная глубина
STEP.M                                          0:Шаг квантования по глубине
NULL.                                    -9999.25:Признак "Нет данных"
WELL.                                       138Мх:Скважина
~Parameter Information Section
~Curve Information Section
DEPTH.M                                          :Глубина
БК.Омм                                           :BK     (БК)
DСР.мм                                           :DS  (ДС)
W.g/cm3                                          :GGKp
ГК.гамма                                         :GK          (ГК)
А0.4М0.1N.Омм.ohmm                               :GZ1   ГЗ1(A0.4M0.1N)
А1.0М0.1N.Омм.ohmm                               :GZ2   ГЗ2(A1.0M0.1N)
А2.0М0.5N.Омм.ohmm                               :GZ3   ГЗ3(A2.0M0.5N)
А4.0М0.5N.Oмм.ohmm                               :GZ4   ГЗ4(A4.0M0.5N)
А8.0М1.0N.Омм.ohmm                               :GZ5   ГЗ5(A8.0M0.5N)
N0.5M2.0A.Омм.ohmm                               :GZK   ГЗK(N0.5M2.0A)
ИК.мСм/м                                         :IK
ННКМ.усл.ед                                      :NNKm  (ННКм)
ПС.мВ                                            :PS       (ПС)
КС.Омм                                           :PZ    (КС)
R.Омм                                            :RS (Резистивиметр)
U1.мВ                                            :U1
U2.mV                                            :U2
U3.мВ                                            :U3
КП.%                                             :Кп
НГК.усл.ед                                       :NGK
~ASCII LOG DATA
# ...
157.3       45.664      127.572     2.14        6.356       29.485      22.025      21.74       19.79       16.448      26.089      18.274      1.565       259.384     66.331      1.08        844.472     646.481     664.478     32.277      1.034       
157.4       46.482      127.599     2.143       6.35        29.447      22.849      21.74       19.716      16.402      25.935      18.336      1.563       259.56      65.938      1.08        814.476     790.463     760.47      33.139      1.052       
157.5       45.228      127.51      2.144       6.541       29.39       23.611      21.74       19.631      16.376      25.738      18.381      1.569       259.768     65.571      1.08        778.474     928.474     808.474     33.274      1.035       
157.6       43.934      127.408     2.141       6.715       29.323      24.173      21.74       19.532      16.36       25.508      18.422      1.58        259.976     65.237      1.08        760.473     946.472     826.472     32.468      1.038       
157.7       43.606      127.388     2.14        6.629       29.251      24.52       21.756      19.43       16.343      25.26       18.442      1.58        260.168     64.931      1.08        748.474     898.477     796.476     32.101      1.024       
157.8       44.59       127.36      2.138       6.909       29.201      24.686      21.8        19.34       16.332      25.022      18.456      1.552       260.376     64.65       1.08        796.478     844.472     760.473     32.409      1.064       
157.9       46.267      127.363     2.137       6.976       29.157      24.73       21.874      19.272      16.326      24.826      18.455      1.543       260.616     64.384      1.08        820.472     814.475     730.476     32.554      1.058       
158.0       47.254      127.342     2.139       7.073       29.123      24.729      21.982      19.225      16.32       24.689      18.418      1.565       260.856     64.134      1.08        838.474     808.474     700.474     32.485      1.113       
158.1       47.451      127.356     2.141       6.607       29.119      24.728      22.136      19.196      16.314      24.607      18.406      1.579       261.112     63.899      1.08        808.474     796.473     676.473     32.213      1.135       
158.2       48.746      127.351     2.142       6.513       29.119      24.728      22.368      19.179      16.305      24.569      18.375      1.584       261.368     63.682      1.08        820.473     784.475     664.474     30.92       1.186       
158.3       49.734      127.373     2.14        6.36        29.119      24.728      22.714      19.164      16.294      24.55       18.347      1.583       261.576     63.488      1.08        820.474     796.476     688.476     30.611      1.12        
158.4       49.687      127.418     2.135       6.493       29.119      24.728      23.187      19.135      16.281      24.534      18.349      1.58        261.736     63.328      1.08        814.476     784.475     682.474     31.515      1.063       
158.5       48.978      127.525     2.127       6.4         29.139      24.735      23.774      19.073      16.263      24.512      18.327      1.584       261.864     63.203      1.08        790.474     748.474     676.474     32.931      1.021       
158.6       49.577      127.593     2.12        6.529       29.196      24.778      24.427      18.958      16.242      24.471      18.297      1.596       261.96      63.114      1.08        778.474     682.472     634.474     32.933      1.016       
158.7       51.477      127.633     2.118       6.374       29.259      24.839      25.059      18.778      16.213      24.409      18.25       1.616       262.04      63.056      1.08        772.474     718.469     622.475     32.166      1.014       
158.8       51.48       127.654     2.122       6.477       29.284      24.865      25.56       18.542      16.169      24.34       18.182      1.625       262.104     63.024      1.08        766.474     754.477     598.473     32.071      1.043       
158.9       50.983      127.662     2.13        6.397       29.276      24.865      25.867      18.281      16.108      24.272      18.089      1.624       262.152     63.008      1.08        772.474     778.477     562.476     32.079      1.129       
159.0       50.15       127.665     2.138       6.514       29.211      24.837      25.988      18.041      16.024      24.223      18.034      1.618       262.168     63.002      1.08        838.474     718.474     532.474     31.764      1.133       
159.1       49.396      127.643     2.144       6.352       29.028      24.742      26.006      17.849      15.919      24.208      17.96       1.607       262.168     62.998      1.08        886.477     658.47      514.474     30.18       1.096       
159.2       49.671      127.598     2.144       6.323       28.693      24.562      25.961      17.706      15.791      24.208      17.906      1.613       262.168     62.992      1.08        910.477     610.476     574.469     28.765      1.061       
159.3       50.922      127.606     2.137       6.165       28.241      24.338      25.846      17.61       15.659      24.208      17.841      1.624       262.12      62.976      1.08        856.471     592.474     593.835     28.797      1.093       
159.4       52.391      127.656     2.126       6.125       27.739      24.113      25.715      17.545      15.528      24.208      17.747      1.599       261.992     62.944      1.08        814.476     580.475     548.964     30.234      1.136       
159.5       52.883      127.743     2.114       6.35        27.24       23.898      25.605      17.489      15.402      24.251      17.675      1.566       261.784     62.888      1.08        790.474     556.474     404.421     32.663      1.134       
159.6       50.319      127.718     2.103       6.416       26.787      23.702      25.499      17.433      15.278      24.421      17.559      1.559       261.464     62.805      1.08        808.476     511.021     292.357     33.327      1.075       
159.7       46.407      127.773     2.099       6.645       26.413      23.504      25.373      17.374      15.149      24.771      17.416      1.557       261.048     62.696      1.08        820.473     483.573     244.539     32.13       1.062       
159.8       44.405      127.815     2.097       6.421       26.116      23.268      25.201      17.297      14.999      25.33       17.264      1.587       260.6       62.568      1.08        815.688     468.12      236.373     30.365      1.059       
159.9       43.851      127.854     2.097       6.322       25.866      22.967      24.954      17.195      14.826      26.1        17.118      1.608       260.136     62.432      1.08        717.853     477.411     254.72      29.841      1.105       
160.0       43.779      127.834     2.098       6.38        25.629      22.589      24.614      17.069      14.641      27.034      16.983      1.565       259.672     62.304      1.08        592.364     467.974     311.881     31.024      1.096       
160.1       43.05       127.848     2.099       6.571       25.376      22.129      24.175      16.938      14.472      28.056      16.908      1.539       259.256     62.195      1.08        483.662     458.536     376.404     32.612      1.132       
160.2       40.282      127.853     2.103       6.658       25.068      21.603      23.67       16.837      14.339      29.086      16.824      1.586       258.888     62.112      1.08        444.027     439.809     405.98      34.432      1.14        
160.3       37.604      127.812     2.113       6.644       24.682      21.095      23.178      16.8        14.252      30.052      16.746      1.618       258.52      62.056      1.08        514.513     442.251     371.935     37.245      1.112       
160.4       36.367      127.834     2.127       6.476       24.252      20.69       22.766      16.8        14.198      30.928      16.646      1.589       258.152     62.024      1.08        502.125     403.616     318.063     37.541      1.056       
