~Version Information Section
VERS.                                         2.0:CWLS log ASCII Standart – VERSION 2.0
WRAP.                                          NO:One line per depth step
~Well Information Section
STRT.M                                        1.0:Начальная глубина
STOP.M                                      151.7:Конечная глубина
STEP.M                                          0:Шаг квантования по глубине
NULL.                                    -9999.25:Признак "Нет данных"
WELL.                                       117Мх:Скважина
~Parameter Information Section
~Curve Information Section
DEPTH.M                                          :Глубина
DСР.мм                                           :Dср
ГК.гамма                                         :GK
ИК.мСм/м                                         :IK
N0.5M2.0A.Омм.                                   :N0.5M2.0A.Омм
R.Омм                                            :R
U1.                                              :U1
U2.                                              :U2
U3.                                              :U3
W.имп/1,25с                                      :W
А0.4М0.1N.Омм.                                   :А0.4М0.1N.Омм
А1.0М0.1N.Омм.                                   :А1.0М0.1N.Омм
А2.0М0.5N.Омм.                                   :А2.0М0.5N.Омм
А4.0М0.5N.Oмм.                                   :А4.0М0.5N.Oмм
А8.0М1.0N.Омм.                                   :А8.0М1.0N.Омм
БЗ.имп/мин                                       :БЗ
БК.Омм                                           :БК
КС.Омм                                           :КС
ПС.                                              :ПС
МЗ.имп/мин                                       :МЗ
НГК.имп/1,25с                                    :ННКб
ННКМ.имп/1,25с                                   :ННКм
ПЛОТНОСТЬГГК.г/см3                               :плотностьГГК
~ASCII LOG DATA
# ...
6.8         155.145     5.906       -9999.25    -9999.25    1.299       25.952      4.224       16.914      4.744       -9999.25    -9999.25    -9999.25    -9999.25    -9999.25    32380.0     -9999.25    -9999.25    178.657     9180.0      26.702      4.773       1.905       
6.9         144.5       5.895       -9999.25    -9999.25    1.298       23.694      3.87        15.85       5.194       -9999.25    -9999.25    -9999.25    -9999.25    -9999.25    33920.0     -9999.25    -9999.25    178.685     9140.0      24.668      4.385       1.905       
7.0         145.763     5.858       -9999.25    -9999.25    1.296       22.754      3.968       15.292      5.492       -9999.25    -9999.25    -9999.25    -9999.25    -9999.25    34940.0     -9999.25    -9999.25    178.712     8760.0      24.153      4.39        1.907       
7.1         144.433     5.751       -9999.25    -9999.25    1.29        22.034      4.834       14.466      5.651       -9999.25    -9999.25    -9999.25    -9999.25    -9999.25    34320.0     -9999.25    -9999.25    178.739     8600.0      23.698      4.395       1.917       
7.2         137.9       5.662       -9999.25    -9999.25    1.288       21.167      5.615       14.008      5.727       -9999.25    -9999.25    -9999.25    -9999.25    -9999.25    32640.0     -9999.25    -9999.25    178.766     8480.0      23.622      4.419       1.936       
7.3         140.71      5.67        -9999.25    -9999.25    1.285       20.3        6.397       13.549      5.825       -9999.25    -9999.25    -9999.25    -9999.25    -9999.25    31260.0     -9999.25    -9999.25    178.793     8640.0      23.837      4.442       1.956       
7.4         141.498     5.722       -9999.25    -9999.25    1.287       21.472      6.763       14.423      5.898       -9999.25    -9999.25    -9999.25    -9999.25    -9999.25    30280.0     -9999.25    -9999.25    178.821     8680.0      23.807      4.455       1.974       
7.5         146.423     5.767       -9999.25    -9999.25    1.289       19.238      6.043       13.44       5.947       -9999.25    -9999.25    -9999.25    -9999.25    -9999.25    29780.0     -9999.25    -9999.25    178.848     8600.0      23.499      4.435       1.988       
7.6         146.568     5.822       -9999.25    -9999.25    1.289       17.004      5.322       12.456      5.992       -9999.25    -9999.25    -9999.25    -9999.25    -9999.25    29320.0     -9999.25    -9999.25    178.875     8680.0      23.126      4.412       2.001       
7.7         142.247     5.929       -9999.25    -9999.25    1.288       17.139      5.396       11.846      6.053       -9999.25    -9999.25    -9999.25    -9999.25    -9999.25    28500.0     -9999.25    -9999.25    178.902     8640.0      22.907      4.383       2.014       
7.8         140.546     6.062       -9999.25    -9999.25    1.289       17.273      5.469       11.237      6.11        -9999.25    -9999.25    -9999.25    -9999.25    -9999.25    27600.0     -9999.25    -9999.25    178.929     8520.0      22.741      4.364       2.024       
7.9         141.536     6.188       -9999.25    -9999.25    1.29        17.041      4.956       11.065      6.152       -9999.25    -9999.25    -9999.25    -9999.25    -9999.25    27080.0     -9999.25    -9999.25    178.957     8360.0      22.466      4.336       2.033       
8.0         141.966     6.316       -9999.25    -9999.25    1.289       18.897      5.078       12.245      6.179       -9999.25    -9999.25    -9999.25    -9999.25    -9999.25    26660.0     -9999.25    -9999.25    178.984     8460.0      22.239      4.324       2.039       
8.1         140.135     6.44        -9999.25    -9999.25    1.285       20.313      5.322       12.841      6.204       -9999.25    -9999.25    -9999.25    -9999.25    -9999.25    26060.0     -9999.25    -9999.25    179.011     8560.0      22.17       4.316       2.046       
8.2         138.607     6.519       -9999.25    -9999.25    1.285       19.507      4.858       12.694      6.224       -9999.25    -9999.25    -9999.25    -9999.25    -9999.25    25700.0     -9999.25    -9999.25    179.038     8440.0      22.238      4.321       2.051       
8.3         138.936     6.538       -9999.25    -9999.25    1.287       17.493      3.967       11.929      6.228       -9999.25    -9999.25    -9999.25    -9999.25    -9999.25    25460.0     -9999.25    -9999.25    179.065     8320.0      22.271      4.327       2.054       
8.4         140.395     6.546       -9999.25    -9999.25    1.289       15.845      3.662       10.725      6.211       -9999.25    -9999.25    -9999.25    -9999.25    -9999.25    25220.0     -9999.25    -9999.25    179.093     8340.0      22.237      4.329       2.054       
8.5         140.046     6.546       -9999.25    -9999.25    1.285       13.916      2.966       9.158       6.185       -9999.25    -9999.25    -9999.25    -9999.25    -9999.25    24500.0     -9999.25    -9999.25    179.12      8060.0      22.248      4.328       2.057       
8.6         139.521     6.513       -9999.25    -9999.25    1.29        12.427      2.148       8.175       6.158       -9999.25    -9999.25    -9999.25    -9999.25    -9999.25    24140.0     -9999.25    -9999.25    179.147     7960.0      22.319      4.318       2.059       
8.7         138.961     6.429       -9999.25    -9999.25    1.3         10.022      1.379       6.67        6.138       -9999.25    -9999.25    -9999.25    -9999.25    -9999.25    23220.0     -9999.25    -9999.25    179.174     7800.0      22.406      4.308       2.06        
8.8         138.8       6.352       -9999.25    -9999.25    1.305       8.826       1.037       5.785       6.129       -9999.25    -9999.25    -9999.25    -9999.25    -9999.25    22500.0     -9999.25    -9999.25    179.202     7560.0      22.447      4.291       2.059       
8.9         138.933     6.304       -9999.25    -9999.25    1.31        8.496       0.988       5.628       6.136       -9999.25    -9999.25    -9999.25    -9999.25    -9999.25    22360.0     -9999.25    -9999.25    179.229     7360.0      22.436      4.282       2.056       
9.0         139.323     6.271       -9999.25    -9999.25    1.312       8.447       1.33        5.835       6.153       -9999.25    -9999.25    -9999.25    -9999.25    -9999.25    22180.0     -9999.25    -9999.25    179.256     7440.0      22.404      4.293       2.056       
9.1         138.563     6.268       -9999.25    -9999.25    1.311       9.009       2.026       6.29        6.169       -9999.25    -9999.25    -9999.25    -9999.25    -9999.25    22100.0     -9999.25    -9999.25    179.283     7500.0      22.362      4.327       2.055       
9.2         139.463     6.286       -9999.25    -9999.25    1.311       10.486      2.673       7.266       6.176       -9999.25    -9999.25    -9999.25    -9999.25    -9999.25    22500.0     -9999.25    -9999.25    179.31      7480.0      22.224      4.345       2.054       
9.3         139.379     6.263       -9999.25    -9999.25    1.309       12.732      3.43        8.9         6.175       -9999.25    -9999.25    -9999.25    -9999.25    -9999.25    22500.0     -9999.25    -9999.25    179.338     7320.0      21.996      4.305       2.051       
9.4         137.804     6.206       -9999.25    -9999.25    1.311       14.112      3.894       9.806       6.175       -9999.25    -9999.25    -9999.25    -9999.25    -9999.25    22600.0     -9999.25    -9999.25    179.365     7360.0      21.874      4.25        2.047       
9.5         137.626     6.206       -9999.25    -9999.25    1.315       28.65       8.679       19.265      6.174       -9999.25    -9999.25    -9999.25    -9999.25    -9999.25    22620.0     -9999.25    -9999.25    179.392     7580.0      21.965      4.219       2.043       
9.6         137.274     6.279       -9999.25    -9999.25    1.318       42.578      13.11       28.476      6.159       -9999.25    -9999.25    -9999.25    -9999.25    -9999.25    23020.0     -9999.25    -9999.25    179.419     7560.0      22.169      4.228       2.037       
