~Version Information Section
VERS.                                         2.0:CWLS log ASCII Standart – VERSION 2.0
WRAP.                                          NO:One line per depth step
~Well Information Section
STRT.M                                        1.0:Начальная глубина
STOP.M                                      192.9:Конечная глубина
STEP.M                                          0:Шаг квантования по глубине
NULL.                                    -9999.25:Признак "Нет данных"
WELL.                                       123Мх:Скважина
~Parameter Information Section
~Curve Information Section
DEPTH.M                                          :Глубина
BK.lgОмм                                         :BK     (БК)
ПРОФ_СР.мм                                       :DS  (ДС)
ГК.мкР/час                                       :GK          (ГК)
ГЗ1.Омм                                          :GZ1   ГЗ1(A0.4M0.1N)
ГЗ2.Омм                                          :GZ2   ГЗ2(A1.0M0.1N)
ГЗ3.Омм                                          :GZ3   ГЗ3(A2.0M0.5N)
ГЗ4.Oмм                                          :GZ4   ГЗ4(A4.0M0.5N)
ГЗ5.Oмм                                          :GZ5   ГЗ5(A8.0M0.5N)
ГЗК.Омм                                          :GZK   ГЗK(N0.5M2.0A)
ИК.мСм/м                                         :IK
НГК.усл.ед.                                      :NGK     (НГК)
PS.мВ                                            :PS       (ПС)
PZ.Омм                                           :PZ    (КС)
RIS.Омм                                          :RS (Резистивиметр)
U1.мВ                                            :U1
U2.мВ                                            :U2
U3.mv                                            :U3
W.                                               :W
П.%                                              :п
ННКМ.усл.ед                                      :ННКм
~ASCII LOG DATA
# ...
119.4       63.826      126.587     4.878       83.88       77.18       94.134      57.536      71.334      67.453      14.215      1.16        269.806     122.255     1.467       569.272     568.692     687.038     2.265       32.146      0.198       
119.5       76.913      127.43      4.71        82.8        76.84       93.468      61.203      73.001      68.453      14.301      1.246       269.806     120.375     1.467       679.701     581.903     597.519     2.27        30.547      0.207       
119.6       70.469      127.022     4.473       80.28       76.84       92.801      60.536      73.667      69.119      14.399      1.318       269.806     116.991     1.467       857.86      633.872     526.921     2.272       28.108      0.214       
119.7       74.131      126.154     4.503       77.76       77.18       92.134      59.203      73.334      69.119      14.483      1.32        270.183     113.983     1.467       1016.147    690.122     502.405     2.272       26.37       0.215       
119.8       95.719      126.477     4.863       74.88       77.52       91.468      57.536      72.334      69.119      14.571      1.268       270.937     111.351     1.467       1128.479    735.605     508.546     2.283       25.35       0.218       
119.9       93.541      125.549     5.188       73.44       77.52       90.801      57.869      71.334      67.786      14.586      1.187       271.692     109.095     1.467       1161.896    743.303     504.004     2.294       25.214      0.222       
120.0       72.778      125.911     5.16        72.0        75.82       90.801      58.536      70.334      65.786      14.578      1.176       272.446     107.591     1.467       1002.393    653.001     465.341     2.296       25.714      0.231       
120.1       67.298      124.523     5.061       71.28       73.78       91.468      59.869      68.001      63.119      14.401      1.167       273.577     107.967     1.467       719.775     500.585     405.006     2.302       26.503      0.236       
120.2       74.131      124.989     4.873       71.28       71.4        92.801      61.203      65.667      61.119      14.333      1.209       274.709     108.719     1.467       497.306     388.379     366.757     2.294       27.487      0.226       
120.3       67.764      124.949     4.872       71.64       70.04       94.134      62.536      63.334      59.786      14.167      1.136       275.84      110.223     1.467       459.238     381.066     374.795     2.3         28.347      0.217       
120.4       52.966      124.451     4.9         73.08       68.68       95.468      63.536      62.334      58.786      14.138      1.128       276.972     112.103     1.467       558.431     450.49      415.414     2.31        28.754      0.211       
120.5       41.495      125.273     4.881       74.16       67.32       97.468      64.536      61.334      58.119      14.213      1.128       277.726     113.983     1.467       625.72      494.783     438.278     2.315       29.372      0.212       
120.6       48.865      125.84      4.985       75.6        65.96       100.134     65.536      60.334      58.453      14.303      1.194       278.48      114.359     1.467       662.983     519.015     451.091     2.324       29.847      0.215       
120.7       66.527      125.946     4.862       77.04       64.6        103.468     64.203      60.001      60.119      14.353      1.221       279.235     113.607     1.468       685.367     552.432     494.376     2.321       30.507      0.21        
120.8       74.131      125.814     4.898       77.76       63.92       105.468     61.869      60.667      62.453      14.484      1.182       279.612     111.351     1.47        732.691     623.168     584.817     2.318       30.108      0.201       
120.9       73.114      125.444     4.939       77.04       64.26       106.801     58.536      62.001      65.453      14.534      1.203       279.989     108.343     1.475       881.619     769.948     727.809     2.315       30.137      0.201       
121.0       73.114      125.314     5.009       74.52       69.02       106.801     55.536      63.667      68.119      14.576      1.209       280.743     103.831     1.483       1106.902    952.178     871.153     2.308       29.302      0.21        
121.1       74.131      125.287     5.025       72.0        73.44       104.134     51.869      67.001      70.119      14.545      1.257       281.12      98.943      1.493       1287.373    1055.216    912.856     2.314       28.575      0.22        
121.2       69.183      124.508     4.967       69.84       75.48       100.801     48.536      69.667      69.453      14.615      1.272       281.497     94.431      1.503       1345.201    1042.131    850.731     2.316       27.458      0.226       
121.3       58.345      122.44      4.868       68.4        72.08       94.801      46.536      71.001      63.453      14.625      1.279       281.875     89.167      1.511       1302.507    984.082     787.124     2.297       27.736      0.224       
121.4       57.677      122.523     4.751       66.6        68.68       85.468      45.203      69.334      57.119      14.614      1.257       282.629     83.151      1.515       1266.441    987.899     821.699     2.302       27.993      0.222       
121.5       71.945      123.795     4.639       65.16       65.96       75.468      43.536      66.667      51.119      14.614      1.206       283.76      77.135      1.515       1234.839    1042.043    936.497     2.302       28.567      0.219       
121.6       73.114      123.72      4.537       64.08       61.88       67.468      41.536      64.334      49.786      14.696      1.182       284.892     72.247      1.515       1185.59     1038.608    964.31      2.307       28.705      0.217       
121.7       74.989      124.349     4.45        63.72       57.8        63.468      40.203      62.334      48.453      14.665      1.179       285.646     67.735      1.511       1127.346    984.567     910.845     2.316       29.337      0.214       
121.8       73.79       124.519     4.388       63.72       52.36       60.801      38.536      61.334      46.453      14.675      1.217       286.4       64.727      1.504       1195.395    992.587     871.63      2.328       29.633      0.21        
121.9       65.766      123.012     4.541       63.72       48.96       58.134      36.536      60.001      44.119      14.614      1.217       287.155     62.847      1.495       1401.295    1113.613    926.621     2.344       29.653      0.215       
122.0       63.387      121.536     4.561       63.72       45.56       57.468      34.536      58.667      41.786      14.562      1.254       288.286     62.847      1.484       1625.892    1293.742    1070.143    2.355       29.664      0.22        
122.1       66.374      121.066     4.338       63.72       44.54       57.468      33.536      57.334      40.453      14.582      1.248       289.04      63.223      1.473       1733.148    1422.561    1211.216    2.365       29.637      0.224       
122.2       78.705      121.685     4.242       63.72       44.2        58.134      33.536      52.667      39.119      14.572      1.31        289.417     63.599      1.464       1621.842    1384.813    1228.482    2.378       29.407      0.221       
122.3       98.401      121.648     4.184       63.72       44.2        59.468      33.869      48.334      38.119      14.521      1.365       289.795     63.975      1.458       1402.482    1227.434    1121.911    2.373       28.404      0.217       
122.4       107.895     121.915     4.233       63.72       44.54       60.801      35.203      44.334      37.786      14.542      1.427       290.172     64.351      1.455       1188.687    1008.401    912.689     2.368       27.094      0.221       
122.5       121.06      122.894     4.416       63.72       44.88       62.801      36.869      44.334      37.786      14.479      1.459       290.549     64.351      1.453       1086.329    844.897     722.1       2.361       25.346      0.233       
