~Version Information Section
VERS.                                         2.0:CWLS log ASCII Standart – VERSION 2.0
WRAP.                                          NO:One line per depth step
~Well Information Section
STRT.M                                       -2.2:Начальная глубина
STOP.M                                      205.6:Конечная глубина
STEP.M                                          0:Шаг квантования по глубине
NULL.                                    -9999.25:Признак "Нет данных"
WELL.                                       108Мх:Скважина
~Parameter Information Section
~Curve Information Section
DEPTH.M                                          :Глубина
BK.Ohm*M                                         :BK     (БК)
DS.mm                                            :DS  (ДС)
GGK.g/cm3                                        :GGKp
ГК.mcr/h                                         :GK          (ГК)
GZ1.Ohm*M                                        :GZ1   ГЗ1(A0.4M0.1N)
GZ2.Ohm*M                                        :GZ2   ГЗ2(A1.0M0.1N)
GZ3.Ohm*M                                        :GZ3   ГЗ3(A2.0M0.5N)
GZ4.Ohm*M                                        :GZ4   ГЗ4(A4.0M0.5N)
GZ5.Ohm*M                                        :GZ5   ГЗ5(A8.0M0.5N)
GZR.Ohm*M                                        :GZK   ГЗK(N0.5M2.0A)
ИК.Ohm*M                                         :IK
НГК.ue                                           :NGK     (НГК)
NNKM.                                            :NNKm  (ННКм)
PS.mv                                            :PS       (ПС)
PZ.Ohm*M                                         :PZ    (КС)
RS.Ohm*M                                         :RS (Резистивиметр)
U1.mV                                            :U1
U2.mV                                            :U2
U3.mV                                            :U3
КП.%                                             :Кп
~ASCII LOG DATA
# ...
87.0        -9999.25    132.637     -9999.25    -9999.25    148.193     169.648     22.998      6.947       19.809      30.081      -9999.25    -9999.25    -9999.25    1164.525    82.009      3.748       1327.981    1003.467    899.417     -9999.25    
87.03       2910.87     -9999.25    2.327       5.44        -9999.25    -9999.25    -9999.25    -9999.25    -9999.25    -9999.25    18.588      6.664       4.293       -9999.25    -9999.25    -9999.25    -9999.25    -9999.25    -9999.25    2.132       
87.1        -9999.25    133.154     -9999.25    -9999.25    148.193     169.648     22.998      6.947       19.809      30.081      -9999.25    -9999.25    -9999.25    1172.141    94.148      3.748       1157.758    937.89      826.305     -9999.25    
87.13       3445.464    -9999.25    2.333       5.588       -9999.25    -9999.25    -9999.25    -9999.25    -9999.25    -9999.25    18.357      6.717       4.201       -9999.25    -9999.25    -9999.25    -9999.25    -9999.25    -9999.25    2.234       
87.2        -9999.25    133.821     -9999.25    -9999.25    148.193     169.648     22.998      6.947       19.809      30.081      -9999.25    -9999.25    -9999.25    1181.312    106.21      3.748       952.966     852.601     765.459     -9999.25    
87.23       22808.533   -9999.25    2.327       5.78        -9999.25    -9999.25    -9999.25    -9999.25    -9999.25    -9999.25    18.085      6.661       4.109       -9999.25    -9999.25    -9999.25    -9999.25    -9999.25    -9999.25    2.452       
87.3        -9999.25    133.987     -9999.25    -9999.25    148.193     169.648     22.998      6.947       19.809      30.081      -9999.25    -9999.25    -9999.25    1195.218    116.263     3.748       804.999     758.807     705.52      -9999.25    
87.33       111933.383  -9999.25    2.301       5.91        -9999.25    -9999.25    -9999.25    -9999.25    -9999.25    -9999.25    17.763      6.525       4.047       -9999.25    -9999.25    -9999.25    -9999.25    -9999.25    -9999.25    2.611       
87.4        -9999.25    134.248     -9999.25    -9999.25    148.193     169.648     22.998      6.947       19.809      30.081      -9999.25    -9999.25    -9999.25    1208.308    124.622     3.748       766.941     696.542     651.567     -9999.25    
87.43       192975.906  -9999.25    2.255       5.893       -9999.25    -9999.25    -9999.25    -9999.25    -9999.25    -9999.25    17.254      6.326       3.972       -9999.25    -9999.25    -9999.25    -9999.25    -9999.25    -9999.25    2.638       
87.5        -9999.25    134.526     -9999.25    -9999.25    148.193     169.648     22.998      6.947       19.809      30.081      -9999.25    -9999.25    -9999.25    1218.712    129.866     3.748       840.61      703.917     621.355     -9999.25    
87.53       118685.398  -9999.25    2.229       6.104       -9999.25    -9999.25    -9999.25    -9999.25    -9999.25    -9999.25    16.608      6.104       3.907       -9999.25    -9999.25    -9999.25    -9999.25    -9999.25    -9999.25    2.648       
87.6        -9999.25    134.611     -9999.25    -9999.25    148.193     169.648     22.998      6.947       19.809      30.081      -9999.25    -9999.25    -9999.25    1207.495    132.458     3.748       969.033     766.893     643.08      -9999.25    
87.63       12113.217   -9999.25    2.207       6.397       -9999.25    -9999.25    -9999.25    -9999.25    -9999.25    -9999.25    15.938      5.903       3.84        -9999.25    -9999.25    -9999.25    -9999.25    -9999.25    -9999.25    2.665       
87.7        -9999.25    134.62      -9999.25    -9999.25    148.193     169.648     22.998      6.947       19.809      30.081      -9999.25    -9999.25    -9999.25    1184.601    131.685     3.748       1130.536    834.896     660.821     -9999.25    
87.73       10446.701   -9999.25    2.178       6.602       -9999.25    -9999.25    -9999.25    -9999.25    -9999.25    -9999.25    15.418      5.766       3.779       -9999.25    -9999.25    -9999.25    -9999.25    -9999.25    -9999.25    2.684       
87.8        -9999.25    134.33      -9999.25    -9999.25    148.193     169.648     22.998      6.947       19.809      30.081      -9999.25    -9999.25    -9999.25    1154.367    128.207     3.748       1245.221    879.037     694.131     -9999.25    
87.83       14324.236   -9999.25    2.155       6.647       -9999.25    -9999.25    -9999.25    -9999.25    -9999.25    -9999.25    15.059      5.671       3.697       -9999.25    -9999.25    -9999.25    -9999.25    -9999.25    -9999.25    2.956       
87.9        -9999.25    134.363     -9999.25    -9999.25    148.193     169.648     22.998      6.947       19.809      30.081      -9999.25    -9999.25    -9999.25    1121.174    122.662     3.748       1266.218    919.745     723.825     -9999.25    
87.93       20391.504   -9999.25    2.169       6.77        -9999.25    -9999.25    -9999.25    -9999.25    -9999.25    -9999.25    14.789      5.599       3.611       -9999.25    -9999.25    -9999.25    -9999.25    -9999.25    -9999.25    3.287       
88.0        -9999.25    134.594     -9999.25    -9999.25    148.193     169.648     22.998      6.947       19.809      30.081      -9999.25    -9999.25    -9999.25    1103.286    115.331     3.748       1157.689    958.185     758.369     -9999.25    
88.03       17669.244   -9999.25    2.196       6.946       -9999.25    -9999.25    -9999.25    -9999.25    -9999.25    -9999.25    14.66       5.56        3.605       -9999.25    -9999.25    -9999.25    -9999.25    -9999.25    -9999.25    3.616       
88.1        -9999.25    134.76      -9999.25    -9999.25    148.193     169.648     22.998      6.947       19.809      30.081      -9999.25    -9999.25    -9999.25    1098.651    105.83      3.748       976.849     1001.987    774.469     -9999.25    
88.13       88134.5     -9999.25    2.196       7.105       -9999.25    -9999.25    -9999.25    -9999.25    -9999.25    -9999.25    14.656      5.614       3.667       -9999.25    -9999.25    -9999.25    -9999.25    -9999.25    -9999.25    3.645       
88.2        -9999.25    135.808     -9999.25    -9999.25    148.193     169.648     22.998      6.947       19.809      30.081      -9999.25    -9999.25    -9999.25    1089.526    95.947      3.748       792.909     1080.501    806.07      -9999.25    
88.23       200411.141  -9999.25    2.189       7.23        -9999.25    -9999.25    -9999.25    -9999.25    -9999.25    -9999.25    14.698      5.779       3.735       -9999.25    -9999.25    -9999.25    -9999.25    -9999.25    -9999.25    3.292       
88.3        -9999.25    138.638     -9999.25    -9999.25    148.193     169.648     22.998      6.947       19.809      30.081      -9999.25    -9999.25    -9999.25    1083.203    85.432      3.748       683.504     1181.717    825.029     -9999.25    
88.33       65230.383   -9999.25    2.184       7.221       -9999.25    -9999.25    -9999.25    -9999.25    -9999.25    -9999.25    14.804      5.942       3.818       -9999.25    -9999.25    -9999.25    -9999.25    -9999.25    -9999.25    2.793       
88.4        -9999.25    135.406     -9999.25    -9999.25    148.193     169.648     22.998      6.947       19.809      30.081      -9999.25    -9999.25    -9999.25    1081.516    75.539      3.748       628.83      1261.654    856.629     -9999.25    
88.43       659.382     -9999.25    2.161       7.281       -9999.25    -9999.25    -9999.25    -9999.25    -9999.25    -9999.25    14.909      6.108       3.889       -9999.25    -9999.25    -9999.25    -9999.25    -9999.25    -9999.25    2.36        
88.5        -9999.25    134.988     -9999.25    -9999.25    148.193     169.648     22.998      6.947       19.809      30.081      -9999.25    -9999.25    -9999.25    1100.11     65.854      3.748       620.462     1286.288    869.269     -9999.25    
88.53       1883.853    -9999.25    2.155       7.085       -9999.25    -9999.25    -9999.25    -9999.25    -9999.25    -9999.25    15.084      6.206       3.906       -9999.25    -9999.25    -9999.25    -9999.25    -9999.25    -9999.25    2.323       
