~Version Information Section
VERS.                                         2.0:CWLS log ASCII Standart – VERSION 2.0
WRAP.                                          NO:One line per depth step
~Well Information Section
STRT.M                                        0.5:Начальная глубина
STOP.M                                      158.2:Конечная глубина
STEP.M                                          0:Шаг квантования по глубине
NULL.                                    -9999.25:Признак "Нет данных"
WELL.                                       136Мх:Скважина
~Parameter Information Section
~Curve Information Section
DEPTH.M                                          :Глубина
BK.Ohm*M                                         :BK     (БК)
DS.mm                                            :DS  (ДС)
GGK.g/cm3                                        :GGKp
ГК.mcr/h                                         :GK          (ГК)
GZ1.Ohm*M                                        :GZ1   ГЗ1(A0.4M0.1N)
GZ2.Ohm*M                                        :GZ2   ГЗ2(A1.0M0.1N)
GZ3.Ohm*M                                        :GZ3   ГЗ3(A2.0M0.5N)
GZ4.Ohm*M                                        :GZ4   ГЗ4(A4.0M0.5N)
GZ5.Ohm*M                                        :GZ5   ГЗ5(A8.0M0.5N)
GZR.Ohm*M                                        :GZK   ГЗK(N0.5M2.0A)
ИК.Ohm*M                                         :IK
НГК.ue                                           :NGK     (НГК)
NNKM.                                            :NNKm  (ННКм)
PS.mv                                            :PS       (ПС)
PZ.Ohm*M                                         :PZ    (КС)
RS.Ohm*M                                         :RS (Резистивиметр)
U1.mV                                            :U1
U2.mV                                            :U2
U3.mV                                            :U3
КП.%                                             :Кп
~ASCII LOG DATA
# ...
125.3       129.835     127.821     2.185       4.195       109.248     25.64       18.295      12.33       11.525      12.634      31.074      1.272       2.537       111.785     67.626      1.087       -2035.7     143.143     -2144.65    39.611      
125.4       73.709      127.851     2.203       4.522       109.248     26.239      17.81       12.33       11.72       12.634      31.263      1.234       2.506       111.785     73.78       1.087       -2078.71    141.919     -2118.89    38.028      
125.5       53.172      127.824     2.25        4.749       110.079     26.79       17.81       10.77       12.324      12.634      31.111      1.159       2.464       111.79      79.878      1.087       -2099.62    142.497     -2098.87    36.641      
125.6       46.446      127.825     2.263       4.85        101.672     27.658      17.81       7.3         13.57       12.899      30.866      1.131       2.435       111.803     83.938      1.087       -2113.13    136.882     -2094.17    34.529      
125.7       61.301      127.825     2.287       4.889       99.868      29.618      17.81       6.201       15.665      15.116      30.576      1.109       2.469       111.836     85.092      1.087       -2119.66    125.109     -2114.38    32.154      
125.8       101.765     127.819     2.31        4.991       99.868      33.999      18.648      6.201       18.676      19.295      30.247      1.107       2.508       111.896     85.092      1.087       -2124.86    123.455     -2114.43    29.547      
125.9       212.641     127.825     2.299       5.124       99.868      42.095      21.409      6.201       22.559      24.895      29.875      1.099       2.542       111.994     85.092      1.087       -2127.62    143.817     -2085.6     28.36       
126.0       361.341     127.864     2.32        5.329       99.868      54.324      26.233      6.201       27.898      30.955      29.337      1.154       2.623       112.124     82.953      1.087       -2132.67    157.512     -2082.97    27.651      
126.1       402.763     127.901     2.348       5.586       107.851     68.878      33.291      9.363       34.709      36.934      28.447      1.179       2.72        112.286     77.918      1.087       -2136.33    166.667     -2119.3     27.092      
126.2       297.689     127.921     2.337       6.03        124.502     83.887      41.908      17.135      42.8        41.483      27.299      1.209       2.796       112.472     70.924      1.087       -2140.0     166.666     -2170.05    25.319      
126.3       316.667     127.914     2.343       6.261       156.257     99.339      52.132      28.961      50.711      45.276      25.973      1.226       2.851       112.671     63.84       1.087       -2140.0     173.334     -2165.72    23.408      
126.4       273.237     127.924     2.333       6.272       188.603     112.82      63.945      46.412      56.713      51.442      24.509      1.269       2.921       112.875     57.305      1.087       -2140.0     180.0       -2107.95    21.177      
126.5       282.488     127.953     2.341       5.841       211.314     128.713     77.684      65.93       59.979      54.403      23.147      1.295       2.982       113.089     51.526      1.087       -2144.0     183.333     -2023.63    20.206      
126.6       471.55      127.965     2.355       5.495       216.951     132.349     86.572      75.045      60.0        54.403      21.818      1.349       3.094       113.302     46.463      1.087       -2156.0     186.667     -1960.88    19.49       
126.7       322.605     127.979     2.388       5.303       216.951     132.349     87.86       75.045      60.0        54.403      20.732      1.465       3.214       113.506     41.994      1.087       -2172.0     200.0       -1921.36    20.45       
126.8       117.593     128.029     2.435       5.375       216.951     132.349     87.86       75.045      60.0        53.062      19.564      1.621       3.33        113.692     38.063      1.087       -2184.0     210.0       -1909.92    22.126      
126.9       69.004      128.031     2.417       5.721       194.572     122.619     87.86       73.707      56.092      48.236      18.032      1.778       3.371       113.854     34.731      1.087       -2188.0     220.0       -1915.59    26.173      
127.0       31.054      128.068     2.388       6.034       158.833     103.849     79.738      64.953      48.809      40.438      16.558      1.867       3.202       113.984     31.993      1.087       -2176.0     220.0       -1936.73    29.741      
127.1       22.898      128.13      2.354       6.381       118.074     80.819      65.014      49.707      39.714      28.303      15.501      1.972       2.945       114.086     29.826      1.087       -2168.0     223.333     -1965.49    35.556      
127.2       20.509      128.202     2.312       6.448       76.305      50.096      45.325      29.291      29.766      18.432      14.565      1.967       2.658       114.175     28.202      1.087       -2164.0     223.333     -1984.46    37.96       
127.3       19.388      128.245     2.283       6.403       42.924      28.854      27.787      15.386      20.227      12.115      13.687      1.89        2.41        114.263     26.998      1.087       -2172.0     220.0       -1987.12    37.827      
127.4       19.46       128.242     2.286       6.244       31.693      20.143      15.532      8.142       12.403      9.303       13.054      1.69        2.253       114.351     26.141      1.087       -2176.0     213.333     -1985.41    35.139      
127.5       22.565      128.26      2.282       6.139       27.129      18.405      9.939       5.02        7.108       8.655       12.572      1.534       2.175       114.439     25.575      1.087       -2172.0     210.0       -1994.62    34.125      
127.6       21.994      128.249     2.272       6.398       24.085      18.405      7.72        3.721       4.289       8.655       12.278      1.355       2.144       114.523     25.211      1.087       -2168.0     216.667     -2010.34    34.442      
127.7       18.766      128.253     2.27        6.729       21.588      18.405      6.754       3.159       3.081       8.655       12.032      1.252       2.167       114.597     24.97       1.087       -2164.0     216.667     -2015.13    34.084      
127.8       18.019      128.257     2.26        6.941       19.661      18.321      6.286       2.832       2.63        8.655       11.768      1.159       2.175       114.657     24.808      1.087       -2164.0     216.666     -2002.83    35.669      
127.9       17.772      128.258     2.266       6.874       18.044      18.012      5.981       2.56        2.426       8.935       11.542      1.203       2.113       114.713     24.696      1.087       -2164.0     195.216     -2001.79    38.583      
128.0       17.895      128.269     2.282       6.874       16.687      18.135      5.875       2.248       2.296       9.282       11.304      1.263       2.065       114.773     24.612      1.087       -2168.0     171.016     -2024.27    40.752      
128.1       17.953      128.266     2.298       6.986       15.54       18.23       5.875       1.92        2.213       9.597       11.153      1.216       2.049       114.847     24.556      1.087       -2176.0     146.813     -2063.5     39.979      
128.2       18.19       128.256     2.317       7.05        15.385      18.648      5.875       1.746       2.144       9.913       11.061      1.145       2.028       114.931     24.522      1.087       -2184.0     138.792     -2102.06    36.633      
128.3       19.599      128.269     2.322       6.689       15.385      18.648      5.875       1.746       2.083       10.252      11.042      1.067       2.012       115.019     24.506      1.087       -2192.0     138.89      -2128.75    33.97       
128.4       23.903      128.277     2.336       6.019       15.259      18.382      5.983       1.746       2.028       10.577      11.09       1.098       2.07        115.103     24.506      1.087       -2207.99    136.294     -2150.37    31.116      
