~Version Information Section
VERS.                                         2.0:CWLS log ASCII Standart – VERSION 2.0
WRAP.                                          NO:One line per depth step
~Well Information Section
STRT.M                                      -0.07:Начальная глубина
STOP.M                                     189.23:Конечная глубина
STEP.M                                          0:Шаг квантования по глубине
NULL.                                    -9999.25:Признак "Нет данных"
WELL.                                       127Мх:Скважина
~Parameter Information Section
~Curve Information Section
DEPTH.M                                          :Глубина
BK.                                              :BK
ГК.гамма                                         :GK
ИК.                                              :IK
НГК.усл.ед                                       :NGK
PSЭ3.                                            :PSэ3
PZЭ3.                                            :PZэ3
U1.                                              :U1
U2.                                              :U2
U3.                                              :U3
W.усл.ед                                         :W
ГЗ1.                                             :ГЗ1
ГЗ2.                                             :ГЗ2
ГЗ3.                                             :ГЗ3
ГЗ4.                                             :ГЗ4
ГЗ5.                                             :ГЗ5
ГЗК.                                             :ГЗК
ННКМ.усл.ед                                      :ННКм
PL.g/cm3                                         :Плотность
ПРОФ_СР.                                         :ПРОФ_СР
IS.                                              :РЕЗ
~ASCII LOG DATA
# ...
47.93       16.722      3.503       27.699      4.252       -9999.25    -9999.25    -9999.25    -9999.25    -9999.25    13.364      0.147       20.084      10.4        19.895      7.468       10.421      2.579       1.671       100.969     1.073       
48.03       15.897      3.755       27.62       4.175       -9999.25    -9999.25    -9999.25    -9999.25    -9999.25    14.209      0.147       20.084      10.4        19.895      7.468       10.421      2.575       1.693       101.024     1.073       
48.13       15.218      4.057       27.646      4.091       -9999.25    -9999.25    -9999.25    -9999.25    -9999.25    14.653      0.147       20.084      10.4        19.895      7.468       10.421      2.585       1.715       101.065     1.073       
48.23       14.333      4.232       27.71       3.944       -9999.25    -9999.25    -9999.25    -9999.25    -9999.25    14.532      0.147       20.084      10.4        19.895      7.468       10.421      2.581       1.735       100.984     1.073       
48.33       14.365      4.164       27.744      3.867       -9999.25    -9999.25    -9999.25    -9999.25    -9999.25    14.337      0.147       20.084      10.4        19.895      7.468       10.421      2.565       1.751       101.035     1.073       
48.43       14.609      3.875       27.736      3.828       -9999.25    -9999.25    -9999.25    -9999.25    -9999.25    14.268      0.147       20.084      10.4        19.895      7.468       10.421      2.554       1.759       100.975     1.073       
48.53       14.659      3.797       27.818      3.707       -9999.25    -9999.25    -9999.25    -9999.25    -9999.25    14.23       0.147       20.084      10.4        19.895      7.468       10.421      2.55        1.761       100.935     1.073       
48.63       14.323      3.922       27.84       3.839       -9999.25    -9999.25    -9999.25    -9999.25    -9999.25    14.164      0.147       20.084      10.4        19.895      7.468       10.421      2.554       1.754       100.967     1.073       
48.73       14.003      3.898       27.701      4.118       -9999.25    -9999.25    -9999.25    -9999.25    -9999.25    14.075      0.147       20.084      10.4        19.895      7.468       10.421      2.575       1.737       100.957     1.073       
48.83       13.15       3.476       27.663      3.979       -9999.25    -9999.25    -9999.25    -9999.25    -9999.25    13.649      0.147       20.084      10.4        19.895      7.468       10.421      2.606       1.715       100.907     1.073       
48.93       12.289      2.976       27.702      3.823       -9999.25    -9999.25    -9999.25    -9999.25    -9999.25    13.116      0.147       20.084      10.4        19.895      7.468       10.421      2.665       1.694       100.95      1.073       
49.03       12.928      2.718       27.775      4.044       -9999.25    -9999.25    -9999.25    -9999.25    -9999.25    12.695      0.147       20.084      10.4        19.895      7.468       10.421      2.715       1.675       101.004     1.073       
49.13       13.552      2.818       27.727      4.255       -9999.25    -9999.25    -9999.25    -9999.25    -9999.25    11.799      0.147       20.084      10.4        19.895      7.468       10.421      2.722       1.661       100.928     1.073       
49.23       13.714      2.942       27.724      4.548       -9999.25    -9999.25    -9999.25    -9999.25    -9999.25    11.443      0.147       20.084      10.4        19.895      7.468       10.421      2.724       1.652       100.916     1.073       
49.33       13.761      3.073       27.762      4.804       -9999.25    -9999.25    -9999.25    -9999.25    -9999.25    11.341      0.147       20.084      10.4        19.895      7.468       10.421      2.737       1.65        100.964     1.073       
49.43       13.66       3.129       27.847      4.854       -9999.25    -9999.25    -9999.25    -9999.25    -9999.25    10.971      0.147       20.084      10.4        19.895      7.468       10.421      2.76        1.654       100.898     1.073       
49.53       13.069      3.186       27.848      4.758       -9999.25    -9999.25    -9999.25    -9999.25    -9999.25    10.272      0.147       20.084      10.4        19.895      7.468       10.421      2.79        1.66        100.972     1.073       
49.63       11.981      3.191       27.783      4.881       -9999.25    -9999.25    -9999.25    -9999.25    -9999.25    9.88        0.147       20.084      10.4        19.895      7.468       10.421      2.82        1.667       100.96      1.073       
49.73       12.007      3.184       27.771      5.406       -9999.25    -9999.25    -9999.25    -9999.25    -9999.25    9.79        0.147       20.084      10.4        19.895      7.468       10.421      2.817       1.675       100.933     1.073       
49.83       13.048      3.225       27.733      5.374       -9999.25    -9999.25    -9999.25    -9999.25    -9999.25    9.62        0.147       20.084      10.4        19.895      7.468       10.421      2.783       1.686       100.951     1.073       
49.93       13.113      3.223       27.759      5.635       -9999.25    -9999.25    -9999.25    -9999.25    -9999.25    9.888       0.147       20.084      10.4        19.895      7.468       10.421      2.767       1.699       100.907     1.073       
50.03       12.235      3.235       27.877      5.512       -9999.25    -9999.25    -9999.25    -9999.25    -9999.25    10.383      0.147       20.084      10.4        19.895      7.468       10.421      2.771       1.709       100.954     1.073       
50.13       11.416      3.202       27.974      5.472       -9999.25    -9999.25    -9999.25    -9999.25    -9999.25    10.619      0.147       20.084      10.4        19.895      7.468       10.421      2.783       1.72        100.934     1.073       
50.23       10.128      3.28        27.958      5.114       -9999.25    -9999.25    -9999.25    -9999.25    -9999.25    10.963      0.147       20.084      10.4        19.895      7.468       10.421      2.81        1.731       100.947     1.073       
50.33       9.109       3.322       22.647      5.082       -9999.25    -9999.25    -9999.25    -9999.25    -9999.25    10.875      0.147       20.084      10.4        19.895      7.468       10.421      2.825       1.739       100.989     1.073       
50.43       10.12       3.335       11.144      5.184       -9999.25    -9999.25    -9999.25    -9999.25    -9999.25    10.558      0.147       20.084      10.4        19.895      7.468       10.421      2.812       1.742       100.972     1.073       
50.53       10.879      3.267       17.537      5.078       -9999.25    -9999.25    -9999.25    -9999.25    -9999.25    10.74       0.147       20.084      10.4        19.895      7.468       10.421      2.789       1.743       100.99      1.073       
50.63       9.484       3.159       27.715      4.884       -9999.25    -9999.25    -9999.25    -9999.25    -9999.25    11.139      0.147       20.084      10.4        19.895      7.468       10.421      2.738       1.739       100.965     1.073       
50.73       14.171      3.099       27.611      4.9         -9999.25    -9999.25    -9999.25    -9999.25    -9999.25    11.249      0.147       20.084      10.4        19.895      7.468       10.421      2.682       1.73        100.983     1.073       
50.83       20.864      3.11        27.585      4.847       -9999.25    -9999.25    -9999.25    -9999.25    -9999.25    11.393      0.147       20.084      10.4        19.895      7.468       10.421      2.691       1.715       101.012     1.073       
50.93       18.298      3.061       27.714      4.817       -9999.25    -9999.25    -9999.25    -9999.25    -9999.25    11.417      0.147       20.084      10.4        19.895      7.468       10.421      2.744       1.697       101.0       1.073       
51.03       19.771      2.961       27.766      4.848       -9999.25    -9999.25    -9999.25    -9999.25    -9999.25    10.732      0.147       20.084      10.4        19.895      7.468       10.421      2.77        1.68        101.001     1.073       
