~Version Information Section
VERS.                                         2.0:CWLS log ASCII Standart – VERSION 2.0
WRAP.                                          NO:One line per depth step
~Well Information Section
STRT.M                                        0.1:Начальная глубина
STOP.M                                      167.0:Конечная глубина
STEP.M                                          0:Шаг квантования по глубине
NULL.                                    -9999.25:Признак "Нет данных"
WELL.                                        143К:Скважина
~Parameter Information Section
~Curve Information Section
DEPTH.M                                          :Глубина
БК.Омм                                           :BK     (БК)
DСР.мм                                           :DS  (ДС)
ПЛОТНОСТЬ.г/см^3                                 :GGKp
ГК.гамма                                         :GK          (ГК)
ИК.мСм/м                                         :IK
НГК.усл.ед                                       :NGK     (НГК)
ННКМ.усл.ед                                      :NNKm  (ННКм)
ПС.mv                                            :PS       (ПС)
N11.0M0.5A.Омм                                   :PZ    (КС)
R.Омм                                            :RS (Резистивиметр)
КП.%                                             :W
А0.4М0.1N.Омм                                    :GZ1   ГЗ1(A0.4M0.1N)
А1.0М0.1N.Омм                                    :GZ2   ГЗ2(A1.0M0.1N)
А2.0М0.5N.Омм                                    :GZ3   ГЗ3(A2.0M0.5N)
А4.0М0.5N.Oмм                                    :GZ4   ГЗ4(A4.0M0.5N)
А8.0М1.0N.Омм                                    :GZ5   ГЗ5(A8.0M0.5N)
N0.5M2.0A.Омм                                    :GZR   ГЗK(N0.5M2.0A)
~ASCII LOG DATA
# ...
129.6       117.426     140.217     2.035       5.258       50.153      1.506       2.498       1.024       109.479     1.186       23.132      110.032     101.281     22.374      20.36       20.638      145.652     
129.7       110.56      140.228     2.04        5.128       51.568      1.493       2.478       0.85        111.055     1.179       23.46       109.396     105.879     22.949      20.36       23.218      144.197     
129.8       106.203     139.639     2.045       5.084       52.826      1.483       2.464       0.836       112.129     1.172       23.738      109.136     109.272     23.709      20.438      25.519      142.602     
129.9       104.181     139.2       2.053       5.07        53.975      1.474       2.453       0.96        112.709     1.164       23.837      108.733     111.48      24.606      20.629      27.305      139.95      
130.0       100.602     138.968     2.065       5.075       55.066      1.471       2.446       1.199       112.97      1.156       23.776      108.177     112.567     25.632      20.826      28.417      136.33      
130.1       98.15       138.915     2.079       5.003       56.12       1.477       2.441       1.527       113.242     1.148       23.573      107.663     113.321     26.934      20.966      28.618      132.123     
130.2       95.894      138.868     2.091       4.879       57.13       1.501       2.444       1.924       113.64      1.141       23.306      107.184     113.981     29.12       21.048      28.618      127.623     
130.3       97.14       138.856     2.098       4.944       58.059      1.53        2.451       2.369       114.215     1.133       23.074      106.708     114.515     32.845      21.101      28.618      123.395     
130.4       100.886     138.88      2.096       4.996       58.886      1.555       2.461       2.844       115.009     1.123       22.881      106.507     114.842     38.097      21.147      28.101      119.905     
130.5       106.664     138.85      2.091       4.97        59.57       1.576       2.467       3.336       115.843     1.113       22.671      106.377     114.926     44.518      21.209      27.579      117.588     
130.6       110.382     138.876     2.088       4.98        60.071      1.585       2.468       3.834       116.569     1.102       22.428      105.721     114.926     51.814      21.316      27.101      116.528     
130.7       108.91      138.979     2.09        5.028       60.405      1.569       2.459       4.329       117.086     1.089       22.229      104.666     114.926     59.398      21.46       26.663      116.239     
130.8       104.58      139.191     2.099       5.03        60.628      1.543       2.443       4.816       117.315     1.078       22.078      103.597     114.763     66.582      21.655      26.424      116.239     
130.9       101.481     139.229     2.114       5.02        60.805      1.52        2.433       5.288       117.359     1.07        22.001      102.552     114.601     73.271      21.935      26.424      116.239     
131.0       100.488     139.081     2.13        5.052       60.961      1.499       2.426       5.739       117.415     1.064       21.983      101.568     114.56      79.557      22.285      26.424      116.309     
131.1       99.679      139.049     2.142       5.002       61.121      1.482       2.421       6.166       117.467     1.061       22.051      100.565     114.046     85.326      22.659      26.424      116.753     
131.2       97.711      138.999     2.148       4.923       61.301      1.474       2.418       6.566       117.537     1.06        22.143      99.523      113.326     90.395      23.046      26.432      118.145     
131.3       95.706      138.761     2.149       4.809       61.508      1.466       2.419       6.938       117.656     1.06        22.276      99.006      113.111     94.647      23.476      26.62       120.347     
131.4       95.833      138.921     2.148       4.727       61.744      1.458       2.415       7.28        117.713     1.06        22.427      99.054      113.304     98.207      24.026      26.927      123.388     
131.5       96.986      138.634     2.148       4.712       61.992      1.458       2.411       7.591       117.937     1.06        22.614      99.188      113.535     101.438     24.789      27.397      127.149     
131.6       96.928      138.702     2.15        4.777       62.255      1.468       2.413       7.868       118.674     1.06        22.814      99.285      114.044     104.665     25.783      27.828      130.515     
131.7       95.116      138.603     2.153       4.89        62.539      1.486       2.419       8.109       119.929     1.06        23.045      100.108     115.08      107.988     26.977      28.25       133.007     
131.8       93.35       138.64      2.154       4.973       62.85       1.501       2.426       8.311       121.443     1.06        23.303      102.307     116.595     111.372     28.331      28.61       135.134     
131.9       93.003      138.629     2.15        5.062       63.191      1.507       2.436       8.47        123.074     1.06        23.648      105.479     118.942     114.454     29.692      29.068      137.221     
132.0       93.82       138.54      2.14        5.15        63.633      1.493       2.448       8.584       124.682     1.06        24.127      109.239     121.614     116.9       30.924      29.488      139.167     
132.1       97.882      138.612     2.128       5.217       64.214      1.464       2.455       8.65        126.058     1.06        24.666      113.27      123.297     118.631     32.15       29.888      140.807     
132.2       111.002     138.453     2.117       5.266       64.914      1.431       2.44        8.666       127.283     1.059       25.186      117.025     124.213     119.659     33.792      30.213      142.188     
132.3       135.253     138.424     2.116       5.209       65.699      1.396       2.426       8.628       128.64      1.057       25.702      120.154     125.116     120.33      36.509      30.582      144.166     
132.4       143.444     138.536     2.124       5.223       66.534      1.364       2.418       8.534       130.284     1.053       26.219      122.972     125.758     121.105     40.727      30.865      147.261     
132.5       139.907     138.248     2.137       5.28        67.322      1.34        2.411       8.383       132.287     1.047       26.712      125.704     126.291     122.109     46.527      31.19       151.807     
132.6       124.486     138.335     2.149       5.244       68.023      1.312       2.409       8.176       134.677     1.04        27.253      128.528     127.626     123.435     53.75       31.554      157.536     
132.7       125.498     138.511     2.158       5.165       68.634      1.278       2.425       7.913       137.452     1.033       27.861      131.526     130.164     125.481     62.237      32.007      162.352     
132.8       131.873     138.561     2.164       4.978       69.199      1.267       2.421       7.6         140.694     1.027       28.495      134.773     133.838     128.181     71.654      32.393      164.923     
132.9       138.812     138.638     2.173       4.81        69.745      1.266       2.407       7.242       144.029     1.023       29.029      139.16      139.302     131.006     81.265      32.736      165.678     
133.0       141.26      138.723     2.186       4.633       70.323      1.251       2.395       6.844       147.215     1.021       29.371      144.886     146.384     133.359     90.685      32.915      165.678     
133.1       147.604     138.547     2.202       4.559       70.942      1.237       2.391       6.416       150.169     1.02        29.551      150.554     153.314     134.779     99.657      32.975      165.445     
133.2       176.386     138.468     2.216       4.542       71.592      1.234       2.379       5.965       152.381     1.02        29.597      155.117     159.22      135.232     107.008     32.975      164.207     
