~Version Information Section
VERS.                                         2.0:CWLS log ASCII Standart – VERSION 2.0
WRAP.                                          NO:One line per depth step
~Well Information Section
STRT.M                                        0.2:Начальная глубина
STOP.M                                      176.0:Конечная глубина
STEP.M                                          0:Шаг квантования по глубине
NULL.                                    -9999.25:Признак "Нет данных"
WELL.                                       112Мх:Скважина
~Parameter Information Section
~Curve Information Section
DEPTH.M                                          :Глубина
BK.Ohm*M                                         :BK     (БК)
DS.mm                                            :DS  (ДС)
GGK.g/cm3                                        :GGKp
ГК.mcr/h                                         :GK          (ГК)
GZ1.Ohm*M                                        :GZ1   ГЗ1(A0.4M0.1N)
GZ2.Ohm*M                                        :GZ2   ГЗ2(A1.0M0.1N)
GZ3.Ohm*M                                        :GZ3   ГЗ3(A2.0M0.5N)
GZ4.Ohm*M                                        :GZ4   ГЗ4(A4.0M0.5N)
GZ5.Ohm*M                                        :GZ5   ГЗ5(A8.0M0.5N)
GZR.Ohm*M                                        :GZK   ГЗK(N0.5M2.0A)
ИК.Ohm*M                                         :IK
НГК.ue                                           :NGK     (НГК)
NNKM.                                            :NNKm  (ННКм)
PS.mv                                            :PS       (ПС)
PZ.Ohm*M                                         :PZ    (КС)
U1.mV                                            :U1
U2.mV                                            :U2
U3.mV                                            :U3
КП.%                                             :Кп
~ASCII LOG DATA
# ...
68.2        28.504      143.029     2.481       4.502       20.362      17.282      5.338       3.381       3.675       12.991      14.165      1.088       2.273       377.26      41.24       450.0       2720.0      340.0       44.605      
68.3        24.127      143.39      2.453       4.942       20.436      17.911      5.548       3.405       3.574       12.722      14.136      1.145       2.185       377.32      41.24       450.0       2780.0      340.0       43.536      
68.4        21.527      143.518     2.435       5.289       20.435      18.422      5.956       3.448       3.479       12.538      13.947      1.21        2.155       377.32      41.48       460.0       2780.0      340.0       40.033      
68.5        20.613      142.404     2.426       5.493       20.419      18.783      6.614       3.51        3.394       12.424      13.697      1.261       2.14        377.32      41.96       500.0       2780.0      340.0       37.248      
68.6        20.962      142.577     2.425       5.282       20.324      18.973      7.569       3.595       3.32        12.35       13.455      1.22        2.164       377.28      42.64       530.0       2730.0      340.0       37.915      
68.7        22.036      142.979     2.42        5.167       20.065      19.026      8.836       3.697       3.259       12.286      13.229      1.142       2.176       377.18      43.48       500.0       2730.0      360.0       40.305      
68.8        22.6        143.543     2.416       4.784       19.624      19.02       10.368      3.809       3.208       12.21       13.019      1.095       2.17        377.06      44.32       480.0       2770.0      360.0       42.138      
68.9        22.116      144.145     2.413       4.975       19.02       18.958      12.065      3.918       3.169       12.11       12.837      1.087       2.115       376.9       45.16       480.0       2800.0      360.0       40.09       
69.0        20.961      144.284     2.407       5.175       18.306      18.728      13.798      4.003       3.139       11.979      12.664      1.102       2.05        376.66      45.84       480.0       2800.0      360.0       37.288      
69.1        19.096      143.788     2.407       5.584       17.515      18.26       15.415      4.052       3.115       11.823      12.475      1.127       2.042       376.34      46.36       510.0       2770.0      400.0       37.087      
69.2        18.875      142.988     2.399       5.733       16.697      17.613      16.77       4.071       3.097       11.658      12.316      1.153       2.047       375.98      46.68       510.0       2770.0      380.0       39.149      
69.3        20.408      143.696     2.396       5.669       15.933      16.89       17.788      4.074       3.083       11.507      12.194      1.171       2.064       375.6       46.88       500.0       2790.0      280.0       43.065      
69.4        21.553      145.744     2.392       5.709       15.28       16.174      18.469      4.074       3.073       11.401      12.09       1.155       2.017       375.22      46.96       480.0       2780.0      280.0       45.487      
69.5        20.104      146.887     2.393       5.962       14.772      15.556      18.865      4.074       3.07        11.355      11.947      1.154       1.895       374.86      47.0        460.0       2780.0      280.0       47.904      
69.6        17.591      147.947     2.397       6.28        14.418      15.099      19.059      4.075       3.069       11.355      11.762      1.157       1.827       374.5       47.0        450.0       2780.0      330.0       48.708      
69.7        16.572      146.892     2.399       6.353       14.212      14.815      19.147      4.075       3.069       11.356      11.555      1.156       1.816       374.16      47.0        450.0       2790.0      330.0       46.397      
69.8        16.244      144.082     2.392       5.991       14.131      14.654      19.207      4.078       3.07        11.374      11.369      1.099       1.818       373.86      47.0        490.0       2790.0      490.0       43.183      
69.9        15.915      141.855     2.381       5.484       14.125      14.567      19.284      4.107       3.072       11.465      11.239      1.059       1.827       373.58      47.0        490.0       2800.0      460.0       42.407      
70.0        16.777      141.717     2.378       5.277       14.124      14.509      19.396      4.205       3.076       11.704      11.184      1.021       1.945       373.34      46.96       490.0       2800.0      440.0       43.318      
70.1        19.24       141.615     2.391       5.278       14.121      14.446      19.512      4.398       3.078       12.101      11.211      1.035       2.066       373.18      46.88       490.0       2700.0      370.0       41.521      
70.2        21.559      141.102     2.408       5.292       14.132      14.338      19.565      4.706       3.078       12.632      11.286      1.03        2.09        373.08      46.76       470.0       2660.0      370.0       38.049      
70.3        22.058      140.879     2.431       5.279       14.179      14.153      19.561      5.151       3.077       13.241      11.353      1.042       2.128       373.02      46.56       450.0       2660.0      390.0       35.862      
70.4        21.719      141.384     2.454       5.471       14.242      13.869      19.522      5.741       3.074       13.851      11.396      1.065       2.222       373.0       46.24       440.0       2690.0      420.0       36.205      
70.5        21.521      141.388     2.473       5.527       14.286      13.485      19.35       6.478       3.065       14.397      11.38       1.126       2.261       373.0       45.8        420.0       2710.0      460.0       36.673      
70.6        19.079      140.893     2.492       5.398       14.291      13.009      18.954      7.367       3.051       14.836      11.329      1.188       2.154       373.0       45.24       420.0       2670.0      540.0       35.875      
70.7        17.74       141.0       2.492       4.938       14.288      12.488      18.349      8.401       3.036       15.164      11.305      1.148       2.15        373.0       44.56       420.0       2670.0      560.0       34.565      
70.8        22.568      141.209     2.479       5.109       14.265      12.009      17.622      9.531       3.027       15.411      11.368      1.181       2.284       373.0       43.84       450.0       2680.0      570.0       35.501      
70.9        29.571      141.91      2.448       5.322       14.212      11.641      16.92       10.705      3.026       15.613      11.494      1.19        2.32        373.0       43.16       470.0       2690.0      560.0       37.626      
71.0        30.339      143.425     2.417       6.115       14.164      11.401      16.36       11.89       3.026       15.813      11.575      1.266       2.267       373.0       42.56       500.0       2690.0      540.0       39.869      
71.1        19.76       142.648     2.402       6.274       14.135      11.29       15.975      13.07       3.027       16.045      11.554      1.254       2.097       373.0       42.04       500.0       2690.0      540.0       40.255      
71.2        16.566      142.559     2.408       6.353       14.122      11.262      15.737      14.207      3.03        16.305      11.448      1.23        1.918       373.02      41.56       510.0       2587.939    526.495     41.772      
71.3        17.218      142.968     2.434       5.804       14.12       11.259      15.589      15.229      3.037       16.528      11.272      1.241       1.893       373.1       41.04       450.0       2587.939    473.195     40.661      
71.4        17.53       140.958     2.473       5.418       14.115      11.248      15.457      15.982      3.038       16.627      11.11       1.205       1.908       373.26      40.36       450.0       2642.897    418.425     37.843      
71.5        17.266      140.564     2.493       5.023       14.108      11.233      15.258      16.289      3.037       16.626      11.04       1.224       1.973       373.52      39.6        444.108     2660.245    386.401     33.531      
