~Version Information Section
VERS.                                         2.0:CWLS log ASCII Standart – VERSION 2.0
WRAP.                                          NO:One line per depth step
~Well Information Section
STRT.M                                        1.0:Начальная глубина
STOP.M                                      151.7:Конечная глубина
STEP.M                                          0:Шаг квантования по глубине
NULL.                                    -9999.25:Признак "Нет данных"
WELL.                                       117Мх:Скважина
~Parameter Information Section
~Curve Information Section
DEPTH.M                                          :Глубина
DСР.мм                                           :Dср
ГК.гамма                                         :GK
ИК.мСм/м                                         :IK
N0.5M2.0A.Омм.                                   :N0.5M2.0A.Омм
R.Омм                                            :R
U1.                                              :U1
U2.                                              :U2
U3.                                              :U3
W.имп/1,25с                                      :W
А0.4М0.1N.Омм.                                   :А0.4М0.1N.Омм
А1.0М0.1N.Омм.                                   :А1.0М0.1N.Омм
А2.0М0.5N.Омм.                                   :А2.0М0.5N.Омм
А4.0М0.5N.Oмм.                                   :А4.0М0.5N.Oмм
А8.0М1.0N.Омм.                                   :А8.0М1.0N.Омм
БЗ.имп/мин                                       :БЗ
БК.Омм                                           :БК
КС.Омм                                           :КС
ПС.                                              :ПС
МЗ.имп/мин                                       :МЗ
НГК.имп/1,25с                                    :ННКб
ННКМ.имп/1,25с                                   :ННКм
ПЛОТНОСТЬГГК.г/см3                               :плотностьГГК
~ASCII LOG DATA
# ...
146.0       121.736     11.14       11.157      -9999.25    -9999.25    20.166      7.776       12.843      32.04       -9999.25    -9999.25    -9999.25    -9999.25    -9999.25    12480.0     6.523       -9999.25    -9999.25    6100.0      2.209       1.473       2.324       
146.1       121.965     11.274      11.185      -9999.25    -9999.25    26.538      8.826       17.082      31.841      -9999.25    -9999.25    -9999.25    -9999.25    -9999.25    12500.0     6.422       -9999.25    -9999.25    6100.0      2.097       1.486       2.321       
146.2       121.894     11.243      11.213      -9999.25    -9999.25    28.881      9.692       18.952      31.531      -9999.25    -9999.25    -9999.25    -9999.25    -9999.25    12380.0     6.289       -9999.25    -9999.25    6160.0      2.087       1.504       2.315       
146.3       121.753     11.086      11.254      -9999.25    -9999.25    24.023      8.179       15.827      31.298      -9999.25    -9999.25    -9999.25    -9999.25    -9999.25    12560.0     6.105       -9999.25    -9999.25    6080.0      2.205       1.515       2.312       
146.4       121.672     11.002      11.315      -9999.25    -9999.25    19.58       6.47        13.241      31.019      -9999.25    -9999.25    -9999.25    -9999.25    -9999.25    12840.0     5.852       -9999.25    -9999.25    6260.0      2.338       1.506       2.308       
146.5       121.536     10.944      11.388      -9999.25    -9999.25    19.25       5.676       13.245      30.436      -9999.25    -9999.25    -9999.25    -9999.25    -9999.25    13000.0     5.514       -9999.25    -9999.25    6220.0      2.427       1.511       2.315       
146.6       121.471     10.811      11.472      -9999.25    -9999.25    16.162      4.212       10.843      29.757      -9999.25    -9999.25    -9999.25    -9999.25    -9999.25    13180.0     5.169       -9999.25    -9999.25    6140.0      2.433       1.517       2.324       
146.7       121.614     10.682      11.579      -9999.25    -9999.25    8.813       1.831       5.716       29.229      -9999.25    -9999.25    -9999.25    -9999.25    -9999.25    13260.0     5.005       -9999.25    -9999.25    6100.0      2.398       1.511       2.339       
146.8       121.625     10.686      11.698      -9999.25    -9999.25    8.667       1.831       5.583       28.926      -9999.25    -9999.25    -9999.25    -9999.25    -9999.25    12640.0     5.166       -9999.25    -9999.25    5960.0      2.364       1.493       2.359       
146.9       121.772     10.651      11.811      -9999.25    -9999.25    8.521       1.831       5.45        28.716      -9999.25    -9999.25    -9999.25    -9999.25    -9999.25    12040.0     5.684       -9999.25    -9999.25    5800.0      2.414       1.524       2.379       
147.0       121.888     10.451      11.91       -9999.25    -9999.25    4.26        0.916       2.725       28.454      -9999.25    -9999.25    -9999.25    -9999.25    -9999.25    11380.0     6.561       -9999.25    -9999.25    5880.0      2.54        1.568       2.394       
147.1       122.34      10.117      12.021      -9999.25    -9999.25    11.842      11.317      10.765      27.986      -9999.25    -9999.25    -9999.25    -9999.25    -9999.25    11040.0     7.581       -9999.25    -9999.25    5880.0      2.699       1.63        2.409       
147.2       121.92      9.796       12.206      -9999.25    -9999.25    23.681      22.631      21.528      27.269      -9999.25    -9999.25    -9999.25    -9999.25    -9999.25    10480.0     8.465       -9999.25    -9999.25    5840.0      2.841       1.689       2.416       
147.3       121.92      9.534       12.511      -9999.25    -9999.25    63.258      56.618      57.507      26.489      -9999.25    -9999.25    -9999.25    -9999.25    -9999.25    10000.0     9.404       -9999.25    -9999.25    5700.0      2.967       1.748       2.418       
147.4       121.773     9.28        12.888      -9999.25    -9999.25    102.829     90.598      93.481      25.895      -9999.25    -9999.25    -9999.25    -9999.25    -9999.25    10200.0     10.584      -9999.25    -9999.25    5740.0      3.089       1.755       2.419       
147.5       122.675     9.063       13.25       -9999.25    -9999.25    102.832     90.601      93.484      25.428      -9999.25    -9999.25    -9999.25    -9999.25    -9999.25    10280.0     11.723      -9999.25    -9999.25    5600.0      3.194       1.714       2.415       
147.6       119.556     9.055       13.593      -9999.25    -9999.25    90.989      79.283      82.717      24.878      -9999.25    -9999.25    -9999.25    -9999.25    -9999.25    9800.0      12.649      -9999.25    -9999.25    5500.0      3.305       1.745       2.413       
147.7       119.561     9.109       13.959      -9999.25    -9999.25    79.604      68.08       72.236      24.136      -9999.25    -9999.25    -9999.25    -9999.25    -9999.25    9920.0      13.303      -9999.25    -9999.25    5480.0      3.397       1.83        2.414       
147.8       119.379     8.853       14.31       -9999.25    -9999.25    40.477      34.203      36.536      23.459      -9999.25    -9999.25    -9999.25    -9999.25    -9999.25    10040.0     14.019      -9999.25    -9999.25    5480.0      3.481       1.888       2.408       
147.9       119.319     8.458       14.635      -9999.25    -9999.25    0.915       0.22        0.571       23.068      -9999.25    -9999.25    -9999.25    -9999.25    -9999.25    9900.0      16.1        -9999.25    -9999.25    5540.0      3.551       1.853       2.399       
148.0       119.324     8.153       14.951      -9999.25    -9999.25    0.928       0.22        0.582       23.002      -9999.25    -9999.25    -9999.25    -9999.25    -9999.25    10020.0     20.826      -9999.25    -9999.25    5500.0      3.704       1.819       2.39        
148.1       119.315     7.899       15.248      -9999.25    -9999.25    2.295       0.464       1.606       23.168      -9999.25    -9999.25    -9999.25    -9999.25    -9999.25    9940.0      26.882      -9999.25    -9999.25    5500.0      3.929       1.881       2.377       
148.2       119.208     7.685       15.547      -9999.25    -9999.25    3.21        0.598       2.35        23.442      -9999.25    -9999.25    -9999.25    -9999.25    -9999.25    10020.0     32.614      -9999.25    -9999.25    5520.0      4.055       1.967       2.364       
148.3       119.124     7.66        15.85       -9999.25    -9999.25    3.528       0.733       2.769       23.785      -9999.25    -9999.25    -9999.25    -9999.25    -9999.25    10420.0     37.717      -9999.25    -9999.25    5500.0      3.999       2.077       2.352       
148.4       119.219     7.675       16.135      -9999.25    -9999.25    4.285       0.977       3.457       24.175      -9999.25    -9999.25    -9999.25    -9999.25    -9999.25    10960.0     40.989      -9999.25    -9999.25    5540.0      3.779       2.119       2.344       
148.5       119.209     7.548       16.379      -9999.25    -9999.25    7.08        1.795       5.185       24.552      -9999.25    -9999.25    -9999.25    -9999.25    -9999.25    11480.0     41.404      -9999.25    -9999.25    5720.0      3.569       2.065       2.343       
148.6       119.077     7.399       16.562      -9999.25    -9999.25    8.521       2.368       5.9         24.807      -9999.25    -9999.25    -9999.25    -9999.25    -9999.25    11660.0     40.588      -9999.25    -9999.25    5740.0      3.468       1.967       2.355       
148.7       119.109     7.407       16.629      -9999.25    -9999.25    14.123      4.016       9.095       24.738      -9999.25    -9999.25    -9999.25    -9999.25    -9999.25    11880.0     40.4        -9999.25    -9999.25    5700.0      3.5         1.9         2.371       
148.8       119.115     7.471       16.607      -9999.25    -9999.25    20.325      5.664       12.615      24.406      -9999.25    -9999.25    -9999.25    -9999.25    -9999.25    11740.0     -9999.25    -9999.25    -9999.25    5760.0      3.64        1.923       2.389       
