~Version Information Section
VERS.                                         2.0:CWLS log ASCII Standart – VERSION 2.0
WRAP.                                          NO:One line per depth step
~Well Information Section
STRT.M                                        0.6:Начальная глубина
STOP.M                                      202.6:Конечная глубина
STEP.M                                          0:Шаг квантования по глубине
NULL.                                    -9999.25:Признак "Нет данных"
WELL.                                       130Мх:Скважина
~Parameter Information Section
~Curve Information Section
DEPTH.M                                          :Глубина
БК.Омм                                           :BK     (БК)
DСР.мм                                           :DS  (ДС)
W.g/cm3                                          :GGKp
ГК.гамма                                         :GK          (ГК)
А0.4М0.1N.Омм.ohmm                               :GZ1   ГЗ1(A0.4M0.1N)
А1.0М0.1N.Омм.ohmm                               :GZ2   ГЗ2(A1.0M0.1N)
А2.0М0.5N.Омм.ohmm                               :GZ3   ГЗ3(A2.0M0.5N)
А4.0М0.5N.Oмм.ohmm                               :GZ4   ГЗ4(A4.0M0.5N)
А8.0М1.0N.Омм.ohmm                               :GZ5   ГЗ5(A8.0M0.5N)
N0.5M2.0A.Омм.ohmm                               :GZK   ГЗK(N0.5M2.0A)
ИК.мСм/м                                         :IK
НГК.усл.ед                                       :NNKb  (ННКб)
ННКМ.усл.ед                                      :NNKm  (ННКм)
ПС.мВ                                            :PS       (ПС)
КС.Омм                                           :PZ    (КС)
R.Омм                                            :RS (Резистивиметр)
U1.мВ                                            :U1
U2.mV                                            :U2
U3.мВ                                            :U3
КП.%                                             :Кп
~ASCII LOG DATA
# ...
131.8       90.066      127.675     2.206       4.05        124.817     116.776     110.403     78.335      23.364      64.21       42.97       3.076       1.877       244.237     156.776     1.08        1111.638    1035.638    1023.638    24.46       
131.9       76.762      127.748     2.203       4.032       124.485     117.27      110.659     81.862      24.676      64.052      42.274      3.113       1.86        246.305     154.04      1.08        1059.634    948.641     908.536     23.293      
132.0       75.466      128.492     2.208       3.75        126.27      117.275     111.055     84.692      26.592      63.627      41.456      3.16        1.853       247.156     152.752     1.08        1009.999    829.951     750.63      23.053      
132.1       86.002      130.51      2.22        3.71        128.873     117.452     112.762     87.17       29.183      62.869      40.743      3.192       1.892       247.156     152.448     1.08        972.355     721.388     622.264     24.207      
132.2       110.963     131.431     2.235       3.774       130.853     117.452     116.111     90.579      31.791      61.533      40.204      3.226       1.954       247.156     152.328     1.08        952.764     655.096     492.478     25.353      
132.3       114.566     131.361     2.256       4.096       134.046     116.401     120.383     94.417      34.387      59.731      39.69       3.215       1.927       246.511     152.224     1.08        958.586     588.789     374.668     26.166      
132.4       92.229      131.211     2.276       4.064       134.831     115.242     124.143     97.09       37.331      57.863      39.113      3.154       1.855       244.022     151.992     1.08        939.397     543.673     312.192     25.94       
132.5       80.72       131.476     2.287       3.804       131.298     114.899     125.549     98.044      40.332      55.848      38.615      3.179       1.911       239.403     151.2       1.08        879.811     537.639     318.417     26.712      
132.6       97.582      131.539     2.288       3.78        125.077     111.738     125.549     98.127      43.074      54.017      38.101      3.243       1.991       232.668     149.232     1.08        793.791     529.604     366.494     27.735      
132.7       107.789     130.13      2.287       3.873       115.42      105.428     125.432     98.127      46.397      52.821      37.368      3.199       1.965       224.05      145.504     1.08        689.739     523.314     409.5       28.181      
132.8       70.243      130.522     2.278       4.06        101.223     97.876      123.495     97.045      49.33       52.067      36.496      3.068       1.934       213.935     139.8       1.08        639.241     529.577     441.456     27.617      
132.9       46.966      131.38      2.27        4.077       91.719      90.35       118.957     93.392      51.234      51.327      35.491      3.029       1.87        202.936     132.672     1.08        615.662     518.719     444.635     26.949      
133.0       48.592      131.112     2.27        4.191       82.562      83.588      112.435     87.693      51.514      50.41       34.495      2.943       1.812       191.682     125.424     1.08        580.978     477.102     413.625     26.633      
133.1       52.226      130.94      2.269       4.391       72.776      77.424      105.295     81.732      51.514      49.384      33.817      2.981       1.835       180.724     119.352     1.08        548.421     445.86      367.199     26.289      
133.2       40.358      130.935     2.264       4.478       69.32       71.972      99.1        76.13       51.514      47.704      33.514      3.034       1.861       170.472     115.096     1.08        515.875     414.626     341.513     26.192      
133.3       39.733      131.013     2.259       4.613       67.093      67.327      93.041      70.372      51.043      45.054      33.469      2.969       1.873       161.131     113.696     1.08        455.542     400.752     367.181     26.382      
133.4       51.105      130.584     2.25        4.718       66.217      63.465      86.277      64.724      49.698      41.997      33.63       2.868       1.883       152.7       113.696     1.08        408.208     426.004     453.57      26.671      
133.5       52.292      130.436     2.236       4.713       66.083      59.755      79.155      59.617      47.167      39.257      34.096      2.888       1.883       145.117     113.696     1.08        384.271     452.96      549.855     27.566      
133.6       55.837      130.585     2.229       4.804       65.239      56.949      71.925      55.356      44.27       37.431      34.597      2.922       1.883       138.335     113.696     1.08        361.98      471.139     646.16      28.063      
133.7       58.702      129.826     2.226       4.76        63.853      55.726      65.311      52.908      43.224      36.823      34.861      2.932       1.876       132.356     113.696     1.08        339.695     486.02      755.346     28.345      
133.8       54.277      129.936     2.222       5.002       63.051      55.509      60.718      52.27       43.224      36.823      34.915      2.929       1.869       127.244     115.16      1.08        302.043     470.974     775.347     26.687      
133.9       51.74       129.379     2.222       4.973       63.635      55.509      58.904      52.27       43.224      36.823      34.844      2.874       1.862       123.098     118.824     1.08        288.143     434.828     712.981     24.009      
134.0       52.706      129.055     2.224       5.051       65.061      55.509      58.743      52.27       43.224      37.151      34.727      2.825       1.841       119.982     123.648     1.08        307.451     422.959     649.03      21.23       
134.1       49.446      129.06      2.225       4.886       66.833      56.481      58.743      53.053      44.048      38.769      34.555      2.885       1.793       117.901     129.328     1.08        326.163     423.509     591.017     19.377      
134.2       47.692      129.385     2.235       4.658       68.552      59.773      58.743      55.785      46.461      42.174      34.563      2.988       1.775       116.672     134.776     1.08        344.871     427.355     532.857     19.491      
134.3       73.145      129.889     2.25        4.338       70.546      65.501      60.512      60.882      51.611      46.712      34.589      3.043       1.84        116.168     139.336     1.08        390.162     442.139     497.912     20.51       
134.4       148.183     130.67      2.269       4.167       77.897      74.024      65.804      67.333      58.31       50.781      34.777      3.129       1.906       116.168     142.864     1.08        481.692     467.422     493.852     22.657      
134.5       176.752     130.735     2.29        3.987       93.041      84.043      73.329      72.373      63.411      53.105      34.876      3.266       1.98        116.168     145.504     1.08        619.866     515.827     489.793     24.187      
134.6       193.719     130.878     2.306       4.067       108.285     90.055      79.885      74.109      66.027      53.782      34.705      3.43        2.069       116.168     146.632     1.08        750.515     592.222     517.291     25.892      
134.7       235.786     131.225     2.311       4.064       118.696     91.235      82.863      74.109      66.388      53.782      34.446      3.558       2.144       116.266     146.632     1.08        845.061     654.941     536.017     26.974      
134.8       287.122     131.818     2.314       4.006       123.155     91.6        83.287      74.083      66.388      53.566      33.824      3.613       2.153       116.855     145.952     1.08        877.935     682.758     563.083     28.683      
134.9       255.182     131.479     2.31        4.135       123.322     91.892      83.287      72.169      66.388      52.135      32.799      3.496       2.08        117.839     143.136     1.08        795.321     673.682     597.447     29.481      
