~Version Information Section
VERS.                                         2.0:CWLS log ASCII Standart – VERSION 2.0
WRAP.                                          NO:One line per depth step
~Well Information Section
STRT.M                                        0.4:Начальная глубина
STOP.M                                      206.4:Конечная глубина
STEP.M                                          0:Шаг квантования по глубине
NULL.                                    -9999.25:Признак "Нет данных"
WELL.                                       157Мх:Скважина
~Parameter Information Section
~Curve Information Section
DEPTH.M                                          :Глубина
BK.Ohm*M                                         :BK     (БК)
DS.mm                                            :DS  (ДС)
GGK.g/cm3                                        :GGKp
ГК.mcr/h                                         :GK          (ГК)
GZ1.Ohm*M                                        :GZ1   ГЗ1(A0.4M0.1N)
GZ2.Ohm*M                                        :GZ2   ГЗ2(A1.0M0.1N)
GZ3.Ohm*M                                        :GZ3   ГЗ3(A2.0M0.5N)
GZ4.Ohm*M                                        :GZ4   ГЗ4(A4.0M0.5N)
GZ5.Ohm*M                                        :GZ5   ГЗ5(A8.0M0.5N)
GZR.                                             :GZR   ГЗK(N0.5M2.0A)
ИК.Ohm*M                                         :IK
НГК.ue                                           :NGK     (НГК)
NNKM.                                            :NNKm  (ННКм)
PS.mv                                            :PS       (ПС)
PZ.Ohm*M                                         :PZ    (КС)
RS.Ohm*M                                         :RS (Резистивиметр)
W.%                                              :W
~ASCII LOG DATA
# ...
159.5       21.171      152.336     2.333       8.836       20.726      17.376      19.505      17.756      25.125      24.036      19.137      1.456       1.987       192.875     26.88       1.135       30.673      
159.6       21.009      152.469     2.328       8.875       20.254      17.265      18.906      16.825      24.197      24.731      19.189      1.376       2.013       189.988     26.878      1.135       31.604      
159.7       21.028      152.494     2.328       8.949       19.497      17.155      18.325      16.112      23.296      25.491      19.23       1.327       2.042       187.424     26.833      1.137       31.714      
159.8       21.345      152.436     2.33        9.048       18.814      17.116      17.742      15.575      22.541      26.386      19.216      1.31        2.044       184.932     26.663      1.136       30.725      
159.9       21.067      153.048     2.331       9.057       18.466      17.139      17.202      15.146      21.945      27.42       19.193      1.333       2.031       182.283     26.627      1.135       29.463      
160.0       20.173      153.142     2.33        8.899       18.469      17.28       16.776      14.799      21.494      28.676      19.186      1.342       2.012       179.428     26.637      1.135       28.708      
160.1       19.986      153.216     2.324       8.525       18.492      17.492      16.507      14.492      21.215      30.138      19.252      1.356       1.997       176.718     26.69       1.135       28.613      
160.2       20.249      153.289     2.32        8.386       18.507      17.568      16.342      14.221      21.128      31.821      19.347      1.422       2.002       174.173     26.759      1.133       28.536      
160.3       20.574      153.288     2.318       8.544       18.49       17.529      16.268      13.982      21.12       33.532      19.419      1.499       2.022       171.888     26.798      1.136       28.311      
160.4       20.625      153.241     2.322       8.994       18.441      17.332      16.283      13.816      21.162      35.327      19.501      1.55        2.041       170.128     26.819      1.136       28.798      
160.5       19.874      153.185     2.331       9.344       18.347      17.174      16.406      13.815      21.18       37.482      19.73       1.532       2.053       168.997     26.845      1.137       29.505      
160.6       19.747      153.269     2.339       9.226       18.409      17.218      16.757      13.851      21.167      40.33       20.094      1.495       2.063       168.182     26.859      1.139       29.072      
160.7       20.741      153.302     2.341       8.932       18.812      17.551      17.326      14.072      21.034      43.359      20.593      1.491       2.091       167.601     26.841      1.138       27.603      
160.8       22.487      153.252     2.336       8.519       19.601      18.284      17.91       14.378      20.757      45.739      21.091      1.521       2.12        167.237     26.745      1.136       26.662      
160.9       22.64       153.239     2.329       8.334       20.318      18.703      18.121      14.388      20.395      46.509      21.467      1.558       2.137       166.897     26.492      1.133       26.62       
161.0       21.427      153.408     2.319       8.261       20.411      18.592      18.049      14.257      20.213      46.377      21.79       1.559       2.143       166.569     26.166      1.13        26.323      
161.1       20.432      153.566     2.312       8.309       20.284      17.825      17.558      13.469      20.184      45.559      21.997      1.468       2.154       166.261     26.062      1.126       26.105      
161.2       18.533      153.822     2.304       8.786       19.535      16.121      16.493      12.096      20.373      44.399      22.445      1.386       2.124       165.685     26.111      1.122       27.17       
161.3       16.289      153.889     2.295       9.131       18.248      14.171      15.231      10.46       20.82       44.518      22.879      1.322       2.066       164.326     26.464      1.122       29.275      
161.4       15.096      153.893     2.288       9.138       16.552      12.507      14.069      8.709       21.341      44.942      23.708      1.344       2.021       161.71      27.348      1.122       30.935      
161.5       14.509      153.927     2.289       8.655       14.735      11.3        13.404      6.69        21.832      44.735      25.1        1.406       2.028       157.167     28.633      1.123       32.11       
161.6       15.775      154.077     2.301       8.191       14.051      11.245      13.407      4.34        22.365      44.16       27.056      1.437       2.106       150.323     30.272      1.121       33.693      
161.7       23.549      154.176     2.321       7.503       14.231      11.446      13.559      2.633       23.016      40.628      29.557      1.406       2.185       141.382     32.174      1.119       34.19       
161.8       41.812      154.15      2.343       6.428       15.618      12.693      14.331      2.535       23.952      34.586      32.441      1.35        2.304       130.47      34.461      1.117       32.476      
161.9       55.754      154.09      2.362       5.362       19.531      14.865      15.356      2.918       25.388      29.475      35.48       1.337       2.395       118.051     37.622      1.115       30.001      
162.0       62.638      154.084     2.368       4.729       26.631      16.921      16.309      5.021       27.279      26.793      37.92       1.399       2.472       104.894     43.014      1.115       29.03       
162.1       64.069      154.02      2.36        4.724       37.401      18.802      17.252      7.708       29.455      25.945      40.041      1.462       2.499       91.753      51.207      1.112       29.984      
162.2       62.399      153.862     2.352       4.855       49.104      20.408      18.387      9.671       31.827      26.148      40.943      1.519       2.54        78.932      60.823      1.109       31.172      
162.3       59.054      153.829     2.351       5.217       58.228      22.036      20.03       11.248      34.334      27.421      41.691      1.566       2.58        67.384      69.849      1.11        30.759      
162.4       57.292      153.764     2.374       5.417       63.452      24.559      22.419      13.097      36.924      29.812      41.856      1.613       2.654       57.73       77.845      1.11        28.685      
162.5       65.979      153.428     2.413       5.508       68.11       29.342      25.376      15.292      39.685      32.584      42.391      1.642       2.701       50.231      84.573      1.109       25.419      
162.6       93.633      153.623     2.46        5.451       74.845      37.394      28.445      17.982      42.889      35.325      42.616      1.691       2.801       44.81       90.699      1.108       22.538      
162.7       85.51       154.269     2.498       5.44        80.478      47.783      31.576      20.917      46.614      37.635      42.115      1.74        2.868       41.603      96.417      1.109       20.76       
162.8       76.801      154.733     2.508       5.5         85.076      59.205      34.877      24.136      50.817      39.299      41.173      1.9         2.947       40.053      104.148     1.108       19.653      
162.9       112.475     155.383     2.497       5.544       91.516      71.063      38.529      27.674      55.282      40.239      39.826      2.0         2.964       39.645      113.707     1.109       19.785      
163.0       133.813     155.345     2.468       5.607       101.63      83.908      42.484      31.867      59.854      41.076      38.413      2.017       2.942       39.645      123.849     1.114       20.525      
163.1       103.044     155.936     2.443       5.729       111.045     95.796      46.983      36.844      64.409      41.946      36.7        1.93        2.899       39.645      132.824     1.122       21.122      
