~Version Information Section
VERS.                                         2.0:CWLS log ASCII Standart – VERSION 2.0
WRAP.                                          NO:One line per depth step
~Well Information Section
STRT.M                                        0.0:Начальная глубина
STOP.M                                      166.2:Конечная глубина
STEP.M                                          0:Шаг квантования по глубине
NULL.                                    -9999.25:Признак "Нет данных"
WELL.                                         1Мх:Скважина
~Parameter Information Section
~Curve Information Section
DEPTH.M                                          :Глубина
BK.lgОмм                                         :BK
ПРОФ_СР.мм                                       :ПРОФ_СР
GGKP.имп/мин                                     :GGKp
ГК.мкР/час                                       :GK
ИК.мСм/м                                         :IK
PS.мВ                                            :PS
PZ.Омм                                           :PZ
RIS.Омм                                          :RIS
U1.мВ                                            :U1
U2.мВ                                            :U2
U3.mv                                            :U3
WS.%                                             :WS
ГЗ1.Омм                                          :ГЗ1
ГЗ2.Омм                                          :ГЗ2
ГЗ3.Омм                                          :ГЗ3
ГЗ4.Oмм                                          :ГЗ4
ГЗК.Омм                                          :ГЗК
НГК.усл.ед                                       :ННКб
ННКМ.усл.ед                                      :ННКм
ГЗ5.Oмм                                          :ГЗ5
ПЛ1.имп/мин                                      :ПЛ1
ПЛ2.имп/мин                                      :ПЛ2
ПЛ3.имп/мин                                      :ПЛ3
ПЛ4.имп/мин                                      :ПЛ4
~ASCII LOG DATA
# ...
162.0       30.294      145.958     2.232       3.81        19.431      164.576     18.234      -9999.25    1789.816    1467.763    1245.642    26.253      -9999.25    -9999.25    -9999.25    -9999.25    -9999.25    4.352       2.535       -9999.25    13080.0     24100.0     14140.0     2460.0      
162.1       32.64       146.418     2.227       3.761       19.659      165.379     18.995      -9999.25    1731.925    1441.229    1243.505    26.384      -9999.25    -9999.25    -9999.25    -9999.25    -9999.25    4.373       2.558       -9999.25    13080.0     25360.0     14780.0     2320.0      
162.2       32.962      146.562     2.211       3.857       19.744      165.712     19.569      -9999.25    1670.651    1408.594    1232.864    26.781      -9999.25    -9999.25    -9999.25    -9999.25    -9999.25    4.373       2.575       -9999.25    15360.0     25980.0     14700.0     2280.0      
162.3       30.805      147.032     2.211       3.829       19.807      165.903     20.008      -9999.25    1606.006    1369.864    1213.721    26.881      -9999.25    -9999.25    -9999.25    -9999.25    -9999.25    4.305       2.579       -9999.25    18720.0     26060.0     14520.0     2520.0      
162.4       27.921      147.227     2.228       3.862       19.806      166.011     20.322      -9999.25    1613.748    1351.993    1179.395    26.695      -9999.25    -9999.25    -9999.25    -9999.25    -9999.25    4.154       2.55        -9999.25    16800.0     26520.0     14960.0     2420.0      
162.5       26.409      146.374     2.229       4.126       19.871      165.81      20.412      -9999.25    1693.875    1354.988    1129.898    26.739      -9999.25    -9999.25    -9999.25    -9999.25    -9999.25    4.057       2.487       -9999.25    19440.0     26400.0     14740.0     2340.0      
162.6       27.349      146.482     2.228       4.103       19.935      165.15      20.351      -9999.25    1830.354    1415.752    1136.799    26.688      -9999.25    -9999.25    -9999.25    -9999.25    -9999.25    4.084       2.417       -9999.25    16920.0     26820.0     14540.0     2540.0      
162.7       31.649      145.397     2.23        4.036       20.087      164.037     20.103      -9999.25    2023.178    1534.293    1200.116    26.537      -9999.25    -9999.25    -9999.25    -9999.25    -9999.25    4.252       2.38        -9999.25    19560.0     27020.0     14500.0     2480.0      
162.8       34.64       146.117     2.234       4.007       20.175      162.445     19.896      -9999.25    2119.658    1606.596    1255.054    26.394      -9999.25    -9999.25    -9999.25    -9999.25    -9999.25    4.434       2.431       -9999.25    21120.0     26720.0     14660.0     2560.0      
162.9       36.304      146.442     2.265       3.949       20.109      160.764     19.615      -9999.25    2077.395    1615.003    1299.44     25.601      -9999.25    -9999.25    -9999.25    -9999.25    -9999.25    4.564       2.529       -9999.25    18960.0     26220.0     14300.0     2600.0      
163.0       34.941      146.968     2.275       3.744       19.978      158.877     19.441      -9999.25    2006.792    1574.719    1286.359    25.12       -9999.25    -9999.25    -9999.25    -9999.25    -9999.25    4.63        2.605       -9999.25    18360.0     25260.0     13780.0     2600.0      
163.1       35.022      146.656     2.271       3.839       19.871      156.825     19.279      -9999.25    1893.911    1445.65     1161.6      25.197      -9999.25    -9999.25    -9999.25    -9999.25    -9999.25    4.609       2.617       -9999.25    17040.0     24520.0     13500.0     2360.0      
163.2       35.075      145.064     2.265       3.933       19.828      154.963     18.974      -9999.25    1723.642    1280.535    1015.389    25.284      -9999.25    -9999.25    -9999.25    -9999.25    -9999.25    4.59        2.591       -9999.25    16080.0     25400.0     13840.0     2320.0      
163.3       -9999.25    144.362     2.254       3.994       19.764      153.505     18.723      -9999.25    1648.632    1183.379    912.53      25.102      -9999.25    -9999.25    -9999.25    -9999.25    -9999.25    4.642       2.591       -9999.25    14640.0     26440.0     14960.0     2420.0      
163.4       -9999.25    144.175     2.266       3.949       19.85       152.686     18.793      -9999.25    1668.872    1154.15     852.978     24.442      -9999.25    -9999.25    -9999.25    -9999.25    -9999.25    4.764       2.617       -9999.25    14880.0     26960.0     16040.001   2660.0      
163.5       -9999.25    144.164     2.295       3.958       19.892      152.112     18.961      -9999.25    1673.961    1177.64     883.644     23.549      -9999.25    -9999.25    -9999.25    -9999.25    -9999.25    4.911       2.648       -9999.25    17520.0     27440.0     16600.0     2740.0      
163.6       -9999.25    143.969     2.311       3.993       19.892      151.517     19.573      -9999.25    1663.898    1253.864    1004.55     23.661      -9999.25    -9999.25    -9999.25    -9999.25    -9999.25    5.007       2.667       -9999.25    15960.0     26580.0     16160.001   2580.0      
163.7       -9999.25    143.851     2.314       3.882       19.892      -9999.25    20.04       -9999.25    1645.924    1314.014    1108.099    24.25       -9999.25    -9999.25    -9999.25    -9999.25    -9999.25    5.085       2.705       -9999.25    16320.0     26300.0     15800.001   2580.0      
163.8       -9999.25    144.358     2.293       3.82        19.764      -9999.25    20.401      -9999.25    1620.042    1358.082    1194.276    24.959      -9999.25    -9999.25    -9999.25    -9999.25    -9999.25    5.054       2.771       -9999.25    -9999.25    -9999.25    -9999.25    -9999.25    
163.9       -9999.25    143.739     2.286       3.947       19.555      -9999.25    20.672      -9999.25    1618.758    1387.839    1240.339    25.842      -9999.25    -9999.25    -9999.25    -9999.25    -9999.25    4.897       2.816       -9999.25    -9999.25    -9999.25    -9999.25    -9999.25    
164.0       -9999.25    144.052     2.27        3.948       19.311      -9999.25    20.706      -9999.25    1642.073    1403.278    1246.273    27.239      -9999.25    -9999.25    -9999.25    -9999.25    -9999.25    4.548       2.781       -9999.25    -9999.25    -9999.25    -9999.25    -9999.25    
164.1       -9999.25    143.477     2.255       3.844       19.091      -9999.25    20.444      -9999.25    1646.029    1390.448    1221.627    28.642      -9999.25    -9999.25    -9999.25    -9999.25    -9999.25    4.166       2.66        -9999.25    -9999.25    -9999.25    -9999.25    -9999.25    
164.2       -9999.25    144.255     2.222       -9999.25    18.953      -9999.25    20.064      -9999.25    1638.533    1365.421    1183.758    29.945      -9999.25    -9999.25    -9999.25    -9999.25    -9999.25    3.836       2.524       -9999.25    -9999.25    -9999.25    -9999.25    -9999.25    
164.3       -9999.25    144.568     2.178       -9999.25    18.857      -9999.25    19.606      -9999.25    1619.587    1328.204    1132.675    30.74       -9999.25    -9999.25    -9999.25    -9999.25    -9999.25    3.662       2.423       -9999.25    -9999.25    -9999.25    -9999.25    -9999.25    
164.4       -9999.25    144.491     2.157       -9999.25    18.76       -9999.25    19.085      -9999.25    1556.672    1277.029    1091.133    31.196      -9999.25    -9999.25    -9999.25    -9999.25    -9999.25    3.567       2.373       -9999.25    -9999.25    -9999.25    -9999.25    -9999.25    
164.5       -9999.25    143.835     2.156       -9999.25    18.76       -9999.25    18.576      -9999.25    1449.81     1211.911    1059.146    31.002      -9999.25    -9999.25    -9999.25    -9999.25    -9999.25    3.545       2.356       -9999.25    -9999.25    -9999.25    -9999.25    -9999.25    
164.6       -9999.25    143.601     2.146       -9999.25    18.816      -9999.25    -9999.25    -9999.25    1367.046    1161.219    1049.683    30.458      -9999.25    -9999.25    -9999.25    -9999.25    -9999.25    3.58        2.348       -9999.25    -9999.25    -9999.25    -9999.25    -9999.25    
