~Version Information Section
VERS.                                         2.0:CWLS log ASCII Standart – VERSION 2.0
WRAP.                                          NO:One line per depth step
~Well Information Section
STRT.M                                        0.1:Начальная глубина
STOP.M                                      167.0:Конечная глубина
STEP.M                                          0:Шаг квантования по глубине
NULL.                                    -9999.25:Признак "Нет данных"
WELL.                                        143К:Скважина
~Parameter Information Section
~Curve Information Section
DEPTH.M                                          :Глубина
БК.Омм                                           :BK     (БК)
DСР.мм                                           :DS  (ДС)
ПЛОТНОСТЬ.г/см^3                                 :GGKp
ГК.гамма                                         :GK          (ГК)
ИК.мСм/м                                         :IK
НГК.усл.ед                                       :NGK     (НГК)
ННКМ.усл.ед                                      :NNKm  (ННКм)
ПС.mv                                            :PS       (ПС)
N11.0M0.5A.Омм                                   :PZ    (КС)
R.Омм                                            :RS (Резистивиметр)
КП.%                                             :W
А0.4М0.1N.Омм                                    :GZ1   ГЗ1(A0.4M0.1N)
А1.0М0.1N.Омм                                    :GZ2   ГЗ2(A1.0M0.1N)
А2.0М0.5N.Омм                                    :GZ3   ГЗ3(A2.0M0.5N)
А4.0М0.5N.Oмм                                    :GZ4   ГЗ4(A4.0M0.5N)
А8.0М1.0N.Омм                                    :GZ5   ГЗ5(A8.0M0.5N)
N0.5M2.0A.Омм                                    :GZR   ГЗK(N0.5M2.0A)
~ASCII LOG DATA
# ...
107.4       26.264      231.402     2.264       8.045       23.689      1.076       1.797       57.38       27.179      1.1         34.509      27.518      30.65       27.157      28.198      33.735      25.91       
107.5       26.158      232.073     2.265       8.165       23.546      1.104       1.779       56.965      27.003      1.1         34.577      27.406      30.441      27.263      28.322      33.954      26.444      
107.6       25.332      232.306     2.269       8.15        23.397      1.129       1.762       56.504      26.9        1.1         34.561      27.406      30.344      27.553      28.627      34.204      26.946      
107.7       23.8        232.305     2.278       8.036       23.255      1.13        1.765       56.004      26.836      1.1         34.617      27.406      30.303      27.993      29.053      34.388      27.205      
107.8       22.805      232.284     2.287       7.6         23.132      1.123       1.795       55.475      26.816      1.1         34.451      27.588      30.322      28.44       29.388      34.388      27.249      
107.9       23.008      232.36      2.296       7.279       23.029      1.115       1.832       54.931      26.828      1.1         34.223      28.128      30.363      28.657      29.5        34.271      27.249      
108.0       24.433      231.867     2.305       7.024       22.953      1.104       1.867       54.382      26.86       1.1         33.832      28.674      30.363      28.68       29.5        34.165      27.105      
108.1       26.128      232.167     2.313       7.123       22.9        1.088       1.9         53.841      26.876      1.1         33.42       28.978      30.158      28.68       29.461      34.073      26.697      
108.2       27.156      232.65      2.321       7.249       22.863      1.067       1.914       53.32       26.847      1.099       33.037      29.137      29.731      28.542      29.236      33.643      26.117      
108.3       27.202      233.174     2.326       7.431       22.834      1.057       1.905       52.83       26.798      1.098       32.657      29.181      29.341      28.15       28.716      32.933      25.498      
108.4       26.921      239.294     2.326       7.57        22.814      1.054       1.897       52.383      26.749      1.095       32.321      29.181      29.007      27.599      28.051      32.036      24.938      
108.5       27.014      238.138     2.317       7.695       22.795      1.053       1.882       51.989      26.721      1.092       32.308      29.129      28.706      27.004      27.417      31.12       24.475      
108.6       27.3        234.333     2.301       7.872       22.767      1.048       1.859       51.658      26.701      1.088       32.4        28.896      28.514      26.422      26.815      30.214      24.079      
108.7       27.382      230.59      2.284       8.028       22.719      1.042       1.838       51.396      26.616      1.085       32.599      28.504      28.421      25.897      26.25       29.399      23.753      
108.8       26.941      229.625     2.266       8.199       22.644      1.044       1.814       51.209      26.458      1.082       32.91       28.113      28.383      25.463      25.777      28.63       23.535      
108.9       26.195      229.045     2.252       8.035       22.537      1.052       1.791       51.104      26.254      1.081       33.294      27.799      28.363      25.084      25.384      27.896      23.392      
109.0       25.642      228.451     2.244       7.856       22.4        1.06        1.783       51.081      26.035      1.08        33.634      27.466      28.333      24.755      25.026      27.272      23.297      
109.1       25.531      228.182     2.242       7.742       22.249      1.082       1.775       51.146      25.823      1.079       33.955      27.079      28.221      24.509      24.729      26.727      23.252      
109.2       25.61       227.956     2.244       7.784       22.093      1.11        1.771       51.305      25.577      1.078       34.132      26.617      27.871      24.301      24.473      26.301      23.19       
109.3       25.336      227.999     2.249       7.939       21.939      1.12        1.779       51.561      25.274      1.075       34.281      26.013      27.33       24.013      24.19       26.168      23.102      
109.4       24.527      228.139     2.256       8.183       21.794      1.123       1.79        51.918      24.957      1.072       34.345      25.364      26.743      23.744      23.974      26.168      23.067      
109.5       23.723      228.587     2.262       8.378       21.665      1.13        1.792       52.377      24.655      1.068       34.357      24.745      26.122      23.653      23.911      26.168      23.077      
109.6       23.719      228.93      2.265       8.332       21.552      1.122       1.796       52.939      24.412      1.065       34.36       24.272      25.725      23.653      23.911      26.168      23.086      
109.7       24.354      229.045     2.265       8.203       21.459      1.112       1.793       53.601      24.312      1.062       34.464      24.101      25.655      23.653      23.911      26.255      23.152      
109.8       24.07       229.062     2.264       8.011       21.392      1.119       1.789       54.36       24.304      1.061       34.536      24.101      25.655      23.724      24.025      26.498      23.431      
109.9       22.866      229.078     2.264       7.897       21.358      1.126       1.774       55.208      24.303      1.06        34.612      24.101      25.655      24.011      24.411      26.795      23.792      
110.0       22.002      229.143     2.265       7.821       21.352      1.124       1.762       56.136      24.265      1.06        34.623      24.351      25.647      24.482      24.937      27.077      24.026      
110.1       22.2        229.232     2.27        7.784       21.352      1.133       1.759       57.129      24.24       1.06        34.554      24.997      25.661      24.958      25.361      27.153      24.114      
110.2       22.714      229.582     2.279       7.578       21.362      1.141       1.769       58.173      24.289      1.06        34.282      25.736      25.67       25.3        25.597      27.153      24.114      
110.3       22.782      229.739     2.288       7.397       21.404      1.132       1.786       59.248      24.38       1.06        34.062      26.451      25.707      25.422      25.662      27.153      24.118      
110.4       23.08       229.843     2.296       7.407       21.481      1.117       1.823       60.333      24.473      1.06        33.861      26.991      25.758      25.422      25.662      27.096      24.052      
110.5       24.294      229.875     2.299       7.429       21.574      1.106       1.849       61.408      24.55       1.06        33.724      27.158      25.762      25.384      25.615      26.828      23.786      
110.6       26.321      229.908     2.297       7.45        21.659      1.099       1.862       62.451      24.638      1.06        33.648      27.158      25.717      25.179      25.384      26.423      23.483      
110.7       27.877      229.915     2.292       7.608       21.724      1.098       1.861       63.445      24.691      1.06        33.881      26.967      25.668      24.848      25.088      26.009      23.352      
110.8       27.675      229.978     2.289       7.814       21.754      1.101       1.863       64.372      24.666      1.06        34.246      26.601      25.668      24.62       24.976      25.711      23.327      
110.9       26.279      230.063     2.29        8.037       21.754      1.11        1.841       65.218      24.602      1.06        34.742      26.243      25.661      24.531      24.976      25.631      23.323      
111.0       24.908      229.613     2.293       8.125       21.754      1.111       1.821       65.973      24.568      1.06        35.186      25.888      25.633      24.485      24.976      25.631      23.323      
