~Version Information Section
VERS.                                         2.0:CWLS log ASCII Standart – VERSION 2.0
WRAP.                                          NO:One line per depth step
~Well Information Section
STRT.M                                        0.0:Начальная глубина
STOP.M                                      166.2:Конечная глубина
STEP.M                                          0:Шаг квантования по глубине
NULL.                                    -9999.25:Признак "Нет данных"
WELL.                                         1Мх:Скважина
~Parameter Information Section
~Curve Information Section
DEPTH.M                                          :Глубина
BK.lgОмм                                         :BK
ПРОФ_СР.мм                                       :ПРОФ_СР
GGKP.имп/мин                                     :GGKp
ГК.мкР/час                                       :GK
ИК.мСм/м                                         :IK
PS.мВ                                            :PS
PZ.Омм                                           :PZ
RIS.Омм                                          :RIS
U1.мВ                                            :U1
U2.мВ                                            :U2
U3.mv                                            :U3
WS.%                                             :WS
ГЗ1.Омм                                          :ГЗ1
ГЗ2.Омм                                          :ГЗ2
ГЗ3.Омм                                          :ГЗ3
ГЗ4.Oмм                                          :ГЗ4
ГЗК.Омм                                          :ГЗК
НГК.усл.ед                                       :ННКб
ННКМ.усл.ед                                      :ННКм
ГЗ5.Oмм                                          :ГЗ5
ПЛ1.имп/мин                                      :ПЛ1
ПЛ2.имп/мин                                      :ПЛ2
ПЛ3.имп/мин                                      :ПЛ3
ПЛ4.имп/мин                                      :ПЛ4
~ASCII LOG DATA
# ...
5.4         -9999.25    165.651     2.053       3.796       -9999.25    -9999.25    -9999.25    -9999.25    -9999.25    -9999.25    -9999.25    26.294      -9999.25    -9999.25    -9999.25    -9999.25    -9999.25    3.65        2.251       -9999.25    25320.0     27800.0     18520.0     4660.0      
5.5         -9999.25    165.956     2.047       3.829       -9999.25    1.0         -9999.25    -9999.25    -9999.25    -9999.25    -9999.25    26.32       -9999.25    -9999.25    -9999.25    -9999.25    -9999.25    3.57        2.178       -9999.25    28800.0     28080.0     18740.0     4780.0      
5.6         -9999.25    169.688     2.04        3.805       -9999.25    2.222       -9999.25    -9999.25    -9999.25    -9999.25    -9999.25    25.446      -9999.25    -9999.25    -9999.25    -9999.25    -9999.25    3.784       2.14        -9999.25    27360.0     27800.0     18640.0     4880.0      
5.7         -9999.25    167.731     2.028       3.879       -9999.25    3.444       -9999.25    -9999.25    -9999.25    -9999.25    -9999.25    24.277      -9999.25    -9999.25    -9999.25    -9999.25    -9999.25    4.118       2.157       -9999.25    26640.0     27400.0     18640.0     4880.0      
5.8         -9999.25    165.384     2.004       4.16        -9999.25    13.603      -9999.25    -9999.25    -9999.25    -9999.25    -9999.25    22.874      -9999.25    -9999.25    -9999.25    -9999.25    -9999.25    4.474       2.225       -9999.25    27480.0     27460.0     19000.0     4920.0      
5.9         -9999.25    163.575     1.966       4.369       -9999.25    29.667      -9999.25    -9999.25    -9999.25    -9999.25    -9999.25    22.0        -9999.25    -9999.25    -9999.25    -9999.25    -9999.25    4.679       2.328       -9999.25    30480.0     27860.0     18500.0     4780.0      
6.0         -9999.25    163.261     1.937       4.413       -9999.25    49.664      -9999.25    1.106       -9999.25    -9999.25    -9999.25    21.447      -9999.25    -9999.25    -9999.25    -9999.25    -9999.25    4.772       2.428       -9999.25    29040.0     27480.0     18040.0     4560.0      
6.1         -9999.25    162.753     1.911       4.548       -9999.25    71.574      -9999.25    1.106       -9999.25    -9999.25    -9999.25    21.203      -9999.25    -9999.25    -9999.25    -9999.25    -9999.25    4.789       2.498       -9999.25    29520.0     27080.0     18020.0     4580.0      
6.2         -9999.25    162.665     1.916       4.684       -9999.25    93.722      -9999.25    1.106       -9999.25    -9999.25    -9999.25    21.087      -9999.25    -9999.25    -9999.25    -9999.25    -9999.25    4.791       2.511       -9999.25    26160.0     27240.0     18180.0     4720.0      
6.3         -9999.25    162.891     1.928       4.505       -9999.25    113.849     -9999.25    1.106       -9999.25    -9999.25    -9999.25    21.206      -9999.25    -9999.25    -9999.25    -9999.25    -9999.25    4.808       2.478       -9999.25    29160.0     26500.0     17880.0     4700.0      
6.4         -9999.25    162.962     1.94        4.386       -9999.25    130.985     82.211      1.106       -9999.25    -9999.25    -9999.25    21.352      -9999.25    -9999.25    -9999.25    -9999.25    -9999.25    4.85        2.434       -9999.25    26040.0     25920.0     18040.0     4660.0      
6.5         -9999.25    162.992     1.946       4.358       -9999.25    136.996     79.132      1.106       -9999.25    -9999.25    -9999.25    21.413      -9999.25    -9999.25    -9999.25    -9999.25    -9999.25    4.888       2.41        -9999.25    23760.0     26520.0     18340.0     4840.0      
6.6         -9999.25    162.657     1.967       4.353       -9999.25    135.934     75.41       1.106       -9999.25    -9999.25    -9999.25    21.418      -9999.25    -9999.25    -9999.25    -9999.25    -9999.25    4.908       2.426       -9999.25    25440.0     26740.0     18760.0     5000.0      
6.7         -9999.25    162.485     2.0         4.29        -9999.25    130.858     72.532      1.116       -9999.25    -9999.25    -9999.25    21.346      -9999.25    -9999.25    -9999.25    -9999.25    -9999.25    4.907       2.46        -9999.25    25800.0     26940.0     18620.0     4820.0      
6.8         -9999.25    162.489     2.025       4.32        -9999.25    124.331     70.719      1.116       -9999.25    -9999.25    -9999.25    21.141      -9999.25    -9999.25    -9999.25    -9999.25    -9999.25    4.921       2.499       -9999.25    27360.0     27740.0     18940.0     4980.0      
6.9         -9999.25    163.436     2.04        4.139       -9999.25    118.986     69.96       1.116       -9999.25    -9999.25    -9999.25    20.965      -9999.25    -9999.25    -9999.25    -9999.25    -9999.25    4.965       2.527       -9999.25    28320.0     28200.0     19320.0     5200.0      
7.0         -9999.25    163.758     2.042       4.023       -9999.25    117.975     68.871      1.116       -9999.25    -9999.25    -9999.25    20.846      -9999.25    -9999.25    -9999.25    -9999.25    -9999.25    4.994       2.539       -9999.25    26400.0     28400.0     19180.0     5040.0      
7.1         -9999.25    164.949     2.044       3.856       -9999.25    122.025     67.671      1.116       -9999.25    -9999.25    -9999.25    20.854      -9999.25    -9999.25    -9999.25    -9999.25    -9999.25    4.948       2.544       -9999.25    30120.0     28620.0     19280.0     4980.0      
7.2         -9999.25    166.429     2.051       3.747       -9999.25    129.161     66.749      1.116       -9999.25    -9999.25    -9999.25    20.886      -9999.25    -9999.25    -9999.25    -9999.25    -9999.25    4.874       2.547       -9999.25    30480.0     28040.0     19900.0     4940.0      
7.3         -9999.25    165.26      2.039       3.876       -9999.25    136.791     66.804      1.116       -9999.25    -9999.25    -9999.25    20.869      -9999.25    -9999.25    -9999.25    -9999.25    -9999.25    4.833       2.529       -9999.25    29400.0     27720.0     19420.0     4760.0      
7.4         -9999.25    164.621     2.008       4.015       -9999.25    142.158     66.072      1.126       -9999.25    -9999.25    -9999.25    21.074      -9999.25    -9999.25    -9999.25    -9999.25    -9999.25    4.838       2.475       -9999.25    30360.0     27820.0     19280.0     4740.0      
7.5         -9999.25    164.348     1.99        4.26        -9999.25    143.747     64.403      1.136       -9999.25    -9999.25    -9999.25    21.657      -9999.25    -9999.25    -9999.25    -9999.25    -9999.25    4.81        2.423       -9999.25    31800.0     28100.0     19540.0     4840.0      
7.6         -9999.25    163.632     1.972       4.192       -9999.25    139.604     63.364      1.136       -9999.25    -9999.25    -9999.25    22.185      -9999.25    -9999.25    -9999.25    -9999.25    -9999.25    4.761       2.414       -9999.25    27840.0     28360.0     19440.0     4920.0      
7.7         -9999.25    163.809     1.978       4.221       -9999.25    132.306     62.721      1.136       -9999.25    -9999.25    -9999.25    22.701      -9999.25    -9999.25    -9999.25    -9999.25    -9999.25    4.711       2.437       -9999.25    29520.0     28860.0     19060.0     5020.0      
7.8         -9999.25    163.852     1.968       4.209       -9999.25    122.096     62.342      1.136       -9999.25    -9999.25    -9999.25    23.65       -9999.25    -9999.25    -9999.25    -9999.25    -9999.25    4.622       2.447       -9999.25    29400.0     29200.0     19380.0     5040.0      
7.9         -9999.25    163.703     1.965       4.224       -9999.25    110.148     61.795      1.136       -9999.25    -9999.25    -9999.25    24.952      -9999.25    -9999.25    -9999.25    -9999.25    -9999.25    4.45        2.428       -9999.25    29160.0     28840.0     19220.0     4700.0      
8.0         -9999.25    163.932     1.977       4.051       -9999.25    98.031      60.901      1.136       -9999.25    -9999.25    -9999.25    25.966      -9999.25    -9999.25    -9999.25    -9999.25    -9999.25    4.248       2.401       -9999.25    32280.0     27800.0     18800.0     4840.0      
