~Version Information Section
VERS.                                         2.0:CWLS log ASCII Standart – VERSION 2.0
WRAP.                                          NO:One line per depth step
~Well Information Section
STRT.M                                        1.0:Начальная глубина
STOP.M                                      203.4:Конечная глубина
STEP.M                                          0:Шаг квантования по глубине
NULL.                                    -9999.25:Признак "Нет данных"
WELL.                                         3Мх:Скважина
~Parameter Information Section
~Curve Information Section
DEPTH.M                                          :Глубина
BK.Ohm*M                                         :BK
DS.mm                                            :DS  (ДС)
ГК.mcr/h                                         :GK          (ГК)
GZ1.Ohm*M                                        :GZ1   ГЗ1(A0.4M0.1N)
GZ2.Ohm*M                                        :GZ2   ГЗ2(A1.0M0.1N)
GZ3.Ohm*M                                        :GZ3   ГЗ3(A2.0M0.5N)
GZ4.Ohm*M                                        :GZ4   ГЗ4(A4.0M0.5N)
GZ5.Ohm*M                                        :GZ5   ГЗ5(A8.0M0.5N)
U2.mV                                            :U2
U3.mV                                            :U3
W.                                               :W
КП.%                                             :Кп
НГК.усл.ед                                       :ННКб
ННКМ.усл.ед                                      :ННКм
GZR.Ohm*M                                        :GZK   ГЗK(N0.5M2.0A)
ИК.Ohm*M                                         :IK
PS.mv                                            :PS       (ПС)
PZ.Ohm*M                                         :PZ    (КС)
RS.Ohm*M                                         :RS (Резистивиметр)
U1.mV                                            :U1
~ASCII LOG DATA
# ...
170.6       13.122      162.72      6.808       35.782      36.308      38.177      36.325      40.371      784.818     660.411     2.515       37.712      3.0         1.997       43.119      13.024      234.218     116.145     1.119       1073.166    
170.7       12.882      162.988     6.872       36.358      37.074      41.377      38.825      39.771      798.938     694.831     2.521       40.689      2.898       2.0         43.219      23.206      233.626     122.63      1.119       1059.631    
170.8       12.706      163.251     7.141       36.739      37.886      42.677      45.625      38.971      839.399     771.562     2.521       42.66       2.754       2.019       43.019      26.758      232.317     125.202     1.119       1029.374    
170.9       12.677      163.443     7.188       38.6        40.256      43.677      45.425      38.571      875.13      815.06      2.509       43.581      2.767       2.035       42.719      26.916      228.785     124.856     1.119       1020.866    
171.0       12.972      163.583     7.046       39.939      43.1        42.877      45.125      38.571      870.438     777.838     2.464       41.69       2.8         2.028       42.319      27.569      220.514     123.629     1.119       1026.777    
171.1       13.521      163.264     6.438       41.684      45.526      42.677      44.925      38.371      810.198     676.805     2.439       39.424      2.97        2.013       41.219      28.08       207.083     122.796     1.119       997.398     
171.2       14.093      159.2       5.901       41.67       46.847      42.477      44.625      38.271      707.347     559.103     2.366       37.89       3.038       1.998       40.119      28.255      190.228     123.408     1.119       901.505     
171.3       16.293      159.116     5.361       39.915      45.894      42.077      44.425      38.171      595.608     459.684     2.29        39.035      3.01        2.004       39.619      28.975      174.524     125.202     1.119       769.314     
171.4       25.882      159.417     4.994       37.691      43.849      40.377      44.225      38.071      517.439     393.83      2.241       42.465      2.87        2.032       39.019      29.35       162.713     128.698     1.119       680.068     
171.5       48.865      159.234     4.589       36.792      42.761      39.977      43.525      37.971      503.413     366.705     2.217       43.455      2.731       2.082       38.819      29.54       155.957     133.929     1.119       701.33      
171.6       76.384      157.983     4.259       36.211      40.731      39.077      42.725      37.871      557.211     379.622     2.191       41.912      3.269       2.208       38.519      30.532      152.504     140.479     1.119       837.474     
171.7       97.051      156.57      4.054       37.087      41.279      38.677      42.225      37.771      648.068     425.984     2.173       37.544      3.595       2.337       37.919      31.815      150.659     148.289     1.119       1011.484    
171.8       96.161      155.883     3.986       36.907      40.336      37.777      37.025      37.671      739.773     499.574     2.168       33.617      4.149       2.481       39.219      32.266      149.147     156.184     1.119       1129.439    
171.9       111.173     155.554     3.959       36.061      38.169      37.277      36.925      37.371      818.558     595.813     2.144       29.642      4.659       2.617       40.619      35.547      147.6       164.056     1.119       1161.802    
172.0       117.761     155.037     3.915       35.99       36.984      40.877      36.925      37.171      890.092     701.207     2.121       25.427      5.168       2.674       42.219      35.547      146.061     169.919     1.119       1155.653    
172.1       108.893     154.592     3.805       37.359      37.564      40.877      36.825      36.971      945.708     779.647     2.103       22.413      5.75        2.725       42.419      35.547      144.584     174.32      1.119       1160.808    
172.2       98.175      154.282     3.65        37.135      36.387      40.977      36.725      36.871      950.514     785.016     2.102       19.698      5.967       2.757       43.219      35.547      143.292     176.503     1.124       1168.4      
172.3       98.401      153.978     3.553       36.589      35.413      40.977      36.625      37.471      892.464     719.368     2.104       18.574      6.563       2.791       43.819      35.827      142.38      177.499     1.124       1141.754    
172.4       101.158     153.481     3.504       38.33       36.943      40.977      36.525      39.371      805.605     641.349     2.1         18.161      6.519       2.839       44.619      35.461      141.788     177.254     1.124       1069.001    
172.5       100.693     153.366     3.614       40.737      39.434      41.077      36.725      40.071      750.435     622.169     2.104       18.023      6.475       2.886       44.719      36.196      141.375     176.821     1.124       986.427     
172.6       104.954     153.247     3.63        43.382      41.698      42.577      36.825      40.271      741.119     652.635     2.116       17.895      6.794       2.895       44.819      36.919      141.26      176.991     1.124       941.783     
172.7       112.98      152.086     3.699       44.083      42.599      43.377      44.925      43.271      747.984     663.774     2.137       17.826      6.515       2.857       44.919      37.827      141.591     177.734     1.124       962.68      
172.8       115.611     151.666     3.759       45.024      44.018      44.077      46.025      45.471      736.278     608.478     2.174       19.366      6.256       2.814       44.419      38.459      143.891     178.86      1.124       1026.8      
172.9       108.643     151.786     3.865       45.493      45.735      45.377      45.425      45.671      706.379     517.309     2.223       20.243      5.68        2.754       44.319      39.11       148.415     179.741     1.124       1081.058    
173.0       100.925     151.722     3.874       46.326      47.016      46.777      44.925      45.971      672.92      444.208     2.251       20.597      5.884       2.724       44.019      39.785      156.103     180.614     1.124       1085.168    
173.1       96.383      151.703     3.733       46.489      47.276      46.477      49.425      46.271      648.76      412.126     2.278       21.007      5.987       2.742       43.919      40.087      165.308     181.525     1.124       1052.111    
173.2       93.541      151.711     3.675       46.999      48.041      46.177      48.725      45.571      649.6       420.917     2.295       21.417      5.745       2.786       44.019      40.617      175.357     181.907     1.124       1031.836    
173.3       90.782      151.672     3.692       46.101      46.967      45.977      47.625      45.371      711.753     494.767     2.286       21.312      5.839       2.811       45.819      40.705      183.899     181.252     1.124       1070.679    
173.4       91.201      151.869     3.749       45.587      44.275      45.477      46.525      44.971      842.377     634.341     2.265       20.512      6.029       2.772       46.819      41.022      190.347     178.643     1.124       1174.424    
173.5       91.833      151.871     3.669       46.588      44.372      44.577      45.625      44.471      1004.328    793.844     2.246       20.264      5.877       2.736       47.219      40.979      194.15      175.33      1.124       1320.775    
173.6       94.406      151.796     3.514       48.221      45.493      44.377      46.125      50.771      1113.356    877.071     2.205       20.496      5.763       2.719       47.619      41.391      196.048     172.142     1.124       1458.91     
173.7       91.411      151.634     3.429       48.296      44.686      44.377      48.025      50.371      1128.806    850.728     2.175       20.911      6.027       2.753       52.219      41.391      196.779     170.803     1.124       1541.58     
