~Version Information Section
VERS.                                         2.0:CWLS log ASCII Standart – VERSION 2.0
WRAP.                                          NO:One line per depth step
~Well Information Section
STRT.M                                        1.0:Начальная глубина
STOP.M                                      192.9:Конечная глубина
STEP.M                                          0:Шаг квантования по глубине
NULL.                                    -9999.25:Признак "Нет данных"
WELL.                                       123Мх:Скважина
~Parameter Information Section
~Curve Information Section
DEPTH.M                                          :Глубина
BK.lgОмм                                         :BK     (БК)
ПРОФ_СР.мм                                       :DS  (ДС)
ГК.мкР/час                                       :GK          (ГК)
ГЗ1.Омм                                          :GZ1   ГЗ1(A0.4M0.1N)
ГЗ2.Омм                                          :GZ2   ГЗ2(A1.0M0.1N)
ГЗ3.Омм                                          :GZ3   ГЗ3(A2.0M0.5N)
ГЗ4.Oмм                                          :GZ4   ГЗ4(A4.0M0.5N)
ГЗ5.Oмм                                          :GZ5   ГЗ5(A8.0M0.5N)
ГЗК.Омм                                          :GZK   ГЗK(N0.5M2.0A)
ИК.мСм/м                                         :IK
НГК.усл.ед.                                      :NGK     (НГК)
PS.мВ                                            :PS       (ПС)
PZ.Омм                                           :PZ    (КС)
RIS.Омм                                          :RS (Резистивиметр)
U1.мВ                                            :U1
U2.мВ                                            :U2
U3.mv                                            :U3
W.                                               :W
П.%                                              :п
ННКМ.усл.ед                                      :ННКм
~ASCII LOG DATA
# ...
177.0       151.705     122.299     3.815       241.56      272.0       236.802     109.536     195.667     245.119     11.746      1.317       290.926     450.127     1.364       629.188     544.373     572.593     2.324       27.229      0.233       
177.1       151.705     121.511     3.895       235.08      271.66      224.801     111.203     196.001     246.119     11.457      1.31        291.303     446.367     1.364       440.468     413.72      519.017     2.336       26.722      0.239       
177.2       154.882     121.887     3.912       230.76      270.64      220.801     112.536     196.667     246.119     11.176      1.358       291.68      442.607     1.364       342.63      293.06      390.126     2.342       26.215      0.248       
177.3       154.882     121.509     3.769       226.44      269.62      218.801     112.536     197.001     245.119     10.88       1.431       292.057     439.223     1.364       353.085     242.939     270.626     2.36        25.55       0.246       
177.4       154.882     122.32      3.679       222.84      268.6       218.801     112.536     197.334     243.453     10.58       1.48        292.435     436.967     1.364       386.66      256.915     242.312     2.364       24.44       0.24        
177.5       169.044     122.442     4.068       219.6       267.58      218.801     112.536     197.334     242.119     10.237      1.477       293.189     435.839     1.363       396.1       314.581     328.445     2.368       22.939      0.238       
177.6       180.302     123.221     4.858       217.08      265.88      218.801     112.536     197.334     240.453     9.816       1.439       294.32      436.215     1.359       413.983     399.208     471.828     2.374       21.602      0.247       
177.7       148.252     121.507     5.708       214.92      264.18      218.801     112.536     197.334     238.119     9.404       1.384       295.452     436.967     1.355       428.506     458.083     589.981     2.393       20.557      0.266       
177.8       98.401      121.834     6.687       213.84      262.82      218.801     112.536     197.334     235.119     9.01        1.286       296.206     438.095     1.348       391.977     450.15      652.605     2.419       20.505      0.278       
177.9       26.853      121.937     7.447       212.76      262.82      218.801     112.203     197.001     232.453     8.726       1.221       296.96      438.847     1.343       379.655     438.916     686.176     2.439       21.654      0.266       
178.0       19.815      122.168     7.818       211.68      263.5       219.468     111.869     196.334     230.786     8.531       1.179       297.715     439.223     1.34        532.814     540.907     750.32      2.451       23.475      0.245       
178.1       15.959      121.738     7.478       210.96      263.5       220.134     111.203     195.334     229.786     8.42        1.216       298.469     438.847     1.339       886.212     793.845     875.007     2.453       25.078      0.227       
178.2       14.962      122.217     7.069       210.24      261.8       221.468     110.536     194.667     229.119     8.347       1.248       298.846     437.719     1.339       1224.825    1013.712    943.781     2.467       25.86       0.213       
178.3       15.276      122.269     6.791       211.68      259.08      222.134     109.536     194.001     228.119     8.327       1.278       299.223     435.463     1.339       1259.943    951.886     796.699     2.494       25.655      0.204       
178.4       19.815      122.193     6.312       213.48      256.7       222.801     108.869     193.667     227.119     8.285       1.32        299.977     433.207     1.339       1032.813    689.543     534.714     2.511       24.497      0.207       
178.5       23.067      122.214     6.188       217.44      255.34      222.134     108.203     193.334     225.786     8.26        1.326       300.732     430.951     1.339       732.838     468.328     402.463     2.519       22.934      0.226       
178.6       26.242      122.304     6.291       219.96      254.66      220.801     107.869     193.001     224.786     8.175       1.343       301.486     428.695     -9999.25    550.094     418.573     454.671     2.512       21.501      0.242       
178.7       18.967      122.162     6.813       223.2       254.32      218.801     107.536     192.334     223.786     8.139       1.27        302.24      426.439     -9999.25    464.175     401.285     470.528     2.484       21.233      0.242       
178.8       18.197      122.285     7.537       226.8       254.32      217.468     107.536     191.667     223.119     8.139       1.24        303.372     424.935     -9999.25    454.876     336.039     344.946     2.456       22.022      0.233       
178.9       18.967      122.182     8.57        228.24      254.66      216.801     107.869     191.334     222.453     8.158       1.17        304.503     423.431     -9999.25    588.85      338.379     240.842     2.433       23.493      0.229       
179.0       19.409      122.57      9.555       227.88      255.34      216.801     108.869     191.334     221.786     8.195       1.158       305.257     422.679     -9999.25    804.59      444.682     267.578     2.421       24.495      0.222       
179.1       18.967      122.283     9.831       223.92      256.02      216.801     110.203     191.334     220.786     8.238       1.131       305.635     422.679     -9999.25    977.762     567.944     354.309     2.4         25.067      0.215       
179.2       18.967      122.274     9.075       219.6       256.02      216.801     111.536     191.334     219.786     8.244       1.142       306.012     424.559     -9999.25    1029.209    627.123     409.715     2.379       25.382      0.22        
179.3       17.783      122.312     8.306       214.92      255.34      216.801     114.869     191.334     219.119     8.327       1.145       306.389     427.191     -9999.25    1000.396    645.137     446.956     2.377       25.477      0.22        
179.4       14.962      122.388     7.637       209.88      253.98      217.468     119.536     191.334     218.786     8.41        1.122       306.766     432.079     -9999.25    974.33      668.155     493.074     2.373       25.891      0.207       
179.5       13.709      122.849     7.628       205.2       252.96      221.467     124.869     191.334     218.786     8.531       1.154       306.766     433.207     -9999.25    964.426     704.809     553.708     2.37        27.098      0.198       
179.6       14.655      122.265     7.708       199.8       251.6       226.801     126.203     191.334     218.453     8.683       1.151       306.766     433.207     -9999.25    1003.816    775.47      640.489     2.362       28.727      0.194       
179.7       17.022      121.879     7.3         194.4       250.92      236.8       125.536     191.667     218.119     8.849       1.194       307.143     430.575     -9999.25    1049.366    846.409     729.074     2.356       29.661      0.193       
179.8       17.022      121.834     6.726       188.64      250.24      246.134     122.869     192.001     217.786     9.08        1.221       307.897     424.935     -9999.25    972.141     824.296     763.02      2.349       29.935      0.198       
179.9       17.022      122.0       6.062       183.6       250.24      252.134     118.869     195.001     217.786     9.3         1.262       308.652     415.535     -9999.25    808.542     720.743     730.906     2.34        29.486      0.202       
180.0       17.783      121.744     5.666       179.28      250.58      252.135     114.536     199.667     218.119     9.466       1.286       310.16      407.639     -9999.25    819.484     670.571     659.931     2.347       28.568      0.204       
180.1       19.815      121.726     5.361       175.68      252.28      249.468     110.869     203.001     218.786     9.705       1.213       311.669     400.119     -9999.25    1077.306    741.479     602.995     2.349       27.475      0.213       
