~Version Information Section
VERS.                                         2.0:CWLS log ASCII Standart – VERSION 2.0
WRAP.                                          NO:One line per depth step
~Well Information Section
STRT.M                                        0.4:Начальная глубина
STOP.M                                      190.1:Конечная глубина
STEP.M                                          0:Шаг квантования по глубине
NULL.                                    -9999.25:Признак "Нет данных"
WELL.                                       135Мх:Скважина
~Parameter Information Section
~Curve Information Section
DEPTH.M                                          :Глубина
DS.mm                                            :DS  (ДС)
GGK.g/cm3                                        :GGKp
ГК.mcr/h                                         :GK          (ГК)
GZ1.Ohm*M                                        :GZ1   ГЗ1(A0.4M0.1N)
GZ2.Ohm*M                                        :GZ2   ГЗ2(A1.0M0.1N)
GZ3.Ohm*M                                        :GZ3   ГЗ3(A2.0M0.5N)
GZ4.Ohm*M                                        :GZ4   ГЗ4(A4.0M0.5N)
GZ5.Ohm*M                                        :GZ5   ГЗ5(A8.0M0.5N)
GZR.Ohm*M                                        :GZK   ГЗK(N0.5M2.0A)
ИК.Ohm*M                                         :IK
НГК.ue                                           :NGK     (НГК)
NNKM.                                            :NNKm  (ННКм)
PS.mv                                            :PS       (ПС)
PZ.Ohm*M                                         :PZ    (КС)
RS.Ohm*M                                         :RS (Резистивиметр)
U1.mV                                            :U1
U2.mV                                            :U2
U3.mV                                            :U3
BK.Ohm*M                                         :БК
ПОРИСТОСТЬ.                                      :Пористость ННК
~ASCII LOG DATA
# ...
77.2        137.267     2.209       7.605       37.323      22.301      21.078      22.835      12.72       15.551      18.763      1.528       2.108       413.755     10.296      1.34        173.742     73.001      121.033     21.862      34.754      
77.3        137.267     2.203       7.142       38.333      21.664      19.544      20.927      12.066      15.575      18.579      1.456       2.112       413.114     10.743      1.34        157.963     67.489      109.306     20.845      33.689      
77.4        137.478     2.193       7.053       38.624      20.704      18.146      19.116      11.507      15.714      18.295      1.352       2.104       412.511     11.225      1.34        158.345     68.251      109.658     18.409      33.34       
77.5        137.707     2.189       7.332       38.248      19.471      17.018      17.638      11.114      16.111      17.93       1.307       2.073       412.007     11.719      1.34        165.18      71.796      115.042     17.238      33.649      
77.6        137.834     2.2         8.039       37.44       18.152      16.237      16.644      10.895      16.914      17.513      1.351       2.029       411.636     12.203      1.34        171.634     74.578      120.076     16.688      34.33       
77.7        137.929     2.212       8.927       36.464      16.955      15.778      16.109      10.808      18.252      17.091      1.378       1.997       411.421     12.661      1.34        197.07      82.206      139.369     16.37       36.205      
77.8        138.184     2.219       9.473       35.387      16.022      15.564      15.895      10.792      20.135      16.724      1.374       1.949       411.392     13.081      1.34        216.007     86.79       153.401     16.071      37.971      
77.9        138.53      2.212       9.292       34.073      15.42       15.497      15.85       10.792      22.33       16.454      1.335       1.89        411.55      13.457      1.34        234.945     91.374      167.433     15.351      39.082      
78.0        139.854     2.196       8.53        32.39       15.131      15.486      15.858      10.827      24.43       16.247      1.31        1.848       411.82      13.786      1.34        223.312     89.811      158.146     14.793      40.037      
78.1        142.014     2.181       7.972       30.366      15.045      15.512      15.937      10.982      25.976      16.074      1.285       1.812       412.178     14.074      1.34        211.724     88.511      149.088     14.448      40.57       
78.2        142.522     2.168       7.774       28.205      15.034      15.663      16.228      11.32       26.585      15.914      1.281       1.786       412.565     14.329      1.34        188.231     80.204      130.896     14.13       40.877      
78.3        142.133     2.162       8.104       26.148      15.053      16.111      16.824      11.859      26.159      15.744      1.281       1.782       412.955     14.566      1.34        176.327     73.198      121.762     14.025      40.587      
78.4        142.122     2.17        8.674       24.434      15.075      16.956      17.625      12.551      24.967      15.575      1.309       1.792       413.355     14.799      1.34        180.453     75.486      124.665     14.092      40.22       
78.5        142.273     2.178       9.076       23.23       15.007      18.047      18.355      13.274      23.457      15.476      1.36        1.805       413.784     15.036      1.34        196.483     84.78       136.701     14.394      39.076      
78.6        140.448     2.19        9.007       22.558      14.763      19.029      18.64       13.902      22.071      15.447      1.413       1.844       414.182     15.269      1.34        208.457     89.219      145.797     15.07       37.522      
78.7        138.251     2.232       8.67        22.285      14.29       19.498      18.2        14.322      21.084      15.447      1.432       1.918       414.52      15.498      1.34        187.744     79.452      130.373     15.251      36.225      
78.8        138.251     2.275       8.358       22.213      13.595      19.167      17.06       14.433      20.506      15.464      1.383       1.995       414.775     15.722      1.34        167.031     69.685      114.948     15.707      34.54       
78.9        138.404     2.297       7.858       22.204      12.809      18.084      15.529      14.199      20.178      15.553      1.314       2.066       414.926     15.932      1.34        148.092     66.075      101.403     19.161      33.496      
79.0        139.826     2.317       7.112       22.243      12.134      16.608      14.019      13.639      19.926      15.746      1.247       2.097       414.986     16.149      1.34        145.808     67.379      100.341     20.61       32.885      
79.1        140.493     2.325       6.662       22.419      11.669      15.167      12.864      12.847      19.645      16.022      1.248       2.059       414.985     16.41       1.34        149.644     71.204      104.968     17.408      36.681      
79.2        140.723     2.297       6.931       22.832      11.422      14.074      12.189      11.999      19.296      16.28       1.264       1.817       414.937     16.73       1.34        155.763     73.726      110.656     15.691      39.922      
79.3        140.723     2.26        7.362       23.561      11.355      13.45       11.904      11.278      18.885      16.449      1.293       1.7         414.854     17.123      1.34        160.09      75.491      114.621     15.41       42.192      
79.4        145.235     2.22        7.739       24.573      11.38       13.192      11.831      10.787      18.43       16.516      1.304       1.676       414.722     17.648      1.34        158.298     74.733      112.899     15.373      43.259      
79.5        153.097     2.187       7.879       25.628      11.513      13.112      11.824      10.537      17.96       16.529      1.362       1.687       414.501     18.452      1.34        157.112     75.188      111.5       15.306      44.07       
79.6        157.88      2.19        7.815       26.41       11.848      13.085      11.834      10.462      17.51       16.548      1.446       1.741       414.161     19.75       1.34        157.999     76.961      112.314     15.336      43.978      
79.7        173.302     2.198       7.468       26.709      12.419      13.071      11.872      10.456      17.112      16.59       1.476       1.829       413.706     21.793      1.34        162.376     82.901      115.928     15.557      41.749      
79.8        170.623     2.203       7.365       26.522      13.18       13.067      11.949      10.456      16.775      16.654      1.441       1.923       413.11      24.801      1.34        166.147     87.629      119.218     15.802      38.373      
79.9        147.755     2.23        7.553       26.026      13.992      13.068      12.078      10.478      16.506      16.691      1.402       1.995       412.382     28.837      1.34        172.423     93.82       123.109     15.984      36.276      
80.0        141.114     2.269       7.698       25.476      14.689      13.079      12.289      10.553      16.31       16.703      1.386       2.027       411.528     33.782      1.34        175.207     95.844      124.201     16.212      34.04       
80.1        139.491     2.285       7.457       25.063      15.2        13.125      12.602      10.693      16.183      16.748      1.375       2.036       410.552     39.351      1.34        182.261     101.525     127.825     16.123      32.85       
80.2        139.324     2.293       7.072       24.814      15.516      13.238      13.041      10.892      16.118      16.869      1.348       2.051       409.501     45.124      1.34        186.529     100.843     130.357     15.798      32.407      
80.3        138.603     2.295       6.776       24.694      15.672      13.459      13.614      11.116      16.1        17.06       1.34        2.079       408.424     50.638      1.34        192.169     100.16      133.921     15.959      32.738      
