~Version Information Section
VERS.                                         2.0:CWLS log ASCII Standart – VERSION 2.0
WRAP.                                          NO:One line per depth step
~Well Information Section
STRT.M                                        0.4:Начальная глубина
STOP.M                                      190.1:Конечная глубина
STEP.M                                          0:Шаг квантования по глубине
NULL.                                    -9999.25:Признак "Нет данных"
WELL.                                       135Мх:Скважина
~Parameter Information Section
~Curve Information Section
DEPTH.M                                          :Глубина
DS.mm                                            :DS  (ДС)
GGK.g/cm3                                        :GGKp
ГК.mcr/h                                         :GK          (ГК)
GZ1.Ohm*M                                        :GZ1   ГЗ1(A0.4M0.1N)
GZ2.Ohm*M                                        :GZ2   ГЗ2(A1.0M0.1N)
GZ3.Ohm*M                                        :GZ3   ГЗ3(A2.0M0.5N)
GZ4.Ohm*M                                        :GZ4   ГЗ4(A4.0M0.5N)
GZ5.Ohm*M                                        :GZ5   ГЗ5(A8.0M0.5N)
GZR.Ohm*M                                        :GZK   ГЗK(N0.5M2.0A)
ИК.Ohm*M                                         :IK
НГК.ue                                           :NGK     (НГК)
NNKM.                                            :NNKm  (ННКм)
PS.mv                                            :PS       (ПС)
PZ.Ohm*M                                         :PZ    (КС)
RS.Ohm*M                                         :RS (Резистивиметр)
U1.mV                                            :U1
U2.mV                                            :U2
U3.mV                                            :U3
BK.Ohm*M                                         :БК
ПОРИСТОСТЬ.                                      :Пористость ННК
~ASCII LOG DATA
# ...
64.4        143.608     2.24        8.395       26.379      15.245      17.278      16.789      17.47       22.463      16.653      1.387       1.887       433.096     9.9         1.4         132.518     64.797      88.611      15.209      38.385      
64.5        144.066     2.236       8.732       26.013      15.028      17.048      16.401      17.49       22.703      16.553      1.369       1.897       432.035     10.164      1.4         127.898     63.091      85.061      15.323      37.652      
64.6        143.283     2.23        8.368       25.751      14.858      16.772      16.037      17.464      23.021      16.492      1.345       1.939       430.846     10.536      1.4         133.858     63.237      89.404      15.328      34.762      
64.7        141.457     2.246       7.945       25.561      14.716      16.487      15.706      17.366      23.43       16.475      1.311       1.974       429.548     10.764      1.4         135.577     62.048      90.594      15.952      31.973      
64.8        140.336     2.272       7.784       25.381      14.588      16.23       15.422      17.175      23.932      16.475      1.291       1.987       428.194     11.136      1.4         137.297     60.859      91.784      16.396      30.647      
64.9        140.336     2.283       7.744       25.198      14.472      16.025      15.184      16.922      24.501      16.479      1.325       1.968       426.816     11.7        1.4         130.894     57.786      86.903      15.928      30.632      
65.0        139.843     2.277       7.963       25.041      14.344      15.873      14.962      16.673      25.081      16.502      1.382       1.945       425.444     12.636      1.4         133.352     57.752      88.727      15.534      31.088      
65.1        139.707     2.268       7.859       24.929      14.21       15.736      14.759      16.482      25.615      16.552      1.436       1.948       424.123     13.128      1.4         132.374     53.736      87.912      15.382      31.63       
65.2        139.707     2.261       8.033       24.875      14.084      15.566      14.549      16.367      26.105      16.613      1.481       1.981       422.889     13.536      1.4         128.938     49.754      85.274      15.205      31.516      
65.3        140.167     2.253       8.049       24.864      13.909      15.364      14.32       16.331      26.706      16.682      1.476       2.017       421.763     14.1        1.4         140.301     50.443      93.751      15.194      31.441      
65.4        140.722     2.239       8.09        24.861      13.665      15.169      14.105      16.331      27.829      16.747      1.447       2.034       420.771     14.7        1.4         160.671     56.105      109.005     16.375      32.113      
65.5        141.788     2.224       7.938       24.861      13.417      15.019      13.94       16.351      30.075      16.824      1.435       2.039       419.954     15.636      1.4         179.066     61.293      122.697     16.501      32.96       
65.6        142.42      2.223       7.53        24.865      13.199      14.938      13.85       16.472      34.063      16.928      1.407       2.033       419.301     16.464      1.4         172.05      59.893      117.323     16.074      34.821      
65.7        141.465     2.226       7.383       24.86       13.061      14.918      13.827      16.809      40.116      17.084      1.374       2.017       418.81      16.764      1.4         159.465     57.503      107.809     15.686      36.193      
65.8        141.397     2.233       7.547       24.849      13.026      14.929      13.834      17.478      47.87       17.286      1.36        2.015       418.458     17.136      1.4         145.431     55.519      91.905      15.993      36.7        
65.9        141.397     2.242       7.76        24.831      13.087      15.014      13.905      18.573      56.247      17.531      1.432       2.007       418.188     17.364      1.4         142.011     74.323      94.619      15.922      36.846      
66.0        142.199     2.242       7.874       24.8        13.317      15.312      14.198      20.086      63.827      17.811      1.55        1.978       417.955     17.736      1.4         152.889     101.126     97.333      15.433      36.644      
66.1        141.901     2.235       8.046       24.768      13.827      16.009      14.94       21.915      69.315      18.116      1.611       1.967       417.704     17.964      1.4         168.188     120.0       110.667     14.832      36.39       
66.2        141.901     2.22        8.454       24.753      14.739      17.256      16.344      23.955      71.994      18.418      1.627       1.966       417.435     18.336      1.4         185.991     122.667     129.333     14.438      35.436      
66.3        141.663     2.193       8.823       24.754      16.126      19.061      18.467      26.019      71.992      18.713      1.602       2.015       417.188     18.564      1.4         189.495     125.333     148.0       15.147      34.687      
66.4        139.908     2.168       8.853       24.785      17.922      21.23       21.12       27.878      70.045      19.024      1.588       2.101       416.996     18.6        1.4         189.333     136.0       164.0       18.494      33.227      
66.5        137.113     2.146       8.435       24.892      19.899      23.427      23.905      29.35       67.044      19.368      1.613       2.189       416.84      18.6        1.4         189.333     138.667     161.333     27.79       32.238      
66.6        135.956     2.134       7.469       25.13       21.808      25.276      26.343      30.265      63.677      19.809      1.636       2.254       416.701     18.6        1.4         205.334     130.666     158.667     31.63       32.092      
66.7        135.315     2.133       6.346       25.587      23.465      26.523      28.056      30.539      60.261      20.404      1.647       2.255       416.542     18.6        1.4         202.667     114.667     153.333     31.756      32.57       
66.8        134.928     2.141       5.535       26.394      24.811      27.115      28.898      30.239      56.835      21.163      1.636       2.227       416.36      18.6        1.4         197.333     104.0       148.0       31.653      33.082      
66.9        134.749     2.157       5.07        27.823      25.976      27.16       28.952      29.527      53.35       22.063      1.619       2.218       416.219     18.6        1.4         176.0       96.0        140.0       31.569      33.552      
67.0        134.678     2.183       4.695       29.894      27.023      26.87       28.457      28.584      49.852      23.038      1.623       2.244       416.128     18.6        1.4         176.0       104.0       134.667     34.042      33.077      
67.1        134.621     2.207       4.452       32.49       27.985      26.47       27.691      27.591      46.516      24.01       1.663       2.305       416.101     18.6        1.4         176.0       117.334     134.667     35.592      32.482      
67.2        134.561     2.222       4.624       36.0        29.094      26.101      26.864      26.663      43.515      24.955      1.712       2.388       416.157     18.6        1.4         178.667     136.0       169.333     32.633      31.266      
67.3        134.535     2.233       4.926       40.647      30.562      25.821      26.087      25.851      40.93       25.745      1.718       2.452       416.263     18.264      1.4         216.0       133.333     201.333     30.429      30.208      
67.4        134.518     2.237       5.056       46.375      32.581      25.641      25.409      25.179      38.792      26.371      1.682       2.512       416.373     18.036      1.4         256.0       149.333     228.0       28.609      29.559      
67.5        134.47      2.232       5.047       52.988      35.299      25.538      24.852      24.651      37.073      26.881      1.706       2.557       416.454     18.0        1.4         293.333     157.333     225.333     28.379      28.713      
