~Version Information Section
VERS.                                         2.0:CWLS log ASCII Standart – VERSION 2.0
WRAP.                                          NO:One line per depth step
~Well Information Section
STRT.M                                       -0.1:Начальная глубина
STOP.M                                      197.8:Конечная глубина
STEP.M                                          0:Шаг квантования по глубине
NULL.                                    -9999.25:Признак "Нет данных"
WELL.                                       134Мх:Скважина
~Parameter Information Section
~Curve Information Section
DEPTH.M                                          :Глубина
BK.Ohm*M                                         :BK     (БК)
DS.mm                                            :DS  (ДС)
GGK.g/cm3                                        :GGKp
ГК.mcr/h                                         :GK          (ГК)
GZ1.Ohm*M                                        :GZ1   ГЗ1(A0.4M0.1N)
GZ2.Ohm*M                                        :GZ2   ГЗ2(A1.0M0.1N)
GZ3.Ohm*M                                        :GZ3   ГЗ3(A2.0M0.5N)
GZ4.Ohm*M                                        :GZ4   ГЗ4(A4.0M0.5N)
GZ5.Ohm*M                                        :GZ5   ГЗ5(A8.0M0.5N)
GZR.Ohm*M                                        :GZK   ГЗK(N0.5M2.0A)
ИК.Ohm*M                                         :IK
КП.%                                             :Кп
НГК.ue                                           :NGK     (НГК)
NNKM.                                            :NNKm  (ННКм)
PS.mv                                            :PS       (ПС)
PZ.Ohm*M                                         :PZ    (КС)
RS.Ohm*M                                         :RS (Резистивиметр)
U1.mV                                            :U1
U2.mV                                            :U2
U3.mV                                            :U3
~ASCII LOG DATA
# ...
182.3       19.437      128.861     2.317       6.889       14.346      13.243      13.009      10.116      6.533       16.903      11.488      28.597      1.049       2.013       367.2       18.192      1.08        454.834     456.061     423.589     
182.4       19.515      128.837     2.335       6.627       14.38       13.215      13.214      10.108      6.589       16.73       11.587      30.108      1.037       2.019       367.4       18.432      1.08        527.656     526.746     538.419     
182.5       19.42       128.823     2.351       6.582       14.479      13.16       13.282      10.088      6.655       16.483      11.743      31.346      1.042       2.06        367.6       18.76       1.08        649.981     645.163     690.369     
182.6       20.179      128.83      2.359       6.469       14.634      13.071      13.282      10.037      6.719       16.236      11.912      31.653      1.037       2.13        367.8       19.2        1.08        748.7       750.446     822.337     
182.7       21.319      128.883     2.36        6.289       14.835      12.95       13.28       9.946       6.773       16.083      12.091      29.948      1.084       2.185       368.2       19.736      1.08        766.721     828.517     904.197     
182.8       21.749      128.956     2.359       6.08        15.044      12.818      13.229      9.797       6.816       16.038      12.346      28.474      1.124       2.211       368.4       20.676      1.08        799.304     912.54      1021.93     
182.9       22.061      129.014     2.362       5.82        15.22       12.706      13.111      9.597       6.855       16.038      12.587      29.1        1.107       2.201       368.6       21.688      1.081       1047.43     1055.297    1211.827    
183.0       21.983      129.083     2.368       5.956       15.367      12.657      13.01       9.396       6.898       16.038      12.765      30.613      1.071       2.159       368.8       22.344      1.085       1122.503    1113.095    1268.42     
183.1       21.238      129.153     2.367       6.282       15.484      12.657      12.979      9.263       6.951       16.087      12.9        32.248      1.059       2.11        369.0       22.968      1.09        1039.573    1090.705    1258.535    
183.2       20.813      129.213     2.36        6.642       15.561      12.657      12.979      9.22        7.024       16.295      13.052      31.905      1.061       2.099       369.0       23.56       1.095       1071.718    1079.766    1192.974    
183.3       21.235      129.28      2.348       6.62        15.644      12.685      12.979      9.22        7.12        16.707      13.22       31.049      1.041       2.126       369.0       24.096      1.098       1198.153    1074.749    1158.977    
183.4       21.647      129.301     2.339       6.407       15.836      12.832      13.018      9.22        7.238       17.296      13.404      30.53       1.024       2.149       369.0       24.6        -9999.25    1022.071    977.901     1014.635    
183.5       20.441      129.251     2.335       6.439       16.236      13.159      13.172      9.243       7.385       18.007      13.635      30.421      1.092       2.166       369.0       25.096      -9999.25    867.117     913.886     993.128     
183.6       18.303      129.213     2.339       6.439       16.91       13.671      13.454      9.373       7.572       18.737      13.949      29.333      1.157       2.19        369.0       25.592      -9999.25    887.53      916.765     1204.82     
183.7       18.148      129.121     2.351       6.263       17.897      14.366      13.827      9.672       7.817       19.39       14.311      27.697      1.213       2.251       369.0       26.072      -9999.25    878.828     913.194     1372.866    
183.8       21.101      129.032     2.364       5.893       19.166      15.128      14.263      10.116      8.13        19.956      14.713      24.622      1.22        2.354       369.0       26.544      -9999.25    763.199     913.04      1268.684    
183.9       24.66       129.034     2.376       5.422       20.586      15.845      14.75       10.642      8.51        20.527      15.023      23.06       1.275       2.443       369.0       26.984      -9999.25    728.549     958.942     1167.999    
184.0       25.903      129.067     2.382       5.274       22.002      16.607      15.328      11.248      8.938       21.166      15.206      21.821      1.316       2.494       368.8       27.368      -9999.25    823.971     1024.231    1343.082    
184.1       24.539      129.137     2.382       5.638       23.414      17.522      16.05       11.992      9.357       21.767      15.217      22.677      1.277       2.491       368.6       27.696      -9999.25    886.838     1071.823    1548.888    
184.2       21.979      129.201     2.376       6.016       24.862      18.617      16.889      12.784      9.672       22.141      15.12       25.11       1.213       2.442       368.4       27.992      -9999.25    891.7       1099.523    1509.557    
184.3       20.068      129.324     2.371       6.222       26.098      19.722      17.654      13.418      9.826       22.251      15.019      26.348      1.193       2.388       368.2       24.0        -9999.25    920.19      1098.321    1294.82     
184.4       20.238      129.408     2.372       5.982       26.822      20.515      18.066      13.719      9.86        22.251      14.981      25.833      1.246       2.367       367.8       24.0        -9999.25    1045.812    1099.658    1149.699    
184.5       29.274      129.378     2.377       5.889       27.037      20.802      18.15       13.767      9.834       22.07       14.949      22.743      1.331       2.452       367.4       29.0        -9999.25    1219.513    1130.217    1077.906    
184.6       45.726      129.298     2.384       5.664       27.037      20.802      18.15       13.767      9.694       21.343      14.896      20.281      1.395       2.6         367.0       34.0        -9999.25    1242.409    1116.933    1009.756    
184.7       50.254      129.206     2.391       5.691       26.844      20.709      17.925      13.517      9.347       20.0        14.78       19.235      1.451       2.694       366.4       35.0        -9999.25    1139.991    1062.028    1026.621    
184.8       37.897      129.244     2.396       5.788       25.985      20.171      17.213      12.764      8.795       18.354      14.527      19.451      1.426       2.681       365.8       35.0        -9999.25    1131.919    1041.091    1124.826    
184.9       26.037      129.211     2.406       5.618       24.297      19.08       16.083      11.655      8.125       16.741      14.152      21.921      1.313       2.557       365.0       36.0        -9999.25    1144.721    1022.71     1159.587    
185.0       23.215      129.02      2.42        5.427       22.254      17.834      14.823      10.465      7.437       15.446      13.829      24.295      1.188       2.401       364.4       36.0        -9999.25    1029.452    971.501     1049.539    
185.1       22.499      130.62      2.424       5.182       20.333      16.796      13.762      9.428       6.81        14.623      13.491      27.167      1.109       2.271       363.2       36.0        -9999.25    984.966     960.529     928.645     
185.2       19.981      134.6       2.411       5.342       18.792      16.164      13.073      8.712       6.287       14.208      13.14       29.548      1.101       2.154       362.0       36.0        -9999.25    1147.719    1007.743    941.77      
185.3       17.866      139.083     2.39        5.46        17.734      15.972      12.729      8.302       5.894       14.047      12.847      32.193      1.082       2.039       360.8       35.0        -9999.25    1297.996    1037.531    972.086     
185.4       17.154      136.702     2.371       5.327       17.025      15.972      12.628      8.073       5.637       14.012      12.654      33.659      1.068       1.972       359.8       34.0        -9999.25    1073.895    925.501     885.603     
