~Version Information Section
VERS.                                         2.0:CWLS log ASCII Standart – VERSION 2.0
WRAP.                                          NO:One line per depth step
~Well Information Section
STRT.M                                       -0.1:Начальная глубина
STOP.M                                      197.8:Конечная глубина
STEP.M                                          0:Шаг квантования по глубине
NULL.                                    -9999.25:Признак "Нет данных"
WELL.                                       134Мх:Скважина
~Parameter Information Section
~Curve Information Section
DEPTH.M                                          :Глубина
BK.Ohm*M                                         :BK     (БК)
DS.mm                                            :DS  (ДС)
GGK.g/cm3                                        :GGKp
ГК.mcr/h                                         :GK          (ГК)
GZ1.Ohm*M                                        :GZ1   ГЗ1(A0.4M0.1N)
GZ2.Ohm*M                                        :GZ2   ГЗ2(A1.0M0.1N)
GZ3.Ohm*M                                        :GZ3   ГЗ3(A2.0M0.5N)
GZ4.Ohm*M                                        :GZ4   ГЗ4(A4.0M0.5N)
GZ5.Ohm*M                                        :GZ5   ГЗ5(A8.0M0.5N)
GZR.Ohm*M                                        :GZK   ГЗK(N0.5M2.0A)
ИК.Ohm*M                                         :IK
КП.%                                             :Кп
НГК.ue                                           :NGK     (НГК)
NNKM.                                            :NNKm  (ННКм)
PS.mv                                            :PS       (ПС)
PZ.Ohm*M                                         :PZ    (КС)
RS.Ohm*M                                         :RS (Резистивиметр)
U1.mV                                            :U1
U2.mV                                            :U2
U3.mV                                            :U3
~ASCII LOG DATA
# ...
156.7       37.437      135.117     2.321       5.638       34.862      30.579      30.273      22.668      14.712      26.901      22.573      30.276      1.179       2.116       335.6       36.096      1.06        315.74      247.289     196.983     
156.8       35.378      135.077     2.299       5.82        34.413      30.269      29.776      22.237      14.273      26.719      22.443      32.33       1.182       2.038       335.4       35.292      1.06        296.145     257.93      208.79      
156.9       34.829      135.011     2.29        5.961       33.942      30.009      29.404      21.899      13.974      26.648      22.289      34.135      1.133       1.972       335.0       34.651      1.06        304.47      262.935     297.878     
157.0       34.893      135.0       2.291       6.013       33.446      29.75       29.142      21.604      13.843      26.638      22.157      34.6        1.116       1.933       334.4       34.173      1.06        318.286     268.479     358.521     
157.1       33.977      135.513     2.297       6.07        32.983      29.573      28.954      21.341      13.818      26.638      22.093      35.268      1.08        1.913       334.0       33.826      1.06        330.998     301.762     317.863     
157.2       33.418      136.277     2.302       6.009       32.597      29.496      28.821      21.114      13.818      26.638      22.048      35.879      1.098       1.915       333.6       33.574      1.06        372.671     352.402     282.957     
157.3       34.75       136.511     2.303       6.02        32.313      29.468      28.764      20.92       13.861      26.667      21.993      35.616      1.097       1.935       333.2       33.387      1.06        421.583     372.08      355.708     
157.4       34.85       135.639     2.296       5.953       32.197      29.468      28.76       20.773      14.036      26.751      21.96       34.641      1.094       1.969       333.0       33.247      1.06        437.739     367.262     422.018     
157.5       33.071      133.948     2.286       5.807       32.197      29.468      28.76       20.717      14.368      26.865      21.879      34.187      1.131       2.008       332.8       33.14       1.06        422.325     358.135     365.74      
157.6       32.959      132.985     2.275       5.622       32.197      29.469      28.76       20.717      14.778      26.978      21.818      34.145      1.108       2.024       332.6       33.07       1.06        385.226     320.141     237.38      
157.7       33.475      132.737     2.268       5.633       32.221      29.515      28.83       20.717      15.188      27.097      21.802      33.557      1.141       2.018       332.4       33.037      1.06        331.225     254.032     161.249     
157.8       32.913      132.439     2.262       5.567       32.352      29.626      29.042      20.727      15.549      27.217      21.867      32.72       1.131       2.016       332.2       33.037      1.06        282.173     208.984     150.632     
157.9       32.923      132.086     2.263       5.731       32.672      29.773      29.376      20.806      15.818      27.287      21.977      32.66       1.15        2.015       332.0       33.037      1.06        238.714     190.528     151.775     
158.0       34.743      131.814     2.274       5.56        33.214      29.993      29.792      20.983      15.98       27.302      22.036      31.855      1.137       2.006       332.0       33.037      1.06        199.05      178.632     161.62      
158.1       37.793      131.659     2.289       5.729       33.919      30.33       30.258      21.224      16.079      27.302      22.115      30.988      1.133       2.018       332.0       33.048      1.06        182.824     185.977     181.734     
158.2       40.261      131.544     2.302       5.716       34.557      30.668      30.692      21.467      16.165      27.288      22.119      29.842      1.178       2.067       332.0       33.112      1.06        195.766     204.603     230.448     
158.3       40.555      131.555     2.307       5.647       34.95       30.903      31.009      21.638      16.249      27.208      21.972      29.951      1.174       2.103       332.0       33.248      1.06        236.454     225.013     268.292     
158.4       38.507      131.323     2.307       5.331       35.082      31.014      31.167      21.699      16.303      26.956      21.786      30.379      1.171       2.103       332.0       33.472      1.06        283.035     242.342     266.927     
158.5       35.556      130.936     2.31        5.142       35.082      31.029      31.197      21.699      16.318      26.454      21.595      30.647      1.131       2.082       332.0       33.784      1.06        317.837     252.942     221.613     
158.6       33.917      130.76      2.317       5.308       35.037      31.029      31.197      21.66       16.312      25.687      21.42       30.621      1.133       2.065       332.0       34.16       1.06        333.432     252.997     175.62      
158.7       35.363      130.644     2.334       5.602       34.759      30.958      31.102      21.461      16.273      24.65       21.287      29.592      1.146       2.095       332.0       34.576      1.06        332.129     261.447     180.461     
158.8       36.966      130.587     2.348       5.727       34.148      30.65       30.763      21.039      16.16       23.409      21.177      28.6        1.141       2.144       332.2       34.984      1.06        314.838     273.674     248.331     
158.9       36.312      130.563     2.351       5.683       33.334      30.114      30.212      20.487      15.95       22.131      20.995      28.73       1.162       2.151       332.4       35.344      1.06        305.895     276.525     324.841     
159.0       35.535      130.557     2.342       5.763       32.506      29.559      29.555      19.9        15.651      20.958      20.776      29.778      1.177       2.137       332.6       35.64       1.06        314.412     278.609     327.773     
159.1       33.91       130.551     2.322       5.867       31.798      29.069      28.893      19.357      15.308      19.997      20.503      32.262      1.179       2.131       332.8       35.88       1.06        312.552     275.827     257.094     
159.2       31.017      130.557     2.304       5.92        31.215      28.656      28.358      18.949      14.989      19.33       20.249      33.634      1.117       2.099       333.0       36.072      1.06        301.94      263.073     200.074     
159.3       29.744      130.581     2.292       5.98        30.747      28.404      28.028      18.731      14.737      18.946      20.004      34.13       1.072       2.033       333.2       36.248      1.06        313.116     270.873     217.472     
159.4       31.066      130.587     2.292       5.78        30.419      28.332      27.902      18.677      14.562      18.757      19.828      33.765      1.073       1.993       333.4       36.416      1.06        340.356     314.935     293.26      
159.5       32.142      130.589     2.295       5.86        30.207      28.332      27.883      18.677      14.462      18.681      19.612      34.369      1.089       1.988       333.8       36.576      1.06        378.452     384.412     385.723     
159.6       31.143      130.617     2.303       5.891       30.05       28.332      27.883      18.677      14.424      18.663      19.425      35.992      1.069       1.982       334.2       36.72       1.06        438.033     464.741     496.605     
159.7       30.099      130.655     2.303       6.393       29.908      28.365      27.883      18.706      14.418      18.663      19.203      37.783      1.031       1.975       334.6       36.84       1.06        484.214     522.152     603.762     
159.8       29.954      130.721     2.298       6.651       29.784      28.398      27.918      18.819      14.418      18.663      18.975      38.066      1.068       1.987       334.8       36.92       1.06        492.592     543.714     652.604     
