~Version Information Section
VERS.                                         2.0:CWLS log ASCII Standart – VERSION 2.0
WRAP.                                          NO:One line per depth step
~Well Information Section
STRT.M                                        1.6:Начальная глубина
STOP.M                                      209.3:Конечная глубина
STEP.M                                          0:Шаг квантования по глубине
NULL.                                    -9999.25:Признак "Нет данных"
WELL.                                       132Мх:Скважина
~Parameter Information Section
~Curve Information Section
DEPTH.M                                          :Глубина
BК.                                              :BК (Омм)
DS.mm                                            :DS
GGK.g/cm3                                        :GGKp
IК.                                              :IК (Омм)
NGК.                                             :NGК (усл.ед.)
PS.mV                                            :PS
PZ.                                              :PZ (Омм)
REZ.                                             :REZ (Омм)
U1.                                              :U1 (ue)
U2.                                              :U2 (ue)
U3.                                              :U3 (ue)
ГК.mcr/h                                         :ГКканаломНГК
~ASCII LOG DATA
# ...
73.0        15.673      130.029     2.35        14.815      0.987       232.165     21.782      2.417       2065.607    2124.345    2174.008    9.174       
73.1        14.891      128.339     2.3         14.931      1.043       232.689     21.36       2.417       2069.859    2125.713    2172.468    8.843       
73.2        14.201      128.668     2.256       15.017      1.119       233.347     21.394      2.416       2073.294    2128.825    2175.25     8.52        
73.3        15.357      129.252     2.266       15.312      1.201       234.16      21.836      2.415       2073.47     2129.211    2175.85     8.344       
73.4        16.701      128.909     2.268       15.558      1.214       235.085     22.246      2.417       2077.169    2130.29     2174.314    8.269       
73.5        19.639      130.394     2.29        15.975      1.183       235.958     22.509      2.419       2078.635    2132.536    2177.365    8.162       
73.6        22.882      128.942     2.32        16.277      1.137       236.686     22.651      2.42        2077.626    2135.365    2184.075    8.131       
73.7        20.681      128.439     2.338       16.485      1.117       237.271     23.447      2.42        2072.538    2133.712    2185.904    8.128       
73.8        17.672      128.408     2.331       16.696      1.146       237.704     24.662      2.419       2068.589    2130.561    2183.577    7.931       
73.9        15.807      128.347     2.328       16.88       1.185       237.994     26.202      2.417       2069.732    2131.029    2183.377    7.515       
74.0        19.139      128.086     2.337       16.99       1.243       238.149     27.504      2.417       2075.774    2133.402    2182.178    7.061       
74.1        25.317      128.355     2.376       17.255      1.342       238.179     27.858      2.417       2085.906    2133.932    2173.275    6.869       
74.2        31.17       128.821     2.401       17.567      1.418       238.095     26.546      2.417       2093.571    2132.787    2163.388    6.988       
74.3        46.381      128.716     2.446       18.183      1.449       237.869     24.907      2.416       2099.084    2132.545    2157.37     7.276       
74.4        88.312      128.854     2.388       18.441      1.41        237.476     23.67       2.417       2104.236    2131.944    2151.069    7.604       
74.5        55.666      128.87      2.346       18.75       1.342       236.995     24.253      2.418       2109.033    2131.04     2144.589    7.93        
74.6        30.604      128.131     2.293       18.659      1.273       236.479     25.843      2.417       2106.84     2133.359    2151.33     8.384       
74.7        20.757      128.981     2.257       18.353      1.218       235.946     27.598      2.418       2097.417    2134.547    2162.988    8.654       
74.8        20.051      129.107     2.246       18.099      1.205       235.411     29.478      2.418       2087.37     2134.643    2173.208    8.393       
74.9        19.695      128.405     2.259       17.852      1.217       234.884     30.155      2.415       2082.479    2135.146    2179.139    7.774       
75.0        18.563      128.665     2.291       17.57       1.266       234.363     30.179      2.417       2076.229    2134.981    2185.005    7.269       
75.1        19.938      129.14      2.336       17.454      1.332       233.833     28.682      2.419       2066.463    2135.484    2195.693    7.152       
75.2        30.142      130.013     2.36        17.494      1.388       233.307     26.52       2.416       2061.734    2133.539    2196.561    7.168       
75.3        34.909      129.764     2.404       17.497      1.411       232.764     24.414      2.418       2062.419    2133.503    2195.782    7.229       
75.4        30.452      129.591     2.412       17.498      1.37        232.238     23.366      2.416       2070.646    2134.102    2188.757    7.349       
75.5        29.035      129.477     2.415       17.383      1.291       231.809     23.837      2.416       2080.637    2133.84     2178.336    7.403       
75.6        24.394      131.591     2.408       17.155      1.22        231.54      25.003      2.417       2087.737    2135.755    2175.126    7.318       
75.7        19.975      130.597     2.482       16.785      1.183       231.356     25.655      2.415       2094.103    2138.508    2174.239    7.37        
75.8        23.031      129.1       2.556       16.536      1.166       231.233     25.386      2.415       2099.982    2140.941    2173.214    7.719       
75.9        26.028      127.795     2.537       16.159      1.135       231.172     24.603      2.417       2105.375    2143.055    2172.053    8.115       
76.0        18.634      129.455     2.425       15.962      1.093       231.174     23.824      2.417       2097.131    2144.184    2182.627    8.234       
76.1        15.368      130.22      2.335       15.675      1.058       231.222     23.011      2.415       2091.32     2146.243    2192.532    8.134       
76.2        15.124      130.082     2.329       15.398      1.034       231.314     22.125      2.417       2092.596    2146.195    2191.163    8.106       
76.3        16.262      130.293     2.353       15.131      1.025       231.484     21.18       2.416       2091.762    2141.813    2183.277    8.181       
76.4        16.385      129.953     2.342       14.931      1.026       231.719     20.29       2.417       2086.781    2135.183    2175.018    8.258       
76.5        16.195      130.063     2.318       14.934      1.028       232.051     19.694      2.417       2081.333    2132.152    2174.437    8.324       
76.6        16.14       134.978     2.294       14.85       1.028       232.461     19.415      2.419       2086.443    2134.658    2174.265    8.369       
76.7        16.286      132.667     2.294       14.823      1.04        232.948     19.341      2.416       2092.079    2136.531    2172.302    8.304       
76.8        16.476      132.404     2.269       14.738      1.077       233.476     19.359      2.418       2083.767    2136.495    2180.636    8.177       
76.9        16.457      132.679     2.251       14.768      1.117       234.022     19.327      2.417       2070.703    2136.777    2194.509    8.16        
77.0        16.575      133.135     2.255       14.799      1.133       234.567     19.217      2.414       2068.455    2139.29     2201.946    8.291       
77.1        17.546      133.72      2.279       14.828      1.107       235.101     19.062      2.418       2073.34     2138.187    2194.894    8.625       
77.2        17.947      134.031     2.293       14.857      1.054       235.636     18.95       2.417       2079.747    2136.005    2184.129    8.916       
77.3        16.707      133.727     2.277       14.857      1.001       236.186     18.941      2.417       2081.634    2137.001    2184.255    8.974       
77.4        16.044      133.546     2.306       14.857      0.967       236.76      19.02       2.416       2088.551    2139.365    2181.945    8.798       
77.5        15.652      132.446     2.338       14.886      0.979       237.346     19.097      2.416       2100.5      2143.096    2177.198    8.479       
77.6        15.81       133.069     2.36        14.914      1.023       237.937     19.106      2.415       2102.608    2143.517    2175.768    8.332       
77.7        15.973      132.346     2.312       15.031      1.066       238.499     19.033      2.417       2101.144    2145.989    2182.125    8.454       
77.8        16.431      131.335     2.314       15.091      1.083       239.011     18.944      2.416       2101.721    2147.972    2185.493    8.718       
77.9        17.225      131.792     2.312       15.239      1.089       239.449     18.908      2.417       2097.412    2145.84     2185.522    9.015       
78.0        17.337      132.294     2.323       15.389      1.108       239.829     18.999      2.417       2093.142    2142.675    2183.449    9.122       
