~Version Information Section
VERS.                                         2.0:CWLS log ASCII Standart – VERSION 2.0
WRAP.                                          NO:One line per depth step
~Well Information Section
STRT.M                                        1.6:Начальная глубина
STOP.M                                      212.2:Конечная глубина
STEP.M                                          0:Шаг квантования по глубине
NULL.                                    -9999.25:Признак "Нет данных"
WELL.                                       139Мх:Скважина
~Parameter Information Section
~Curve Information Section
DEPTH.M                                          :Глубина
BK.Ohm*M                                         :BK     (БК)
DS.mm                                            :DS  (ДС)
GGK.g/cm3                                        :GGKp
ГК.mcr/h                                         :GK          (ГК)
GZ1.Ohm*M                                        :GZ1   ГЗ1(A0.4M0.1N)
GZ2.Ohm*M                                        :GZ2   ГЗ2(A1.0M0.1N)
GZ3.Ohm*M                                        :GZ3   ГЗ3(A2.0M0.5N)
GZ4.Ohm*M                                        :GZ4   ГЗ4(A4.0M0.5N)
GZ5.Ohm*M                                        :GZ5   ГЗ5(A8.0M0.5N)
GZR.Ohm*M                                        :GZK   ГЗK(N0.5M2.0A)
ИК.Ohm*M                                         :IK
НГК.ue                                           :NGK     (НГК)
NNKM.                                            :NNKm  (ННКм)
PS.mv                                            :PS       (ПС)
PZ.Ohm*M                                         :PZ    (КС)
U1.mV                                            :U1
U2.mV                                            :U2
U3.mV                                            :U3
КП.%                                             :Кп
~ASCII LOG DATA
# ...
103.6       106.754     146.4       2.249       5.676       14.166      10.908      38.821      10.905      9.8         19.443      15.658      0.95        1.765       201.715     27.029      257.321     163.752     104.281     50.472      
103.7       114.877     145.875     2.233       5.636       14.311      10.908      37.754      10.916      10.456      21.347      15.914      0.957       1.699       202.537     27.062      227.777     150.297     93.883      54.774      
103.8       127.502     145.839     2.206       5.8         14.554      10.914      37.201      11.011      11.254      23.863      16.334      0.97        1.69        203.38      27.119      193.589     146.784     102.467     52.345      
103.9       160.011     143.975     2.156       5.811       14.789      10.963      37.054      11.327      12.219      26.586      16.961      0.961       1.741       204.254     27.213      167.702     148.676     113.923     46.357      
104.0       180.085     142.656     2.136       5.231       15.136      11.129      37.054      11.929      13.352      28.792      17.733      0.943       1.918       205.182     27.358      169.997     146.03      109.269     38.889      
104.1       170.212     145.761     2.171       4.793       15.808      11.467      37.071      12.852      14.611      30.057      18.572      0.946       2.117       206.19      27.57       180.145     140.169     90.833      38.601      
104.2       96.84       150.162     2.219       4.388       17.045      12.064      37.223      14.14       15.915      30.418      19.241      1.002       2.191       207.321     27.864      169.965     144.391     109.787     40.944      
104.3       67.52       158.056     2.25        4.472       19.103      13.024      37.747      15.71       17.108      30.364      19.743      1.082       2.233       208.629     28.247      144.547     157.943     150.362     42.197      
104.4       50.605      157.972     2.265       4.6         22.361      14.339      38.741      17.311      17.972      29.888      20.293      1.119       2.185       210.173     28.718      145.297     167.526     161.385     41.263      
104.5       49.607      149.949     2.262       4.495       27.113      15.899      40.166      18.655      18.386      28.362      20.876      1.154       2.223       211.968     29.263      187.456     168.349     137.34      36.604      
104.6       71.161      150.011     2.24        4.1         32.989      17.595      41.935      19.435      18.468      25.835      21.349      1.189       2.438       213.996     29.855      240.066     191.591     146.907     33.627      
104.7       95.843      142.516     2.24        3.579       38.747      19.173      43.866      19.639      18.438      22.867      21.71       1.234       2.606       216.198     30.457      268.315     216.007     183.786     31.968      
104.8       142.826     134.991     2.263       3.314       43.208      20.5        45.765      19.611      18.238      19.816      21.918      1.275       2.676       218.472     31.021      261.748     210.419     179.303     31.899      
104.9       202.093     134.054     2.277       3.288       45.36       21.536      47.457      19.372      17.722      17.043      21.956      1.315       2.677       220.68      31.5        232.476     173.1       135.341     31.344      
105.0       206.05      133.68      2.27        3.494       45.571      22.239      48.835      18.634      17.012      14.792      21.768      1.352       2.645       222.722     31.83       194.233     134.049     93.256      30.752      
105.1       163.139     132.818     2.27        4.034       45.425      22.639      49.893      17.465      16.349      13.087      21.455      1.333       2.606       224.521     31.992      163.568     122.86      92.535      31.233      
105.2       106.816     130.103     2.267       4.688       44.299      22.967      50.702      16.224      15.888      11.99       21.047      1.339       2.515       226.038     31.999      138.99      114.05      92.831      34.188      
105.3       74.494      129.162     2.254       5.014       41.437      23.279      51.369      15.306      15.692      11.529      20.554      1.285       2.333       227.28      31.999      118.219     108.187     94.145      36.966      
105.4       56.988      128.059     2.258       5.292       38.052      23.506      52.028      14.934      15.658      11.477      20.179      1.235       2.181       228.301     31.999      95.167      102.893     102.439     39.731      
105.5       46.324      126.73      2.263       5.236       35.118      23.724      52.798      14.934      15.658      11.477      19.864      1.178       2.109       229.161     31.887      78.277      99.743      117.058     40.759      
105.6       39.702      125.979     2.27        5.602       33.577      24.115      53.725      14.938      15.707      11.501      19.687      1.184       2.052       229.93      31.707      93.631      123.089     138.188     41.926      
105.7       32.331      125.809     2.267       5.482       33.41       24.677      54.767      15.011      15.996      11.692      19.674      1.184       2.028       230.679     31.535      140.757     147.76      134.312     41.961      
105.8       27.794      125.985     2.253       5.271       33.41       25.228      55.845      15.446      16.738      12.224      19.851      1.139       2.09        231.458     31.406      190.237     163.701     121.282     40.243      
105.9       36.044      126.284     2.252       4.715       33.489      25.966      56.806      16.623      18.085      13.094      19.988      1.092       2.16        232.283     31.336      194.942     145.991     98.908      37.619      
106.0       54.297      126.636     2.241       4.28        34.11       27.032      57.387      18.64       20.147      14.628      20.043      1.096       2.224       233.156     31.336      176.317     128.528     94.559      34.517      
106.1       71.374      129.331     2.226       4.179       35.647      28.016      57.53       21.711      22.898      17.411      20.017      1.123       2.296       234.049     31.336      160.884     138.048     123.453     33.524      
106.2       81.196      132.37      2.229       4.135       37.093      28.328      57.498      25.732      26.128      21.901      19.905      1.185       2.345       234.93      31.336      171.971     159.58      153.057     33.36       
106.3       71.376      135.346     2.215       4.411       37.657      28.292      57.205      29.863      29.46       28.119      19.674      1.235       2.359       235.772     31.338      190.408     166.14      150.129     36.403      
106.4       43.956      138.152     2.215       4.757       37.738      27.97       56.192      32.956      32.359      35.671      19.406      1.276       2.277       236.572     31.423      191.866     153.992     116.133     39.641      
106.5       29.483      138.0       2.228       4.937       37.673      26.89       54.201      34.308      34.171      43.747      19.413      1.267       2.228       237.329     31.598      168.992     138.107     95.638      37.366      
106.6       27.946      136.055     2.239       4.515       37.127      24.854      51.266      34.31       34.779      51.242      19.496      1.22        2.237       238.058     31.876      138.771     137.194     119.714     32.237      
106.7       57.226      136.245     2.27        3.923       35.502      21.875      47.717      34.146      34.857      57.218      19.523      1.2         2.437       238.763     32.265      149.48      162.349     165.153     29.067      
106.8       102.184     137.053     2.302       4.054       33.109      18.303      44.029      32.83       34.612      61.194      19.361      1.193       2.681       239.443     32.762      208.471     213.572     219.915     33.111      
106.9       64.78       137.297     2.268       5.439       31.063      15.206      40.584      29.287      33.401      63.15       19.099      1.234       2.476       240.076     33.35       276.583     282.256     289.312     42.211      
