~Version Information Section
VERS.                                         2.0:CWLS log ASCII Standart – VERSION 2.0
WRAP.                                          NO:One line per depth step
~Well Information Section
STRT.M                                        1.0:Начальная глубина
STOP.M                                      208.3:Конечная глубина
STEP.M                                          0:Шаг квантования по глубине
NULL.                                    -9999.25:Признак "Нет данных"
WELL.                                       131Мх:Скважина
~Parameter Information Section
~Curve Information Section
DEPTH.M                                          :Глубина
БК.Омм                                           :BK     (БК)
DСР.мм                                           :DS  (ДС)
ГК.гамма                                         :GK          (ГК)
А0.4М0.1N.Омм.ohmm                               :GZ1   ГЗ1(A0.4M0.1N)
А1.0М0.1N.Омм.ohmm                               :GZ2   ГЗ2(A1.0M0.1N)
А2.0М0.5N.Омм.ohmm                               :GZ3   ГЗ3(A2.0M0.5N)
А4.0М0.5N.Oмм.ohmm                               :GZ4   ГЗ4(A4.0M0.5N)
А8.0М1.0N.Омм.ohmm                               :GZ5   ГЗ5(A8.0M0.5N)
N0.5M2.0A.Омм.ohmm                               :GZK   ГЗK(N0.5M2.0A)
ИК.мСм/м                                         :IK
НГК.усл.ед                                       :NGK     (НГК)
ПС.mv                                            :PS       (ПС)
П.%                                              :п
PZ.Омм                                           :PZ    (КС)
R.Омм                                            :RS (Резистивиметр)
U1.мВ                                            :U1
U2.mV                                            :U2
U3.мВ                                            :U3
W.г/см3                                          :ГГКп
~ASCII LOG DATA
# ...
147.6       44.933      139.393     5.723       -9999.25    -9999.25    -9999.25    -9999.25    -9999.25    -9999.25    19.993      1.219       91.352      30.132      55.477      1.12        1335.889    1293.899    1266.834    2.406       
147.65      -9999.25    -9999.25    -9999.25    34.953      28.968      30.22       25.475      17.035      28.019      -9999.25    -9999.25    -9999.25    -9999.25    -9999.25    -9999.25    -9999.25    -9999.25    -9999.25    -9999.25    
147.7       41.167      139.463     5.571       -9999.25    -9999.25    -9999.25    -9999.25    -9999.25    -9999.25    19.959      1.209       90.92       31.036      54.625      1.12        1335.889    1311.092    1305.114    2.424       
147.75      -9999.25    -9999.25    -9999.25    34.479      28.281      28.758      24.185      16.466      27.33       -9999.25    -9999.25    -9999.25    -9999.25    -9999.25    -9999.25    -9999.25    -9999.25    -9999.25    -9999.25    
147.8       39.679      138.352     5.536       -9999.25    -9999.25    -9999.25    -9999.25    -9999.25    -9999.25    19.935      1.197       90.898      32.138      53.851      1.12        1364.996    1334.377    1321.491    2.438       
147.85      -9999.25    -9999.25    -9999.25    33.709      27.863      27.597      23.304      15.883      26.999      -9999.25    -9999.25    -9999.25    -9999.25    -9999.25    -9999.25    -9999.25    -9999.25    -9999.25    -9999.25    
147.9       42.724      138.879     5.444       -9999.25    -9999.25    -9999.25    -9999.25    -9999.25    -9999.25    19.929      1.206       90.898      32.411      53.162      1.12        1427.726    1363.756    1311.861    2.417       
147.95      -9999.25    -9999.25    -9999.25    32.942      27.699      26.762      22.665      15.428      26.877      -9999.25    -9999.25    -9999.25    -9999.25    -9999.25    -9999.25    -9999.25    -9999.25    -9999.25    -9999.25    
148.0       43.078      139.195     5.492       -9999.25    -9999.25    -9999.25    -9999.25    -9999.25    -9999.25    19.903      1.171       91.094      32.246      52.488      1.12        1396.437    1335.085    1294.442    2.413       
148.05      -9999.25    -9999.25    -9999.25    32.246      27.535      26.149      22.122      15.116      26.868      -9999.25    -9999.25    -9999.25    -9999.25    -9999.25    -9999.25    -9999.25    -9999.25    -9999.25    -9999.25    
148.1       38.007      138.189     5.583       -9999.25    -9999.25    -9999.25    -9999.25    -9999.25    -9999.25    19.795      1.169       91.703      31.809      51.87       1.12        1396.437    1335.085    1291.449    2.417       
148.15      -9999.25    -9999.25    -9999.25    31.414      27.375      25.675      21.581      14.889      26.867      -9999.25    -9999.25    -9999.25    -9999.25    -9999.25    -9999.25    -9999.25    -9999.25    -9999.25    -9999.25    
148.2       33.745      137.895     5.764       -9999.25    -9999.25    -9999.25    -9999.25    -9999.25    -9999.25    19.6        1.187       92.451      31.559      51.327      1.12        1490.824    1376.989    1291.449    2.39        
148.25      -9999.25    -9999.25    -9999.25    30.414      27.315      25.277      20.962      14.677      26.856      -9999.25    -9999.25    -9999.25    -9999.25    -9999.25    -9999.25    -9999.25    -9999.25    -9999.25    -9999.25    
148.3       32.688      138.187     5.692       -9999.25    -9999.25    -9999.25    -9999.25    -9999.25    -9999.25    19.377      1.176       92.937      31.453      50.883      1.12        1647.413    1466.777    1324.33     2.379       
148.35      -9999.25    -9999.25    -9999.25    29.528      27.184      24.939      20.197      14.468      26.856      -9999.25    -9999.25    -9999.25    -9999.25    -9999.25    -9999.25    -9999.25    -9999.25    -9999.25    -9999.25    
148.4       32.202      138.502     5.838       -9999.25    -9999.25    -9999.25    -9999.25    -9999.25    -9999.25    19.154      1.156       93.115      31.864      50.527      1.12        1721.143    1533.636    1378.658    2.387       
148.45      -9999.25    -9999.25    -9999.25    28.78       26.94       24.635      19.351      14.288      26.884      -9999.25    -9999.25    -9999.25    -9999.25    -9999.25    -9999.25    -9999.25    -9999.25    -9999.25    -9999.25    
148.5       31.467      138.543     5.954       -9999.25    -9999.25    -9999.25    -9999.25    -9999.25    -9999.25    18.977      1.17        93.143      33.04       50.301      1.12        1620.694    1534.983    1429.434    2.389       
148.55      -9999.25    -9999.25    -9999.25    28.226      26.584      24.371      18.539      14.142      26.931      -9999.25    -9999.25    -9999.25    -9999.25    -9999.25    -9999.25    -9999.25    -9999.25    -9999.25    -9999.25    
148.6       31.826      138.813     6.021       -9999.25    -9999.25    -9999.25    -9999.25    -9999.25    -9999.25    18.871      1.156       93.008      32.789      50.184      1.12        1570.474    1527.745    1476.657    2.373       
148.65      -9999.25    -9999.25    -9999.25    27.929      26.171      24.218      17.829      14.017      26.975      -9999.25    -9999.25    -9999.25    -9999.25    -9999.25    -9999.25    -9999.25    -9999.25    -9999.25    -9999.25    
148.7       32.021      138.87      5.974       -9999.25    -9999.25    -9999.25    -9999.25    -9999.25    -9999.25    18.818      1.145       92.511      31.964      50.169      1.12        1570.474    1527.745    1507.1      2.379       
148.75      -9999.25    -9999.25    -9999.25    27.929      25.77       24.185      17.288      13.904      27.033      -9999.25    -9999.25    -9999.25    -9999.25    -9999.25    -9999.25    -9999.25    -9999.25    -9999.25    -9999.25    
148.8       30.764      138.672     5.905       -9999.25    -9999.25    -9999.25    -9999.25    -9999.25    -9999.25    18.804      1.165       91.716      31.895      50.169      1.12        1570.481    1524.254    1461.643    2.395       
148.85      -9999.25    -9999.25    -9999.25    27.929      25.525      24.185      16.942      13.808      27.122      -9999.25    -9999.25    -9999.25    -9999.25    -9999.25    -9999.25    -9999.25    -9999.25    -9999.25    -9999.25    
148.9       29.315      138.685     5.941       -9999.25    -9999.25    -9999.25    -9999.25    -9999.25    -9999.25    18.774      1.16        91.039      31.972      50.169      1.12        1613.995    1522.589    1408.921    2.375       
148.95      -9999.25    -9999.25    -9999.25    27.929      25.49       24.185      16.77       13.756      27.242      -9999.25    -9999.25    -9999.25    -9999.25    -9999.25    -9999.25    -9999.25    -9999.25    -9999.25    -9999.25    
149.0       27.519      139.119     5.741       -9999.25    -9999.25    -9999.25    -9999.25    -9999.25    -9999.25    18.721      1.133       90.756      32.256      50.169      1.12        1668.575    1522.589    1408.921    2.371       
149.05      -9999.25    -9999.25    -9999.25    28.035      25.49       24.185      16.742      13.745      27.379      -9999.25    -9999.25    -9999.25    -9999.25    -9999.25    -9999.25    -9999.25    -9999.25    -9999.25    -9999.25    
149.1       25.896      139.991     5.634       -9999.25    -9999.25    -9999.25    -9999.25    -9999.25    -9999.25    18.665      1.123       90.718      32.633      50.257      1.12        1690.715    1546.982    1435.38     2.381       
149.15      -9999.25    -9999.25    -9999.25    28.613      25.49       24.301      16.742      13.754      27.515      -9999.25    -9999.25    -9999.25    -9999.25    -9999.25    -9999.25    -9999.25    -9999.25    -9999.25    -9999.25    
149.2       27.976      140.931     5.583       -9999.25    -9999.25    -9999.25    -9999.25    -9999.25    -9999.25    18.599      1.104       90.718      32.456      50.419      1.12        1718.528    1596.102    1504.035    2.366       
149.25      -9999.25    -9999.25    -9999.25    29.592      25.49       24.595      16.742      13.763      27.62       -9999.25    -9999.25    -9999.25    -9999.25    -9999.25    -9999.25    -9999.25    -9999.25    -9999.25    -9999.25    
