~Version Information Section
VERS.                                         2.0:CWLS log ASCII Standart – VERSION 2.0
WRAP.                                          NO:One line per depth step
~Well Information Section
STRT.M                                        7.7:Начальная глубина
STOP.M                                      168.6:Конечная глубина
STEP.M                                          0:Шаг квантования по глубине
NULL.                                    -9999.25:Признак "Нет данных"
WELL.                                       137Мх:Скважина
~Parameter Information Section
~Curve Information Section
DEPTH.M                                          :Глубина
ГК.мкР/ч                                         :GK
U1.                                              :U1
U12.                                             :U12
U2.                                              :U2
W.усл.ед                                         :W
ЗОНД.                                            :Зонд N0
НГК.                                             :НГК
ННКМ.усл.ед                                      :ННКм
ПЛОТНОСТЬ.г/см3                                  :плотность
РЕЗИСТИВИМЕТР.Ом                                 :Резистивиметр
~ASCII LOG DATA
# ...
154.1       11.299      150.111     153.989     166.692     28.838      22.923      1.299       1.259       2.31        0.028       
154.2       10.9        122.567     160.01      221.257     28.44       26.168      1.321       1.3         2.332       0.026       
154.3       10.681      143.702     198.281     284.868     27.788      28.737      1.357       1.384       2.359       0.026       
154.4       10.913      182.797     231.762     305.39      27.022      30.546      1.346       1.497       2.378       0.026       
154.5       11.649      235.176     235.583     250.305     26.527      35.304      1.356       1.521       2.393       0.028       
154.6       11.833      249.051     225.147     210.508     26.015      43.714      1.432       1.538       2.404       0.038       
154.7       10.837      224.422     200.455     186.0       25.314      51.288      1.591       1.582       2.427       -9999.25    
154.8       9.758       182.555     182.638     187.33      24.569      55.532      1.68        1.615       2.461       -9999.25    
154.9       9.082       157.278     161.081     166.691     23.417      55.22       1.717       1.684       2.503       -9999.25    
155.0       8.315       265.485     224.996     194.072     21.887      49.145      1.728       1.698       2.532       -9999.25    
155.1       6.861       358.457     280.824     221.063     20.232      41.215      1.687       2.089       2.539       -9999.25    
155.2       5.26        436.192     328.564     247.664     19.767      35.744      1.622       2.075       2.517       -9999.25    
155.3       4.716       421.904     281.703     196.973     19.974      31.855      1.584       2.003       2.478       -9999.25    
155.4       4.744       447.723     237.542     139.369     20.86       28.715      1.544       1.955       2.418       -9999.25    
155.5       4.816       378.882     193.08      111.733     21.992      26.627      1.487       1.764       2.361       -9999.25    
155.6       4.871       285.366     163.726     110.075     23.056      24.488      1.426       1.7         2.314       -9999.25    
155.7       5.098       167.177     149.48      134.395     23.426      22.233      1.386       1.636       2.295       -9999.25    
155.8       5.463       153.814     149.619     147.525     23.405      20.944      1.359       1.723       2.297       -9999.25    
155.9       5.593       135.183     146.033     160.369     23.537      20.635      1.319       1.811       2.32        -9999.25    
156.0       5.667       122.802     134.008     151.459     24.017      20.801      1.282       1.805       2.353       -9999.25    
156.1       6.167       121.94      117.269     121.083     24.827      21.377      1.259       1.801       2.381       -9999.25    
156.2       7.374       125.878     118.121     117.489     26.129      22.353      1.227       1.552       2.405       -9999.25    
156.3       8.728       120.571     126.132     141.577     27.161      23.549      1.226       1.49        2.403       -9999.25    
156.4       9.759       106.02      141.301     193.348     27.927      24.762      1.252       1.345       2.384       -9999.25    
156.5       10.611      117.103     142.975     193.77      28.057      25.889      1.309       1.347       2.343       -9999.25    
156.6       10.396      156.344     146.299     163.414     28.173      26.797      1.336       1.361       2.304       -9999.25    
156.7       8.804       166.609     163.332     191.638     27.738      27.193      1.344       1.382       2.278       -9999.25    
156.8       8.059       148.547     170.628     229.538     27.688      27.181      1.349       1.485       2.269       -9999.25    
156.9       7.974       102.16      168.187     277.113     27.807      27.134      1.329       1.479       2.276       -9999.25    
157.0       7.551       131.698     161.407     221.412     27.863      27.305      1.281       1.466       2.275       -9999.25    
157.1       7.026       156.64      158.059     176.53      27.798      28.198      1.271       1.479       2.276       -9999.25    
157.2       7.039       176.985     158.143     142.466     27.827      29.837      1.289       1.493       2.263       -9999.25    
157.3       6.908       161.558     164.431     171.631     27.769      31.512      1.339       1.518       2.256       -9999.25    
157.4       6.424       162.073     190.944     229.62      27.426      32.953      1.376       1.537       2.25        -9999.25    
157.5       6.18        205.275     217.006     253.977     27.503      34.276      1.371       1.49        2.252       -9999.25    
157.6       6.192       275.222     222.394     215.881     27.561      35.837      1.366       1.467       2.258       -9999.25    
157.7       6.168       282.426     210.192     177.743     27.433      37.079      1.38        1.542       2.251       -9999.25    
157.8       6.048       278.76      203.097     159.99      27.619      36.785      1.406       1.572       2.247       -9999.25    
157.9       6.116       264.226     201.108     162.622     27.699      35.258      1.394       1.582       2.24        -9999.25    
158.0       6.235       278.946     195.857     145.696     27.534      33.124      1.361       1.584       2.25        -9999.25    
158.1       5.948       244.302     185.323     151.238     27.382      30.923      1.36        1.641       2.262       -9999.25    
158.2       5.434       194.175     168.07      154.275     27.333      29.66       1.363       1.666       2.273       -9999.25    
158.3       5.25        177.928     149.379     132.337     26.829      29.361      1.356       1.768       2.263       -9999.25    
158.4       5.16        187.131     159.223     142.866     26.866      29.349      1.33        1.732       2.24        -9999.25    
158.5       5.218       179.516     166.553     162.042     27.432      29.348      1.338       1.589       2.217       -9999.25    
158.6       5.373       155.083     171.369     189.865     27.773      29.352      1.357       1.574       2.204       -9999.25    
158.7       5.71        129.461     143.06      158.677     27.972      29.354      1.35        1.564       2.208       -9999.25    
158.8       6.137       121.169     124.764     130.694     28.392      29.354      1.322       1.518       2.214       -9999.25    
158.9       6.542       130.207     116.481     105.917     28.378      -9999.25    1.34        1.488       2.207       -9999.25    
159.0       6.57        150.594     126.094     106.436     27.719      -9999.25    1.397       1.508       2.184       -9999.25    
159.1       6.339       172.201     142.953     118.83      27.308      -9999.25    1.45        1.513       2.167       -9999.25    
159.2       6.004       182.62      157.931     136.989     27.129      -9999.25    1.458       1.505       2.161       -9999.25    
159.3       6.063       180.629     163.782     149.04      26.967      -9999.25    1.439       1.504       2.173       -9999.25    
159.4       6.309       180.431     167.626     156.018     26.856      -9999.25    1.407       1.519       2.185       -9999.25    
159.5       6.45        177.292     168.453     160.364     27.117      -9999.25    1.388       1.515       2.192       -9999.25    
159.6       6.075       171.214     166.264     162.079     27.315      -9999.25    1.392       1.496       2.194       -9999.25    
159.7       5.805       174.723     166.361     160.522     27.189      -9999.25    1.396       1.502       2.189       -9999.25    
159.8       5.854       204.96      178.879     159.362     26.959      -9999.25    1.383       1.515       2.188       -9999.25    
159.9       5.936       248.267     193.124     152.792     26.711      -9999.25    1.369       1.524       2.182       -9999.25    
160.0       5.818       277.915     196.677     140.415     26.448      -9999.25    1.356       1.532       2.17        -9999.25    
160.1       5.596       329.412     183.149     108.878     26.408      -9999.25    1.339       1.546       2.166       -9999.25    
