~Version Information Section
VERS.                                         2.0:CWLS log ASCII Standart – VERSION 2.0
WRAP.                                          NO:One line per depth step
~Well Information Section
STRT.M                                        0.8:Начальная глубина
STOP.M                                      209.6:Конечная глубина
STEP.M                                          0:Шаг квантования по глубине
NULL.                                    -9999.25:Признак "Нет данных"
WELL.                                         5Мх:Скважина
~Parameter Information Section
~Curve Information Section
DEPTH.M                                          :Глубина
BK.Ohm*M                                         :BK     (БК)
DS.mm                                            :DS  (ДС)
ГК.mcr/h                                         :GK          (ГК)
GZ1.Ohm*M                                        :GZ1   ГЗ1(A0.4M0.1N)
GZ2.Ohm*M                                        :GZ2   ГЗ2(A1.0M0.1N)
GZ3.Ohm*M                                        :GZ3   ГЗ3(A2.0M0.5N)
GZ4.Ohm*M                                        :GZ4   ГЗ4(A4.0M0.5N)
GZ5.Ohm*M                                        :GZ5   ГЗ5(A8.0M0.5N)
GZR.Ohm*M                                        :GZK   ГЗK(N0.5M2.0A)
ИК.Ohm*M                                         :IK
НГК.                                             :NNKb  (ННКб)
NNKM.                                            :NNKm  (ННКм)
PS.mv                                            :PS       (ПС)
PZ.Ohm*M                                         :PZ    (КС)
RS.Ohm*M                                         :RS (Резистивиметр)
W.%                                              :W
ГГК.g/cm3                                        :ГГК
SGDT1.1/min                                      :ПЛ1
SGDT2.1/min                                      :ПЛ2
SGDT3.1/min                                      :ПЛ3
SGDT4.1/min                                      :ПЛ4
~ASCII LOG DATA
# ...
31.8        14.191      178.662     5.147       3.877       9.364       5.794       5.124       19.402      4.144       12.434      2.47        1.762       873.187     6.137       0.828       36.67       2.298       17240.0     22680.0     17460.0     5320.0      
32.0        12.823      178.122     5.268       4.917       7.819       5.794       5.604       20.842      3.469       12.527      2.322       1.761       873.787     11.957      0.831       39.914      2.215       17719.99    22720.0     18980.0     6020.0      
32.2        14.355      175.422     5.082       5.317       10.016      7.234       6.004       21.382      3.452       13.368      2.11        1.805       877.93      25.857      0.834       45.692      1.89        23840.0     29980.0     24400.0     6780.0      
32.4        38.905      174.882     4.388       4.071       9.811       7.234       4.964       21.562      7.41        14.748      1.808       1.61        889.858     33.516      0.834       46.189      1.645       51680.277   37680.0     25980.0     6360.0      
32.6        31.189      173.262     3.104       4.847       9.697       7.351       4.498       21.445      12.259      15.801      2.012       1.455       897.645     26.395      0.834       36.886      1.826       55879.746   33920.0     19980.0     4880.0      
32.8        15.311      170.562     2.994       5.179       9.887       7.304       4.421       21.257      14.962      16.433      2.749       1.533       897.621     18.818      0.834       26.185      2.208       22480.143   23240.0     13000.0     3920.0      
33.0        27.479      169.482     3.248       4.065       10.111      6.193       4.797       21.554      12.79       17.095      4.251       2.119       891.613     13.647      0.834       21.854      2.378       9760.024    17680.0     12160.0     4060.0      
33.2        19.409      167.862     2.91        3.423       8.415       5.575       5.03        21.852      8.793       17.13       4.923       2.762       888.866     12.032      0.834       25.547      2.388       10600.0     18480.0     13300.0     4180.0      
33.4        12.794      167.258     3.364       3.804       7.534       5.661       5.385       18.549      5.272       16.908      4.104       2.445       889.033     16.49       0.834       27.991      2.395       11239.99    18880.0     13100.0     4200.0      
33.6        21.33       169.304     4.89        5.174       9.525       6.78        5.663       19.011      3.622       17.742      4.224       2.516       889.941     28.388      0.834       29.614      2.345       10160.009   18080.0     13880.0     4680.0      
33.8        149.279     169.266     5.169       5.404       10.615      7.359       5.969       19.324      2.791       19.01       3.452       2.47        889.297     38.778      0.834       34.197      2.284       12759.977   19760.0     14860.0     4420.0      
34.0        40.458      159.782     3.303       5.562       10.919      8.173       6.359       21.179      2.651       19.532      3.945       2.154       886.525     42.03       0.834       24.719      2.379       13640.021   19140.0     13520.0     3960.0      
34.2        32.81       156.015     2.351       5.72        11.07       8.784       6.554       21.899      2.707       19.404      5.635       2.416       880.194     39.18       0.834       17.247      2.505       10160.0     17380.0     12940.0     4360.0      
34.4        20.845      154.984     2.633       6.005       10.903      9.402       6.442       22.65       2.793       19.073      6.318       3.266       873.723     31.596      0.834       22.917      2.498       9120.02     18460.0     14720.0     5200.0      
34.6        23.227      156.304     3.853       6.358       10.883      10.537      6.15        23.127      2.932       19.149      4.82        2.944       873.36      24.722      0.834       29.986      2.4         12680.022   21600.0     17060.0     5920.0      
34.8        32.734      156.498     3.871       5.663       10.862      10.685      6.018       23.425      3.109       19.73       4.017       2.688       884.862     22.014      0.834       34.471      2.295       14160.002   23420.0     18140.0     6060.0      
35.0        31.261      152.783     2.739       4.208       10.841      10.388      5.646       23.01       3.505       20.366      3.314       2.429       892.269     22.249      0.834       37.75       2.215       16559.973   24760.0     17600.0     5980.0      
35.2        30.061      150.264     1.882       3.611       10.809      9.574       4.564       22.212      4.194       20.928      3.163       2.166       888.533     23.964      0.834       35.157      2.178       18160.0     24020.0     16600.0     5500.0      
35.4        28.576      150.08      2.166       3.93        10.906      6.256       4.627       21.601      5.283       21.526      3.454       2.216       873.379     26.763      0.831       32.141      2.185       17080.006   23140.0     16480.0     5020.0      
35.6        28.119      150.742     2.313       4.156       11.137      6.671       4.644       19.347      6.977       22.414      3.646       2.352       870.621     29.985      0.828       31.286      2.207       18280.0     22620.0     17260.0     5140.0      
35.8        29.923      151.489     2.269       4.106       11.123      6.663       4.651       19.253      9.125       23.307      3.859       2.36        872.613     34.397      0.828       29.764      2.243       16840.0     22360.0     17180.0     5120.0      
36.0        31.477      154.175     2.745       4.033       11.085      6.201       4.724       19.715      11.097      24.447      3.981       2.388       882.571     41.179      0.828       28.727      2.254       17160.004   23180.0     17680.0     5400.0      
36.2        41.783      151.223     3.071       3.961       11.002      5.974       4.755       19.801      12.793      25.68       4.017       2.427       900.874     52.427      0.828       28.791      2.251       16800.0     23740.0     18180.0     6040.0      
36.4        74.817      150.79      2.554       3.904       10.749      5.974       4.887       19.026      13.731      26.982      3.954       2.477       912.183     67.095      0.828       30.869      2.235       17319.998   24100.0     17920.0     6080.0      
36.6        97.275      150.425     2.162       3.821       10.523      5.974       4.908       18.557      14.358      27.702      3.626       2.43        910.552     82.581      0.828       33.259      2.22        16520.0     23440.0     17320.0     5900.0      
36.8        118.577     151.09      1.83        3.56        10.216      5.974       4.776       18.079      14.012      28.173      3.584       2.424       895.455     99.154      0.828       33.638      2.223       16759.998   22180.0     16600.0     5460.0      
37.0        210.863     151.177     1.886       3.545       9.912       5.974       4.644       18.142      13.016      27.838      3.647       2.409       886.375     113.143     0.828       32.643      2.258       15400.017   21580.0     15380.001   4940.0      
37.2        171.002     151.35      2.053       3.75        9.584       6.154       4.404       18.502      11.925      26.865      3.821       2.427       887.042     110.18      0.825       31.047      2.294       14280.0     20420.0     14860.0     4900.0      
37.4        127.644     151.851     1.846       4.438       9.688       6.694       4.404       19.042      10.654      25.15       4.071       2.525       891.905     85.258      0.822       29.856      2.325       13760.003   20800.0     15200.0     5100.0      
37.6        63.387      152.66      2.281       5.024       9.732       7.054       4.564       19.222      9.842       23.3        4.069       2.547       894.197     56.284      0.822       30.277      2.349       13159.982   21540.0     15040.0     4780.0      
37.8        123.311     154.053     2.87        5.839       10.334      8.854       7.124       19.762      7.847       22.136      3.944       2.547       898.087     41.892      0.822       31.191      2.366       12080.002   20840.0     14820.0     4660.0      
