~Version Information Section
VERS.                                         2.0:CWLS log ASCII Standart – VERSION 2.0
WRAP.                                          NO:One line per depth step
~Well Information Section
STRT.M                                        2.0:Начальная глубина
STOP.M                                      201.2:Конечная глубина
STEP.M                                          0:Шаг квантования по глубине
NULL.                                    -9999.25:Признак "Нет данных"
WELL.                                       126Мх:Скважина
~Parameter Information Section
~Curve Information Section
DEPTH.M                                          :Глубина
BK.ohmm                                          :BK
ПРОФ_СР.мм                                       :DS  (ДС)
W.g/cm3                                          :GGKp
ГК.мкР/час                                       :GK          (ГК)
ГЗ1.Омм                                          :GZ1   ГЗ1(A0.4M0.1N)
ГЗ2.Омм                                          :GZ2   ГЗ2(A1.0M0.1N)
ГЗ3.Омм                                          :GZ3   ГЗ3(A2.0M0.5N)
ГЗ4.Oмм                                          :GZ4   ГЗ4(A4.0M0.5N)
ГЗ5.Oмм                                          :GZ5   ГЗ5(A8.0M0.5N)
ГЗК.Омм                                          :GZK   ГЗK(N0.5M2.0A)
ИК.ohmm                                          :IK
НГК.усл.ед.                                      :NGK
ННКМ.усл.ед                                      :NNKm  (ННКм)
PS.мВ                                            :PS       (ПС)
PZ.Омм                                           :PZ    (КС)
RIS.Омм                                          :RS (Резистивиметр)
U1.мВ                                            :U1
U2.мВ                                            :U2
U3.mv                                            :U3
~ASCII LOG DATA
# ...
127.8       35.075      123.181     2.24        4.891       89.64       86.02       82.801      46.536      80.934      66.586      13.273      1.202       2.176       210.454     128.647     1.467       387.556     293.801     303.396     
127.9       37.239      123.281     2.236       5.068       87.48       85.816      82.401      46.536      78.735      65.786      13.282      1.183       2.21        208.87      128.271     1.467       265.527     256.329     367.398     
128.0       44.771      123.19      2.234       5.2         86.4        84.796      80.801      46.536      76.134      65.786      13.204      1.176       2.224       207.286     128.647     1.467       253.144     306.292     520.734     
128.1       55.463      124.009     2.214       5.061       72.36       83.98       80.801      46.536      74.934      65.786      13.117      1.153       2.218       206.23      129.399     1.467       294.116     369.683     633.533     
128.2       59.841      125.125     2.216       4.744       72.36       83.776      80.801      46.536      72.334      65.786      13.091      1.149       2.228       205.174     130.151     1.467       347.73      389.823     602.769     
128.3       63.096      125.243     2.208       4.541       73.44       82.552      81.6        46.536      68.134      65.786      13.132      1.191       2.242       204.118     131.279     1.467       452.477     414.3       501.272     
128.4       62.517      124.328     2.204       4.302       74.52       80.92       86.8        46.736      67.134      65.786      13.202      1.247       2.323       203.59      133.159     1.467       636.184     509.652     473.103     
128.5       66.988      123.662     2.203       4.551       74.52       80.716      95.2        47.936      66.334      65.786      13.293      1.271       2.416       202.534     135.039     1.467       830.92      650.081     552.474     
128.6       66.222      123.712     2.196       4.757       76.68       79.696      96.801      49.736      66.534      65.786      13.379      1.29        2.46        201.478     136.167     1.467       998.186     787.994     666.558     
128.7       50.466      122.612     2.184       5.255       77.76       78.676      96.401      50.736      67.734      65.786      13.444      1.273       2.48        199.894     136.919     1.467       1103.269    880.475     749.677     
128.8       46.452      122.592     2.188       5.392       79.92       77.656      94.801      53.136      69.734      66.186      13.442      1.329       2.434       198.838     137.295     1.467       1208.343    972.949     832.79      
128.9       52.481      122.112     2.183       5.514       84.24       76.84       94.401      59.936      71.734      67.986      13.51       1.311       2.361       197.254     136.543     1.467       1313.42     1065.426    915.905     
129.0       54.075      122.663     2.177       5.693       84.24       76.84       92.801      61.736      73.534      68.786      13.534      1.314       2.254       195.67      135.039     1.467       1287.474    1000.136    832.714     
129.1       57.148      122.753     2.173       5.752       83.16       76.84       92.801      61.536      74.134      68.986      13.572      1.248       2.192       194.086     132.783     1.467       1171.019    848.376     668.276     
129.2       55.335      123.328     2.167       5.77        81.0        77.044      92.401      57.536      73.134      69.586      13.622      1.198       2.22        193.03      130.527     1.467       1014.584    699.079     528.698     
129.3       48.529      122.864     2.167       5.67        76.68       77.86       90.801      57.536      72.134      68.786      13.669      1.162       2.239       191.974     128.271     1.467       982.788     722.691     580.592     
129.4       45.186      123.758     2.18        5.647       75.6        77.656      90.801      57.736      71.134      68.186      13.726      1.155       2.24        191.446     126.391     1.467       1080.591    865.058     739.283     
129.5       44.978      125.051     2.174       5.672       72.36       76.025      90.801      58.736      70.134      65.186      13.753      1.193       2.209       191.446     124.887     1.467       1257.448    1037.225    898.643     
129.6       55.081      124.955     2.182       5.733       72.36       72.556      91.2        59.936      68.335      62.386      13.775      1.198       2.171       190.918     124.511     1.467       1457.638    1206.768    1040.919    
129.7       61.094      125.102     2.181       5.701       71.28       71.332      93.2        61.736      64.134      60.586      13.789      1.188       2.217       190.39      124.511     1.467       1601.683    1326.198    1138.91     
129.8       66.222      125.838     2.197       5.566       70.2        69.496      94.801      62.736      63.134      59.586      13.838      1.15        2.279       189.862     124.135     1.467       1644.3      1357.007    1160.154    
129.9       75.509      125.232     2.198       5.485       72.36       68.476      95.201      63.736      62.134      58.586      13.901      1.142       2.296       189.334     123.383     1.467       1531.928    1254.574    1067.84     
130.0       71.121      125.896     2.202       5.577       72.36       67.252      97.6        64.736      61.134      57.786      14.044      1.139       2.302       188.806     122.255     1.467       1321.423    1076.358    919.138     
130.1       77.983      125.405     2.207       5.828       74.52       65.416      101.2       65.736      60.134      58.186      14.163      1.175       2.26        188.806     120.375     1.467       1099.766    910.338     801.901     
130.2       95.28       125.812     2.215       5.853       75.6        64.396      103.6       65.337      59.534      60.385      14.232      1.182       2.238       188.806     116.991     1.467       939.651     815.51      766.585     
130.3       88.92       126.013     2.212       6.091       76.68       63.58       106.801     60.136      60.734      63.186      14.32       1.248       2.299       188.806     113.983     1.467       812.252     754.017     775.211     
130.4       71.614      125.522     2.224       6.061       78.84       63.988      106.801     58.136      62.534      65.586      14.416      1.22        2.33        188.806     111.351     1.467       675.84      676.366     772.376     
130.5       68.707      125.218     2.214       6.22        77.76       68.067      106.801     55.537      63.734      69.185      14.5        1.226       2.301       188.806     109.095     1.467       567.082     601.008     749.746     
130.6       72.778      125.129     2.22        6.136       74.52       77.656      105.201     50.737      66.734      70.786      14.574      1.142       2.238       188.806     107.591     1.467       569.276     568.691     687.034     
130.7       64.565      125.638     2.249       6.084       71.28       75.821      98.401      47.336      72.134      69.986      14.584      1.087       2.15        188.806     107.967     1.467       679.697     581.901     597.522     
130.8       50.466      124.919     2.242       5.667       70.2        70.924      95.201      46.336      70.935      63.987      14.542      1.066       2.087       188.806     108.719     1.467       857.856     633.871     526.922     
130.9       42.855      125.664     2.243       5.298       68.04       67.456      85.2        45.136      68.934      52.586      14.387      1.061       2.049       188.806     110.223     1.467       1016.154    690.125     502.405     
131.0       51.88       125.932     2.241       5.37        66.96       66.028      70.001      43.136      66.535      51.186      14.299      1.109       2.081       188.806     112.103     1.467       1128.474    735.603     508.546     
131.1       67.92       123.855     2.238       5.781       64.8        61.949      66.401      41.136      63.134      48.786      14.161      1.134       2.144       188.806     113.983     1.469       1161.895    743.303     504.004     
