~Version Information Section
VERS.                                         2.0:CWLS log ASCII Standart – VERSION 2.0
WRAP.                                          NO:One line per depth step
~Well Information Section
STRT.M                                        0.1:Начальная глубина
STOP.M                                      202.9:Конечная глубина
STEP.M                                          0:Шаг квантования по глубине
NULL.                                    -9999.25:Признак "Нет данных"
WELL.                                       155Мх:Скважина
~Parameter Information Section
~Curve Information Section
DEPTH.M                                          :Глубина
BK.Ohm*M                                         :BK     (БК)
DS.mm                                            :DS  (ДС)
GGK.g/cm3                                        :GGKp
ГК.mcr/h                                         :GK          (ГК)
GZ1.Ohm*M                                        :GZ1   ГЗ1(A0.4M0.1N)
GZ2.Ohm*M                                        :GZ2   ГЗ2(A1.0M0.1N)
GZ3.Ohm*M                                        :GZ3   ГЗ3(A2.0M0.5N)
GZ4.Ohm*M                                        :GZ4   ГЗ4(A4.0M0.5N)
GZ5.Ohm*M                                        :GZ5   ГЗ5(A8.0M0.5N)
GZR.                                             :GZR   ГЗK(N0.5M2.0A)
ИК.Ohm*M                                         :IK
НГК.ue                                           :NGK     (НГК)
NNKM.                                            :NNKm  (ННКм)
PS.mv                                            :PS       (ПС)
PZ.Ohm*M                                         :PZ    (КС)
RS.Ohm*M                                         :RS (Резистивиметр)
W.%                                              :W
~ASCII LOG DATA
# ...
159.2       25.464      178.648     2.247       7.774       42.997      33.503      29.186      25.855      25.693      19.825      20.677      0.909       1.105       72.374      29.312      1.207       29.508      
159.3       22.68       178.61      2.237       7.799       39.832      29.791      28.386      24.885      25.331      19.127      20.456      0.905       1.104       72.522      29.239      1.207       30.05       
159.4       19.634      178.909     2.229       7.955       37.012      28.446      27.151      23.641      24.908      18.572      20.268      0.904       1.089       72.261      28.472      1.207       30.479      
159.5       18.902      179.377     2.225       8.163       35.583      27.956      25.849      22.764      24.274      18.419      19.978      0.905       1.072       72.021      27.32       1.207       31.377      
159.6       18.484      179.609     2.225       8.37        33.945      27.208      25.097      22.571      23.756      18.788      19.56       0.895       1.05        71.827      26.576      1.207       31.9        
159.7       17.851      179.898     2.229       8.555       31.852      26.657      24.847      22.688      23.228      19.595      19.179      0.863       1.041       71.841      26.122      1.207       32.453      
159.8       17.544      180.382     2.237       8.692       30.513      26.483      24.797      22.858      23.094      20.394      18.813      0.833       1.033       71.917      25.674      1.206       33.473      
159.9       17.805      180.925     2.247       8.746       29.242      26.105      25.237      23.367      23.1        21.508      18.462      0.83        1.031       72.12       25.117      1.206       34.06       
160.0       17.767      181.623     2.258       8.704       28.167      26.372      25.993      24.023      23.122      22.86       18.06       0.857       1.047       72.382      24.375      1.206       33.861      
160.1       18.416      183.158     2.268       8.576       28.599      27.347      26.658      24.438      23.116      23.709      17.793      0.89        1.069       72.716      23.715      1.206       33.38       
160.2       19.775      183.977     2.277       8.398       29.762      27.789      26.995      24.668      23.1        24.189      17.646      0.898       1.103       72.976      23.215      1.206       32.575      
160.3       20.114      184.592     2.285       8.215       30.631      26.879      26.803      24.739      22.938      24.816      17.465      0.877       1.124       73.13       22.859      1.206       31.464      
160.4       19.733      185.166     2.292       8.059       30.698      25.197      26.04       24.43       22.713      25.609      17.35       0.855       1.114       73.06       22.609      1.206       30.934      
160.5       18.764      185.935     2.297       7.931       30.775      24.113      24.855      23.744      22.415      26.423      17.298      0.861       1.084       72.763      22.285      1.206       30.372      
160.6       18.199      185.77      2.299       7.825       30.831      23.252      23.833      22.735      22.217      27.081      17.195      0.882       1.066       72.41       21.992      1.206       29.726      
160.7       17.898      184.927     2.298       7.752       30.137      22.258      22.982      21.591      21.703      27.494      17.056      0.88        1.078       72.157      21.804      1.206       28.815      
160.8       17.713      184.662     2.294       7.735       28.969      21.087      21.96       20.545      20.924      27.608      16.934      0.856       1.069       72.376      21.67       1.206       27.928      
160.9       17.566      184.154     2.287       7.787       27.885      20.161      20.953      19.436      20.317      27.348      16.749      0.834       1.039       72.766      21.509      1.206       27.887      
161.0       17.216      183.994     2.279       7.9         27.201      19.773      20.05       18.44       19.655      27.036      16.562      0.832       1.009       73.182      21.315      1.206       28.428      
161.1       16.818      184.214     2.273       8.054       26.752      19.638      19.288      17.759      18.678      27.063      16.413      0.842       1.008       73.065      21.132      1.206       29.233      
161.2       16.46       184.771     2.268       8.216       26.274      19.564      18.692      17.188      17.95       27.659      16.273      0.859       1.014       72.825      20.901      1.206       30.319      
161.3       16.377      184.586     2.263       8.341       25.413      19.113      18.142      16.638      17.238      28.352      16.137      0.879       1.017       72.55       20.683      1.206       31.276      
161.4       16.411      184.288     2.256       8.407       24.301      18.44       17.557      15.999      16.775      28.894      16.066      0.888       1.023       72.584      20.497      1.206       31.424      
161.5       16.305      184.204     2.247       8.427       23.569      17.907      16.876      15.329      16.338      29.639      16.004      0.884       1.025       72.473      20.23       1.206       31.75       
161.6       16.485      184.589     2.236       8.429       23.377      17.604      16.272      14.793      16.222      30.806      15.993      0.874       1.024       72.092      19.971      1.206       31.893      
161.7       17.048      184.908     2.226       8.426       23.828      17.559      15.845      14.347      15.977      31.843      15.964      0.874       1.021       71.464      19.872      1.206       31.486      
161.8       17.335      184.984     2.221       8.427       24.221      17.32       15.685      14.129      15.637      32.454      15.997      0.883       1.032       70.997      19.957      1.206       31.125      
161.9       16.982      185.302     2.221       8.438       23.856      17.303      15.738      14.174      15.292      33.02       16.08       0.894       1.048       71.123      20.155      1.206       30.384      
162.0       16.926      180.682     2.226       8.461       25.015      18.402      15.751      14.223      14.874      33.177      16.196      0.902       1.071       71.745      20.33       1.206       29.264      
162.1       18.108      183.97      2.232       8.498       26.439      18.681      15.762      14.306      14.345      32.685      16.394      0.913       1.08        72.742      20.492      1.206       28.694      
162.2       18.102      187.552     2.238       8.542       26.025      18.129      15.603      14.212      13.922      31.405      16.672      0.926       1.086       73.566      20.76       1.206       28.641      
162.3       17.782      188.762     2.242       8.57        25.832      17.839      14.793      13.445      13.854      29.369      17.029      0.937       1.084       74.083      20.881      1.206       28.318      
162.4       17.812      186.68      2.244       8.548       25.628      16.592      13.549      12.123      14.691      26.377      17.463      0.94        1.072       74.023      20.826      1.206       28.875      
162.5       16.821      179.486     2.248       8.459       24.772      14.567      12.413      10.855      16.114      23.565      17.999      0.932       1.063       73.613      20.819      1.206       30.856      
162.6       14.887      174.919     2.257       8.32        22.548      12.2        11.835      10.452      17.681      19.806      18.573      0.913       1.069       73.096      20.803      1.206       32.378      
162.7       13.651      175.833     2.273       8.173       19.781      10.594      12.181      11.314      19.74       14.722      19.128      0.889       1.08        73.021      20.996      1.206       33.734      
162.8       14.043      170.796     2.296       8.079       18.186      11.396      13.676      13.557      21.725      12.311      19.566      0.876       1.078       73.656      21.582      1.206       34.779      
