~Version Information Section
VERS.                                         2.0:CWLS log ASCII Standart – VERSION 2.0
WRAP.                                          NO:One line per depth step
~Well Information Section
STRT.M                                        0.7:Начальная глубина
STOP.M                                      200.1:Конечная глубина
STEP.M                                          0:Шаг квантования по глубине
NULL.                                    -9999.25:Признак "Нет данных"
WELL.                                       111Мх:Скважина
~Parameter Information Section
~Curve Information Section
DEPTH.M                                          :Глубина
DСР.mm                                           :Dср
ГК.1/min                                         :GK
ИК.mSim/m                                        :IK
N0.5M2.0A.Омм                                    :N0
НГК.усл.ед                                       :NGK
PZ.Ohm*M                                         :PZ
R.Ohm*M                                          :R
PS.mV                                            :ПС
U1.mV                                            :U1
U2.                                              :U2
U3.mV                                            :U3
А0.4М0.1N.Омм                                    :А0
А1.0М0.1N.Омм                                    :А1
А2.0М0.5N.Омм                                    :А2
А4.0М0.5N.Oмм                                    :А4
А8.0М1.0N.Омм                                    :А8
BK.Ohm*M                                         :БК
ГГК.1/min                                        :ГГК
КП.%                                             :Кп
ННКМ.усл.ед                                      :ННКм
~ASCII LOG DATA
# ...
147.9       133.9       6.144       22.234      35.117      1.267       61.0        1.06        346.808     1167.294    1468.958    1241.733    35.856      29.256      27.003      17.437      17.209      37.345      2.332       34.414      1.98        
148.0       133.397     5.952       22.416      35.484      1.248       60.9        1.06        349.026     1149.138    1471.799    1252.029    36.465      30.084      27.665      17.783      17.209      38.108      2.333       33.921      1.99        
148.1       133.615     6.093       22.62       35.686      1.456       60.9        1.06        351.243     1125.165    1465.488    1268.041    37.207      30.94       28.536      18.216      17.215      38.833      2.32        33.794      1.993       
148.2       134.974     6.374       22.829      35.739      1.261       60.9        1.06        353.461     1095.665    1456.287    1298.016    37.961      31.774      29.493      18.774      17.243      39.312      2.303       33.477      1.986       
148.3       136.457     6.221       23.022      35.739      1.379       60.9        1.06        355.678     1054.661    1447.084    1336.449    38.917      32.613      30.435      19.406      17.276      39.841      2.282       33.09       1.97        
148.4       136.982     6.067       23.242      35.652      1.314       60.7        1.06        357.65      1003.477    1429.341    1374.875    40.076      33.281      31.306      19.976      17.287      40.514      2.266       32.582      1.952       
148.5       137.432     6.159       23.434      35.362      1.237       60.5        1.06        359.374     950.621     1399.352    1399.774    41.151      33.683      32.004      20.46       17.273      41.061      2.257       31.81       1.991       
148.6       137.074     6.182       23.593      34.83       1.331       60.3        1.06        360.853     905.005     1370.979    1403.296    42.147      34.01       32.462      20.872      17.232      40.806      2.263       31.56       2.034       
148.7       133.328     6.278       23.772      34.175      1.352       60.2        1.06        362.208     869.884     1345.503    1392.853    43.187      34.318      32.747      21.143      17.157      39.726      2.276       31.398      2.024       
148.8       132.919     6.298       23.891      33.562      1.488       60.2        1.06        363.317     860.808     1334.763    1378.121    44.078      34.522      32.951      21.344      17.05       38.771      2.29        31.206      2.019       
148.9       132.972     6.182       23.895      33.006      1.407       60.2        1.06        364.302     885.785     1350.832    1368.674    44.677      34.666      33.088      21.545      16.9        38.295      2.297       30.916      2.037       
149.0       132.672     6.285       23.822      32.569      1.496       60.1        1.06        365.165     929.6       1379.122    1367.951    45.186      34.826      33.207      21.74       16.707      38.154      2.295       30.576      2.036       
149.1       132.509     6.49        23.764      32.357      1.355       60.0        1.06        365.658     974.597     1408.659    1365.378    45.687      35.021      33.368      21.981      16.506      38.369      2.291       30.381      2.011       
149.2       132.39      6.451       23.736      32.315      1.32        59.9        1.06        365.781     1017.7      1426.508    1340.634    46.1        35.348      33.564      22.293      16.324      38.686      2.28        30.432      2.025       
149.3       132.849     6.413       23.702      32.315      1.501       59.8        1.06        365.781     1042.163    1417.097    1293.464    46.562      36.008      33.811      22.67       16.135      38.958      2.272       30.482      2.065       
149.4       133.254     6.746       23.687      32.315      1.364       59.6        1.06        365.781     1047.913    1390.284    1234.229    47.077      37.065      34.15       23.156      15.909      39.395      2.266       30.485      2.067       
149.5       133.723     6.912       23.669      32.358      1.507       59.4        1.06        365.658     1054.894    1363.213    1172.378    47.308      37.986      34.602      23.699      15.672      39.73       2.263       30.631      2.063       
149.6       132.87      6.208       23.608      32.509      1.365       59.0        1.06        365.288     1080.079    1343.545    1120.261    47.308      38.383      35.084      24.189      15.452      39.14       2.265       30.768      2.106       
149.7       132.876     6.016       23.519      32.863      1.277       58.5        1.06        364.426     1112.017    1342.105    1092.1      47.009      38.789      35.514      24.601      15.259      38.278      2.265       30.771      2.121       
149.8       132.331     5.76        23.393      33.454      1.368       57.8        1.06        363.44      1148.546    1355.183    1090.077    46.189      39.349      35.903      24.902      15.126      37.747      2.267       30.809      2.061       
149.9       132.066     5.651       23.202      34.139      1.379       57.3        1.06        362.331     1172.647    1368.301    1097.441    45.111      39.592      36.226      25.066      15.075      35.946      2.264       30.855      2.021       
150.0       131.805     5.434       23.024      34.815      1.462       56.9        1.06        361.099     1160.12     1370.395    1107.412    44.137      39.69       36.42       25.183      15.068      34.258      2.267       30.937      2.021       
150.1       131.837     5.318       22.879      35.318      1.307       56.4        1.06        359.744     1111.996    1357.655    1120.875    43.314      39.556      36.572      25.396      15.068      35.906      2.278       30.592      2.032       
150.2       132.006     5.203       22.728      35.482      1.283       55.8        1.06        358.758     1054.002    1338.375    1134.82     42.763      39.078      36.695      25.629      15.078      39.013      2.296       30.283      2.045       
150.3       132.238     5.427       22.612      35.482      1.648       55.2        1.06        358.019     995.997     1325.758    1159.094    42.574      38.565      36.725      25.707      15.122      40.587      2.32        30.114      2.087       
150.4       132.456     5.472       22.581      35.368      1.2         54.7        1.06        357.526     956.01      1326.271    1195.135    42.531      37.714      36.725      25.701      15.208      41.995      2.334       30.106      2.134       
150.5       133.31      5.453       22.614      34.84       1.309       54.2        1.06        357.28      952.839     1347.607    1235.127    42.433      36.612      36.608      25.701      15.315      43.319      2.336       30.38       2.139       
150.6       133.722     5.453       22.663      33.897      1.464       53.9        1.06        357.28      970.996     1376.374    1271.627    42.335      35.661      36.198      25.612      15.416      42.237      2.324       30.758      2.122       
150.7       133.786     5.645       22.673      32.807      1.448       53.9        1.06        357.28      992.271     1401.333    1292.704    42.335      34.486      35.57       25.385      15.542      40.519      2.313       31.187      2.079       
150.8       133.453     5.814       22.605      31.854      1.368       53.9        1.06        357.28      1012.298    1412.344    1290.818    42.445      33.382      34.802      25.069      15.738      39.915      2.308       32.222      2.034       
150.9       132.98      6.662       22.522      31.269      1.472       53.9        1.06        357.28      1021.727    1410.497    1274.565    42.811      33.021      33.989      24.762      15.942      38.715      2.312       33.136      2.002       
151.0       132.946     6.662       22.466      31.028      1.32        53.9        1.06        357.28      1014.541    1398.854    1264.029    42.988      33.021      33.341      24.518      16.079      37.159      2.325       33.664      1.965       
