~Version Information Section
VERS.                                         2.0:CWLS log ASCII Standart – VERSION 2.0
WRAP.                                          NO:One line per depth step
~Well Information Section
STRT.M                                        0.4:Начальная глубина
STOP.M                                      170.2:Конечная глубина
STEP.M                                          0:Шаг квантования по глубине
NULL.                                    -9999.25:Признак "Нет данных"
WELL.                                       121Мх:Скважина
~Parameter Information Section
~Curve Information Section
DEPTH.M                                          :Глубина
BK.Ohm*M                                         :BK     (БК)
DS.mm                                            :DS  (ДС)
GGK.g/cm3                                        :GGKp
ГК.mcr/h                                         :GK          (ГК)
GZ1.Ohm*M                                        :GZ1   ГЗ1(A0.4M0.1N)
GZ2.Ohm*M                                        :GZ2   ГЗ2(A1.0M0.1N)
GZ3.Ohm*M                                        :GZ3   ГЗ3(A2.0M0.5N)
GZ4.Ohm*M                                        :GZ4   ГЗ4(A4.0M0.5N)
GZ5.Ohm*M                                        :GZ5   ГЗ5(A8.0M0.5N)
GZR.Ohm*M                                        :GZK   ГЗK(N0.5M2.0A)
ИК.Ohm*M                                         :IK
НГК.u.e.                                         :NGK
NNKM.                                            :NNKm  (ННКм)
PS.mv                                            :PS       (ПС)
PZ.Ohm*M                                         :PZ    (КС)
RS.Ohm*M                                         :RS (Резистивиметр)
U1.mV                                            :U1
U2.mV                                            :U2
U3.mV                                            :U3
КП.%                                             :Кп
~ASCII LOG DATA
# ...
83.6        210.378     129.919     2.432       2.813       257.113     95.51       55.119      71.933      48.781      95.549      15.771      1.154       2.75        467.84      116.247     1.06        155.114     139.04      179.806     35.402      
83.8        196.336     130.109     2.378       2.943       271.991     118.149     58.127      82.576      53.911      88.24       15.995      1.129       2.608       465.008     137.538     1.06        146.428     135.714     193.716     38.382      
84.0        234.963     129.574     2.344       2.512       278.585     142.271     62.509      93.843      59.038      83.584      16.055      1.16        2.598       462.496     167.393     1.06        153.044     133.75      146.339     35.088      
84.2        218.273     129.332     2.346       2.711       279.878     163.579     68.399      104.157     63.388      79.927      16.118      1.195       2.703       460.576     202.82      1.06        162.002     137.187     131.607     35.277      
84.4        209.411     129.844     2.417       2.522       276.829     180.902     76.17       113.846     66.183      77.018      16.063      1.167       2.637       459.056     235.51      1.06        160.464     132.484     123.402     33.593      
84.6        229.087     130.281     2.557       2.439       273.233     194.533     86.637      122.537     68.074      74.382      15.945      1.192       2.771       457.664     254.394     1.06        157.684     144.223     113.294     28.707      
84.8        190.546     129.785     2.627       2.694       272.539     205.172     100.612     128.749     69.296      71.655      15.652      1.331       2.915       456.336     256.653     1.06        159.902     144.281     114.642     27.377      
85.0        181.97      129.24      2.6         3.126       277.868     211.295     114.713     130.912     69.861      67.785      15.287      1.326       2.936       455.008     252.584     1.06        160.522     140.584     120.41      27.836      
85.2        175.388     129.327     2.615       3.423       284.466     208.418     123.147     128.001     69.256      62.164      14.836      1.2         2.951       453.728     233.1       1.06        149.954     122.89      132.788     27.211      
85.4        165.959     129.538     2.589       3.307       278.244     191.721     121.567     118.318     66.378      54.27       14.385      1.287       2.985       452.72      208.589     1.06        135.366     119.242     130.918     27.793      
85.6        262.422     130.773     2.503       2.651       252.562     162.28      109.595     102.285     60.61       45.356      13.949      1.275       2.972       452.176     187.339     1.06        124.768     122.601     115.748     31.509      
85.8        254.097     128.861     2.479       2.221       208.433     125.901     89.884      83.099      52.988      38.072      13.463      1.231       2.933       452.032     166.891     1.06        118.352     132.16      107.382     32.697      
86.0        102.802     129.488     2.535       2.402       156.089     91.905      68.5        65.682      45.29       34.358      12.912      1.154       2.742       452.032     143.445     1.06        126.062     133.042     119.122     31.04       
86.2        65.766      132.386     2.527       3.812       105.169     66.533      51.5        53.609      39.04       34.066      12.345      1.132       2.636       452.064     120.029     1.06        136.496     128.522     143.962     28.734      
86.4        22.387      134.478     2.509       5.33        70.461      52.576      41.719      48.265      34.976      36.191      11.968      1.115       2.358       452.32      101.563     1.06        143.635     116.877     149.172     32.53       
86.6        26.546      134.825     2.554       6.07        55.797      48.144      38.151      48.053      32.892      38.846      11.898      1.17        2.25        452.848     88.104      1.06        154.951     124.266     128.919     35.245      
86.8        49.774      133.387     2.663       5.401       55.712      47.2        37.866      50.184      32.154      39.75       11.91       1.212       2.342       453.52      76.652      1.06        156.692     136.761     106.768     32.469      
87.0        45.394      132.555     2.564       4.243       56.911      43.731      37.631      52.007      32.052      38.248      11.874      1.217       2.507       454.336     67.326      1.06        148.032     154.057     93.478      31.88       
87.2        33.497      130.861     2.463       5.076       57.862      39.662      36.452      53.024      32.374      35.937      11.967      1.24        2.418       455.552     62.001      1.06        155.935     151.439     116.8       34.179      
87.4        56.885      128.982     2.545       5.01        57.878      37.068      35.259      53.535      33.552      34.553      12.185      1.26        2.35        457.28      60.092      1.06        158.594     139.611     154.714     31.167      
87.6        84.14       129.954     2.557       4.902       57.03       35.049      35.664      54.192      36.119      36.512      12.243      1.269       2.429       459.056     59.708      1.06        130.84      128.096     160.223     30.145      
87.8        35.727      130.654     2.561       5.778       56.134      36.306      39.06       55.513      40.886      43.881      12.159      1.217       2.435       459.344     59.624      1.06        105.791     122.756     137.324     31.835      
88.0        26.424      131.796     2.542       6.083       58.77       41.856      45.163      58.449      48.304      55.272      12.144      1.139       2.219       458.896     59.619      1.06        104.926     116.699     159.533     34.722      
88.2        46.989      129.0       2.506       5.224       63.939      47.091      51.759      62.624      57.953      65.756      12.34       1.161       2.232       455.36      59.629      1.06        123.696     136.084     174.12      33.291      
88.4        40.087      130.197     2.611       5.754       72.2        50.556      57.543      67.208      67.109      73.666      12.514      1.159       2.393       449.824     59.75       1.06        165.687     170.516     143.005     35.314      
88.6        38.459      130.924     2.715       5.541       83.698      54.59       61.244      70.811      73.375      79.493      12.637      1.207       2.267       445.392     60.096      1.06        193.001     175.509     126.87      32.065      
88.8        59.979      130.727     2.643       4.373       91.933      55.041      60.412      72.281      75.812      82.376      12.876      1.225       2.439       443.424     60.714      1.06        175.635     163.083     149.465     28.186      
89.0        167.88      128.342     2.477       3.876       90.79       49.763      54.668      71.101      74.677      82.34       13.008      1.215       2.533       443.168     61.488      1.06        145.673     162.864     161.775     32.099      
89.2        115.08      128.503     2.423       4.443       86.459      44.663      47.047      68.848      69.748      82.039      12.979      1.205       2.391       443.168     62.278      1.06        141.038     157.866     162.743     32.74       
89.4        63.973      130.247     2.586       4.76        82.504      42.193      39.665      66.545      63.657      82.0        12.849      1.15        2.379       443.328     63.032      1.06        155.523     146.702     192.836     33.788      
89.6        51.286      132.503     2.607       4.705       77.695      39.235      33.183      64.343      58.371      79.899      12.823      1.146       2.349       443.696     63.817      1.06        182.267     148.506     190.675     37.221      
89.8        27.669      128.699     2.492       4.314       75.402      37.838      27.771      61.995      54.027      75.774      12.957      1.18        2.269       443.952     65.123      1.06        191.081     153.522     157.421     35.986      
