~Version Information Section
VERS.                                         2.0:CWLS log ASCII Standart – VERSION 2.0
WRAP.                                          NO:One line per depth step
~Well Information Section
STRT.M                                       -2.2:Начальная глубина
STOP.M                                      205.6:Конечная глубина
STEP.M                                          0:Шаг квантования по глубине
NULL.                                    -9999.25:Признак "Нет данных"
WELL.                                       108Мх:Скважина
~Parameter Information Section
~Curve Information Section
DEPTH.M                                          :Глубина
BK.Ohm*M                                         :BK     (БК)
DS.mm                                            :DS  (ДС)
GGK.g/cm3                                        :GGKp
ГК.mcr/h                                         :GK          (ГК)
GZ1.Ohm*M                                        :GZ1   ГЗ1(A0.4M0.1N)
GZ2.Ohm*M                                        :GZ2   ГЗ2(A1.0M0.1N)
GZ3.Ohm*M                                        :GZ3   ГЗ3(A2.0M0.5N)
GZ4.Ohm*M                                        :GZ4   ГЗ4(A4.0M0.5N)
GZ5.Ohm*M                                        :GZ5   ГЗ5(A8.0M0.5N)
GZR.Ohm*M                                        :GZK   ГЗK(N0.5M2.0A)
ИК.Ohm*M                                         :IK
НГК.ue                                           :NGK     (НГК)
NNKM.                                            :NNKm  (ННКм)
PS.mv                                            :PS       (ПС)
PZ.Ohm*M                                         :PZ    (КС)
RS.Ohm*M                                         :RS (Резистивиметр)
U1.mV                                            :U1
U2.mV                                            :U2
U3.mV                                            :U3
КП.%                                             :Кп
~ASCII LOG DATA
# ...
167.0       -9999.25    123.797     -9999.25    -9999.25    12.109      6.73        12.911      17.575      15.984      10.566      -9999.25    -9999.25    -9999.25    972.36      9.158       3.089       920.044     855.294     894.411     -9999.25    
167.03      21.408      -9999.25    2.3         6.583       -9999.25    -9999.25    -9999.25    -9999.25    -9999.25    -9999.25    10.466      1.351       1.713       -9999.25    -9999.25    -9999.25    -9999.25    -9999.25    -9999.25    31.103      
167.1       -9999.25    123.009     -9999.25    -9999.25    12.17       7.089       12.352      17.718      15.682      10.571      -9999.25    -9999.25    -9999.25    972.384     9.158       3.089       925.318     815.523     836.495     -9999.25    
167.13      22.312      -9999.25    2.306       6.612       -9999.25    -9999.25    -9999.25    -9999.25    -9999.25    -9999.25    10.493      1.373       1.712       -9999.25    -9999.25    -9999.25    -9999.25    -9999.25    -9999.25    31.17       
167.2       -9999.25    123.045     -9999.25    -9999.25    12.232      7.145       11.785      17.791      15.363      10.583      -9999.25    -9999.25    -9999.25    972.452     9.161       3.089       916.475     763.219     738.453     -9999.25    
167.23      22.633      -9999.25    2.325       6.637       -9999.25    -9999.25    -9999.25    -9999.25    -9999.25    -9999.25    10.515      1.354       1.716       -9999.25    -9999.25    -9999.25    -9999.25    -9999.25    -9999.25    29.987      
167.3       -9999.25    123.826     -9999.25    -9999.25    12.3        6.994       11.202      17.717      15.208      10.613      -9999.25    -9999.25    -9999.25    972.749     9.165       3.089       907.338     713.268     599.94      -9999.25    
167.33      21.582      -9999.25    2.341       6.593       -9999.25    -9999.25    -9999.25    -9999.25    -9999.25    -9999.25    10.534      1.308       1.713       -9999.25    -9999.25    -9999.25    -9999.25    -9999.25    -9999.25    28.646      
167.4       -9999.25    124.193     -9999.25    -9999.25    12.376      6.331       10.746      17.732      15.427      10.94       -9999.25    -9999.25    -9999.25    973.149     9.17        3.089       899.338     668.157     479.462     -9999.25    
167.43      21.03       -9999.25    2.345       6.474       -9999.25    -9999.25    -9999.25    -9999.25    -9999.25    -9999.25    10.553      1.266       1.692       -9999.25    -9999.25    -9999.25    -9999.25    -9999.25    -9999.25    28.356      
167.5       -9999.25    122.455     -9999.25    -9999.25    12.445      5.351       10.623      17.79       16.144      11.501      -9999.25    -9999.25    -9999.25    973.765     9.176       3.088       966.572     629.369     396.215     -9999.25    
167.53      21.731      -9999.25    2.35        6.298       -9999.25    -9999.25    -9999.25    -9999.25    -9999.25    -9999.25    10.569      1.245       1.667       -9999.25    -9999.25    -9999.25    -9999.25    -9999.25    -9999.25    28.764      
167.6       -9999.25    122.398     -9999.25    -9999.25    12.497      4.534       10.503      18.026      17.371      12.094      -9999.25    -9999.25    -9999.25    974.366     9.181       3.087       1108.379    622.339     372.381     -9999.25    
167.63      22.226      -9999.25    2.345       6.33        -9999.25    -9999.25    -9999.25    -9999.25    -9999.25    -9999.25    10.611      1.25        1.659       -9999.25    -9999.25    -9999.25    -9999.25    -9999.25    -9999.25    29.978      
167.7       -9999.25    122.459     -9999.25    -9999.25    12.53       4.035       10.409      18.697      18.863      12.719      -9999.25    -9999.25    -9999.25    974.695     9.186       3.086       1276.065    648.756     373.312     -9999.25    
167.73      22.086      -9999.25    2.347       6.423       -9999.25    -9999.25    -9999.25    -9999.25    -9999.25    -9999.25    10.63       1.259       1.659       -9999.25    -9999.25    -9999.25    -9999.25    -9999.25    -9999.25    31.053      
167.8       -9999.25    122.271     -9999.25    -9999.25    12.554      3.572       10.353      19.866      20.259      13.357      -9999.25    -9999.25    -9999.25    974.509     9.192       3.086       1395.227    683.748     377.168     -9999.25    
167.83      22.229      -9999.25    2.352       6.5         -9999.25    -9999.25    -9999.25    -9999.25    -9999.25    -9999.25    10.605      1.251       1.663       -9999.25    -9999.25    -9999.25    -9999.25    -9999.25    -9999.25    32.399      
167.9       -9999.25    122.567     -9999.25    -9999.25    12.584      3.551       10.329      21.304      21.287      13.712      -9999.25    -9999.25    -9999.25    974.262     9.198       3.086       1421.344    711.585     385.133     -9999.25    
167.93      21.998      -9999.25    2.355       6.608       -9999.25    -9999.25    -9999.25    -9999.25    -9999.25    -9999.25    10.621      1.246       1.678       -9999.25    -9999.25    -9999.25    -9999.25    -9999.25    -9999.25    33.278      
168.0       -9999.25    122.794     -9999.25    -9999.25    12.634      4.326       10.328      22.81       21.853      13.561      -9999.25    -9999.25    -9999.25    973.954     9.206       3.085       1376.128    736.716     401.175     -9999.25    
168.03      21.378      -9999.25    2.349       6.609       -9999.25    -9999.25    -9999.25    -9999.25    -9999.25    -9999.25    10.616      1.256       1.689       -9999.25    -9999.25    -9999.25    -9999.25    -9999.25    -9999.25    33.566      
168.1       -9999.25    122.123     -9999.25    -9999.25    12.729      5.587       10.329      24.348      21.977      13.164      -9999.25    -9999.25    -9999.25    973.562     9.217       3.085       1279.815    748.302     428.264     -9999.25    
168.13      21.179      -9999.25    2.34        6.728       -9999.25    -9999.25    -9999.25    -9999.25    -9999.25    -9999.25    10.614      1.238       1.695       -9999.25    -9999.25    -9999.25    -9999.25    -9999.25    -9999.25    32.773      
168.2       -9999.25    122.026     -9999.25    -9999.25    12.881      7.317       10.307      25.603      21.638      12.72       -9999.25    -9999.25    -9999.25    972.702     9.23        3.084       1163.545    748.888     476.109     -9999.25    
168.23      21.017      -9999.25    2.314       6.79        -9999.25    -9999.25    -9999.25    -9999.25    -9999.25    -9999.25    10.632      1.207       1.701       -9999.25    -9999.25    -9999.25    -9999.25    -9999.25    -9999.25    31.37       
168.3       -9999.25    121.84      -9999.25    -9999.25    13.066      9.493       10.25       26.058      21.124      12.241      -9999.25    -9999.25    -9999.25    971.713     9.246       3.085       1044.941    736.66      532.944     -9999.25    
168.33      21.332      -9999.25    2.289       6.819       -9999.25    -9999.25    -9999.25    -9999.25    -9999.25    -9999.25    10.646      1.251       1.705       -9999.25    -9999.25    -9999.25    -9999.25    -9999.25    -9999.25    30.126      
168.4       -9999.25    121.84      -9999.25    -9999.25    13.232      11.67       10.163      25.529      20.672      11.756      -9999.25    -9999.25    -9999.25    970.883     9.266       3.085       968.705     725.363     578.737     -9999.25    
168.43      21.401      -9999.25    2.264       6.602       -9999.25    -9999.25    -9999.25    -9999.25    -9999.25    -9999.25    10.655      1.339       1.709       -9999.25    -9999.25    -9999.25    -9999.25    -9999.25    -9999.25    29.563      
168.5       -9999.25    121.846     -9999.25    -9999.25    13.335      13.351      10.057      24.608      20.27       11.564      -9999.25    -9999.25    -9999.25    970.175     9.288       3.086       940.525     720.05      592.826     -9999.25    
168.53      19.304      -9999.25    2.251       6.147       -9999.25    -9999.25    -9999.25    -9999.25    -9999.25    -9999.25    10.706      1.399       1.717       -9999.25    -9999.25    -9999.25    -9999.25    -9999.25    -9999.25    29.489      
