~Version Information Section
VERS.                                         2.0:CWLS log ASCII Standart – VERSION 2.0
WRAP.                                          NO:One line per depth step
~Well Information Section
STRT.M                                        0.5:Начальная глубина
STOP.M                                      158.2:Конечная глубина
STEP.M                                          0:Шаг квантования по глубине
NULL.                                    -9999.25:Признак "Нет данных"
WELL.                                       136Мх:Скважина
~Parameter Information Section
~Curve Information Section
DEPTH.M                                          :Глубина
BK.Ohm*M                                         :BK     (БК)
DS.mm                                            :DS  (ДС)
GGK.g/cm3                                        :GGKp
ГК.mcr/h                                         :GK          (ГК)
GZ1.Ohm*M                                        :GZ1   ГЗ1(A0.4M0.1N)
GZ2.Ohm*M                                        :GZ2   ГЗ2(A1.0M0.1N)
GZ3.Ohm*M                                        :GZ3   ГЗ3(A2.0M0.5N)
GZ4.Ohm*M                                        :GZ4   ГЗ4(A4.0M0.5N)
GZ5.Ohm*M                                        :GZ5   ГЗ5(A8.0M0.5N)
GZR.Ohm*M                                        :GZK   ГЗK(N0.5M2.0A)
ИК.Ohm*M                                         :IK
НГК.ue                                           :NGK     (НГК)
NNKM.                                            :NNKm  (ННКм)
PS.mv                                            :PS       (ПС)
PZ.Ohm*M                                         :PZ    (КС)
RS.Ohm*M                                         :RS (Резистивиметр)
U1.mV                                            :U1
U2.mV                                            :U2
U3.mV                                            :U3
КП.%                                             :Кп
~ASCII LOG DATA
# ...
150.9       81.516      128.775     2.424       4.869       -9999.25    136.265     84.85       -9999.25    19.119      -9999.25    18.516      2.12        3.336       131.412     102.62      1.087       -2104.0     140.001     -2105.0     15.744      
151.0       61.305      128.894     2.4         4.807       -9999.25    136.142     90.923      -9999.25    18.777      -9999.25    17.515      2.125       3.281       131.268     100.94      1.087       -2100.0     123.333     -2110.0     13.953      
151.1       102.303     129.006     2.421       4.565       -9999.25    136.005     94.595      -9999.25    18.547      -9999.25    16.613      2.2         3.24        131.097     97.3        1.087       -2100.0     116.666     -2120.0     11.432      
151.2       143.311     129.497     2.54        4.245       -9999.25    -9999.25    94.595      -9999.25    17.887      -9999.25    15.545      2.194       3.22        130.906     93.38       1.087       -2107.99    110.0       -2134.99    12.405      
151.3       77.406      129.572     2.551       3.955       -9999.25    -9999.25    94.595      -9999.25    17.098      -9999.25    14.434      2.265       3.35        130.702     83.86       1.087       -2120.0     116.667     -2165.0     18.227      
151.4       16.859      129.338     2.48        4.426       -9999.25    -9999.25    93.712      -9999.25    16.172      -9999.25    13.434      2.325       3.514       130.489     73.78       1.087       -2132.0     123.333     -2184.99    26.905      
151.5       10.086      129.227     2.448       5.073       -9999.25    -9999.25    85.988      -9999.25    15.219      -9999.25    12.366      2.421       3.286       130.275     64.12       1.087       -2144.0     126.667     -2165.0     35.119      
151.6       11.537      132.193     2.364       6.117       -9999.25    -9999.25    69.619      -9999.25    14.285      -9999.25    11.415      2.386       2.838       130.071     55.44       1.087       -2176.0     119.999     -2160.0     38.757      
151.7       11.996      138.578     2.282       6.639       -9999.25    -9999.25    52.118      -9999.25    13.861      -9999.25    10.861      2.26        2.263       129.872     46.76       1.087       -2203.99    106.667     -2159.99    40.222      
151.8       11.814      133.817     2.25        7.074       -9999.25    -9999.25    36.695      -9999.25    13.618      -9999.25    10.532      2.055       1.873       129.681     46.34       1.087       -2224.0     96.666      -2205.0     40.927      
151.9       12.337      131.013     2.214       7.174       -9999.25    -9999.25    24.259      -9999.25    13.568      -9999.25    10.356      1.78        1.856       129.505     46.34       1.087       -2224.0     90.0        -2219.99    41.27       
152.0       12.594      129.334     2.181       7.217       -9999.25    -9999.25    17.428      -9999.25    13.547      -9999.25    10.259      1.523       1.821       129.347     46.34       1.087       -2224.0     90.0        -2235.0     38.453      
152.1       12.475      132.003     2.182       7.072       -9999.25    -9999.25    15.813      -9999.25    -9999.25    -9999.25    10.22       1.231       1.783       129.199     46.34       1.087       -2236.0     100.001     -2245.0     35.453      
152.2       14.656      129.648     2.193       6.844       -9999.25    -9999.25    15.689      -9999.25    -9999.25    -9999.25    10.271      1.134       1.82        129.05      46.48       1.087       -2247.99    106.666     -2255.0     34.655      
152.3       17.938      128.635     2.203       6.564       -9999.25    -9999.25    15.668      -9999.25    -9999.25    -9999.25    10.387      1.017       1.893       128.893     46.76       1.087       -2268.0     113.333     -2249.99    36.333      
152.4       14.614      128.016     2.213       6.434       -9999.25    -9999.25    -9999.25    -9999.25    -9999.25    -9999.25    10.489      1.068       2.0         128.716     46.9        1.087       -2276.0     110.0       -2215.0     36.298      
152.5       12.86       128.572     2.239       6.415       -9999.25    -9999.25    -9999.25    -9999.25    -9999.25    -9999.25    10.584      1.079       2.098       128.507     47.04       1.087       -2284.0     100.0       -2185.0     34.41       
152.6       13.401      131.405     2.248       6.468       -9999.25    -9999.25    -9999.25    -9999.25    -9999.25    -9999.25    10.647      1.124       2.045       128.271     47.04       1.087       -2271.99    83.332      -2165.0     33.226      
152.7       14.41       125.734     2.25        6.647       -9999.25    -9999.25    -9999.25    -9999.25    -9999.25    -9999.25    10.629      1.156       1.99        128.025     47.04       1.087       -2260.0     66.667      -2184.99    35.96       
152.8       13.525      125.332     2.226       6.833       -9999.25    -9999.25    -9999.25    -9999.25    -9999.25    -9999.25    10.561      1.134       2.062       127.774     47.04       1.087       -2248.0     60.0        -2205.0     39.231      
152.9       12.565      125.595     2.204       7.066       -9999.25    -9999.25    -9999.25    -9999.25    -9999.25    -9999.25    10.507      1.171       2.101       127.524     47.04       1.087       -2244.0     79.998      -2229.99    40.963      
153.0       12.579      125.569     2.194       7.044       -9999.25    -9999.25    -9999.25    -9999.25    -9999.25    -9999.25    10.447      1.191       2.045       127.292     46.9        1.087       -2240.0     100.0       -2240.0     39.931      
153.1       13.226      125.613     2.213       6.916       -9999.25    -9999.25    -9999.25    -9999.25    -9999.25    -9999.25    10.394      1.179       1.995       127.083     46.9        1.087       -2236.0     113.333     -2229.99    38.833      
153.2       14.045      125.285     2.276       6.717       -9999.25    -9999.25    -9999.25    -9999.25    -9999.25    -9999.25    10.352      1.131       1.969       126.883     46.9        1.087       -2224.0     106.667     -2215.0     38.41       
153.3       13.456      124.875     2.317       6.655       -9999.25    -9999.25    -9999.25    -9999.25    -9999.25    -9999.25    10.324      1.119       2.024       126.693     46.9        1.087       -2220.0     100.0       -2200.0     36.575      
153.4       13.814      124.793     2.338       6.68        -9999.25    -9999.25    -9999.25    -9999.25    -9999.25    -9999.25    10.28       1.128       2.106       126.508     46.9        1.087       -2219.99    96.667      -2190.0     34.184      
153.5       13.258      123.508     2.314       6.775       -9999.25    -9999.25    -9999.25    -9999.25    -9999.25    -9999.25    10.188      1.096       2.1         126.313     46.9        1.087       -2236.0     83.333      -2180.0     32.591      
153.6       12.423      123.141     2.293       7.243       -9999.25    -9999.25    -9999.25    -9999.25    -9999.25    -9999.25    10.062      1.084       2.077       126.099     46.9        1.087       -2252.0     63.332      -2185.0     34.53       
153.7       12.194      123.071     2.282       7.883       -9999.25    -9999.25    -9999.25    -9999.25    -9999.25    -9999.25    9.913       1.111       2.073       125.877     46.9        1.087       -2264.0     46.667      -2199.99    36.951      
153.8       11.871      122.981     2.267       8.832       -9999.25    -9999.25    -9999.25    -9999.25    -9999.25    -9999.25    9.723       1.211       2.057       125.654     46.76       1.087       -2272.0     46.667      -2220.0     38.361      
153.9       11.518      122.991     2.273       8.934       -9999.25    -9999.25    -9999.25    -9999.25    -9999.25    -9999.25    9.563       1.223       2.01        125.445     46.48       1.087       -2256.0     53.333      -2244.99    37.722      
154.0       11.534      123.109     2.279       8.608       -9999.25    -9999.25    -9999.25    -9999.25    -9999.25    -9999.25    9.437       1.224       1.95        125.259     46.06       1.087       -2248.0     60.0        -2260.0     36.456      
