~Version Information Section
VERS.                                         2.0:CWLS log ASCII Standart – VERSION 2.0
WRAP.                                          NO:One line per depth step
~Well Information Section
STRT.M                                        0.4:Начальная глубина
STOP.M                                      170.2:Конечная глубина
STEP.M                                          0:Шаг квантования по глубине
NULL.                                    -9999.25:Признак "Нет данных"
WELL.                                       121Мх:Скважина
~Parameter Information Section
~Curve Information Section
DEPTH.M                                          :Глубина
BK.Ohm*M                                         :BK     (БК)
DS.mm                                            :DS  (ДС)
GGK.g/cm3                                        :GGKp
ГК.mcr/h                                         :GK          (ГК)
GZ1.Ohm*M                                        :GZ1   ГЗ1(A0.4M0.1N)
GZ2.Ohm*M                                        :GZ2   ГЗ2(A1.0M0.1N)
GZ3.Ohm*M                                        :GZ3   ГЗ3(A2.0M0.5N)
GZ4.Ohm*M                                        :GZ4   ГЗ4(A4.0M0.5N)
GZ5.Ohm*M                                        :GZ5   ГЗ5(A8.0M0.5N)
GZR.Ohm*M                                        :GZK   ГЗK(N0.5M2.0A)
ИК.Ohm*M                                         :IK
НГК.u.e.                                         :NGK
NNKM.                                            :NNKm  (ННКм)
PS.mv                                            :PS       (ПС)
PZ.Ohm*M                                         :PZ    (КС)
RS.Ohm*M                                         :RS (Резистивиметр)
U1.mV                                            :U1
U2.mV                                            :U2
U3.mV                                            :U3
КП.%                                             :Кп
~ASCII LOG DATA
# ...
64.4        36.308      133.416     2.529       5.121       53.528      21.8        18.126      40.141      35.085      79.852      10.851      1.08        2.174       543.152     41.649      1.06        231.005     210.692     240.877     33.317      
64.6        35.075      133.779     2.489       4.285       72.073      28.806      22.26       41.618      37.466      83.827      11.57       1.124       2.385       544.24      44.437      1.06        221.492     209.041     194.473     34.533      
64.8        27.606      133.132     2.532       3.95        93.975      37.072      25.525      44.416      40.138      83.178      12.146      1.178       2.27        545.264     47.59       1.06        203.013     201.75      190.172     36.369      
65.0        56.885      133.008     2.59        3.631       111.143     44.638      27.589      46.819      41.642      76.873      12.689      1.253       2.511       546.4       51.856      1.06        170.114     180.994     201.608     30.658      
65.2        99.77       132.065     2.559       3.415       118.726     49.592      27.021      47.868      42.917      66.048      13.181      1.29        2.76        547.712     57.024      1.06        146.496     173.95      208.332     30.343      
65.4        112.72      131.614     2.503       3.264       116.045     52.196      25.436      47.29       42.898      53.782      13.427      1.284       2.702       549.216     62.592      1.06        152.431     202.004     227.12      31.46       
65.6        115.345     131.295     2.537       3.072       105.596     53.417      23.514      45.07       41.699      43.487      13.451      1.21        2.692       550.848     68.492      1.06        194.231     255.477     218.513     30.219      
65.8        95.06       131.511     2.54        3.173       90.785      54.004      22.51       42.703      39.615      36.648      13.351      1.238       2.708       552.608     74.237      1.06        235.576     287.432     235.526     31.1        
66.0        41.976      131.561     2.421       3.651       80.26       56.229      22.843      42.417      37.929      33.428      13.234      1.311       2.538       554.512     77.856      1.06        269.402     289.741     274.639     36.928      
66.2        41.02       131.384     2.289       3.76        77.773      60.36       25.429      43.935      36.71       31.961      13.203      1.237       2.317       556.496     78.486      1.06        284.647     296.708     322.814     38.538      
66.4        48.084      131.342     2.258       3.907       81.688      64.917      29.903      46.675      35.787      31.346      13.186      1.169       2.265       558.496     78.28       1.06        288.341     289.589     313.214     38.082      
66.6        50.933      130.969     2.275       3.96        88.347      68.82       35.61       50.053      35.543      30.756      13.083      1.169       2.278       560.448     77.064      1.06        258.389     248.271     303.493     38.513      
66.8        54.702      131.271     2.31        3.464       96.336      72.643      42.134      53.322      36.105      29.698      12.907      1.228       2.314       562.272     76.192      1.06        222.157     199.601     301.261     37.66       
67.0        68.077      131.846     2.338       3.099       101.338     74.224      49.056      55.51       37.955      29.018      12.621      1.308       2.319       563.824     75.531      1.06        181.661     163.372     288.227     38.443      
67.2        77.804      131.879     2.337       3.334       99.712      73.158      56.617      57.612      40.973      31.317      12.272      1.318       2.446       565.04      73.96       1.06        154.802     145.775     228.26      33.814      
67.4        80.538      132.079     2.336       3.937       92.205      71.502      64.621      60.133      44.775      36.441      11.945      1.315       2.424       565.936     70.515      1.06        153.361     150.356     187.538     33.131      
67.6        80.91       132.127     2.391       4.455       81.225      67.545      70.299      61.303      47.899      40.932      11.571      1.198       2.427       566.144     64.826      1.06        189.0       171.915     159.46      31.841      
67.8        84.723      132.194     2.441       6.249       68.01       57.868      69.566      59.665      50.005      42.55       11.072      1.136       2.503       566.096     57.832      1.06        203.498     181.537     145.556     30.971      
68.0        42.267      134.189     2.443       9.165       55.957      45.888      62.781      56.473      49.435      41.383      10.44       1.189       2.304       564.88      51.037      1.06        190.663     171.736     137.847     39.263      
68.2        13.74       132.305     2.545       8.065       48.219      35.733      51.711      53.228      46.066      38.52       10.102      1.218       2.028       562.048     45.619      1.06        179.987     179.491     156.503     40.445      
68.4        44.055      132.871     2.668       6.071       44.837      28.149      39.199      51.186      41.205      36.155      10.174      1.266       2.448       557.984     42.007      1.06        183.723     182.331     163.882     28.657      
68.6        39.537      133.636     2.564       5.736       44.864      26.577      28.628      51.407      36.935      36.346      10.303      1.231       2.575       553.296     39.968      1.06        176.461     163.534     174.736     32.188      
68.8        23.823      133.775     2.521       6.357       46.164      29.672      23.079      53.992      33.946      39.026      10.259      1.135       2.211       548.624     39.111      1.06        159.951     159.318     177.852     35.259      
69.0        21.928      134.508     2.571       6.094       48.691      33.536      21.507      56.53       33.222      42.263      10.282      1.129       2.1         544.48      38.899      1.06        155.274     168.746     172.061     40.831      
69.2        20.464      133.846     2.654       5.172       51.24       35.635      22.035      57.897      34.031      43.925      10.367      1.236       2.133       540.96      38.899      1.06        166.12      178.117     160.612     36.571      
69.4        35.892      132.221     2.72        4.116       52.421      34.971      22.056      57.097      34.985      43.226      10.476      1.291       2.436       538.144     38.969      1.06        185.074     184.547     171.661     27.579      
69.6        63.533      132.104     2.601       4.931       51.197      30.278      21.083      55.457      35.463      41.767      10.546      1.182       2.598       536.032     39.351      1.06        187.995     189.148     185.172     26.352      
69.8        28.314      135.529     2.55        5.73        50.868      27.323      20.74       53.895      34.96       41.001      10.397      1.172       2.311       534.752     40.064      1.06        177.865     200.849     177.014     31.703      
70.0        26.792      131.705     2.598       5.336       49.836      26.844      21.299      53.796      33.638      41.007      10.264      1.276       2.311       534.112     40.795      1.06        166.929     201.21      186.534     29.997      
70.2        49.431      132.621     2.559       6.202       48.03       26.227      21.249      53.578      32.445      40.65       10.084      1.3         2.474       533.632     41.03       1.06        175.48      192.001     221.801     32.391      
70.4        17.66       132.535     2.53        6.251       45.916      25.083      20.365      52.478      31.707      39.539      9.974       1.291       2.303       532.832     40.986      1.06        214.076     189.838     245.443     35.948      
70.6        39.446      131.51      2.578       5.75        44.367      24.14       19.159      50.142      30.508      38.076      10.102      1.324       2.376       531.712     40.515      1.06        246.468     183.267     231.342     32.007      
