~Version Information Section
VERS.                                         2.0:CWLS log ASCII Standart – VERSION 2.0
WRAP.                                          NO:One line per depth step
~Well Information Section
STRT.M                                        0.6:Начальная глубина
STOP.M                                      208.2:Конечная глубина
STEP.M                                          0:Шаг квантования по глубине
NULL.                                    -9999.25:Признак "Нет данных"
WELL.                                       156Мх:Скважина
~Parameter Information Section
~Curve Information Section
DEPTH.M                                          :Глубина
БК.Ом                                            :BK     (БК)
DСР.мм                                           :DS  (ДС)
ПЛОТНОСТЬ.г/см^3                                 :GGKp
ГК.мкР/час                                       :GK          (ГК)
А0.4М0.1N.Ом                                     :GZ1   ГЗ1(A0.4M0.1N)
А1.0М0.1N.Ом                                     :GZ2   ГЗ2(A1.0M0.1N)
А2.0М0.5N.Ом                                     :GZ3   ГЗ3(A2.0M0.5N)
А4.0М0.5N.Oм                                     :GZ4   ГЗ4(A4.0M0.5N)
А8.0М1.0N.Ом                                     :GZ5   ГЗ5(A8.0M0.5N)
N0.5M2.0A.Ом                                     :GZR   ГЗK(N0.5M2.0A)
ИК.мСм/м                                         :IK
НГК.усл.ед                                       :NGK     (НГК)
ННКМ.усл.ед                                      :NNKm  (ННКм)
ПС.mv                                            :PS       (ПС)
N11.0M0.5A.Ом                                    :PZ    (КС)
РЕЗИСТИВИМЕТР.Ом                                 :RS (Резистивиметр)
КПSIO.%                                          :W
~ASCII LOG DATA
# ...
96.8        30.087      155.544     2.353       6.712       84.424      50.79       48.842      64.869      90.661      55.981      19.343      1.206       1.334       63.53       31.326      1.31        24.568      
96.9        44.031      155.919     2.336       6.798       73.315      37.337      40.562      51.586      80.202      59.426      19.282      1.212       1.381       64.355      33.997      1.31        24.226      
97.0        50.058      156.004     2.311       6.936       51.038      22.38       30.244      36.505      68.145      59.32       19.136      1.202       1.376       65.325      36.316      1.31        24.338      
97.1        40.227      159.296     2.281       7.222       33.328      13.742      19.91       22.843      55.512      54.629      18.896      1.171       1.371       66.391      35.245      1.31        24.877      
97.2        51.817      168.871     2.248       7.609       26.487      12.365      12.269      13.817      41.974      46.558      18.524      1.136       1.328       67.277      30.249      1.31        25.734      
97.3        52.593      168.459     2.218       8.236       22.84       12.759      8.355       9.842       28.55       37.162      17.994      1.095       1.286       67.875      24.383      1.31        26.943      
97.4        19.826      158.134     2.193       8.877       19.974      13.321      7.029       8.544       18.399      28.201      17.325      1.059       1.211       68.124      20.828      1.31        28.393      
97.5        12.172      158.616     2.174       9.439       18.045      13.801      6.463       7.788       12.874      21.167      16.618      1.034       1.151       68.195      20.244      1.31        30.043      
97.6        11.404      160.326     2.163       9.792       16.809      14.005      6.133       7.255       11.214      17.071      15.967      1.02        1.086       68.188      20.597      1.31        31.602      
97.7        11.753      164.957     2.162       9.966       15.983      14.234      6.018       6.931       10.581      15.807      15.447      1.012       1.044       68.163      20.568      1.31        33.102      
97.8        12.051      158.923     2.171       9.72        15.78       14.883      6.084       6.829       10.279      16.003      15.096      1.009       1.004       68.186      19.985      1.31        34.471      
97.9        11.927      157.679     2.185       9.474       16.796      16.111      6.311       6.904       10.032      16.509      14.896      1.002       1.001       68.319      19.248      1.31        35.512      
98.0        11.576      158.383     2.205       9.136       18.988      17.64       6.705       7.025       9.735       16.94       14.811      0.993       0.997       68.525      18.784      1.31        35.964      
98.1        12.326      157.343     2.228       8.583       21.763      19.097      7.247       7.008       9.434       17.167      14.81       0.987       1.0         68.769      18.797      1.31        35.885      
98.2        13.452      157.263     2.249       7.996       24.718      20.018      7.988       6.76        9.231       17.315      14.91       0.987       1.004       68.951      19.213      1.31        35.318      
98.3        14.231      157.242     2.262       7.332       26.677      19.475      8.928       6.358       9.136       17.553      15.131      0.991       1.036       69.094      19.905      1.31        34.343      
98.4        16.503      157.097     2.267       6.669       26.396      17.368      9.944       5.904       9.016       17.77       15.474      0.997       1.066       69.297      20.652      1.31        33.122      
98.5        21.219      156.872     2.265       6.141       24.354      15.175      10.887      5.478       8.793       17.502      15.905      1.003       1.136       69.506      21.134      1.31        31.979      
98.6        23.996      157.175     2.256       5.93        22.405      14.392      11.799      5.178       8.479       16.53       16.352      0.995       1.215       69.752      21.167      1.31        31.171      
98.7        24.714      159.736     2.245       5.97        21.755      15.06       12.989      5.087       8.197       15.217      16.735      0.971       1.272       70.054      20.9        1.31        30.818      
98.8        23.754      156.519     2.237       6.599       21.333      15.864      14.744      5.201       8.12        14.093      16.955      0.954       1.291       70.326      20.742      1.31        30.963      
98.9        19.706      156.297     2.236       7.205       20.283      16.122      17.011      5.46        8.418       13.44       16.981      0.943       1.298       70.559      20.925      1.31        31.327      
99.0        14.538      156.537     2.24        7.676       19.216      16.251      19.579      5.912       8.907       13.244      16.842      0.933       1.253       70.767      21.319      1.31        31.795      
99.1        13.187      156.876     2.247       7.962       19.01       17.017      22.311      6.637       9.319       13.395      16.647      0.94        1.206       70.967      21.582      1.31        32.146      
99.2        14.589      157.256     2.255       8.102       20.212      19.41       24.952      7.527       9.488       13.846      16.462      0.966       1.18        71.188      21.473      1.31        32.22       
99.3        16.097      157.576     2.261       7.902       22.89       23.435      26.953      8.323       9.613       14.613      16.35       0.989       1.162       71.347      21.15       1.31        31.921      
99.4        16.061      157.851     2.262       7.747       25.626      26.478      27.797      8.865       9.92        15.92       16.33       1.008       1.148       71.436      20.987      1.31        31.363      
99.5        14.87       157.967     2.258       7.731       26.022      25.397      27.53       9.163       10.348      17.821      16.387      1.026       1.146       71.552      21.203      1.31        30.62       
99.6        14.953      158.029     2.249       7.771       23.798      20.837      26.604      9.303       10.682      19.732      16.473      1.038       1.136       71.699      21.581      1.31        30.006      
99.7        15.996      158.056     2.236       7.776       21.828      17.191      25.561      9.398       10.754      20.847      16.555      1.044       1.125       71.852      21.537      1.31        29.371      
99.8        18.018      158.306     2.224       7.793       23.144      17.957      24.92       9.596       10.534      20.958      16.629      1.049       1.138       71.944      20.791      1.31        28.76       
99.9        21.699      158.856     2.218       7.797       26.337      20.89       24.978      9.95        10.081      20.699      16.667      1.053       1.164       71.921      19.819      1.31        28.188      
100.0       23.343      157.99      2.218       7.768       27.599      21.829      25.454      10.267      9.581       20.621      16.603      1.062       1.179       71.814      19.435      1.31        27.657      
100.1       17.799      157.816     2.224       7.674       26.184      20.155      25.423      10.382      9.191       20.341      16.417      1.079       1.177       71.683      20.037      1.31        27.113      
100.2       14.238      157.714     2.24        7.429       24.515      18.157      24.349      10.48       8.922       19.232      16.145      1.099       1.185       71.561      20.991      1.31        26.667      
100.3       15.554      156.946     2.261       7.195       24.508      17.816      22.64       10.836      8.57        17.426      15.863      1.115       1.194       71.48       21.287      1.31        26.237      
100.4       19.3        157.3       2.277       7.012       24.96       18.231      20.989      11.523      8.049       15.621      15.637      1.126       1.196       71.446      20.624      1.31        26.047      
