~Version Information Section
VERS.                                         2.0:CWLS log ASCII Standart – VERSION 2.0
WRAP.                                          NO:One line per depth step
~Well Information Section
STRT.M                                       -2.2:Начальная глубина
STOP.M                                      205.6:Конечная глубина
STEP.M                                          0:Шаг квантования по глубине
NULL.                                    -9999.25:Признак "Нет данных"
WELL.                                       108Мх:Скважина
~Parameter Information Section
~Curve Information Section
DEPTH.M                                          :Глубина
BK.Ohm*M                                         :BK     (БК)
DS.mm                                            :DS  (ДС)
GGK.g/cm3                                        :GGKp
ГК.mcr/h                                         :GK          (ГК)
GZ1.Ohm*M                                        :GZ1   ГЗ1(A0.4M0.1N)
GZ2.Ohm*M                                        :GZ2   ГЗ2(A1.0M0.1N)
GZ3.Ohm*M                                        :GZ3   ГЗ3(A2.0M0.5N)
GZ4.Ohm*M                                        :GZ4   ГЗ4(A4.0M0.5N)
GZ5.Ohm*M                                        :GZ5   ГЗ5(A8.0M0.5N)
GZR.Ohm*M                                        :GZK   ГЗK(N0.5M2.0A)
ИК.Ohm*M                                         :IK
НГК.ue                                           :NGK     (НГК)
NNKM.                                            :NNKm  (ННКм)
PS.mv                                            :PS       (ПС)
PZ.Ohm*M                                         :PZ    (КС)
RS.Ohm*M                                         :RS (Резистивиметр)
U1.mV                                            :U1
U2.mV                                            :U2
U3.mV                                            :U3
КП.%                                             :Кп
~ASCII LOG DATA
# ...
144.6       -9999.25    130.553     -9999.25    -9999.25    33.236      26.12       27.092      28.769      33.186      29.917      -9999.25    -9999.25    -9999.25    876.619     19.369      3.087       1301.141    1235.901    1384.864    -9999.25    
144.63      32.899      -9999.25    2.258       5.865       -9999.25    -9999.25    -9999.25    -9999.25    -9999.25    -9999.25    20.373      1.383       1.656       -9999.25    -9999.25    -9999.25    -9999.25    -9999.25    -9999.25    31.451      
144.7       -9999.25    129.348     -9999.25    -9999.25    34.25       24.932      27.092      28.978      33.401      29.407      -9999.25    -9999.25    -9999.25    870.358     19.503      3.086       1323.383    1237.061    1351.632    -9999.25    
144.73      32.393      -9999.25    2.273       5.954       -9999.25    -9999.25    -9999.25    -9999.25    -9999.25    -9999.25    20.394      1.375       1.702       -9999.25    -9999.25    -9999.25    -9999.25    -9999.25    -9999.25    31.992      
144.8       -9999.25    128.761     -9999.25    -9999.25    36.65       23.108      27.092      28.497      33.58       28.3        -9999.25    -9999.25    -9999.25    865.961     19.629      3.086       1294.445    1249.856    1319.141    -9999.25    
144.83      34.517      -9999.25    2.28        5.802       -9999.25    -9999.25    -9999.25    -9999.25    -9999.25    -9999.25    20.485      1.407       1.762       -9999.25    -9999.25    -9999.25    -9999.25    -9999.25    -9999.25    32.291      
144.9       -9999.25    128.449     -9999.25    -9999.25    40.049      21.08       27.092      27.544      33.694      26.884      -9999.25    -9999.25    -9999.25    863.595     19.747      3.088       1233.231    1275.339    1339.768    -9999.25    
144.93      35.008      -9999.25    2.29        5.422       -9999.25    -9999.25    -9999.25    -9999.25    -9999.25    -9999.25    20.564      1.431       1.866       -9999.25    -9999.25    -9999.25    -9999.25    -9999.25    -9999.25    30.302      
145.0       -9999.25    128.437     -9999.25    -9999.25    44.055      19.166      27.092      26.513      33.722      25.557      -9999.25    -9999.25    -9999.25    863.755     19.854      3.09        1203.178    1297.006    1398.931    -9999.25    
145.03      37.344      -9999.25    2.296       5.173       -9999.25    -9999.25    -9999.25    -9999.25    -9999.25    -9999.25    20.765      1.433       2.001       -9999.25    -9999.25    -9999.25    -9999.25    -9999.25    -9999.25    27.397      
145.1       -9999.25    129.517     -9999.25    -9999.25    48.08       17.502      27.092      25.79       33.779      24.613      -9999.25    -9999.25    -9999.25    865.659     19.945      3.091       1221.853    1293.297    1409.528    -9999.25    
145.13      41.847      -9999.25    2.317       5.324       -9999.25    -9999.25    -9999.25    -9999.25    -9999.25    -9999.25    20.842      1.444       1.99        -9999.25    -9999.25    -9999.25    -9999.25    -9999.25    -9999.25    26.658      
145.2       -9999.25    130.22      -9999.25    -9999.25    50.95       16.287      27.092      25.543      33.92       24.158      -9999.25    -9999.25    -9999.25    869.393     20.013      3.091       1237.284    1265.473    1362.469    -9999.25    
145.23      50.738      -9999.25    2.348       5.609       -9999.25    -9999.25    -9999.25    -9999.25    -9999.25    -9999.25    20.898      1.446       1.819       -9999.25    -9999.25    -9999.25    -9999.25    -9999.25    -9999.25    28.388      
145.3       -9999.25    130.396     -9999.25    -9999.25    51.756      15.77       27.094      25.712      34.04       24.158      -9999.25    -9999.25    -9999.25    874.272     20.049      3.09        1212.982    1228.271    1303.627    -9999.25    
145.33      61.203      -9999.25    2.38        5.882       -9999.25    -9999.25    -9999.25    -9999.25    -9999.25    -9999.25    20.655      1.425       1.707       -9999.25    -9999.25    -9999.25    -9999.25    -9999.25    -9999.25    30.78       
145.4       -9999.25    130.982     -9999.25    -9999.25    50.633      15.798      27.099      26.186      34.047      24.525      -9999.25    -9999.25    -9999.25    879.646     20.045      3.09        1193.621    1182.699    1224.047    -9999.25    
145.43      45.876      -9999.25    2.384       5.834       -9999.25    -9999.25    -9999.25    -9999.25    -9999.25    -9999.25    20.258      1.375       1.673       -9999.25    -9999.25    -9999.25    -9999.25    -9999.25    -9999.25    31.582      
145.5       -9999.25    131.379     -9999.25    -9999.25    48.172      16.043      27.093      26.777      33.972      25.074      -9999.25    -9999.25    -9999.25    884.892     19.996      3.089       1239.515    1148.773    1126.133    -9999.25    
145.53      33.754      -9999.25    2.349       5.806       -9999.25    -9999.25    -9999.25    -9999.25    -9999.25    -9999.25    19.988      1.354       1.648       -9999.25    -9999.25    -9999.25    -9999.25    -9999.25    -9999.25    31.992      
145.6       -9999.25    131.309     -9999.25    -9999.25    44.786      16.378      27.056      27.29       33.845      25.625      -9999.25    -9999.25    -9999.25    890.072     19.9        3.087       1359.005    1119.892    1006.267    -9999.25    
145.63      30.984      -9999.25    2.307       5.738       -9999.25    -9999.25    -9999.25    -9999.25    -9999.25    -9999.25    19.51       1.365       1.642       -9999.25    -9999.25    -9999.25    -9999.25    -9999.25    -9999.25    32.272      
145.7       -9999.25    131.851     -9999.25    -9999.25    41.098      16.913      26.968      27.551      33.629      26.051      -9999.25    -9999.25    -9999.25    894.626     19.758      3.087       1528.908    1097.516    905.848     -9999.25    
145.73      29.798      -9999.25    2.272       5.871       -9999.25    -9999.25    -9999.25    -9999.25    -9999.25    -9999.25    19.198      1.369       1.636       -9999.25    -9999.25    -9999.25    -9999.25    -9999.25    -9999.25    32.389      
145.8       -9999.25    131.754     -9999.25    -9999.25    37.907      17.309      26.8        27.557      33.377      26.311      -9999.25    -9999.25    -9999.25    898.025     19.575      3.086       1705.555    1096.082    829.744     -9999.25    
145.83      26.612      -9999.25    2.248       5.744       -9999.25    -9999.25    -9999.25    -9999.25    -9999.25    -9999.25    18.992      1.369       1.639       -9999.25    -9999.25    -9999.25    -9999.25    -9999.25    -9999.25    32.279      
145.9       -9999.25    130.939     -9999.25    -9999.25    35.582      17.293      26.515      27.314      33.213      26.365      -9999.25    -9999.25    -9999.25    899.664     19.362      3.087       1832.8      1122.381    777.881     -9999.25    
145.93      26.848      -9999.25    2.24        5.677       -9999.25    -9999.25    -9999.25    -9999.25    -9999.25    -9999.25    18.929      1.359       1.649       -9999.25    -9999.25    -9999.25    -9999.25    -9999.25    -9999.25    32.07       
146.0       -9999.25    130.976     -9999.25    -9999.25    33.878      16.912      26.084      26.838      33.16       26.198      -9999.25    -9999.25    -9999.25    900.392     19.138      3.088       1851.214    1164.918    768.505     -9999.25    
146.03      30.304      -9999.25    2.245       5.635       -9999.25    -9999.25    -9999.25    -9999.25    -9999.25    -9999.25    18.823      1.351       1.659       -9999.25    -9999.25    -9999.25    -9999.25    -9999.25    -9999.25    31.789      
146.1       -9999.25    130.119     -9999.25    -9999.25    32.571      16.245      25.513      26.185      33.211      25.843      -9999.25    -9999.25    -9999.25    900.797     18.919      3.09        1761.829    1183.13     787.638     -9999.25    
146.13      31.824      -9999.25    2.264       5.614       -9999.25    -9999.25    -9999.25    -9999.25    -9999.25    -9999.25    18.74       1.358       1.673       -9999.25    -9999.25    -9999.25    -9999.25    -9999.25    -9999.25    31.632      
