~Version Information Section
VERS.                                         2.0:CWLS log ASCII Standart – VERSION 2.0
WRAP.                                          NO:One line per depth step
~Well Information Section
STRT.M                                        1.2:Начальная глубина
STOP.M                                      169.4:Конечная глубина
STEP.M                                          0:Шаг квантования по глубине
NULL.                                    -9999.25:Признак "Нет данных"
WELL.                                       114Мх:Скважина
~Parameter Information Section
~Curve Information Section
DEPTH.M                                          :Глубина
BK.Ohm*M                                         :BK     (БК)
DS.mm                                            :DS  (ДС)
GGK.g/cm3                                        :GGKp
ГК.mcr/h                                         :GK          (ГК)
GZ1.Ohm*M                                        :GZ1   ГЗ1(A0.4M0.1N)
GZ2.Ohm*M                                        :GZ2   ГЗ2(A1.0M0.1N)
GZ3.Ohm*M                                        :GZ3   ГЗ3(A2.0M0.5N)
GZ4.Ohm*M                                        :GZ4   ГЗ4(A4.0M0.5N)
GZ5.Ohm*M                                        :GZ5   ГЗ5(A8.0M0.5N)
GZR.Ohm*M                                        :GZK   ГЗK(N0.5M2.0A)
ИК.Ohm*M                                         :IK
НГК.ue                                           :NGK     (НГК)
NNKM.                                            :NNKm  (ННКм)
PS.mv                                            :PS       (ПС)
PZ.Ohm*M                                         :PZ    (КС)
U1.mV                                            :U1
U2.mV                                            :U2
U3.mV                                            :U3
КП.%                                             :Кп
~ASCII LOG DATA
# ...
161.0       20.23       122.526     2.302       7.29        11.999      12.502      15.177      14.125      13.271      13.319      16.822      1.136       1.268       1150.246    60.44       821.348     1189.639    1016.31     31.875      
161.1       19.275      122.415     2.282       7.304       12.542      13.083      16.477      14.125      13.271      15.219      14.019      1.153       1.272       1149.526    60.556      687.363     971.518     920.589     32.012      
161.2       17.989      122.257     2.295       7.108       13.045      13.833      16.577      14.125      13.371      15.319      13.898      1.193       1.274       1148.806    59.937      549.666     704.08      652.024     31.546      
161.3       16.749      122.446     2.302       6.885       14.122      14.605      16.677      14.225      13.471      15.719      13.741      1.241       1.284       1147.846    58.924      550.127     478.783     361.678     32.027      
161.4       15.417      122.855     2.319       6.427       15.228      15.744      16.877      16.925      13.671      15.819      13.478      1.279       1.342       1146.886    57.333      692.568     344.828     218.369     32.725      
161.5       15.101      122.345     2.341       6.103       17.012      18.208      16.977      16.025      14.171      15.819      13.178      1.32        1.41        1145.926    55.391      972.979     412.018     314.548     33.882      
161.6       15.488      121.78      2.352       5.653       16.311      18.036      16.777      15.725      14.171      15.819      12.913      1.364       1.53        1144.966    53.137      1184.299    591.085     506.394     33.984      
161.7       15.849      121.778     2.37        5.365       14.609      17.437      16.077      15.625      14.071      15.819      12.691      1.371       1.635       1144.246    51.024      1338.553    876.499     787.374     31.344      
161.8       15.74       121.712     2.397       5.446       14.035      17.558      15.877      15.225      14.071      15.819      12.51       1.31        1.652       1143.766    48.978      1554.811    1066.388    955.306     27.451      
161.9       14.388      121.82      2.441       5.921       13.235      17.528      15.577      15.125      13.271      15.819      12.353      1.246       1.629       1143.286    46.526      1869.302    1169.888    1017.388    22.789      
162.0       8.79        121.817     2.447       6.259       12.206      16.612      15.277      14.925      13.171      15.719      12.223      1.154       1.526       1142.806    43.673      2083.214    1280.543    1049.987    20.985      
162.1       7.379       122.147     2.432       6.533       10.297      15.308      14.677      14.425      13.071      15.719      12.082      1.109       1.397       1142.566    40.863      2065.984    1470.586    1149.621    20.18       
162.2       9.886       122.034     2.415       6.646       9.034       14.292      14.077      -9999.25    12.671      -9999.25    11.85       1.008       1.278       1142.326    38.255      1773.469    1615.018    1242.967    21.477      
162.3       10.864      122.662     2.411       6.803       8.515       14.024      13.377      -9999.25    12.471      -9999.25    11.501      1.041       1.214       1142.326    36.027      1413.633    1617.795    1258.993    23.392      
162.4       12.677      122.92      2.416       7.102       8.686       13.95       13.177      -9999.25    11.771      -9999.25    11.209      0.992       1.204       1142.566    34.061      1080.649    1459.14     1202.471    25.543      
162.5       14.655      123.582     2.373       7.214       8.896       13.879      12.977      -9999.25    11.371      -9999.25    11.055      1.045       1.198       1142.806    32.471      847.954     1252.25     1120.482    27.23       
162.6       14.125      123.076     2.335       7.302       9.472       14.27       12.877      -9999.25    10.971      -9999.25    11.1        1.016       1.198       1143.046    31.007      708.752     996.258     945.169     29.059      
162.7       15.812      122.988     2.3         7.221       8.727       13.301      12.577      -9999.25    10.871      -9999.25    11.453      1.046       1.198       1143.286    29.919      623.568     729.117     682.127     30.621      
162.8       16.144      122.216     2.297       7.11        7.66        12.018      12.277      -9999.25    10.571      -9999.25    11.881      1.076       1.198       1143.526    28.57       593.027     493.394     401.033     31.212      
162.9       16.144      121.588     2.316       7.66        6.886       11.388      11.977      -9999.25    10.471      -9999.25    12.223      1.108       1.199       1143.766    27.232      603.765     405.247     306.816     30.799      
163.0       16.144      121.273     2.335       7.569       6.714       11.317      11.577      -9999.25    10.271      -9999.25    12.471      1.113       1.199       1144.006    26.037      603.085     449.607     378.741     30.774      
163.1       16.144      121.021     2.347       7.614       6.009       10.786      11.077      -9999.25    10.171      -9999.25    12.734      1.094       1.206       1144.246    24.857      565.586     553.073     520.229     31.445      
163.2       16.904      120.537     2.343       7.353       5.928       10.641      10.877      -9999.25    9.971       -9999.25    12.934      1.102       1.21        1144.006    23.584      516.705     599.377     592.04      32.163      
163.3       16.596      120.586     2.329       7.254       5.532       10.302      10.577      -9999.25    9.871       -9999.25    13.149      1.121       1.198       1143.766    22.216      511.708     587.088     608.778     32.38       
163.4       16.558      121.009     2.337       6.902       5.888       10.47       10.177      -9999.25    9.771       -9999.25    13.388      1.123       1.194       1143.526    20.846      561.752     563.362     614.897     33.378      
163.5       16.558      120.918     2.337       6.731       6.215       10.446      9.777       -9999.25    9.571       -9999.25    13.703      1.091       1.23        1143.286    19.43       621.933     558.98      611.899     33.881      
163.6       16.558      120.842     2.314       6.619       5.763       10.205      8.577       -9999.25    9.471       -9999.25    13.971      1.078       1.25        1143.046    18.03       650.432     581.453     603.239     33.353      
163.7       16.558      121.03      2.278       7.104       5.775       10.735      8.377       -9999.25    9.371       -9999.25    14.142      1.101       1.218       1142.806    16.741      654.475     604.853     586.547     32.195      
163.8       16.558      120.989     2.255       7.605       6.138       11.027      8.177       -9999.25    9.271       -9999.25    14.295      1.122       1.207       1142.566    15.621      645.453     607.347     563.638     31.645      
163.9       16.558      121.056     2.278       7.874       5.528       10.47       8.077       -9999.25    9.171       -9999.25    14.476      1.162       1.227       1142.326    15.202      702.473     614.801     579.733     31.451      
164.0       16.558      120.897     2.3         7.714       4.423       9.526       8.177       -9999.25    9.171       -9999.25    14.694      1.159       1.232       1142.086    15.229      902.612     656.786     682.865     30.606      
164.1       16.558      120.575     2.323       7.264       -9999.25    -9999.25    -9999.25    -9999.25    -9999.25    -9999.25    14.971      1.155       1.223       1141.846    15.331      1137.464    749.069     823.793     30.446      
164.2       16.558      120.714     -9999.25    7.447       -9999.25    -9999.25    -9999.25    -9999.25    -9999.25    -9999.25    15.312      1.178       1.241       1141.606    15.521      1240.026    888.809     915.867     31.017      
164.3       16.558      120.908     -9999.25    7.772       -9999.25    -9999.25    -9999.25    -9999.25    -9999.25    -9999.25    15.701      1.157       1.269       1141.606    15.795      1168.511    1008.776    923.683     31.86       
