~Version Information Section
VERS.                                         2.0:CWLS log ASCII Standart – VERSION 2.0
WRAP.                                          NO:One line per depth step
~Well Information Section
STRT.M                                        0.4:Начальная глубина
STOP.M                                      170.2:Конечная глубина
STEP.M                                          0:Шаг квантования по глубине
NULL.                                    -9999.25:Признак "Нет данных"
WELL.                                       121Мх:Скважина
~Parameter Information Section
~Curve Information Section
DEPTH.M                                          :Глубина
BK.Ohm*M                                         :BK     (БК)
DS.mm                                            :DS  (ДС)
GGK.g/cm3                                        :GGKp
ГК.mcr/h                                         :GK          (ГК)
GZ1.Ohm*M                                        :GZ1   ГЗ1(A0.4M0.1N)
GZ2.Ohm*M                                        :GZ2   ГЗ2(A1.0M0.1N)
GZ3.Ohm*M                                        :GZ3   ГЗ3(A2.0M0.5N)
GZ4.Ohm*M                                        :GZ4   ГЗ4(A4.0M0.5N)
GZ5.Ohm*M                                        :GZ5   ГЗ5(A8.0M0.5N)
GZR.Ohm*M                                        :GZK   ГЗK(N0.5M2.0A)
ИК.Ohm*M                                         :IK
НГК.u.e.                                         :NGK
NNKM.                                            :NNKm  (ННКм)
PS.mv                                            :PS       (ПС)
PZ.Ohm*M                                         :PZ    (КС)
RS.Ohm*M                                         :RS (Резистивиметр)
U1.mV                                            :U1
U2.mV                                            :U2
U3.mV                                            :U3
КП.%                                             :Кп
~ASCII LOG DATA
# ...
160.4       17.824      122.315     2.467       6.697       25.527      9.162       3.164       -9999.25    28.087      -9999.25    7.453       1.02        1.991       486.912     34.3        -9999.25    199.06      202.074     246.391     37.209      
160.6       23.227      122.959     2.43        6.778       24.9        9.984       3.192       -9999.25    27.782      -9999.25    7.32        1.069       2.058       490.192     33.465      -9999.25    206.537     210.317     218.041     33.629      
160.8       23.55       122.594     2.443       6.67        24.615      10.173      4.235       -9999.25    27.841      -9999.25    7.203       1.051       2.088       493.072     32.819      -9999.25    221.234     232.926     206.528     35.878      
161.0       27.797      122.929     2.505       7.212       24.319      9.321       5.73        -9999.25    27.976      -9999.25    7.156       1.024       1.98        495.824     32.18       -9999.25    249.849     252.878     205.332     36.887      
161.2       25.468      121.569     2.523       8.036       24.081      7.883       7.478       -9999.25    28.38       -9999.25    7.087       1.075       1.981       498.688     31.556      -9999.25    277.587     278.302     222.771     38.315      
161.4       31.261      121.04      2.483       7.765       23.948      6.565       8.951       -9999.25    28.084      -9999.25    7.051       1.062       2.015       501.472     30.827      -9999.25    283.503     296.311     234.833     37.338      
161.6       26.485      120.89      2.462       8.119       23.918      5.973       9.724       -9999.25    27.461      -9999.25    6.984       1.018       2.065       503.808     29.926      -9999.25    278.282     307.336     254.105     35.937      
161.8       25.763      120.733     2.458       8.332       24.004      5.542       9.338       -9999.25    26.894      -9999.25    6.929       1.021       1.978       505.28      28.975      -9999.25    285.523     297.027     293.63      36.216      
162.0       25.586      120.797     2.455       7.245       24.148      5.377       8.463       -9999.25    26.434      -9999.25    6.879       1.008       1.998       505.872     28.213      -9999.25    301.787     269.083     342.515     36.89       
162.2       25.119      120.764     2.425       7.406       24.316      5.523       7.426       -9999.25    25.237      -9999.25    6.876       1.048       1.96        506.0       27.782      -9999.25    302.686     246.738     336.669     39.936      
162.4       27.606      120.815     2.457       8.054       -9999.25    5.697       6.045       -9999.25    24.267      -9999.25    6.937       1.071       1.974       506.0       27.66       -9999.25    287.741     232.802     270.272     37.851      
162.6       25.293      120.997     2.494       7.943       -9999.25    5.342       4.755       -9999.25    23.999      -9999.25    6.887       1.013       2.013       506.0       27.658      -9999.25    277.297     236.985     217.062     37.183      
162.8       25.003      120.851     2.5         7.157       -9999.25    3.205       4.197       -9999.25    23.853      -9999.25    6.931       1.01        1.978       506.0       27.679      -9999.25    281.08      236.818     197.59      39.289      
163.0       25.942      120.862     2.499       6.902       -9999.25    -9999.25    3.764       -9999.25    23.856      -9999.25    6.975       1.049       1.959       505.984     27.814      -9999.25    277.732     235.164     200.381     37.316      
163.2       22.594      120.89      2.512       7.92        -9999.25    -9999.25    3.491       -9999.25    24.234      -9999.25    6.93        1.045       1.984       505.776     28.006      -9999.25    256.934     230.244     200.51      36.375      
163.4       21.038      121.051     2.495       8.134       -9999.25    -9999.25    3.59        -9999.25    24.791      -9999.25    6.964       0.981       1.97        505.056     28.166      -9999.25    249.304     226.361     202.278     38.751      
163.6       20.184      120.673     2.501       7.449       -9999.25    -9999.25    3.823       -9999.25    24.762      -9999.25    7.126       0.971       1.914       503.616     28.272      -9999.25    255.24      212.669     213.257     40.509      
163.8       20.091      120.352     2.509       7.719       -9999.25    -9999.25    3.56        -9999.25    22.677      -9999.25    7.311       1.135       1.938       501.632     28.333      -9999.25    245.301     194.879     213.792     35.739      
164.0       18.365      120.49      2.531       8.163       -9999.25    -9999.25    1.436       -9999.25    -9999.25    -9999.25    7.5         1.223       2.016       499.44      28.375      -9999.25    219.927     172.739     191.441     36.922      
164.2       22.029      120.629     2.611       7.885       -9999.25    -9999.25    -9999.25    -9999.25    -9999.25    -9999.25    7.712       1.212       2.038       497.168     28.393      -9999.25    195.365     167.697     167.342     35.628      
164.4       18.88       120.755     2.61        8.073       -9999.25    -9999.25    -9999.25    -9999.25    -9999.25    -9999.25    7.936       1.184       2.177       495.024     28.4        -9999.25    184.649     164.879     155.586     28.492      
164.6       24.774      120.349     2.567       7.802       -9999.25    -9999.25    -9999.25    -9999.25    -9999.25    -9999.25    8.242       1.194       2.221       493.344     28.398      -9999.25    182.611     169.189     147.625     29.486      
164.8       22.387      120.212     2.512       7.086       -9999.25    -9999.25    -9999.25    -9999.25    -9999.25    -9999.25    8.498       1.273       2.292       492.4       28.36       -9999.25    184.317     -9999.25    151.001     32.553      
165.0       26.062      120.144     2.542       6.378       -9999.25    -9999.25    -9999.25    -9999.25    -9999.25    -9999.25    8.801       1.319       2.241       492.064     28.191      -9999.25    -9999.25    -9999.25    160.329     35.288      
165.2       48.753      119.855     2.586       4.682       -9999.25    -9999.25    -9999.25    -9999.25    -9999.25    -9999.25    9.176       1.384       2.363       492.0       27.776      -9999.25    -9999.25    -9999.25    151.898     28.236      
165.4       35.318      119.774     2.497       4.41        -9999.25    -9999.25    -9999.25    -9999.25    -9999.25    -9999.25    9.399       1.401       2.704       492.0       27.122      -9999.25    -9999.25    -9999.25    -9999.25    23.751      
165.6       31.117      119.623     2.389       4.203       -9999.25    -9999.25    -9999.25    -9999.25    -9999.25    -9999.25    9.475       1.399       2.749       492.0       26.355      -9999.25    -9999.25    -9999.25    -9999.25    26.953      
165.8       33.189      119.525     2.376       3.939       -9999.25    -9999.25    -9999.25    -9999.25    -9999.25    -9999.25    9.54        1.38        2.627       492.048     25.669      -9999.25    -9999.25    -9999.25    -9999.25    29.312      
166.0       27.29       119.561     2.386       4.033       -9999.25    -9999.25    -9999.25    -9999.25    -9999.25    -9999.25    9.548       1.331       2.571       492.496     25.182      -9999.25    -9999.25    -9999.25    -9999.25    31.015      
166.2       27.479      119.393     2.406       4.073       -9999.25    -9999.25    -9999.25    -9999.25    -9999.25    -9999.25    9.573       1.447       2.51        493.92      24.921      -9999.25    -9999.25    -9999.25    -9999.25    32.021      
166.4       33.266      118.727     2.431       3.973       -9999.25    -9999.25    -9999.25    -9999.25    -9999.25    -9999.25    9.64        1.364       2.628       496.64      24.826      -9999.25    -9999.25    -9999.25    -9999.25    28.918      
166.6       28.314      118.905     2.4         3.954       -9999.25    -9999.25    -9999.25    -9999.25    -9999.25    -9999.25    9.633       1.337       2.719       500.512     24.816      -9999.25    -9999.25    -9999.25    -9999.25    29.79       
