~Version Information Section
VERS.                                         2.0:CWLS log ASCII Standart – VERSION 2.0
WRAP.                                          NO:One line per depth step
~Well Information Section
STRT.M                                        0.0:Начальная глубина
STOP.M                                      208.6:Конечная глубина
STEP.M                                          0:Шаг квантования по глубине
NULL.                                    -9999.25:Признак "Нет данных"
WELL.                                       140Мх:Скважина
~Parameter Information Section
~Curve Information Section
DEPTH.M                                          :Глубина
GZ1.ohmm                                         :Подошвенный градиент-зонд А0.4М0.1N
GZ2.ohmm                                         :Подошвенный градиент-зонд А1.0М0.1N
GZ3.ohmm                                         :Подошвенный градиент-зонд А2.0М0.5N
GZ5.ohmm                                         :Подошвенный градиент-зонд А8.0М1.0N
GZ3R.GZ3R                                        :GZ3R
GZ4.ohmm                                         :Подошвенный градиент-зонд А4.0М0.5N
GGK.g/cc                                         :Плотностной гамма-гамма каротаж
ГК.ur/h                                          :Гамма каротаж
ИК.ohmm                                          :Индукционный каротаж (сопротивление),
BK.ohmm                                          :Боковой каротаж
NKTS.ue                                          :Нейтронный каротаж по тепловым нейтронам (малый зонд)
WNK.De                                           :Водородосодержание по НК
НГК.ue                                           :Нейтронный каротаж по тепловым нейтронам (большой зонд)
PZ.ohmm                                          :Потенциал-зонд ИММ 0,5А; В4 0,25М
-.                                               :-      SP mv)
DS1.m                                            :Профиль 1 сечения ствола скважины по профилеметрии
DS.m                                             :Кавернометрия
DS2.m                                            :Профиль 2 сечения ствола скважины по профилеметрии
~ASCII LOG DATA
# ...
170.0       -9999.25    -9999.25    -9999.25    -9999.25    -9999.25    -9999.25    2.379       9.797       8.787       15.236      1.5         33.462      2.234       18.6        3233.372    0.151       0.148       0.145       
170.1       22.373      13.523      11.395      1.867       21.118      11.31       -9999.25    -9999.25    -9999.25    -9999.25    -9999.25    -9999.25    -9999.25    -9999.25    -9999.25    -9999.25    -9999.25    -9999.25    
170.2       -9999.25    -9999.25    -9999.25    -9999.25    -9999.25    -9999.25    2.372       10.246      9.107       14.539      1.443       31.472      2.195       18.872      3224.311    0.151       0.148       0.145       
170.3       22.818      13.388      10.847      1.767       22.264      10.355      -9999.25    -9999.25    -9999.25    -9999.25    -9999.25    -9999.25    -9999.25    -9999.25    -9999.25    -9999.25    -9999.25    -9999.25    
170.4       -9999.25    -9999.25    -9999.25    -9999.25    -9999.25    -9999.25    2.392       10.607      9.554       14.256      1.44        34.082      2.068       19.408      3216.514    0.15        0.148       0.145       
170.5       22.279      13.014      10.141      1.675       24.196      9.286       -9999.25    -9999.25    -9999.25    -9999.25    -9999.25    -9999.25    -9999.25    -9999.25    -9999.25    -9999.25    -9999.25    -9999.25    
170.6       -9999.25    -9999.25    -9999.25    -9999.25    -9999.25    -9999.25    2.4         11.217      10.06       13.64       1.447       35.869      2.156       20.452      3201.107    0.151       0.148       0.145       
170.7       21.804      12.572      9.317       1.525       26.113      8.303       -9999.25    -9999.25    -9999.25    -9999.25    -9999.25    -9999.25    -9999.25    -9999.25    -9999.25    -9999.25    -9999.25    -9999.25    
170.8       -9999.25    -9999.25    -9999.25    -9999.25    -9999.25    -9999.25    2.423       10.18       10.814      13.741      1.512       34.235      2.361       23.083      3171.675    0.15        0.147       0.144       
170.9       20.983      11.748      8.292       1.71        30.36       7.193       -9999.25    -9999.25    -9999.25    -9999.25    -9999.25    -9999.25    -9999.25    -9999.25    -9999.25    -9999.25    -9999.25    -9999.25    
171.0       -9999.25    -9999.25    -9999.25    -9999.25    -9999.25    -9999.25    2.336       8.488       12.004      17.396      1.621       34.166      2.604       28.738      3138.491    0.149       0.146       0.144       
171.1       19.79       10.405      7.345       3.457       42.959      6.347       -9999.25    -9999.25    -9999.25    -9999.25    -9999.25    -9999.25    -9999.25    -9999.25    -9999.25    -9999.25    -9999.25    -9999.25    
171.2       -9999.25    -9999.25    -9999.25    -9999.25    -9999.25    -9999.25    2.224       6.031       13.548      95.001      1.82        33.938      2.961       39.321      3106.435    0.148       0.146       0.143       
171.3       18.16       8.905       8.618       5.549       109.447     8.976       -9999.25    -9999.25    -9999.25    -9999.25    -9999.25    -9999.25    -9999.25    -9999.25    -9999.25    -9999.25    -9999.25    -9999.25    
171.4       -9999.25    -9999.25    -9999.25    -9999.25    -9999.25    -9999.25    2.215       5.175       15.298      158.268     1.923       28.733      3.283       65.464      3089.482    0.149       0.146       0.143       
171.5       16.745      11.389      14.988      7.99        219.292     16.934      -9999.25    -9999.25    -9999.25    -9999.25    -9999.25    -9999.25    -9999.25    -9999.25    -9999.25    -9999.25    -9999.25    -9999.25    
171.6       -9999.25    -9999.25    -9999.25    -9999.25    -9999.25    -9999.25    2.234       6.145       16.517      195.083     1.855       25.343      3.288       116.678     3076.554    0.149       0.146       0.143       
171.7       28.963      20.693      22.638      10.597      273.54      25.114      -9999.25    -9999.25    -9999.25    -9999.25    -9999.25    -9999.25    -9999.25    -9999.25    -9999.25    -9999.25    -9999.25    -9999.25    
171.8       -9999.25    -9999.25    -9999.25    -9999.25    -9999.25    -9999.25    2.204       6.708       17.316      138.294     1.812       24.874      3.405       133.536     3070.015    0.149       0.146       0.143       
171.9       56.791      26.91       27.027      13.581      242.326     31.329      -9999.25    -9999.25    -9999.25    -9999.25    -9999.25    -9999.25    -9999.25    -9999.25    -9999.25    -9999.25    -9999.25    -9999.25    
172.0       -9999.25    -9999.25    -9999.25    -9999.25    -9999.25    -9999.25    2.213       6.161       17.79       138.409     1.851       24.425      3.358       141.101     3065.911    0.148       0.145       0.142       
172.1       119.238     33.82       28.245      14.833      207.34      31.695      -9999.25    -9999.25    -9999.25    -9999.25    -9999.25    -9999.25    -9999.25    -9999.25    -9999.25    -9999.25    -9999.25    -9999.25    
172.2       -9999.25    -9999.25    -9999.25    -9999.25    -9999.25    -9999.25    2.221       6.013       18.115      121.197     1.838       25.937      3.272       142.323     3062.88     0.149       0.147       0.144       
172.3       120.469     42.346      27.907      18.187      178.4       30.398      -9999.25    -9999.25    -9999.25    -9999.25    -9999.25    -9999.25    -9999.25    -9999.25    -9999.25    -9999.25    -9999.25    -9999.25    
172.4       -9999.25    -9999.25    -9999.25    -9999.25    -9999.25    -9999.25    2.192       6.003       18.322      108.715     1.895       26.559      3.496       143.497     3068.614    0.15        0.147       0.143       
172.5       123.706     72.795      28.241      22.181      160.944     29.633      -9999.25    -9999.25    -9999.25    -9999.25    -9999.25    -9999.25    -9999.25    -9999.25    -9999.25    -9999.25    -9999.25    -9999.25    
172.6       -9999.25    -9999.25    -9999.25    -9999.25    -9999.25    -9999.25    2.145       5.899       18.496      127.154     1.942       24.153      3.729       141.441     3078.745    0.15        0.146       0.143       
172.7       119.858     138.464     28.876      32.964      145.685     28.939      -9999.25    -9999.25    -9999.25    -9999.25    -9999.25    -9999.25    -9999.25    -9999.25    -9999.25    -9999.25    -9999.25    -9999.25    
172.8       -9999.25    -9999.25    -9999.25    -9999.25    -9999.25    -9999.25    2.151       5.416       18.591      111.17      1.909       22.027      3.512       136.386     3088.605    0.149       0.146       0.143       
172.9       113.711     156.987     30.161      51.289      140.411     29.101      -9999.25    -9999.25    -9999.25    -9999.25    -9999.25    -9999.25    -9999.25    -9999.25    -9999.25    -9999.25    -9999.25    -9999.25    
173.0       -9999.25    -9999.25    -9999.25    -9999.25    -9999.25    -9999.25    2.232       5.916       18.591      93.85       1.818       25.24       3.022       136.468     3101.052    0.149       0.146       0.143       
173.1       121.516     180.483     32.584      49.761      127.307     29.615      -9999.25    -9999.25    -9999.25    -9999.25    -9999.25    -9999.25    -9999.25    -9999.25    -9999.25    -9999.25    -9999.25    -9999.25    
173.2       -9999.25    -9999.25    -9999.25    -9999.25    -9999.25    -9999.25    2.255       6.44        18.591      129.149     1.75        28.429      2.714       140.133     3111.128    0.15        0.146       0.143       
173.3       117.857     178.279     34.234      46.896      113.204     27.977      -9999.25    -9999.25    -9999.25    -9999.25    -9999.25    -9999.25    -9999.25    -9999.25    -9999.25    -9999.25    -9999.25    -9999.25    
173.4       -9999.25    -9999.25    -9999.25    -9999.25    -9999.25    -9999.25    2.255       6.335       18.65       120.704     1.699       31.538      2.647       137.791     3121.136    0.149       0.146       0.143       
