~Version Information Section
VERS.                                         2.0:CWLS log ASCII Standart – VERSION 2.0
WRAP.                                          NO:One line per depth step
~Well Information Section
STRT.M                                        0.6:Начальная глубина
STOP.M                                      143.2:Конечная глубина
STEP.M                                          0:Шаг квантования по глубине
NULL.                                    -9999.25:Признак "Нет данных"
WELL.                                       116Мх:Скважина
~Parameter Information Section
~Curve Information Section
DEPTH.M                                          :Глубина
BK.lgОмм                                         :BK     (БК)
ПРОФ_СР.мм                                       :DS  (ДС)
ГК.мкР/час                                       :GK          (ГК)
ГЗ1.Омм                                          :GZ1   ГЗ1(A0.4M0.1N)
ГЗ2.Омм                                          :GZ2   ГЗ2(A1.0M0.1N)
ГЗ3.Омм                                          :GZ3   ГЗ3(A2.0M0.5N)
ГЗ4.Oмм                                          :GZ4   ГЗ4(A4.0M0.5N)
ГЗ5.Oмм                                          :GZ5   ГЗ5(A8.0M0.5N)
ГЗК.Омм                                          :GZK   ГЗK(N0.5M2.0A)
ИК.мСм/м                                         :IK
НГК.усл.ед.                                      :NGK     (НГК)
ПС.мВ                                            :PS       (ПС)
PZ.Омм                                           :PZ    (КС)
RIS.Омм                                          :RS (Резистивиметр)
U1.мВ                                            :U1
U2.mV                                            :U2
U3.мВ                                            :U3
W.г/см3                                          :ГГКп
П.%                                              :п
ННКМ.усл.ед                                      :ННКм
~ASCII LOG DATA
# ...
32.6        22.751      168.774     5.528       14.064      29.915      28.859      24.4        19.813      70.154      15.157      1.052       480.617     93.644      1.125       568.347     823.107     976.251     2.312       35.631      2.379       
32.7        19.634      171.335     5.922       13.985      30.102      28.859      24.403      19.788      70.129      15.157      0.987       481.849     93.748      1.125       574.221     839.743     976.251     2.342       38.221      2.295       
32.8        18.923      172.321     5.834       13.908      30.318      28.843      24.413      19.764      70.112      15.199      0.94        483.286     93.867      1.125       584.89      839.743     930.636     2.363       40.077      2.061       
32.9        18.408      169.829     5.436       13.836      30.548      28.811      24.432      19.745      70.102      15.291      0.926       484.929     94.015      1.125       584.89      816.169     864.282     2.375       40.825      1.881       
33.0        17.989      167.235     5.18        13.772      30.822      28.763      24.467      19.732      70.098      15.488      0.944       486.777     94.193      1.125       531.514     765.754     824.55      2.373       40.547      1.833       
33.1        18.239      166.735     5.162       13.718      31.196      28.699      24.525      19.727      70.096      15.683      0.977       488.807     94.415      1.125       445.089     708.181     791.14      2.348       39.735      1.823       
33.2        20.845      166.448     5.069       13.676      31.643      28.619      24.602      19.727      70.096      15.9        1.003       490.975     94.667      1.125       389.464     669.477     778.029     2.323       37.473      1.845       
33.3        24.21       163.69      4.872       13.646      32.147      28.555      24.694      19.727      70.096      16.095      1.029       493.211     94.933      1.125       389.464     661.828     724.952     2.32        35.214      1.952       
33.4        25.41       161.039     4.832       13.628      32.694      28.507      24.8        19.727      70.096      16.323      1.086       495.492     95.185      1.125       426.985     661.828     676.663     2.334       34.198      2.052       
33.5        26.303      158.918     5.042       13.619      33.241      28.475      24.909      19.729      70.096      16.57       1.17        497.796     95.407      1.125       493.804     671.89      676.663     2.343       33.215      2.092       
33.6        26.669      158.171     5.261       13.619      33.716      28.459      25.018      19.742      70.1        16.924      1.203       500.124     95.585      1.125       564.956     709.245     679.673     2.332       32.378      2.123       
33.7        27.925      158.544     5.219       13.619      34.119      28.459      25.133      19.765      70.112      17.159      1.189       502.405     95.748      1.125       611.145     762.522     735.751     2.314       31.993      2.072       
33.8        31.623      158.493     5.188       13.619      34.451      28.459      25.261      19.8        70.14       17.776      1.158       504.618     95.911      1.125       634.505     808.965     809.129     2.32        31.887      2.068       
33.9        36.898      158.35      5.167       13.623      34.739      28.459      25.414      19.844      70.197      18.02       1.143       506.694     96.089      1.125       664.123     818.037     854.468     2.303       32.179      2.124       
34.0        33.574      158.77      5.241       13.648      34.998      28.459      25.606      19.897      70.297      18.29       1.151       508.611     96.252      1.125       693.333     838.525     866.667     2.31        32.679      2.181       
34.1        27.925      159.626     5.253       13.705      35.257      28.475      25.843      19.955      70.457      18.474      1.156       510.299     96.4        1.125       716.667     859.478     866.667     2.306       33.029      2.226       
34.2        24.155      159.836     5.22        13.818      35.545      28.507      26.128      20.016      70.69       18.658      1.172       511.782     96.533      1.125       733.333     852.043     863.333     2.272       33.389      2.183       
34.3        22.961      158.363     5.392       14.013      35.876      28.587      26.47       20.079      71.005      18.83       1.163       513.105     96.652      1.125       736.667     845.45      860.0       2.248       34.637      2.118       
34.4        23.227      157.962     5.632       14.315      36.236      28.731      26.864      20.147      71.399      19.006      1.129       514.36      96.756      1.125       736.667     845.45      860.0       2.235       35.59       2.077       
34.5        26.303      158.095     5.783       14.745      36.639      28.955      27.312      20.221      71.865      19.146      1.099       515.615     96.844      1.125       733.333     819.21      860.0       2.236       36.122      2.047       
34.6        31.477      158.414     5.705       15.314      37.086      29.307      27.798      20.305      72.391      19.307      1.101       516.938     96.963      1.125       692.158     777.312     860.0       2.243       35.965      2.042       
34.7        32.434      158.328     5.509       16.014      37.561      29.819      28.31       20.403      72.962      19.658      1.127       518.398     97.111      1.125       648.918     740.242     863.333     2.282       35.369      2.083       
34.8        29.58       158.479     5.352       16.823      38.079      30.443      28.822      20.523      73.577      19.7        1.167       520.018     97.289      1.125       615.559     716.759     873.333     2.329       34.277      2.149       
34.9        28.973      158.588     5.28        17.707      38.627      31.259      29.318      20.672      74.241      19.784      1.214       521.775     97.437      1.125       615.559     702.032     893.333     2.381       32.958      2.158       
35.0        30.974      158.748     5.111       18.624      39.174      32.251      29.776      20.861      74.973      19.827      1.259       523.6       97.541      1.125       619.922     696.813     910.0       2.417       30.929      2.139       
35.1        34.594      158.906     4.91        19.537      39.764      33.307      30.205      21.102      75.786      19.849      1.305       525.448     97.585      1.125       636.18      694.336     910.0       2.392       29.185      2.12        
35.2        33.806      159.145     4.664       20.416      40.412      34.379      30.611      21.405      76.691      19.785      1.333       527.296     97.6        1.125       649.052     694.336     900.0       2.338       28.417      2.145       
35.3        43.251      159.35      4.475       21.246      41.06       35.467      31.002      21.772      77.67       19.658      1.341       529.144     97.6        1.125       673.872     704.81      876.667     2.291       27.962      2.256       
35.4        69.183      159.442     4.439       22.028      41.751      36.411      31.389      22.194      78.677      19.595      1.306       530.992     97.6        1.125       714.026     727.484     853.333     2.262       27.91       2.404       
35.5        49.317      159.528     4.491       22.778      42.558      37.211      31.792      22.654      79.627      19.226      1.246       532.817     97.6        1.125       748.383     752.078     853.333     2.255       28.888      2.553       
35.6        28.907      159.673     4.612       23.515      43.393      37.915      32.234      23.13       80.406      19.048      1.197       534.574     97.585      1.125       748.383     757.423     860.0       2.274       30.744      2.584       
35.7        28.708      160.402     4.818       24.259      44.243      38.555      32.723      23.594      80.885      18.891      1.173       536.217     97.511      1.125       743.114     757.423     876.667     2.306       32.718      2.519       
