~Version Information Section
VERS.                                         2.0:CWLS log ASCII Standart – VERSION 2.0
WRAP.                                          NO:One line per depth step
~Well Information Section
STRT.M                                        0.4:Начальная глубина
STOP.M                                      203.0:Конечная глубина
STEP.M                                          0:Шаг квантования по глубине
NULL.                                    -9999.25:Признак "Нет данных"
WELL.                                       128Мх:Скважина
~Parameter Information Section
~Curve Information Section
DEPTH.M                                          :Глубина
BK.Ohm*M                                         :BK     (БК)
DS.mm                                            :DS  (ДС)
GGK.g/cm3                                        :GGKp
ГК.mcr/h                                         :GK          (ГК)
ИК.Ohm*M                                         :IK
НГК.mcR/H                                        :NGK
NNKM.                                            :NNKm  (ННКм)
PS.mv                                            :PS       (ПС)
PZ.Ohm*M                                         :PZ    (КС)
RS.Ohm*M                                         :RS (Резистивиметр)
U1.mV                                            :U1
U2.mV                                            :U2
U3.mV                                            :U3
W.%                                              :W
~ASCII LOG DATA
# ...
189.4       203.236     125.152     2.379       3.922       11.76       1.631       3.883       403.776     40.746      -9999.25    277.335     402.667     191.999     23.9        
189.6       122.744     127.234     2.33        5.174       11.29       1.3         3.034       416.416     42.672      -9999.25    216.001     344.002     205.333     34.579      
189.8       17.418      127.118     2.291       6.263       10.426      0.944       2.165       432.087     45.689      -9999.25    183.831     269.332     137.83      36.199      
190.0       17.742      135.707     2.223       7.105       8.151       1.032       2.078       450.789     50.623      -9999.25    176.207     304.646     163.913     36.062      
190.2       17.061      136.696     2.19        6.669       6.096       1.128       1.977       470.624     58.875      -9999.25    174.756     307.821     140.671     36.784      
190.4       15.704      152.84      2.154       6.727       4.878       1.111       1.946       489.153     71.854      -9999.25    133.341     249.689     73.033      35.73       
190.6       11.117      134.546     2.227       6.681       4.147       1.207       1.932       504.529     90.063      -9999.25    171.759     251.15      57.781      28.311      
190.8       7.568       122.393     2.372       6.319       3.968       1.339       2.071       517.046     111.628     -9999.25    249.039     309.253     95.216      20.869      
191.0       11.588      120.249     2.443       5.44        3.709       1.518       2.624       528.035     132.938     -9999.25    280.001     327.682     143.083     19.608      
191.2       25.119      120.249     2.412       4.655       3.073       1.557       3.016       538.926     150.223     -9999.25    314.667     360.512     225.95      23.553      
191.4       52.602      120.305     2.372       5.836       2.75        1.45        2.889       550.359     161.652     -9999.25    333.333     349.333     288.336     28.389      
191.6       31.769      120.42      2.376       6.892       3.403       1.336       2.528       561.595     167.647     -9999.25    333.334     357.333     242.32      30.063      
191.8       21.727      120.371     2.378       6.53        5.155       1.408       2.361       572.412     169.734     -9999.25    325.334     378.667     160.212     26.816      
192.0       21.727      120.558     2.332       6.213       6.994       1.228       2.464       583.722     169.941     -9999.25    338.667     392.0       204.098     28.631      
192.2       24.946      120.17      2.304       6.961       8.676       1.367       2.399       596.387     169.865     -9999.25    287.322     394.667     228.496     29.745      
192.4       20.654      120.35      2.373       6.684       9.707       1.42        2.441       610.456     169.467     -9999.25    220.095     382.005     197.076     27.389      
192.6       26.485      120.564     2.364       6.244       10.512      1.369       2.531       628.049     169.249     -9999.25    286.84      404.724     192.976     25.938      
192.8       18.239      120.796     2.303       5.882       11.307      1.322       2.515       653.699     169.232     -9999.25    298.667     346.448     181.334     26.389      
193.0       18.323      120.723     2.291       5.767       11.992      1.374       2.434       687.456     169.232     -9999.25    304.0       331.011     197.334     25.398      
193.2       27.797      120.384     2.293       5.424       12.359      1.306       2.604       723.43      169.447     -9999.25    285.333     365.515     210.667     29.685      
193.4       35.975      120.46      2.297       6.208       12.286      1.192       2.601       754.206     170.15      -9999.25    269.334     402.132     186.137     34.507      
193.6       20.184      120.448     2.288       7.054       12.341      1.324       2.242       779.117     171.415     -9999.25    248.0       424.961     145.503     32.946      
193.8       21.38       120.837     2.259       6.972       12.998      1.075       2.184       800.258     172.943     -9999.25    249.283     357.283     129.466     29.454      
194.0       21.627      120.328     2.223       6.82        13.719      1.102       2.171       819.428     174.206     -9999.25    155.729     302.599     160.724     31.548      
194.2       21.627      120.123     2.217       7.293       13.753      1.249       2.214       837.169     174.765     -9999.25    137.279     286.265     127.131     32.973      
194.4       28.184      120.199     2.234       7.364       13.619      1.195       2.352       853.702     174.771     -9999.25    152.0       290.42      118.54      32.397      
194.6       27.925      120.576     2.253       7.163       13.639      1.2         2.347       868.289     174.645     -9999.25    146.667     261.007     117.34      31.623      
194.8       30.061      120.837     2.244       7.604       13.638      1.267       2.303       879.747     174.199     -9999.25    149.334     242.169     101.334     31.92       
195.0       30.269      120.962     2.27        8.104       13.752      1.201       2.249       888.297     173.822     -9999.25    152.0       262.305     114.667     32.097      
195.2       30.269      118.552     2.248       7.608       13.945      1.166       2.152       895.27      173.625     -9999.25    162.667     294.021     122.667     32.965      
195.4       33.651      118.118     2.252       6.518       13.983      1.329       2.137       901.307     173.551     -9999.25    173.333     313.458     162.665     29.025      
195.6       94.189      118.458     2.291       5.511       13.804      1.356       2.348       906.58      173.52      -9999.25    186.666     333.333     165.334     25.22       
195.8       150.661     118.811     2.286       5.943       13.501      1.094       2.61        911.557     173.508     -9999.25    183.999     338.667     143.999     31.819      
196.0       96.161      118.571     2.266       6.181       13.451      1.236       2.382       916.978     173.508     -9999.25    168.0       344.0       130.667     32.431      
196.2       86.298      118.664     2.233       6.235       13.803      1.243       2.196       922.472     173.512     -9999.25    168.0       299.629     117.333     29.919      
196.4       108.643     118.455     2.216       5.966       14.177      1.141       2.302       925.207     173.576     -9999.25    168.0       283.81      117.333     32.714      
196.6       97.949      118.432     2.207       7.158       13.864      1.173       2.254       925.207     173.744     -9999.25    184.0       321.005     122.667     37.199      
196.8       90.782      118.427     2.22        7.852       13.415      0.979       2.06        922.941     174.032     -9999.25    192.0       340.159     122.667     34.044      
197.0       110.154     118.68      2.226       8.457       13.19       1.149       2.115       916.904     174.432     -9999.25    178.666     298.383     125.333     34.101      
197.2       80.91       118.219     2.236       7.821       13.007      1.063       2.077       909.783     175.208     -9999.25    173.333     301.458     114.667     33.453      
197.4       90.365      118.339     2.221       7.49        12.66       1.075       2.025       902.021     176.8       -9999.25    170.666     308.692     114.666     33.054      
197.6       91.833      118.187     2.186       8.633       12.414      1.104       2.028       893.471     179.04      -9999.25    178.666     297.778     114.667     35.933      
197.8       83.368      117.948     2.205       8.207       12.135      1.106       1.998       885.636     181.112     -9999.25    178.666     271.715     104.0       35.625      
198.0       89.743      118.054     2.191       7.631       11.935      1.125       2.006       879.574     182.48      -9999.25    176.0       273.501     104.0       34.744      
198.2       93.111      118.242     2.176       7.492       11.823      0.907       2.014       874.375     183.304     -9999.25    181.333     295.233     125.333     35.438      
