~Version Information Section
VERS.                                         2.0:CWLS log ASCII Standart – VERSION 2.0
WRAP.                                          NO:One line per depth step
~Well Information Section
STRT.M                                        0.6:Начальная глубина
STOP.M                                      191.4:Конечная глубина
STEP.M                                          0:Шаг квантования по глубине
NULL.                                    -9999.25:Признак "Нет данных"
WELL.                                       129Мх:Скважина
~Parameter Information Section
~Curve Information Section
DEPTH.M                                          :Глубина
BK.lgОмм                                         :BK     (БК)
ПРОФ_СР.мм                                       :DS  (ДС)
ГК.имп/мин                                       :GK          (ГК)
ГЗ1.Омм                                          :GZ1   ГЗ1(A0.4M0.1N)
ГЗ2.Омм                                          :GZ2   ГЗ2(A1.0M0.1N)
ГЗ3.Омм                                          :GZ3   ГЗ3(A2.0M0.5N)
ГЗ4.Oмм                                          :GZ4   ГЗ4(A4.0M0.5N)
ГЗ5.Oмм                                          :GZ5   ГЗ5(A8.0M0.5N)
ГЗК.Омм                                          :GZK   ГЗK(N0.5M2.0A)
ИК.мСм/м                                         :IK
НГК.усл.ед                                       :NNKb  (ННКб)
ННКМ.усл.ед                                      :NNKm  (ННКм)
PZ.Омм                                           :PZ    (КС)
РЕЗ.Омм                                          :RS (Резистивиметр)
U1.мВ                                            :U1
U2.mV                                            :U2
U3.мВ                                            :U3
КП.%                                             :Кп
ПС.                                              :ПС
~ASCII LOG DATA
# ...
112.8       1.473       95.393      4.109       0.065       0.156       0.111       6.737       -0.455      0.111       65.295      2.444       1.716       -9999.25    1.12        -9999.25    -9999.25    -9999.25    34.899      -9999.25    
112.9       1.508       95.24       4.25        0.067       0.158       0.138       6.737       -0.435      0.112       65.587      2.256       1.627       -9999.25    1.12        -9999.25    -9999.25    -9999.25    36.244      -9999.25    
113.0       1.532       95.159      4.954       0.069       0.158       0.169       6.727       -0.414      0.112       65.587      2.196       1.557       -9999.25    1.12        -9999.25    -9999.25    -9999.25    37.779      -9999.25    
113.1       1.472       95.049      4.826       0.071       0.158       0.204       6.709       -0.397      0.112       65.295      2.125       1.545       -9999.25    1.12        -9999.25    -9999.25    -9999.25    38.232      -9999.25    
113.2       1.369       95.032      4.57        0.072       0.158       0.238       6.689       -0.385      0.113       62.224      2.104       1.539       -9999.25    1.12        -9999.25    -9999.25    -9999.25    38.138      -9999.25    
113.3       1.361       94.991      4.692       0.073       0.155       0.268       6.669       -0.382      0.113       69.377      2.065       1.523       -9999.25    1.12        -9999.25    -9999.25    -9999.25    38.384      -9999.25    
113.4       1.376       94.997      4.877       0.074       0.149       0.29        6.652       -0.382      0.113       63.715      2.007       1.52        -9999.25    1.12        -9999.25    -9999.25    -9999.25    38.341      -9999.25    
113.5       1.402       94.969      4.787       0.074       0.141       0.301       6.642       -0.384      0.114       67.272      2.021       1.54        -9999.25    1.12        -9999.25    -9999.25    -9999.25    36.522      -9999.25    
113.6       1.407       94.982      4.742       0.074       0.134       0.301       6.642       -0.393      0.115       65.295      2.145       1.56        -9999.25    1.12        -9999.25    -9999.25    -9999.25    35.339      -9999.25    
113.7       1.449       94.992      5.302       0.074       0.129       0.3         6.642       -0.403      0.117       64.998      2.167       1.576       -9999.25    1.12        -9999.25    -9999.25    -9999.25    34.929      -9999.25    
113.8       1.427       94.997      5.414       0.073       0.125       0.289       6.653       -0.413      0.118       63.428      2.092       1.579       -9999.25    1.12        -9999.25    -9999.25    -9999.25    33.639      -9999.25    
113.9       1.471       94.957      4.598       0.072       0.123       0.272       6.672       -0.418      0.119       64.704      2.176       1.575       -9999.25    1.12        -9999.25    -9999.25    -9999.25    31.046      -72.0       
114.0       1.501       94.977      4.435       0.071       0.121       0.253       6.697       -0.418      0.119       63.428      2.429       1.587       -9999.25    1.12        -9999.25    -9999.25    -9999.25    30.332      -81.0       
114.1       1.541       94.997      4.262       0.069       0.119       0.236       6.721       -0.418      0.119       63.428      2.454       1.603       -9999.25    1.12        -9999.25    -9999.25    -9999.25    30.775      -84.0       
114.2       1.541       94.975      4.266       0.069       0.118       0.222       6.742       -0.412      0.119       63.428      2.432       1.61        0.0         1.12        -9999.25    -9999.25    -9999.25    31.009      -84.0       
114.3       1.505       95.002      4.282       0.068       0.118       0.213       6.76        -0.399      0.117       65.295      2.526       1.619       0.0         1.12        -9999.25    -9999.25    -9999.25    31.811      -88.0       
114.4       1.526       95.002      4.416       0.068       0.119       0.212       6.774       -0.376      0.115       65.295      2.635       1.643       0.0         1.12        -9999.25    -9999.25    -9999.25    33.626      -88.8       
114.5       1.527       94.974      4.685       0.068       0.121       0.212       6.784       -0.346      0.112       69.061      2.464       1.655       0.0         1.12        -9999.25    -9999.25    -9999.25    34.956      -90.32      
114.6       1.618       94.973      4.723       0.068       0.123       0.216       6.791       -0.31       0.106       71.613      2.269       1.609       0.0         1.12        -9999.25    -9999.25    -9999.25    35.543      -91.04      
114.7       1.654       94.956      4.762       0.068       0.123       0.223       6.792       -0.272      0.099       73.997      2.228       1.571       0.0         1.12        -9999.25    -9999.25    -9999.25    35.976      -91.4       
114.8       1.693       94.987      4.739       0.068       0.123       0.229       6.792       -0.235      0.092       69.686      2.192       1.571       0.0         1.12        -9999.25    -9999.25    -9999.25    35.633      -91.4       
114.9       1.681       94.972      4.723       0.068       0.123       0.232       6.783       -0.2        0.084       71.937      2.195       1.576       0.0         1.12        -9999.25    -9999.25    -9999.25    35.329      -91.4       
115.0       1.687       95.011      4.291       0.068       0.121       0.232       6.766       -0.168      0.08        71.937      2.199       1.586       0.0         1.12        -9999.25    -9999.25    -9999.25    34.633      -91.4       
115.1       1.692       94.994      4.205       0.069       0.119       0.231       6.746       -0.14       0.077       76.899      2.208       1.584       0.0         1.12        -9999.25    -9999.25    -9999.25    33.871      -91.36      
115.2       1.718       95.051      4.557       0.069       0.117       0.227       6.724       -0.115      0.077       74.666      2.247       1.571       0.0         1.12        -9999.25    -9999.25    -9999.25    34.042      -91.12      
115.3       1.692       95.016      4.627       0.07        0.113       0.222       6.701       -0.095      0.077       69.999      2.341       1.591       0.0         1.12        -9999.25    -9999.25    -9999.25    34.096      -90.8       
115.4       1.598       95.049      4.416       0.071       0.108       0.216       6.674       -0.078      0.077       76.552      2.409       1.62        0.0         1.12        -9999.25    -9999.25    -9999.25    33.216      -90.36      
115.5       1.554       95.085      4.333       0.072       0.101       0.211       6.639       -0.065      0.078       72.26       2.519       1.632       0.0         1.12        -9999.25    -9999.25    -9999.25    33.211      -89.88      
115.6       1.564       95.121      3.917       0.075       0.093       0.206       6.592       -0.052      0.081       72.26       2.468       1.64        0.0         1.12        -9999.25    -9999.25    -9999.25    33.51       -89.32      
115.7       1.633       95.165      3.84        0.078       0.086       0.202       6.541       -0.037      0.086       72.579      2.417       1.659       0.0         1.12        -9999.25    -9999.25    -9999.25    32.602      -88.68      
115.8       1.633       95.183      3.686       0.083       0.081       0.2         6.494       -0.013      0.094       72.902      2.548       1.684       0.0         1.12        -9999.25    -9999.25    -9999.25    32.215      -88.0       
115.9       2.19        95.144      3.752       0.087       0.078       0.2         6.461       0.027       0.102       70.314      2.632       1.739       0.0         1.12        -9999.25    -9999.25    -9999.25    32.896      -87.36      
116.0       2.732       95.064      4.013       0.092       0.075       0.2         6.445       0.089       0.109       70.314      2.441       1.77        0.0         1.12        -9999.25    -9999.25    -9999.25    33.168      -86.88      
116.1       3.291       95.049      3.869       0.098       0.073       0.2         6.442       0.183       0.117       75.002      2.33        1.729       0.0         1.12        -9999.25    -9999.25    -9999.25    33.352      -86.88      
