~Version Information Section
VERS.                                         2.0:CWLS log ASCII Standart – VERSION 2.0
WRAP.                                          NO:One line per depth step
~Well Information Section
STRT.M                                        0.0:Начальная глубина
STOP.M                                      208.6:Конечная глубина
STEP.M                                          0:Шаг квантования по глубине
NULL.                                    -9999.25:Признак "Нет данных"
WELL.                                       140Мх:Скважина
~Parameter Information Section
~Curve Information Section
DEPTH.M                                          :Глубина
GZ1.ohmm                                         :Подошвенный градиент-зонд А0.4М0.1N
GZ2.ohmm                                         :Подошвенный градиент-зонд А1.0М0.1N
GZ3.ohmm                                         :Подошвенный градиент-зонд А2.0М0.5N
GZ5.ohmm                                         :Подошвенный градиент-зонд А8.0М1.0N
GZ3R.GZ3R                                        :GZ3R
GZ4.ohmm                                         :Подошвенный градиент-зонд А4.0М0.5N
GGK.g/cc                                         :Плотностной гамма-гамма каротаж
ГК.ur/h                                          :Гамма каротаж
ИК.ohmm                                          :Индукционный каротаж (сопротивление),
BK.ohmm                                          :Боковой каротаж
NKTS.ue                                          :Нейтронный каротаж по тепловым нейтронам (малый зонд)
WNK.De                                           :Водородосодержание по НК
НГК.ue                                           :Нейтронный каротаж по тепловым нейтронам (большой зонд)
PZ.ohmm                                          :Потенциал-зонд ИММ 0,5А; В4 0,25М
-.                                               :-      SP mv)
DS1.m                                            :Профиль 1 сечения ствола скважины по профилеметрии
DS.m                                             :Кавернометрия
DS2.m                                            :Профиль 2 сечения ствола скважины по профилеметрии
~ASCII LOG DATA
# ...
37.0        -9999.25    -9999.25    -9999.25    -9999.25    -9999.25    -9999.25    2.323       9.92        9.022       116.17      3.231       0.719       16.195      9773.365    -339.095    0.161       0.158       0.155       
37.1        65.038      371.996     9245.021    166.836     116057.141  115900.0    -9999.25    -9999.25    -9999.25    -9999.25    -9999.25    -9999.25    -9999.25    -9999.25    -9999.25    -9999.25    -9999.25    -9999.25    
37.2        -9999.25    -9999.25    -9999.25    -9999.25    -9999.25    -9999.25    2.319       9.178       9.023       112.704     3.254       0.989       15.768      12345.398   -359.177    0.162       0.159       0.156       
37.3        64.941      370.021     10234.234   210.729     114605.633  114112.68   -9999.25    -9999.25    -9999.25    -9999.25    -9999.25    -9999.25    -9999.25    -9999.25    -9999.25    -9999.25    -9999.25    -9999.25    
37.4        -9999.25    -9999.25    -9999.25    -9999.25    -9999.25    -9999.25    2.342       10.033      9.162       117.104     3.318       1.158       20.075      8993.75     -297.123    0.17        0.169       0.169       
37.5        64.904      370.584     14578.432   271.585     121208.953  120611.938  -9999.25    -9999.25    -9999.25    -9999.25    -9999.25    -9999.25    -9999.25    -9999.25    -9999.25    -9999.25    -9999.25    -9999.25    
37.6        -9999.25    -9999.25    -9999.25    -9999.25    -9999.25    -9999.25    2.402       9.668       9.453       2007.668    3.981       -0.971      24.892      83075.359   -339.718    0.172       0.175       0.177       
37.7        64.751      371.952     20257.311   310.434     116000.0    115657.141  -9999.25    -9999.25    -9999.25    -9999.25    -9999.25    -9999.25    -9999.25    -9999.25    -9999.25    -9999.25    -9999.25    -9999.25    
37.8        -9999.25    -9999.25    -9999.25    -9999.25    -9999.25    -9999.25    2.322       7.183       9.777       1727.434    3.847       -2.153      23.113      83028.984   -272.089    0.161       0.158       0.156       
37.9        64.939      371.781     70452.055   295.654     117695.648  117536.234  -9999.25    -9999.25    -9999.25    -9999.25    -9999.25    -9999.25    -9999.25    -9999.25    -9999.25    -9999.25    -9999.25    -9999.25    
38.0        -9999.25    -9999.25    -9999.25    -9999.25    -9999.25    -9999.25    2.241       5.358       10.149      54195.137   3.972       -0.48       22.733      85510.445   -294.633    0.158       0.155       0.153       
38.1        64.952      372.284     20789.84    207662.156  117710.148  117333.336  -9999.25    -9999.25    -9999.25    -9999.25    -9999.25    -9999.25    -9999.25    -9999.25    -9999.25    -9999.25    -9999.25    -9999.25    
38.2        -9999.25    -9999.25    -9999.25    -9999.25    -9999.25    -9999.25    2.293       4.735       10.724      1065301.875 4.221       -0.493      24.458      14031.272   -293.121    0.158       0.155       0.152       
38.3        64.892      371.387     44185.898   332.926     113041.664  112666.664  -9999.25    -9999.25    -9999.25    -9999.25    -9999.25    -9999.25    -9999.25    -9999.25    -9999.25    -9999.25    -9999.25    -9999.25    
38.4        -9999.25    -9999.25    -9999.25    -9999.25    -9999.25    -9999.25    2.38        5.085       11.53       450435.625  4.437       -0.797      26.61       83031.883   -259.301    0.158       0.154       0.15        
38.5        64.799      370.4       24560.492   360.29      109648.648  109959.461  -9999.25    -9999.25    -9999.25    -9999.25    -9999.25    -9999.25    -9999.25    -9999.25    -9999.25    -9999.25    -9999.25    -9999.25    
38.6        -9999.25    -9999.25    -9999.25    -9999.25    -9999.25    -9999.25    2.423       5.065       12.223      1202.813    4.403       -2.462      31.262      80676.055   -316.878    0.158       0.154       0.151       
38.7        64.51       370.503     21395.063   288.64      117681.156  117942.031  -9999.25    -9999.25    -9999.25    -9999.25    -9999.25    -9999.25    -9999.25    -9999.25    -9999.25    -9999.25    -9999.25    -9999.25    
38.8        -9999.25    -9999.25    -9999.25    -9999.25    -9999.25    -9999.25    2.505       4.023       12.499      175.826     4.335       -4.217      33.903      84261.766   -263.087    0.157       0.154       0.151       
38.9        64.962      370.025     58033.859   282.857     107800.0    108973.336  -9999.25    -9999.25    -9999.25    -9999.25    -9999.25    -9999.25    -9999.25    -9999.25    -9999.25    -9999.25    -9999.25    -9999.25    
39.0        -9999.25    -9999.25    -9999.25    -9999.25    -9999.25    -9999.25    2.543       3.728       12.696      192.706     4.026       -4.97       29.732      85664.789   -208.436    0.157       0.154       0.151       
39.1        64.859      368.821     22297.689   287.001     115514.289  116885.711  -9999.25    -9999.25    -9999.25    -9999.25    -9999.25    -9999.25    -9999.25    -9999.25    -9999.25    -9999.25    -9999.25    -9999.25    
39.2        -9999.25    -9999.25    -9999.25    -9999.25    -9999.25    -9999.25    2.569       5.184       12.778      1918.26     3.648       -3.164      22.317      80780.82    -43.056     0.157       0.154       0.151       
39.3        64.954      367.334     25240.92    287.164     116782.609  119028.984  -9999.25    -9999.25    -9999.25    -9999.25    -9999.25    -9999.25    -9999.25    -9999.25    -9999.25    -9999.25    -9999.25    -9999.25    
39.4        -9999.25    -9999.25    -9999.25    -9999.25    -9999.25    -9999.25    2.568       6.574       12.639      51636.008   3.759       -0.247      19.433      84552.937   18.753      0.157       0.154       0.151       
39.5        64.823      369.85      32064.418   371.9       114814.289  117628.57   -9999.25    -9999.25    -9999.25    -9999.25    -9999.25    -9999.25    -9999.25    -9999.25    -9999.25    -9999.25    -9999.25    -9999.25    
39.6        -9999.25    -9999.25    -9999.25    -9999.25    -9999.25    -9999.25    2.5         6.746       12.241      114.932     3.82        0.593       18.946      82994.203   116.112     0.157       0.154       0.151       
39.7        64.911      369.921     23354.91    465955.219  116246.375  121579.711  -9999.25    -9999.25    -9999.25    -9999.25    -9999.25    -9999.25    -9999.25    -9999.25    -9999.25    -9999.25    -9999.25    -9999.25    
39.8        -9999.25    -9999.25    -9999.25    -9999.25    -9999.25    -9999.25    2.441       7.915       11.845      90.337      3.7         -0.033      19.444      80847.891   107.252     0.158       0.154       0.151       
39.9        64.984      371.139     297942.031  456911.75   114171.43   118785.711  -9999.25    -9999.25    -9999.25    -9999.25    -9999.25    -9999.25    -9999.25    -9999.25    -9999.25    -9999.25    -9999.25    -9999.25    
40.0        -9999.25    -9999.25    -9999.25    -9999.25    -9999.25    -9999.25    2.397       7.785       11.59       81.493      3.654       0.475       19.442      83454.289   34.466      0.158       0.154       0.151       
40.1        64.882      370.175     298043.469  375313.25   18258.824   -19.006     -9999.25    -9999.25    -9999.25    -9999.25    -9999.25    -9999.25    -9999.25    -9999.25    -9999.25    -9999.25    -9999.25    -9999.25    
40.2        -9999.25    -9999.25    -9999.25    -9999.25    -9999.25    -9999.25    2.327       6.509       11.354      105.379     4.282       1.777       22.378      83113.047   134.833     0.159       0.156       0.152       
40.3        64.856      367.864     306746.281  379.716     54120.0     301.637     -9999.25    -9999.25    -9999.25    -9999.25    -9999.25    -9999.25    -9999.25    -9999.25    -9999.25    -9999.25    -9999.25    -9999.25    
40.4        -9999.25    -9999.25    -9999.25    -9999.25    -9999.25    -9999.25    2.309       6.509       11.499      84.894      4.66        0.343       24.363      83171.016   39.786      0.159       0.155       0.151       
