~Version Information Section
VERS.                                         2.0:CWLS log ASCII Standart – VERSION 2.0
WRAP.                                          NO:One line per depth step
~Well Information Section
STRT.M                                      -0.07:Начальная глубина
STOP.M                                     189.23:Конечная глубина
STEP.M                                          0:Шаг квантования по глубине
NULL.                                    -9999.25:Признак "Нет данных"
WELL.                                       127Мх:Скважина
~Parameter Information Section
~Curve Information Section
DEPTH.M                                          :Глубина
BK.                                              :BK
ГК.гамма                                         :GK
ИК.                                              :IK
НГК.усл.ед                                       :NGK
PSЭ3.                                            :PSэ3
PZЭ3.                                            :PZэ3
U1.                                              :U1
U2.                                              :U2
U3.                                              :U3
W.усл.ед                                         :W
ГЗ1.                                             :ГЗ1
ГЗ2.                                             :ГЗ2
ГЗ3.                                             :ГЗ3
ГЗ4.                                             :ГЗ4
ГЗ5.                                             :ГЗ5
ГЗК.                                             :ГЗК
ННКМ.усл.ед                                      :ННКм
PL.g/cm3                                         :Плотность
ПРОФ_СР.                                         :ПРОФ_СР
IS.                                              :РЕЗ
~ASCII LOG DATA
# ...
70.33       7.588       2.618       28.246      1.143       -9999.25    -9999.25    -9999.25    -9999.25    -9999.25    41.825      0.043       19.929      10.017      20.492      7.346       9.994       1.423       2.009       101.029     1.088       
70.43       6.639       2.656       28.085      1.143       -9999.25    -9999.25    -9999.25    -9999.25    -9999.25    42.224      0.042       19.929      10.014      20.491      7.416       9.994       1.419       1.993       101.055     1.088       
70.53       5.883       2.584       28.066      1.101       -9999.25    -9999.25    -9999.25    -9999.25    -9999.25    42.168      0.04        19.923      10.015      20.496      7.475       9.991       1.412       1.978       101.074     1.087       
70.63       5.157       2.599       28.04       1.01        -9999.25    -9999.25    -9999.25    -9999.25    -9999.25    40.494      0.039       19.918      10.018      20.501      7.49        9.989       1.385       1.965       101.068     1.087       
70.73       4.208       2.771       28.104      1.038       -9999.25    -9999.25    -9999.25    -9999.25    -9999.25    37.217      0.039       19.914      10.019      20.501      7.399       9.99        1.306       1.956       101.057     1.087       
70.83       4.301       2.87        28.16       1.06        -9999.25    -9999.25    -9999.25    -9999.25    -9999.25    36.427      0.039       19.912      10.023      20.504      7.945       9.991       1.25        1.95        101.036     1.088       
70.93       3.947       2.912       28.235      1.141       -9999.25    -9999.25    -9999.25    -9999.25    -9999.25    38.147      0.039       19.915      10.027      20.508      10.157      9.992       1.244       1.946       101.011     1.089       
71.03       3.543       2.904       28.282      1.082       -9999.25    -9999.25    -9999.25    -9999.25    -9999.25    40.574      0.039       19.925      10.026      20.515      12.342      9.992       1.24        1.939       101.011     1.09        
71.13       3.452       2.99        28.129      1.03        -9999.25    -9999.25    -9999.25    -9999.25    -9999.25    43.897      0.04        19.93       10.028      20.507      14.566      9.99        1.243       1.928       101.029     1.09        
71.23       2.512       2.996       28.13       0.945       -9999.25    -9999.25    -9999.25    -9999.25    -9999.25    44.396      0.039       19.937      10.029      20.503      16.789      9.99        1.248       1.917       101.042     1.089       
71.33       2.725       2.956       28.104      0.956       -9999.25    -9999.25    -9999.25    -9999.25    -9999.25    44.066      0.039       19.941      10.033      20.508      19.082      9.991       1.259       1.907       101.028     1.089       
71.43       2.118       2.931       28.111      0.994       -9999.25    -9999.25    -9999.25    -9999.25    -9999.25    44.143      0.039       19.939      10.035      20.514      20.683      9.986       1.265       1.897       101.009     1.089       
71.53       1.964       2.97        28.09       1.086       -9999.25    -9999.25    -9999.25    -9999.25    -9999.25    43.653      0.039       19.933      10.035      20.517      20.661      9.986       1.245       1.89        101.026     1.088       
71.63       1.581       3.092       28.231      1.1         -9999.25    -9999.25    -9999.25    -9999.25    -9999.25    42.852      0.04        19.924      10.033      20.52       20.681      9.987       1.206       1.884       101.036     1.088       
71.73       1.18        3.26        28.185      0.991       -9999.25    -9999.25    -9999.25    -9999.25    -9999.25    44.95       0.041       19.922      10.027      20.525      20.607      9.989       1.188       1.882       101.047     1.088       
71.83       1.165       3.43        28.174      0.938       -9999.25    -9999.25    -9999.25    -9999.25    -9999.25    48.388      0.041       19.922      10.021      20.522      19.72       9.986       1.194       1.882       101.05      1.088       
71.93       1.26        3.542       28.13       0.956       -9999.25    -9999.25    -9999.25    -9999.25    -9999.25    46.857      0.041       19.919      10.01       20.507      17.483      9.979       1.201       1.874       101.067     1.088       
72.03       1.242       3.426       28.104      1.016       -9999.25    -9999.25    -9999.25    -9999.25    -9999.25    45.171      0.041       19.925      10.004      20.5        15.403      9.98        1.206       1.863       101.05      1.088       
72.13       1.221       3.328       28.12       0.938       -9999.25    -9999.25    -9999.25    -9999.25    -9999.25    45.824      0.04        19.928      10.009      20.496      14.192      9.982       1.204       1.85        101.054     1.087       
72.23       1.231       3.3         28.031      0.898       -9999.25    -9999.25    -9999.25    -9999.25    -9999.25    46.024      0.039       19.932      10.019      20.487      14.248      9.983       1.188       1.836       101.047     1.086       
72.33       1.183       3.507       28.003      0.914       -9999.25    -9999.25    -9999.25    -9999.25    -9999.25    45.071      0.038       19.935      10.026      20.483      14.318      9.985       1.172       1.82        101.058     1.086       
72.43       1.15        3.544       28.045      0.885       -9999.25    -9999.25    -9999.25    -9999.25    -9999.25    43.637      0.037       19.934      10.03       20.488      15.229      9.99        1.168       1.804       101.063     1.085       
72.53       1.143       3.387       28.08       0.868       -9999.25    -9999.25    -9999.25    -9999.25    -9999.25    43.11       0.037       19.934      10.034      20.502      17.547      9.993       1.168       1.786       101.04      1.084       
72.63       1.138       3.138       28.122      0.917       -9999.25    -9999.25    -9999.25    -9999.25    -9999.25    45.8        0.037       19.937      10.037      20.506      19.475      9.991       1.169       1.769       100.971     1.084       
72.73       1.137       3.054       28.044      0.967       -9999.25    -9999.25    -9999.25    -9999.25    -9999.25    49.476      0.036       19.941      10.031      20.504      19.733      9.989       1.172       1.759       100.959     1.084       
72.83       1.108       3.159       28.025      0.942       -9999.25    -9999.25    -9999.25    -9999.25    -9999.25    49.338      0.036       19.94       10.022      20.503      18.442      9.988       1.172       1.754       100.994     1.085       
72.93       1.098       3.168       28.099      0.924       -9999.25    -9999.25    -9999.25    -9999.25    -9999.25    48.086      0.036       19.934      10.02       20.504      17.256      9.985       1.164       1.754       101.005     1.085       
73.03       1.109       2.981       28.163      0.875       -9999.25    -9999.25    -9999.25    -9999.25    -9999.25    48.697      0.035       19.932      10.021      20.497      15.032      9.982       1.156       1.764       101.009     1.086       
73.13       1.17        2.811       28.085      0.945       -9999.25    -9999.25    -9999.25    -9999.25    -9999.25    50.366      0.035       19.933      10.022      20.493      12.764      9.982       1.153       1.778       101.063     1.086       
73.23       1.165       2.759       28.164      0.95        -9999.25    -9999.25    -9999.25    -9999.25    -9999.25    50.522      0.035       19.932      10.027      20.489      10.722      9.982       1.151       1.794       101.08      1.087       
73.33       1.171       2.875       28.035      0.911       -9999.25    -9999.25    -9999.25    -9999.25    -9999.25    49.227      0.035       19.925      10.036      20.487      9.454       9.982       1.162       1.812       101.073     1.088       
73.43       1.162       2.889       27.911      0.879       -9999.25    -9999.25    -9999.25    -9999.25    -9999.25    48.348      0.035       19.919      10.044      20.488      8.436       9.982       1.185       1.833       101.061     1.088       
