~Version Information Section
VERS.                                         2.0:CWLS log ASCII Standart – VERSION 2.0
WRAP.                                          NO:One line per depth step
~Well Information Section
STRT.M                                        2.1:Начальная глубина
STOP.M                                      196.8:Конечная глубина
STEP.M                                          0:Шаг квантования по глубине
NULL.                                    -9999.25:Признак "Нет данных"
WELL.                                       154Мх:Скважина
~Parameter Information Section
~Curve Information Section
DEPTH.M                                          :Глубина
BK.lgОмм                                         :BK     (БК)
DСР.мм                                           :DS  (ДС)
ГГКП.g/cm3                                       :GGKp
ГК.мкР/час                                       :GK          (ГК)
ГЗ1.Омм                                          :GZ1   ГЗ1(A0.4M0.1N)
ГЗ2.Омм                                          :GZ2   ГЗ2(A1.0M0.1N)
ГЗ3.Омм                                          :GZ3   ГЗ3(A2.0M0.5N)
ГЗ4.Oмм                                          :GZ4   ГЗ4(A4.0M0.5N)
ГЗ5.Oмм                                          :GZ5   ГЗ5(A8.0M0.5N)
ГЗК.Омм                                          :GZR   ГЗK(N0.5M2.0A)
ИК.мСм/м                                         :IK
НГК.усл.ед.                                      :NGK     (НГК)
РЕЗ.Омм                                          :RS (Резистивиметр)
W.                                               :W
ННКМ.усл.ед                                      :NNKm  (ННКм)
PS.мB                                            :PS       (ПС)
~ASCII LOG DATA
# ...
130.1       70.308      152.808     2.269       4.257       100.77      38.554      54.222      16.583      15.73       57.64       30.72       1.33        1.009       31.133      1.3         53.232      
130.2       72.092      152.83      2.276       4.132       100.77      40.114      54.222      16.583      16.71       57.64       31.016      1.356       1.009       30.137      1.313       52.929      
130.3       73.771      152.817     2.3         3.929       100.77      40.114      54.662      16.823      17.41       57.64       31.197      1.324       1.009       28.899      1.329       52.723      
130.4       82.483      152.783     2.338       3.787       100.77      41.154      55.982      16.943      17.83       57.64       31.197      1.33        1.009       27.879      1.345       52.535      
130.5       99.337      152.636     2.349       3.736       100.77      42.194      57.302      17.063      17.97       57.64       30.798      1.37        1.009       27.172      1.364       52.329      
130.6       120.072     152.483     2.357       3.909       100.77      43.754      61.702      17.183      17.97       57.64       29.727      1.386       1.009       26.906      1.385       52.151      
130.7       130.126     152.366     2.357       4.096       99.93       45.834      64.782      17.423      18.25       58.68       29.072      1.36        1.009       27.041      1.399       51.997      
130.8       123.228     152.332     2.328       4.171       99.93       45.834      66.982      17.543      18.39       59.72       29.416      1.374       1.009       27.49       1.401       51.868      
130.9       112.386     152.343     2.314       4.212       99.51       48.954      67.862      17.783      19.37       60.76       29.416      1.349       1.009       27.84       1.391       51.757      
131.0       107.446     152.372     2.301       4.196       99.51       51.034      69.622      18.023      19.51       60.76       30.758      1.301       1.009       27.825      1.373       51.654      
131.1       110.04      152.569     2.344       4.04        99.51       52.074      67.862      18.143      19.65       62.84       33.311      1.232       1.009       27.845      1.346       51.577      
131.2       99.289      152.552     2.371       3.85        99.51       53.634      66.542      18.383      19.37       62.84       36.69       1.172       1.009       28.508      1.315       51.525      
131.3       86.291      152.576     2.405       3.721       99.51       53.114      64.782      18.863      19.09       64.92       37.982      1.1         1.009       29.426      1.27        51.458      
131.4       64.439      152.655     2.382       3.726       99.51       49.994      63.462      19.223      18.95       65.96       33.89       1.07        1.009       30.726      1.211       51.381      
131.5       42.531      152.76      2.368       3.84        99.51       49.994      63.022      19.703      18.53       69.08       28.103      1.056       1.008       31.908      1.162       51.303      
131.6       19.956      152.89      2.316       3.87        99.51       49.474      62.582      19.943      18.25       70.12       28.103      1.093       1.006       32.353      1.134       51.252      
131.7       12.405      152.982     2.287       4.112       99.51       48.954      62.142      20.543      18.11       71.16       23.071      1.148       1.004       31.673      1.135       51.2        
131.8       28.782      153.008     2.27        4.246       99.51       48.954      62.142      20.423      17.41       74.28       20.5        1.223       1.002       30.314      1.171       51.16       
131.9       53.221      153.271     2.267       4.408       99.51       48.954      61.702      19.823      17.27       78.44       20.311      1.259       1.001       28.817      1.231       51.158      
132.0       71.138      153.265     2.255       4.616       99.51       48.954      61.262      19.823      16.99       84.68       20.933      1.3         1.0         27.957      1.281       51.222      
132.1       82.54       153.295     2.263       4.796       104.55      48.954      60.822      19.343      16.71       82.6        21.848      1.335       1.0         27.375      1.312       51.325      
132.2       81.651      153.306     2.271       4.84        103.71      48.954      60.382      19.223      16.29       79.48       22.882      1.33        1.0         27.09       1.322       51.454      
132.3       78.433      153.382     2.269       5.052       103.29      48.954      60.382      19.103      16.15       78.44       23.95       1.331       1.0         27.296      1.31        51.631      
132.4       65.455      153.363     2.296       5.054       102.45      48.954      59.942      19.103      16.01       76.36       23.95       1.316       1.0         27.568      1.295       51.812      
132.5       57.382      153.453     2.28        5.036       101.19      48.954      59.942      19.103      16.01       74.28       24.744      1.284       1.0         28.047      1.283       52.005      
132.6       52.915      153.458     2.29        5.016       100.77      48.954      59.942      19.103      16.01       73.24       25.502      1.295       1.0         28.707      1.272       52.161      
132.7       54.189      153.505     2.282       4.999       100.77      48.954      59.942      19.103      16.01       76.36       26.138      1.339       1.0         28.95       1.26        52.29       
132.8       51.162      153.561     2.304       4.829       99.93       48.954      59.942      19.103      16.01       77.4        26.138      1.359       1.0         28.678      1.262       52.471      
132.9       51.204      153.538     2.306       4.797       99.93       48.954      59.942      19.223      16.01       78.44       26.669      1.387       1.0         28.395      1.278       52.6        
133.0       60.126      153.43      2.341       4.695       99.93       48.954      59.942      19.343      16.01       79.48       27.052      1.4         1.0         28.072      1.303       52.633      
133.1       78.512      153.574     2.352       4.786       99.93       48.954      59.942      19.343      16.01       82.6        27.357      1.363       1.0         27.59       1.339       52.636      
133.2       92.558      153.64      2.348       4.935       100.35      48.954      59.942      19.463      16.01       83.64       27.68       1.333       1.0         27.489      1.371       52.612      
133.3       89.465      153.763     2.333       5.135       105.39      48.954      59.942      19.463      16.01       85.72       27.824      1.333       1.0         27.672      1.378       52.56       
133.4       74.627      153.819     2.346       5.266       107.07      49.474      59.942      19.583      16.15       86.76       27.877      1.309       1.0         27.808      1.369       52.485      
133.5       54.608      153.884     2.346       5.49        109.17      49.994      59.942      19.703      16.15       88.84       27.877      1.304       1.0         28.376      1.351       52.307      
133.6       44.318      153.917     2.316       5.607       108.75      51.034      59.942      19.703      16.29       89.88       27.77       1.301       1.0         29.858      1.32        52.129      
133.7       40.605      153.966     2.315       5.424       106.65      52.074      59.942      19.943      16.43       89.88       27.562      1.278       1.0         31.288      1.288       51.997      
133.8       41.38       153.927     2.305       5.627       104.13      52.594      59.942      20.063      16.71       90.92       27.38       1.224       1.0         32.573      1.262       51.865      
133.9       38.47       153.995     2.272       5.881       102.87      53.634      59.942      20.183      17.27       91.96       27.074      1.202       1.0         33.697      1.238       51.736      
134.0       34.328      154.025     2.27        6.0         100.35      53.634      60.382      20.183      18.11       93.0        27.074      1.185       1.0         33.954      1.216       51.585      
