~Version Information Section
VERS.                                         2.0:CWLS log ASCII Standart – VERSION 2.0
WRAP.                                          NO:One line per depth step
~Well Information Section
STRT.M                                        7.7:Начальная глубина
STOP.M                                      168.6:Конечная глубина
STEP.M                                          0:Шаг квантования по глубине
NULL.                                    -9999.25:Признак "Нет данных"
WELL.                                       137Мх:Скважина
~Parameter Information Section
~Curve Information Section
DEPTH.M                                          :Глубина
ГК.мкР/ч                                         :GK
U1.                                              :U1
U12.                                             :U12
U2.                                              :U2
W.усл.ед                                         :W
ЗОНД.                                            :Зонд N0
НГК.                                             :НГК
ННКМ.усл.ед                                      :ННКм
ПЛОТНОСТЬ.г/см3                                  :плотность
РЕЗИСТИВИМЕТР.Ом                                 :Резистивиметр
~ASCII LOG DATA
# ...
123.6       9.709       222.722     167.76      133.696     27.711      13.65       1.184       1.328       2.35        0.632       
123.7       9.771       189.634     162.238     141.348     27.948      13.729      1.193       1.329       2.362       0.632       
123.8       9.673       192.938     169.973     153.478     28.296      13.881      1.179       1.361       2.368       0.633       
123.9       9.482       185.663     174.099     166.189     28.937      14.082      1.176       1.355       2.367       0.634       
124.0       9.57        190.623     172.824     159.309     29.69       14.26       1.178       1.325       2.366       0.637       
124.1       9.688       165.428     165.463     181.8       30.19       14.344      1.179       1.328       2.378       0.638       
124.2       10.025      155.23      164.586     196.015     30.223      14.355      1.169       1.346       2.395       0.636       
124.3       10.173      160.028     170.191     201.954     29.998      14.372      1.151       1.363       2.417       0.634       
124.4       10.111      193.968     169.844     158.493     29.599      14.445      1.149       1.406       2.426       0.631       
124.5       9.914       199.665     156.371     122.871     29.097      14.578      1.164       1.393       2.423       0.628       
124.6       9.871       163.792     146.361     140.689     28.485      14.774      1.195       1.379       2.408       0.625       
124.7       9.962       149.028     156.506     175.128     28.179      15.05       1.184       1.357       2.383       0.623       
124.8       10.264      155.371     186.806     226.188     27.961      15.326      1.145       1.347       2.365       0.623       
124.9       10.381      169.674     184.064     202.472     27.786      15.496      1.143       1.35        2.351       0.623       
125.0       10.129      162.475     172.739     193.416     27.709      15.594      1.162       1.351       2.351       0.624       
125.1       9.912       133.775     152.831     199.021     27.61       15.703      1.205       1.372       2.355       0.629       
125.2       9.582       110.049     160.951     265.084     27.491      15.846      1.218       1.375       2.356       0.638       
125.3       9.59        135.752     156.993     230.149     27.747      16.016      1.215       1.39        2.365       0.646       
125.4       9.622       156.489     153.384     189.134     28.129      16.139      1.218       1.393       2.362       0.649       
125.5       9.7         172.261     150.123     142.04      28.108      16.146      1.231       1.407       2.365       0.652       
125.6       9.707       158.988     156.236     160.08      28.328      16.074      1.244       1.402       2.364       0.652       
125.7       9.774       153.41      155.04      158.761     28.845      15.989      1.236       1.395       2.378       0.651       
125.8       9.747       158.328     146.534     138.084     29.05       15.949      1.232       1.408       2.394       0.65        
125.9       9.084       148.391     156.89      121.158     28.863      15.956      1.23        1.428       2.405       0.65        
126.0       8.533       141.254     190.364     97.559      29.026      16.04       1.214       1.375       2.405       0.65        
126.1       8.629       134.117     215.687     92.101      29.157      16.239      1.185       1.34        2.39        0.651       
126.2       9.086       126.98      209.739     111.457     28.82       16.471      1.174       1.325       2.376       0.656       
126.3       9.871       119.844     176.625     153.473     28.252      16.672      1.183       1.314       2.363       0.665       
126.4       10.378      107.648     151.377     184.014     27.958      16.868      1.215       1.349       2.362       0.67        
126.5       10.141      90.395      133.994     203.082     27.907      17.049      1.228       1.349       2.364       0.668       
126.6       9.905       106.09      133.877     183.876     28.164      17.074      1.226       1.357       2.359       0.664       
126.7       9.969       134.506     147.525     174.53      28.875      16.903      1.217       1.354       2.362       0.661       
126.8       10.104      175.642     174.936     175.044     29.415      16.707      1.217       1.338       2.364       0.66        
126.9       9.899       178.62      181.336     184.926     29.652      16.524      1.224       1.351       2.377       0.66        
127.0       9.837       168.726     166.464     165.362     29.823      16.322      1.238       1.375       2.388       0.661       
127.1       9.761       165.581     156.123     147.912     29.717      16.181      1.25        1.383       2.386       0.666       
127.2       9.461       182.057     171.587     162.02      29.245      16.115      1.269       1.388       2.388       0.674       
127.3       9.175       178.493     188.008     202.706     29.222      16.066      1.261       1.348       2.394       0.675       
127.4       9.308       162.857     184.443     213.395     29.213      16.019      1.243       1.341       2.414       0.672       
127.5       9.768       135.149     160.894     194.088     28.778      15.96       1.21        1.396       2.429       0.669       
127.6       10.209      129.069     148.669     174.29      28.522      15.882      1.194       1.407       2.445       0.668       
127.7       10.453      117.027     142.908     179.018     28.558      15.797      1.181       1.404       2.448       0.668       
127.8       10.458      157.951     167.813     189.938     28.609      15.73       1.163       1.395       2.449       0.668       
127.9       10.321      185.863     174.556     174.552     28.729      15.704      1.161       1.36        2.432       0.665       
128.0       10.279      200.762     163.135     132.861     28.798      15.701      1.168       1.356       2.417       0.66        
128.1       10.195      158.278     130.172     108.762     28.803      15.708      1.199       1.342       2.4         0.655       
128.2       10.304      130.352     118.032     110.226     28.635      15.731      1.239       1.367       2.381       0.653       
128.3       10.457      134.456     129.918     127.415     28.445      15.769      1.242       1.405       2.366       0.652       
128.4       10.135      146.966     140.773     135.752     28.735      15.822      1.157       1.389       2.35        0.652       
128.5       9.547       167.884     150.594     135.237     29.394      15.906      1.108       1.378       2.345       0.653       
128.6       9.521       156.974     173.249     212.939     29.862      16.034      1.143       1.371       2.351       0.656       
128.7       9.741       152.956     181.738     246.303     30.302      16.276      1.219       1.369       2.356       0.661       
128.8       10.295      155.832     176.061     235.33      30.158      16.589      1.229       1.336       2.366       0.666       
128.9       10.286      176.844     156.015     154.916     29.007      16.756      1.205       1.327       2.362       0.667       
129.0       10.051      186.335     152.837     126.628     27.83       16.698      1.216       1.411       2.359       0.671       
129.1       10.025      183.693     165.445     150.594     27.35       16.445      1.249       1.411       2.363       0.68        
129.2       9.958       180.44      176.969     174.688     26.973      16.066      1.28        1.372       2.38        0.691       
129.3       9.936       177.336     187.733     221.251     27.058      15.752      1.278       1.405       2.398       0.696       
129.4       9.945       174.994     199.446     241.774     28.092      15.594      1.238       1.489       2.405       0.694       
129.5       10.003      173.412     228.064     237.042     29.341      15.519      1.196       1.42        2.397       0.691       
129.6       10.091      171.831     273.265     184.714     29.449      15.466      1.203       1.328       2.386       0.678       
