~Version Information Section
VERS.                                         2.0:CWLS log ASCII Standart – VERSION 2.0
WRAP.                                          NO:One line per depth step
~Well Information Section
STRT.M                                        0.0:Начальная глубина
STOP.M                                      180.0:Конечная глубина
STEP.M                                          0:Шаг квантования по глубине
NULL.                                    -9999.25:Признак "Нет данных"
WELL.                                       120Мх:Скважина
~Parameter Information Section
~Curve Information Section
DEPTH.M                                          :Глубина
BK.Ohm*M                                         :BK     (БК)
DS.mm                                            :DS  (ДС)
GGK.g/cm3                                        :GGKp
ГК.mcr/h                                         :GK          (ГК)
GZ1.Ohm*M                                        :GZ1   ГЗ1(A0.4M0.1N)
GZ2.Ohm*M                                        :GZ2   ГЗ2(A1.0M0.1N)
GZ3.Ohm*M                                        :GZ3   ГЗ3(A2.0M0.5N)
GZ4.Ohm*M                                        :GZ4   ГЗ4(A4.0M0.5N)
GZ5.Ohm*M                                        :GZ5   ГЗ5(A8.0M0.5N)
GZR.Ohm*M                                        :GZK   ГЗK(N0.5M2.0A)
ИК.Ohm*M                                         :IK
НГК.u.e.                                         :NGK
NNKM.                                            :NNKm  (ННКм)
PS.mv                                            :PS       (ПС)
PZ.Ohm*M                                         :PZ    (КС)
RS.Ohm*M                                         :RS (Резистивиметр)
U1.mV                                            :U1
U2.mV                                            :U2
U3.mV                                            :U3
КП.%                                             :Кп
~ASCII LOG DATA
# ...
64.0        35.81       136.715     2.175       6.728       20.783      10.125      13.404      24.222      30.669      13.232      7.884       0.925       1.733       385.798     21.236      1.276       465.732     387.857     425.192     38.54       
64.2        32.885      135.997     2.179       6.502       21.35       10.125      14.071      20.66       30.958      17.232      7.81        0.972       1.621       377.763     16.975      1.268       521.606     323.516     231.008     40.487      
64.4        28.51       135.85      2.289       5.945       23.17       13.892      15.404      21.628      26.875      21.232      7.882       1.01        1.632       371.523     14.092      1.254       415.264     287.345     282.106     42.303      
64.6        27.227      135.389     2.369       5.805       24.909      15.753      16.071      22.109      27.52       24.566      7.954       1.016       1.749       367.164     14.594      1.235       288.62      314.812     549.566     41.696      
64.8        26.977      135.631     2.38        5.68        26.209      15.527      20.071      22.274      32.818      27.899      8.089       1.089       1.944       364.323     19.356      1.223       347.561     311.975     391.647     40.477      
65.0        31.842      136.392     2.313       5.738       27.162      15.737      23.404      23.012      32.991      31.232      8.427       1.059       1.995       362.921     26.124      1.22        262.078     235.151     311.395     37.827      
65.2        35.318      136.055     2.282       6.095       27.995      17.02       19.572      24.316      33.727      34.566      8.836       1.124       1.997       362.729     30.01       1.223       372.635     261.111     275.93      33.419      
65.4        32.81       137.261     2.277       5.97        30.673      19.881      19.206      26.481      35.751      39.232      9.152       1.129       1.998       360.848     31.263      1.235       514.988     265.432     164.612     37.932      
65.6        33.42       138.587     2.23        5.751       33.755      21.372      21.734      30.214      38.386      41.899      9.364       1.08        1.993       356.528     33.268      1.253       416.288     209.298     134.239     34.099      
65.8        34.041      135.292     2.232       5.444       40.412      22.125      24.06       33.898      40.271      41.899      9.598       1.135       2.023       349.808     36.527      1.26        338.864     264.667     339.011     38.485      
66.0        36.475      135.817     2.253       5.351       46.042      23.458      24.136      42.977      42.5        43.899      9.718       1.161       2.037       341.167     41.164      1.26        225.677     276.21      570.189     37.994      
66.2        39.084      136.699     2.285       5.143       42.801      24.125      23.949      43.822      43.779      49.232      9.9         1.233       2.038       331.088     48.183      1.264       198.822     225.532     410.149     31.512      
66.4        58.749      138.336     2.281       4.844       46.887      24.125      24.998      37.559      44.627      51.899      10.359      1.174       2.078       320.201     54.951      1.273       266.679     222.824     276.424     28.995      
66.6        42.855      139.188     2.318       4.853       48.928      24.125      26.317      47.237      45.495      49.899      11.054      1.135       2.054       310.4       60.591      1.279       479.95      289.572     221.698     33.684      
66.8        41.02       137.391     2.239       4.57        53.894      24.125      26.572      51.266      46.409      42.566      11.384      1.137       2.065       302.201     65.98       1.28        602.911     405.69      314.864     39.351      
67.0        33.497      137.084     2.232       4.022       57.966      25.458      26.768      50.824      46.689      38.566      11.197      1.238       2.205       295.683     68.863      1.28        515.73      388.422     337.459     36.094      
67.2        59.293      134.996     2.23        4.109       57.91       33.459      27.938      51.452      46.287      38.566      11.252      1.204       2.192       290.403     70.116      1.28        346.766     305.375     349.805     35.971      
67.4        43.351      134.017     2.148       4.281       64.403      49.59       30.365      46.055      45.989      33.232      11.459      1.248       2.167       286.323     71.62       1.28        436.873     379.555     426.061     33.85       
67.6        48.529      133.206     2.063       3.76        69.17       59.617      32.548      50.579      38.162      30.566      11.589      1.129       2.082       283.683     75.506      1.28        586.358     404.396     320.997     36.901      
67.8        48.865      132.949     2.161       3.578       68.445      59.991      26.261      53.199      34.544      29.899      11.384      1.226       2.139       282.204     79.642      1.28        584.927     384.243     284.919     36.309      
68.0        65.917      130.931     2.23        4.074       71.557      63.277      29.008      44.522      33.002      28.566      11.305      1.251       2.259       281.446     81.271      1.284       610.392     387.057     279.948     30.779      
68.2        67.608      130.44      2.115       4.124       73.688      59.192      23.021      36.864      36.767      22.566      11.181      1.212       2.277       281.283     81.271      1.296       664.9       522.523     467.896     35.937      
68.4        61.376      130.608     2.058       4.129       44.195      36.635      26.694      38.831      36.528      21.899      11.053      1.275       2.225       282.444     80.018      1.311       559.759     518.34      560.316     37.585      
68.6        62.373      130.143     2.064       4.582       43.396      51.037      39.94       40.369      30.893      35.232      10.899      1.216       2.22        285.084     72.498      1.319       387.724     453.65      719.578     32.277      
68.8        54.45       130.526     2.212       5.803       43.043      47.246      43.309      37.846      28.227      35.899      10.713      1.027       2.15        289.683     60.842      1.32        305.664     339.081     621.349     30.354      
69.0        15.241      129.734     2.391       5.338       45.222      33.407      28.509      28.363      27.013      17.899      9.971       1.121       1.979       296.844     54.951      1.319       308.112     176.768     173.179     36.204      
69.2        38.282      131.055     2.415       4.665       37.329      22.263      25.557      26.019      25.387      13.899      9.773       1.238       2.202       306.444     54.199      1.313       407.345     238.088     173.054     32.683      
69.4        47.863      129.851     2.276       6.294       30.911      19.98       27.193      39.625      24.08       13.899      9.957       1.105       2.338       317.686     46.679      1.304       634.763     363.18      233.543     24.338      
69.6        25.645      129.268     2.195       7.668       37.79       38.705      33.5        37.265      22.876      13.232      9.928       1.089       2.062       329.609     43.671      1.3         610.862     371.964     255.215     29.836      
69.8        17.498      130.862     2.205       7.069       40.73       35.332      33.299      46.717      23.209      14.566      9.598       1.096       1.927       341.369     43.922      1.3         491.023     322.626     247.699     38.608      
70.0        21.528      133.143     2.282       6.314       31.235      21.981      25.772      41.474      24.47       13.899      9.532       1.093       1.937       352.131     46.178      1.3         604.633     366.699     257.307     36.739      
70.2        25.061      133.654     2.376       5.664       35.141      22.897      23.776      32.131      28.436      16.566      9.664       1.082       2.026       361.491     43.796      1.3         705.025     306.205     162.733     30.503      
