~Version Information Section
VERS.                                         2.0:CWLS log ASCII Standart – VERSION 2.0
WRAP.                                          NO:One line per depth step
~Well Information Section
STRT.M                                       -0.3:Начальная глубина
STOP.M                                      200.8:Конечная глубина
STEP.M                                          0:Шаг квантования по глубине
NULL.                                    -9999.25:Признак "Нет данных"
WELL.                                       124Мх:Скважина
~Parameter Information Section
~Curve Information Section
DEPTH.M                                          :Глубина
U1.мВ                                            :U1
U2.                                              :U2
U3.мВ                                            :U3
БЗ.имп/мин                                       :БЗ
ГГКП.имп/мин                                     :ГГКп
ГЗ1.Омм                                          :ГЗ1
ГЗ2.Омм                                          :ГЗ2
ГЗ3.Омм                                          :ГЗ3
ГЗ4.Oмм                                          :ГЗ4
ГЗ5.Oмм                                          :ГЗ5
ГЗК.Омм                                          :ГЗК
КП.%                                             :Кп
МЗ.                                              :МЗ жесткий
НГК.усл.ед                                       :ННКб
ННКМ.усл.ед                                      :ННКм
ПРОФ_СР.мм                                       :ПРОФ_СР
ПС.мВ                                            :ПС
BK.lgОмм                                         :BK
ГК.имп/мин                                       :GK
ИК.мСм/м                                         :IK
PZ.Омм                                           :PZ
RIS.Омм                                          :RIS
~ASCII LOG DATA
# ...
196.9       1284.769287 3284.475342 1217.928345 13528.8886722.399861    -9999.25    -9999.25    -9999.25    -9999.25    -9999.25    -9999.25    21.064785   25611.1113284.150347    2.582901    147.052002  170.016006  130.617065  4.375       16.594481   148.240005  -9999.25    
197.0       1311.265137 3280.021484 1190.92688  14051.7646482.395986    -9999.25    -9999.25    -9999.25    -9999.25    -9999.25    -9999.25    20.955469   26602.3535164.15438     2.507226    146.783005  172.479996  135.207275  4.128       17.024174   148.559998  -9999.25    
197.1       1303.651367 3267.657959 1178.000122 15118.8232422.387142    -9999.25    -9999.25    -9999.25    -9999.25    -9999.25    -9999.25    20.813745   27310.5878914.128483    2.524789    146.488007  175.559998  136.458313  4.227       17.557104   148.880005  -9999.25    
197.2       1272.52478  3258.304688 1183.069824 16618.8886722.382915    -9999.25    -9999.25    -9999.25    -9999.25    -9999.25    -9999.25    20.604561   27434.4453134.051882    2.576348    146.337997  178.024002  128.824921  4.177       17.88365    149.119995  -9999.25    
197.3       1239.195313 3255.5896   1198.58728  17858.8886722.381534    -9999.25    -9999.25    -9999.25    -9999.25    -9999.25    -9999.25    21.061325   28130.0     3.99032     2.651568    146.095001  180.488007  122.179939  4.013       18.383368   149.279999  -9999.25    
197.4       1227.189087 3256.507568 1206.553711 18471.7656252.379746    -9999.25    -9999.25    -9999.25    -9999.25    -9999.25    -9999.25    21.919186   28004.7050783.887984    2.633049    145.727005  182.951996  128.824921  4.63        18.626137   149.440002  -9999.25    
197.5       1236.501831 3261.056641 1206.970215 18921.1757812.374478    -9999.25    -9999.25    -9999.25    -9999.25    -9999.25    -9999.25    22.160316   28025.8828123.924268    2.530023    145.591003  185.416     151.00798   4.723       18.95052    149.520004  -9999.25    
197.6       1233.913208 3255.616699 1199.141724 19191.7656252.365278    -9999.25    -9999.25    -9999.25    -9999.25    -9999.25    -9999.25    22.098341   28216.4707033.908448    2.419287    145.503998  187.880005  136.458313  4.339       19.028772   149.679993  -9999.25    
197.7       1219.210693 3239.983643 1182.874512 19176.6660162.355981    -9999.25    -9999.25    -9999.25    -9999.25    -9999.25    -9999.25    21.576706   28441.1113283.752928    2.367726    145.673004  190.960007  105.681732  3.829       19.168472   149.759995  -9999.25    
197.8       1210.30835  3226.94165  1167.283325 19371.7656252.358318    -9999.25    -9999.25    -9999.25    -9999.25    -9999.25    -9999.25    20.473574   28685.8828133.857524    2.442169    145.871002  194.039993  119.949928  3.826       19.208237   149.839996  -9999.25    
197.9       1219.927124 3227.066162 1161.031128 19488.2343752.369934    -9999.25    -9999.25    -9999.25    -9999.25    -9999.25    -9999.25    19.01647    28535.2949224.279588    2.526778    145.945007  197.119995  132.129578  4.032       19.288635   149.919998  -9999.25    
198.0       1233.694092 3233.522217 1162.464966 19910.0     2.390069    -9999.25    -9999.25    -9999.25    -9999.25    -9999.25    -9999.25    19.048429   28943.3339844.320761    2.579263    146.253998  199.584     133.659531  3.851       19.308001   150.0       -9999.25    
198.1       -9999.25    -9999.25    -9999.25    19815.5546882.415199    -9999.25    -9999.25    -9999.25    -9999.25    -9999.25    -9999.25    19.492678   28534.4453134.266642    2.633303    146.281006  202.048004  138.675568  3.796       19.308001   150.0       -9999.25    
198.2       -9999.25    -9999.25    -9999.25    19771.5781252.427228    -9999.25    -9999.25    -9999.25    -9999.25    -9999.25    -9999.25    20.285831   28434.7363284.285249    2.652054    146.121994  203.895996  138.995224  3.763       19.227442   150.0       -9999.25    
198.3       -9999.25    -9999.25    -9999.25    19147.0664062.417844    -9999.25    -9999.25    -9999.25    -9999.25    -9999.25    -9999.25    21.294491   29058.6757814.137777    2.545346    146.110992  205.744003  -9999.25    3.696       19.308001   150.0       -9999.25    
198.4       -9999.25    -9999.25    -9999.25    -9999.25    2.394255    -9999.25    -9999.25    -9999.25    -9999.25    -9999.25    -9999.25    22.380623   -9999.25    3.726041    2.442042    146.151993  207.591995  -9999.25    3.341       19.309494   149.919998  -9999.25    
198.5       -9999.25    -9999.25    -9999.25    -9999.25    2.356948    -9999.25    -9999.25    -9999.25    -9999.25    -9999.25    -9999.25    22.656151   -9999.25    3.626087    2.413273    146.365997  209.440002  -9999.25    2.88        19.267822   149.839996  -9999.25    
198.6       -9999.25    -9999.25    -9999.25    -9999.25    2.312943    -9999.25    -9999.25    -9999.25    -9999.25    -9999.25    -9999.25    22.899693   -9999.25    3.580299    2.387226    145.718002  210.671997  -9999.25    3.552       19.089069   149.679993  -9999.25    
198.7       -9999.25    -9999.25    -9999.25    -9999.25    2.28423     -9999.25    -9999.25    -9999.25    -9999.25    -9999.25    -9999.25    22.97019    -9999.25    3.567739    2.371456    145.376007  212.520004  -9999.25    3.442       18.911814   149.440002  -9999.25    
198.8       -9999.25    -9999.25    -9999.25    -9999.25    2.277931    -9999.25    -9999.25    -9999.25    -9999.25    -9999.25    -9999.25    22.481627   -9999.25    3.688891    2.362904    145.401001  213.751999  -9999.25    3.36        18.568378   149.039993  -9999.25    
198.9       -9999.25    -9999.25    -9999.25    -9999.25    2.287224    -9999.25    -9999.25    -9999.25    -9999.25    -9999.25    -9999.25    21.291986   -9999.25    3.870303    2.363292    145.384995  214.983994  -9999.25    3.821       18.113974   148.639999  -9999.25    
199.0       -9999.25    -9999.25    -9999.25    -9999.25    2.315616    -9999.25    -9999.25    -9999.25    -9999.25    -9999.25    -9999.25    20.218693   -9999.25    3.961348    2.392031    144.701004  216.832001  -9999.25    3.734       17.76483    148.160004  -9999.25    
199.1       -9999.25    -9999.25    -9999.25    -9999.25    2.368817    -9999.25    -9999.25    -9999.25    -9999.25    -9999.25    -9999.25    19.429026   -9999.25    4.058706    2.473702    144.024002  219.296005  -9999.25    -9999.25    17.330723   147.759995  -9999.25    
199.2       -9999.25    -9999.25    -9999.25    -9999.25    2.428043    -9999.25    -9999.25    -9999.25    -9999.25    -9999.25    -9999.25    19.311058   -9999.25    4.153138    2.593785    143.410995  221.143997  -9999.25    -9999.25    17.024174   147.440002  -9999.25    
199.3       -9999.25    -9999.25    -9999.25    -9999.25    2.478043    -9999.25    -9999.25    -9999.25    -9999.25    -9999.25    -9999.25    19.647015   -9999.25    4.127017    2.661175    144.876999  222.992004  -9999.25    -9999.25    16.564793   147.279999  -9999.25    
199.4       -9999.25    -9999.25    -9999.25    -9999.25    2.515045    -9999.25    -9999.25    -9999.25    -9999.25    -9999.25    -9999.25    20.757511   -9999.25    3.902884    2.616534    145.358994  224.223999  -9999.25    -9999.25    16.300982   147.119995  -9999.25    
199.5       -9999.25    -9999.25    -9999.25    -9999.25    2.52774     -9999.25    -9999.25    -9999.25    -9999.25    -9999.25    -9999.25    22.355562   -9999.25    3.512597    2.426213    144.330994  224.839996  -9999.25    -9999.25    15.989511   147.039993  -9999.25    
199.6       -9999.25    -9999.25    -9999.25    -9999.25    2.517595    -9999.25    -9999.25    -9999.25    -9999.25    -9999.25    -9999.25    23.423641   -9999.25    3.235135    2.25122     142.455002  224.839996  -9999.25    -9999.25    15.76069    146.960007  -9999.25    
199.7       -9999.25    -9999.25    -9999.25    -9999.25    2.497126    -9999.25    -9999.25    -9999.25    -9999.25    -9999.25    -9999.25    23.726215   -9999.25    3.20882     2.1895      142.557007  224.839996  -9999.25    -9999.25    15.627197   146.800003  -9999.25    
