~Version Information Section
VERS.                                         2.0:CWLS log ASCII Standart – VERSION 2.0
WRAP.                                          NO:One line per depth step
~Well Information Section
STRT.M                                        0.6:Начальная глубина
STOP.M                                      208.2:Конечная глубина
STEP.M                                          0:Шаг квантования по глубине
NULL.                                    -9999.25:Признак "Нет данных"
WELL.                                       156Мх:Скважина
~Parameter Information Section
~Curve Information Section
DEPTH.M                                          :Глубина
БК.Ом                                            :BK     (БК)
DСР.мм                                           :DS  (ДС)
ПЛОТНОСТЬ.г/см^3                                 :GGKp
ГК.мкР/час                                       :GK          (ГК)
А0.4М0.1N.Ом                                     :GZ1   ГЗ1(A0.4M0.1N)
А1.0М0.1N.Ом                                     :GZ2   ГЗ2(A1.0M0.1N)
А2.0М0.5N.Ом                                     :GZ3   ГЗ3(A2.0M0.5N)
А4.0М0.5N.Oм                                     :GZ4   ГЗ4(A4.0M0.5N)
А8.0М1.0N.Ом                                     :GZ5   ГЗ5(A8.0M0.5N)
N0.5M2.0A.Ом                                     :GZR   ГЗK(N0.5M2.0A)
ИК.мСм/м                                         :IK
НГК.усл.ед                                       :NGK     (НГК)
ННКМ.усл.ед                                      :NNKm  (ННКм)
ПС.mv                                            :PS       (ПС)
N11.0M0.5A.Ом                                    :PZ    (КС)
РЕЗИСТИВИМЕТР.Ом                                 :RS (Резистивиметр)
КПSIO.%                                          :W
~ASCII LOG DATA
# ...
170.8       144.72      152.058     1.964       5.097       133.482     86.438      28.528      31.245      13.855      214.295     37.939      1.531       1.415       85.65       139.175     1.324       20.521      
170.9       131.167     151.311     1.969       5.194       135.606     126.623     29.845      31.776      15.018      203.319     39.67       1.581       1.453       82.501      158.342     1.325       19.407      
171.0       122.095     150.931     1.975       5.331       138.534     164.62      31.174      32.081      16.612      194.664     41.257      1.609       1.471       78.984      171.096     1.326       18.725      
171.1       118.161     150.861     1.981       5.48        142.41      193.476     32.452      32.112      18.576      187.287     42.557      1.639       1.46        75.436      179.829     1.325       18.346      
171.2       119.138     150.74      1.981       5.627       146.754     214.352     33.64       31.889      20.877      179.488     43.544      1.673       1.438       72.088      185.827     1.324       18.234      
171.3       126.944     150.856     1.975       5.701       150.907     229.465     34.783      31.47       23.636      170.266     44.323      1.689       1.421       69.264      189.474     1.322       18.251      
171.4       135.641     150.855     1.966       5.741       154.09      239.425     35.992      30.877      27.347      159.104     44.852      1.678       1.408       67.215      191.515     1.319       18.448      
171.5       143.834     150.788     1.959       5.701       156.272     245.348     37.409      30.223      32.294      145.887     45.212      1.661       1.415       65.76       192.542     1.317       18.778      
171.6       150.611     150.768     1.954       5.647       158.601     250.675     39.282      29.7        38.18       130.513     45.437      1.641       1.423       64.808      192.535     1.314       19.231      
171.7       149.648     150.802     1.951       5.561       158.119     254.066     42.216      29.473      43.399      113.135     45.561      1.619       1.415       64.242      191.019     1.312       19.762      
171.8       150.07      150.788     1.95        5.479       153.822     254.69      48.299      29.577      46.73       96.615      45.532      1.599       1.401       63.856      187.643     1.311       20.239      
171.9       148.854     150.818     1.95        5.437       149.47      256.143     61.582      30.039      48.019      84.544      45.349      1.584       1.389       63.574      182.267     1.31        20.515      
172.0       139.504     150.862     1.948       5.471       144.855     253.88      83.017      30.977      48.262      78.243      45.071      1.581       1.373       63.379      174.591     1.31        20.683      
172.1       127.269     150.786     1.941       5.478       129.015     228.848     106.839     32.322      48.235      76.32       44.719      1.589       1.358       63.241      164.646     1.31        20.623      
172.2       114.109     150.776     1.93        5.44        100.373     179.609     123.251     33.618      48.231      77.875      44.205      1.604       1.357       63.12       152.808     1.31        20.354      
172.3       85.742      150.725     1.917       5.442       73.243      130.53      126.517     34.24       48.276      84.509      43.497      1.637       1.363       63.019      138.978     1.31        19.983      
172.4       69.323      150.699     1.904       5.428       60.597      104.286     121.892     34.036      48.378      95.873      42.461      1.683       1.376       62.964      123.275     1.311       19.587      
172.5       68.512      150.644     1.896       5.405       61.177      97.893      118.298     33.426      48.505      108.787     41.249      1.715       1.402       62.958      108.317     1.311       19.298      
172.6       49.576      150.568     1.897       5.466       68.046      95.975      120.337     32.992      48.62       119.719     40.046      1.728       1.426       62.995      98.097      1.311       19.258      
172.7       28.745      150.526     1.907       5.641       80.576      95.875      126.483     33.045      48.58       126.705     39.167      1.726       1.45        63.066      94.098      1.312       19.389      
172.8       35.151      150.543     1.921       5.73        95.062      97.453      133.815     33.537      48.495      129.101     38.837      1.699       1.462       63.175      94.206      1.312       19.643      
172.9       64.979      148.97      1.933       5.739       107.083     100.953     142.096     34.344      48.487      127.249     39.157      1.666       1.462       63.304      97.143      1.312       19.953      
173.0       90.886      146.922     1.941       5.788       115.89      106.648     151.069     35.38       48.833      122.962     40.22       1.649       1.44        63.433      104.551     1.312       20.178      
173.1       103.883     149.356     1.939       5.791       123.152     115.846     160.589     36.584      49.418      118.544     41.838      1.647       1.413       63.558      116.4       1.312       20.301      
173.2       113.759     150.541     1.93        5.728       129.449     131.874     171.075     37.884      49.353      115.0       43.928      1.649       1.393       63.695      129.2       1.311       20.262      
173.3       118.691     150.733     1.922       5.657       135.734     156.689     182.634     38.98       48.097      112.149     46.606      1.658       1.383       63.931      138.632     1.311       20.05       
173.4       119.24      150.774     1.915       5.615       143.99      187.984     191.155     39.16       45.732      109.773     50.386      1.68        1.374       64.276      143.121     1.311       19.743      
173.5       118.127     150.975     1.911       5.686       155.376     219.253     190.084     37.96       43.156      107.812     53.278      1.715       1.374       64.65       143.575     1.31        19.345      
173.6       116.92      151.044     1.908       5.749       149.457     214.607     176.094     35.545      40.735      106.247     49.911      1.75        1.382       65.041      140.675     1.31        18.888      
173.7       115.169     151.068     1.907       5.813       116.774     163.176     151.353     32.433      38.383      105.603     41.75       1.784       1.4         65.423      134.594     1.31        18.507      
173.8       107.617     151.032     1.906       5.933       73.345      95.09       120.143     29.095      36.115      110.714     33.237      1.792       1.419       65.767      124.58      1.31        18.271      
173.9       97.306      150.997     1.904       6.067       44.253      51.87       89.237      27.259      33.802      125.835     26.401      1.75        1.437       66.045      108.953     1.311       18.179      
174.0       82.264      151.008     1.906       5.925       37.629      45.38       67.264      29.009      31.405      150.1       21.365      1.687       1.455       66.143      90.338      1.311       18.233      
174.1       53.208      150.965     1.913       5.69        40.467      47.559      58.552      34.621      29.024      177.584     19.705      1.626       1.462       66.055      75.199      1.312       18.383      
174.2       19.905      150.961     1.921       5.385       51.359      50.204      59.761      42.38       27.727      202.688     23.433      1.58        1.445       65.884      68.089      1.313       18.638      
174.3       15.131      150.973     1.925       5.076       68.742      53.18       64.111      50.42       27.759      222.52      24.801      1.559       1.422       65.698      67.662      1.315       18.894      
174.4       29.043      150.94      1.923       4.826       87.416      56.64       69.461      58.319      28.79       234.839     28.088      1.567       1.396       65.618      69.147      1.316       19.053      
