~Version Information Section
VERS.                                         2.0:CWLS log ASCII Standart – VERSION 2.0
WRAP.                                          NO:One line per depth step
~Well Information Section
STRT.M                                        0.1:Начальная глубина
STOP.M                                      202.9:Конечная глубина
STEP.M                                          0:Шаг квантования по глубине
NULL.                                    -9999.25:Признак "Нет данных"
WELL.                                       155Мх:Скважина
~Parameter Information Section
~Curve Information Section
DEPTH.M                                          :Глубина
BK.Ohm*M                                         :BK     (БК)
DS.mm                                            :DS  (ДС)
GGK.g/cm3                                        :GGKp
ГК.mcr/h                                         :GK          (ГК)
GZ1.Ohm*M                                        :GZ1   ГЗ1(A0.4M0.1N)
GZ2.Ohm*M                                        :GZ2   ГЗ2(A1.0M0.1N)
GZ3.Ohm*M                                        :GZ3   ГЗ3(A2.0M0.5N)
GZ4.Ohm*M                                        :GZ4   ГЗ4(A4.0M0.5N)
GZ5.Ohm*M                                        :GZ5   ГЗ5(A8.0M0.5N)
GZR.                                             :GZR   ГЗK(N0.5M2.0A)
ИК.Ohm*M                                         :IK
НГК.ue                                           :NGK     (НГК)
NNKM.                                            :NNKm  (ННКм)
PS.mv                                            :PS       (ПС)
PZ.Ohm*M                                         :PZ    (КС)
RS.Ohm*M                                         :RS (Резистивиметр)
W.%                                              :W
~ASCII LOG DATA
# ...
59.3        34.34       163.665     2.285       4.848       96.376      164.217     102.503     120.558     70.14       56.354      21.835      1.1         1.317       60.572      55.955      1.217       22.556      
59.4        40.035      163.83      2.265       5.008       76.23       142.187     95.22       116.012     70.962      49.082      20.721      1.099       1.364       61.353      50.443      1.215       23.349      
59.5        18.238      164.103     2.242       5.295       46.229      82.594      71.258      96.949      71.925      41.243      19.909      1.086       1.387       62.121      41.296      1.209       23.058      
59.6        15.154      164.106     2.227       5.651       39.754      35.777      46.673      70.096      72.054      32.046      19.32       1.075       1.282       63.57       33.725      1.206       24.111      
59.7        19.817      164.801     2.224       6.045       47.538      34.952      33.257      44.157      62.51       23.701      18.654      1.073       1.164       66.25       25.71       1.208       25.739      
59.8        28.555      169.028     2.233       6.367       56.0        28.999      29.991      29.669      46.281      20.919      18.019      1.07        1.118       70.087      20.34       1.217       25.363      
59.9        25.22       173.554     2.249       6.541       48.057      20.139      26.935      24.812      27.148      19.097      17.524      1.054       1.196       74.24       23.867      1.209       25.991      
60.0        16.49       174.851     2.265       6.561       33.272      16.158      21.035      20.74       19.408      17.363      16.966      1.021       1.238       77.831      27.12       1.206       28.097      
60.1        14.898      176.68      2.279       6.499       29.591      14.181      15.102      15.316      17.614      15.143      16.543      0.974       1.206       80.07       26.358      1.206       29.572      
60.2        15.313      173.431     2.289       6.382       29.372      15.948      12.546      11.634      15.941      14.166      16.226      0.917       1.135       80.731      24.352      1.206       30.561      
60.3        15.095      178.97      2.295       6.267       27.128      17.953      12.444      10.841      13.67       15.317      15.773      0.86        1.094       80.208      22.907      1.207       31.069      
60.4        15.2        171.831     2.299       6.219       24.239      19.592      12.449      10.706      11.999      17.073      15.307      0.837       1.072       79.047      22.669      1.206       29.932      
60.5        16.485      169.494     2.302       6.262       25.5        24.271      12.082      10.333      11.725      17.978      14.898      0.85        1.089       78.068      22.948      1.206       28.794      
60.6        18.453      171.402     2.304       6.358       28.449      26.677      11.79       9.906       12.226      17.74       14.61       0.886       1.116       78.113      23.121      1.206       28.647      
60.7        18.339      172.527     2.303       6.454       25.322      22.566      11.411      9.524       12.249      17.293      14.34       0.915       1.128       79.576      22.887      1.206       28.444      
60.8        14.885      173.333     2.299       6.531       20.836      18.825      10.423      8.745       11.794      16.454      14.111      0.919       1.1         81.9        21.191      1.206       28.574      
60.9        14.023      174.008     2.289       6.602       19.997      18.177      9.54        7.691       11.393      15.549      13.9        0.901       1.058       83.831      19.396      1.206       29.111      
61.0        14.58       174.829     2.272       6.681       21.622      19.927      9.382       7.01        10.684      14.821      13.761      0.875       1.008       84.767      18.609      1.206       29.242      
61.1        16.239      174.521     2.245       6.793       24.611      20.175      9.447       6.69        9.731       13.681      13.65       0.853       0.996       84.978      18.307      1.206       29.834      
61.2        16.488      175.028     2.21        6.92        23.827      18.365      9.511       6.493       9.071       12.726      13.59       0.842       1.001       84.961      18.565      1.206       30.984      
61.3        13.556      175.223     2.171       7.048       20.479      15.563      9.59        6.242       8.957       12.393      13.578      0.83        1.017       84.987      18.991      1.206       32.423      
61.4        12.382      173.468     2.133       7.162       18.723      13.179      10.462      5.775       8.848       12.001      13.522      0.813       0.991       84.931      18.387      1.206       33.652      
61.5        12.473      174.37      2.107       7.28        17.929      12.62       12.13       5.324       8.646       11.739      13.579      0.793       0.949       84.464      17.231      1.206       34.45       
61.6        12.316      175.997     2.1         7.393       17.251      12.497      13.529      5.29        8.21        12.021      13.565      0.789       0.897       83.296      16.668      1.206       34.504      
61.7        11.972      176.266     2.116       7.488       16.452      12.955      14.606      5.541       7.834       12.166      13.545      0.804       0.886       81.607      16.459      1.206       34.332      
61.8        11.874      172.747     2.151       7.526       15.779      12.837      15.195      5.979       7.746       12.593      13.578      0.817       0.887       80.08       16.533      1.206       33.976      
61.9        12.22       169.669     2.197       7.466       15.15       12.054      15.435      6.621       8.061       13.527      13.705      0.81        0.896       79.227      16.687      1.206       32.89       
62.0        13.501      174.845     2.243       7.294       15.4        11.932      15.814      7.208       8.508       14.45       13.954      0.802       0.929       79.157      16.701      1.206       31.854      
62.1        15.487      185.564     2.275       7.025       16.252      12.116      16.658      7.849       8.842       15.531      14.27       0.815       0.957       79.653      16.529      1.206       30.505      
62.2        15.665      203.42      2.287       6.734       17.502      12.761      17.692      8.574       9.089       16.981      14.843      0.848       1.016       80.419      16.699      1.206       28.909      
62.3        16.571      221.052     2.277       6.47        20.484      14.728      18.373      9.187       9.359       18.102      15.496      0.888       1.056       81.041      17.337      1.206       27.588      
62.4        19.884      218.844     2.252       6.292       24.785      16.503      18.691      9.798       9.942       18.84       16.097      0.929       1.131       81.358      18.414      1.206       27.098      
62.5        24.021      210.357     2.219       6.212       28.056      16.068      18.707      10.337      10.928      19.623      16.741      0.964       1.183       81.787      19.515      1.206       26.749      
62.6        22.659      183.06      2.188       6.2         29.051      14.276      18.826      10.946      12.047      20.941      17.323      0.962       1.209       83.01       20.689      1.206       26.801      
62.7        19.776      176.96      2.165       6.139       28.869      14.139      20.018      12.033      13.194      23.298      18.013      0.935       1.19        85.105      21.738      1.206       27.335      
62.8        18.931      173.293     2.155       5.994       28.809      16.774      22.207      13.99       14.181      26.673      18.528      0.935       1.159       87.167      22.396      1.206       27.677      
62.9        25.307      173.211     2.156       5.759       32.502      22.248      25.9        16.686      14.381      29.375      18.817      0.984       1.15        87.628      23.356      1.206       27.943      
