~Version Information Section
VERS.                                         2.0:CWLS log ASCII Standart – VERSION 2.0
WRAP.                                          NO:One line per depth step
~Well Information Section
STRT.M                                        1.2:Начальная глубина
STOP.M                                      169.7:Конечная глубина
STEP.M                                          0:Шаг квантования по глубине
NULL.                                    -9999.25:Признак "Нет данных"
WELL.                                       115Мх:Скважина
~Parameter Information Section
~Curve Information Section
DEPTH.M                                          :Глубина
BK.Ohm*M                                         :BK     (БК)
DS.mm                                            :DS  (ДС)
GGK.g/cm3                                        :GGKp
ГК.mcr/h                                         :GK          (ГК)
GZ1.Ohm*M                                        :GZ1   ГЗ1(A0.4M0.1N)
GZ2.Ohm*M                                        :GZ2   ГЗ2(A1.0M0.1N)
GZ3.Ohm*M                                        :GZ3   ГЗ3(A2.0M0.5N)
GZ4.Ohm*M                                        :GZ4   ГЗ4(A4.0M0.5N)
GZ5.Ohm*M                                        :GZ5   ГЗ5(A8.0M0.5N)
GZR.Ohm*M                                        :GZK   ГЗK(N0.5M2.0A)
ИК.Ohm*M                                         :IK
НГК.ue                                           :NGK     (НГК)
NNKM.                                            :NNKm  (ННКм)
PS.mv                                            :PS       (ПС)
PZ.Ohm*M                                         :PZ    (КС)
RS.Ohm*M                                         :RS (Резистивиметр)
U1.mV                                            :U1
U2.mV                                            :U2
U3.mV                                            :U3
КП.%                                             :Кп
~ASCII LOG DATA
# ...
110.0       69.024      135.512     2.256       6.962       7.102       10.008      9.777       9.825       7.871       9.219       22.537      1.109       2.018       1096.101    32.533      0.981       564.929     544.142     536.693     31.408      
110.1       51.761      134.607     2.275       7.266       7.376       10.033      9.677       9.725       7.771       9.019       22.319      1.101       1.981       1094.888    32.308      0.981       547.852     470.636     408.51      30.447      
110.2       40.926      135.206     2.278       7.31        7.378       9.864       9.377       9.725       7.671       8.619       21.793      1.098       1.967       1094.102    32.13       0.981       492.851     397.392     322.398     30.59       
110.3       30.974      134.654     2.276       6.524       7.375       9.839       8.777       9.625       7.571       8.619       21.488      1.083       2.015       1093.516    31.996      0.981       470.967     383.243     315.289     31.848      
110.4       25.177      134.908     2.266       6.195       6.761       9.476       8.677       9.525       7.571       8.419       21.048      1.108       2.044       1093.63     31.916      0.981       502.445     442.534     392.987     33.357      
110.5       28.973      135.163     2.272       6.224       6.338       9.211       8.577       9.425       7.471       8.319       20.555      1.123       2.036       1093.4      31.872      0.981       513.23      494.512     481.471     34.22       
110.6       25.177      134.756     2.274       6.212       6.353       9.284       8.577       9.325       7.371       8.219       20.087      1.145       2.04        1093.202    31.845      0.981       481.858     515.197     558.099     34.078      
110.7       21.727      135.144     2.274       6.113       6.706       9.429       8.277       9.325       7.271       8.119       19.764      1.097       2.064       1092.552    31.803      0.981       444.147     492.213     558.427     33.958      
110.8       19.275      134.535     2.292       5.939       4.138       8.078       6.777       7.725       5.971       5.419       19.494      1.098       2.081       1092.061    31.734      0.981       441.803     447.474     476.889     32.664      
110.9       20.091      135.182     2.305       6.079       4.325       8.458       7.077       7.725       5.971       5.619       19.292      1.116       2.09        1091.857    31.642      0.981       485.367     406.211     358.909     31.501      
111.0       23.55       134.726     2.3         6.493       4.184       8.196       7.377       7.725       5.971       5.819       19.269      1.174       2.119       1091.835    31.535      0.981       539.374     384.595     277.639     30.401      
111.1       23.442      135.092     2.286       6.886       3.136       7.228       6.677       7.725       6.571       6.019       19.35       1.167       2.155       1091.465    31.405      0.981       630.01      390.569     246.452     30.17       
111.2       25.645      134.962     2.283       6.949       2.913       7.156       6.377       7.725       6.571       6.219       19.412      1.168       2.122       1091.436    31.247      0.981       761.539     406.3       222.112     29.669      
111.3       36.058      134.416     2.254       6.665       2.841       7.18        6.277       7.725       6.271       6.419       19.412      1.178       2.11        1091.426    31.067      0.981       819.111     407.907     211.162     28.883      
111.4       27.733      135.411     2.226       6.42        2.914       7.18        6.177       7.725       5.871       6.619       19.229      1.198       2.16        1091.416    30.869      0.985       751.312     387.348     217.432     28.465      
111.5       22.233      134.173     2.239       6.174       3.174       7.084       6.077       7.725       5.771       6.719       19.07       1.175       2.171       1091.095    30.661      0.985       552.114     343.735     241.2       29.425      
111.6       20.989      134.15      2.251       6.001       3.382       7.011       5.977       7.725       5.671       7.019       18.837      1.171       2.162       1090.954    30.448      0.985       471.996     367.863     303.786     30.626      
111.7       20.749      134.972     2.257       5.973       3.702       7.084       5.977       7.725       5.671       6.719       18.857      1.158       2.177       1091.194    30.246      0.985       542.854     470.491     406.969     30.335      
111.8       21.528      134.675     2.257       5.842       4.167       7.374       5.977       7.825       5.671       6.719       18.816      1.155       2.194       1091.452    30.081      0.985       691.364     547.001     444.585     28.87       
111.9       22.439      134.247     2.274       6.112       4.025       7.446       5.977       7.925       5.671       6.719       18.837      1.123       2.175       1091.709    29.963      0.985       775.219     517.691     370.939     27.713      
112.0       22.856      134.91      2.272       6.28        3.455       7.277       5.977       8.025       5.671       6.719       18.953      1.131       2.155       1091.553    29.888      0.985       691.23      398.763     250.887     28.05       
112.1       24.155      135.125     2.266       6.71        2.991       7.253       6.077       8.025       5.671       6.719       18.914      1.168       2.08        1091.251    29.85       0.985       507.135     296.333     194.932     30.19       
112.2       23.878      135.232     2.266       6.774       2.966       7.204       6.077       8.025       5.671       6.719       18.894      1.196       2.005       1091.271    29.857      0.985       348.906     273.305     235.628     31.793      
112.3       20.701      135.092     2.272       6.743       2.952       7.205       6.077       8.025       5.771       6.619       18.798      1.186       2.009       1091.156    29.912      0.985       309.732     307.922     305.055     32.574      
112.4       19.588      134.798     2.273       6.661       2.946       7.156       5.977       8.025       5.871       6.619       18.798      1.116       2.013       1091.011    30.007      0.985       349.137     328.237     315.492     31.492      
112.5       19.364      135.437     2.283       6.371       2.957       7.156       5.977       7.825       5.871       6.519       18.801      1.043       2.063       1090.961    30.145      0.985       346.51      278.925     241.839     30.508      
112.6       19.999      135.506     2.298       6.178       2.792       6.987       5.877       7.725       5.971       6.519       19.01       1.029       2.12        1091.355    30.32       0.985       410.81      226.29      142.937     30.432      
112.7       22.699      134.208     2.31        5.949       2.812       6.963       5.877       7.625       5.971       6.419       19.21       1.103       2.148       1091.734    30.531      0.985       588.093     240.763     102.152     30.522      
112.8       23.933      133.951     2.326       6.065       2.835       6.914       5.877       7.525       6.071       6.319       19.391      1.16        2.16        1092.035    30.773      0.985       879.26      323.763     121.174     30.885      
112.9       24.044      134.555     2.337       6.369       2.942       7.059       5.877       7.425       6.071       6.219       19.597      1.172       2.107       1091.989    31.023      0.985       907.294     342.678     144.165     31.381      
113.0       23.768      134.4       2.33        6.656       3.048       7.18        5.877       7.425       6.271       6.219       19.744      1.13        2.054       1091.559    31.264      0.985       672.188     297.508     171.126     32.514      
113.1       23.659      134.211     2.306       6.67        2.845       7.035       5.877       7.425       6.371       6.219       19.764      1.101       2.027       1091.421    31.495      0.985       432.141     301.659     254.232     34.075      
