~Version Information Section
VERS.                                         2.0:CWLS log ASCII Standart – VERSION 2.0
WRAP.                                          NO:One line per depth step
~Well Information Section
STRT.M                                        1.2:Начальная глубина
STOP.M                                      169.7:Конечная глубина
STEP.M                                          0:Шаг квантования по глубине
NULL.                                    -9999.25:Признак "Нет данных"
WELL.                                       115Мх:Скважина
~Parameter Information Section
~Curve Information Section
DEPTH.M                                          :Глубина
BK.Ohm*M                                         :BK     (БК)
DS.mm                                            :DS  (ДС)
GGK.g/cm3                                        :GGKp
ГК.mcr/h                                         :GK          (ГК)
GZ1.Ohm*M                                        :GZ1   ГЗ1(A0.4M0.1N)
GZ2.Ohm*M                                        :GZ2   ГЗ2(A1.0M0.1N)
GZ3.Ohm*M                                        :GZ3   ГЗ3(A2.0M0.5N)
GZ4.Ohm*M                                        :GZ4   ГЗ4(A4.0M0.5N)
GZ5.Ohm*M                                        :GZ5   ГЗ5(A8.0M0.5N)
GZR.Ohm*M                                        :GZK   ГЗK(N0.5M2.0A)
ИК.Ohm*M                                         :IK
НГК.ue                                           :NGK     (НГК)
NNKM.                                            :NNKm  (ННКм)
PS.mv                                            :PS       (ПС)
PZ.Ohm*M                                         :PZ    (КС)
RS.Ohm*M                                         :RS (Резистивиметр)
U1.mV                                            :U1
U2.mV                                            :U2
U3.mV                                            :U3
КП.%                                             :Кп
~ASCII LOG DATA
# ...
126.0       15.812      134.5       2.263       7.228       3.978       7.446       6.077       5.725       4.971       5.719       14.113      1.065       1.943       1045.121    18.293      1.025       368.067     342.545     327.453     33.41       
126.1       16.293      133.977     2.268       7.652       4.732       7.446       5.877       5.525       4.871       4.719       14.085      1.047       1.938       1045.719    17.951      1.03        452.038     388.828     349.295     34.047      
126.2       16.032      133.531     2.27        7.783       4.905       7.422       5.977       5.225       4.771       4.419       14.07       1.067       1.924       1046.358    17.625      1.03        583.958     430.231     333.487     34.711      
126.3       15.776      133.906     2.266       7.826       4.93        7.446       6.177       5.025       4.771       4.319       14.034      1.101       1.933       1047.411    17.33       1.03        710.878     444.119     286.982     34.712      
126.4       15.596      133.934     2.246       7.375       4.955       7.446       4.077       4.925       4.671       4.219       14.006      1.085       1.952       1048.911    17.05       1.03        796.906     442.09      248.155     34.216      
126.5       15.382      134.413     2.246       6.834       4.669       7.495       3.977       4.825       4.571       4.219       14.043      1.038       1.946       1050.768    16.786      1.03        870.465     461.413     244.885     33.623      
126.6       15.031      134.225     2.233       6.708       4.108       7.398       3.977       4.825       4.471       4.219       14.006      0.993       1.931       1052.682    16.537      1.03        923.11      501.238     272.047     33.71       
126.7       14.791      133.506     2.239       6.921       3.01        6.431       3.777       4.725       4.171       4.219       14.027      1.029       1.942       1055.947    16.304      1.03        891.132     514.532     299.037     33.14       
126.8       14.962      134.202     2.248       7.151       2.439       5.149       3.677       4.625       4.071       4.219       14.055      1.059       1.964       1061.356    16.087      1.03        763.578     475.716     300.89      32.266      
126.9       15.346      134.108     2.265       6.852       2.348       3.674       3.577       4.525       3.971       4.219       14.055      1.125       2.001       1068.681    15.885      1.03        687.436     475.148     332.134     31.119      
127.0       15.631      132.993     2.302       6.61        2.909       3.577       3.477       4.425       3.971       4.219       14.15       1.108       2.051       1077.479    15.698      1.03        760.067     555.321     405.39      30.721      
127.1       15.417      133.709     2.324       6.32        3.919       4.134       3.477       4.425       3.871       4.219       14.272      1.112       2.053       1086.485    15.527      1.03        856.732     618.475     445.973     30.734      
127.2       15.031      133.273     2.337       6.34        5.032       4.859       3.277       4.325       3.771       4.519       14.513      1.07        2.036       1095.763    15.372      1.03        869.182     595.373     409.546     30.944      
127.3       15.631      133.674     2.325       6.405       6.371       5.125       3.277       4.325       3.871       5.919       14.776      1.083       2.008       1105.719    15.216      1.03        729.661     483.116     342.719     33.288      
127.4       17.66       133.823     2.294       6.637       7.41        5.464       3.177       4.325       4.271       6.619       15.14       1.037       1.976       1115.69     15.046      1.03        532.768     388.97      369.164     35.372      
127.5       17.338      134.123     2.257       6.874       7.746       4.665       3.077       4.325       5.171       6.719       15.426      1.031       1.915       1125.021    14.906      1.034       407.439     371.352     466.425     38.219      
127.6       17.1        135.538     2.242       6.958       9.69        6.866       2.977       4.425       5.371       7.919       15.734      1.051       1.861       1133.222    14.797      1.034       512.673     481.36      567.265     38.984      
127.7       17.258      134.196     2.25        6.789       8.795       9.139       3.077       4.725       5.971       8.119       15.979      1.091       1.945       1140.522    14.719      1.039       749.359     638.853     612.849     38.49       
127.8       14.962      132.886     2.298       5.829       6.556       9.599       3.777       8.625       7.071       7.819       16.182      1.104       2.03        1146.256    14.688      1.039       866.467     718.691     616.33      36.938      
127.9       13.002      129.903     2.342       4.751       3.914       8.728       3.977       8.125       6.371       7.719       16.365      1.123       2.196       1149.89     14.704      1.039       851.635     733.316     636.458     34.307      
128.0       12.106      127.55      2.364       3.736       2.44        7.906       5.077       8.025       6.271       7.319       16.631      1.159       2.361       1151.642    14.766      1.043       938.214     816.254     714.287     32.91       
128.1       11.143      127.439     2.371       3.556       1.884       7.422       5.777       7.925       6.171       7.119       17.098      1.17        2.485       1152.386    14.875      1.043       1248.295    1034.193    859.134     31.68       
128.2       14.289      127.28      2.368       3.555       1.748       7.108       6.677       7.625       6.071       7.019       18.012      1.135       2.606       1153.439    15.03       1.043       1557.344    1245.165    992.177     31.611      
128.3       32.734      127.094     2.339       3.817       1.685       6.987       6.577       7.625       5.971       6.919       19.189      1.09        2.592       1154.779    15.232      1.043       1680.138    1332.219    1049.013    31.733      
128.4       49.317      127.278     2.32        4.049       1.56        6.866       6.577       7.425       5.671       6.819       20.603      1.088       2.566       1155.01     15.481      1.043       1638.207    1283.816    1001.141    31.78       
128.5       60.117      127.495     2.315       4.361       1.429       6.793       6.477       7.225       5.671       6.619       21.844      1.112       2.477       1155.88     15.805      1.043       1551.991    1161.581    871.232     31.044      
128.6       63.826      127.727     2.317       4.934       1.375       6.769       6.277       7.025       5.671       6.519       22.847      1.139       2.412       1156.397    16.16       1.043       1466.687    1034.485    732.066     30.161      
128.7       66.222      128.46      2.317       5.281       1.327       6.914       6.177       7.025       5.671       6.419       23.426      1.149       2.439       1156.661    16.547      1.043       1337.053    923.885     638.105     29.509      
128.8       66.527      130.801     2.322       5.429       1.298       7.084       6.077       6.925       5.571       6.319       24.037      1.174       2.476       1156.071    16.963      1.043       1175.976    853.518     620.191     28.717      
128.9       64.121      131.675     2.333       5.13        1.226       7.083       5.977       6.825       5.671       6.219       24.316      1.189       2.572       1154.289    17.379      1.043       1036.687    817.784     645.179     26.859      
129.0       62.23       130.972     2.342       4.928       1.211       7.011       5.977       6.725       5.771       6.219       24.278      1.217       2.672       1151.213    17.794      1.043       912.617     772.161     653.282     25.085      
129.1       63.241      129.86      2.352       4.714       1.197       6.938       5.877       6.725       5.771       6.219       24.125      1.25        2.732       1147.215    18.207      1.048       758.703     681.918     615.164     24.259      
