~Version Information Section
VERS.                                         2.0:CWLS log ASCII Standart – VERSION 2.0
WRAP.                                          NO:One line per depth step
~Well Information Section
STRT.M                                        0.6:Начальная глубина
STOP.M                                      202.6:Конечная глубина
STEP.M                                          0:Шаг квантования по глубине
NULL.                                    -9999.25:Признак "Нет данных"
WELL.                                       130Мх:Скважина
~Parameter Information Section
~Curve Information Section
DEPTH.M                                          :Глубина
БК.Омм                                           :BK     (БК)
DСР.мм                                           :DS  (ДС)
W.g/cm3                                          :GGKp
ГК.гамма                                         :GK          (ГК)
А0.4М0.1N.Омм.ohmm                               :GZ1   ГЗ1(A0.4M0.1N)
А1.0М0.1N.Омм.ohmm                               :GZ2   ГЗ2(A1.0M0.1N)
А2.0М0.5N.Омм.ohmm                               :GZ3   ГЗ3(A2.0M0.5N)
А4.0М0.5N.Oмм.ohmm                               :GZ4   ГЗ4(A4.0M0.5N)
А8.0М1.0N.Омм.ohmm                               :GZ5   ГЗ5(A8.0M0.5N)
N0.5M2.0A.Омм.ohmm                               :GZK   ГЗK(N0.5M2.0A)
ИК.мСм/м                                         :IK
НГК.усл.ед                                       :NNKb  (ННКб)
ННКМ.усл.ед                                      :NNKm  (ННКм)
ПС.мВ                                            :PS       (ПС)
КС.Омм                                           :PZ    (КС)
R.Омм                                            :RS (Резистивиметр)
U1.мВ                                            :U1
U2.mV                                            :U2
U3.мВ                                            :U3
КП.%                                             :Кп
~ASCII LOG DATA
# ...
58.2        25.724      139.457     2.287       4.934       25.596      25.142      16.667      11.346      6.321       10.55       14.468      2.406       1.647       275.427     59.744      1.08        653.332     413.799     255.849     31.708      
58.3        24.162      137.25      2.283       5.005       23.99       24.46       18.274      11.166      6.321       12.537      14.213      2.365       1.599       280.346     58.504      1.08        608.69      399.543     257.359     29.649      
58.4        21.619      135.327     2.284       5.32        22.179      23.35       20.881      11.498      6.437       15.049      13.986      2.311       1.567       285.008     57.128      1.08        583.481     385.714     255.717     24.441      
58.5        19.537      136.658     2.285       5.274       19.983      22.399      23.818      12.288      6.737       17.753      13.835      2.271       1.564       289.409     55.56       1.08        573.768     388.214     263.695     20.794      
58.6        20.816      136.79      2.286       5.512       18.745      22.544      26.849      13.334      7.046       20.255      13.795      2.252       1.576       293.609     53.824      1.08        600.002     415.807     289.713     21.762      
58.7        25.73       137.082     2.297       5.39        18.963      24.211      29.61       14.253      7.19        21.969      13.809      2.305       1.612       297.648     51.952      1.08        587.007     417.848     299.382     25.87       
58.8        24.575      136.439     2.318       5.564       20.217      25.705      31.634      15.014      7.36        23.317      13.865      2.385       1.593       301.512     50.024      1.08        589.124     428.382     311.477     28.386      
58.9        20.929      135.965     2.337       5.131       21.215      25.717      32.838      15.588      7.635       24.875      13.922      2.545       1.525       305.141     48.104      1.08        627.694     448.563     323.573     26.749      
59.0        21.574      136.038     2.348       4.795       20.676      23.377      33.216      15.668      7.668       26.273      13.986      2.737       1.621       308.413     46.296      1.08        748.607     495.708     336.444     24.112      
59.1        28.352      136.454     2.356       4.339       19.12       19.74       33.216      15.443      7.668       27.2        14.11       3.048       1.827       311.162     44.664      1.08        886.315     538.336     335.59      23.57       
59.2        44.3        137.196     2.356       4.082       18.664      17.437      32.557      15.33       7.636       27.803      14.26       3.219       1.932       313.176     43.28       1.08        1064.8      626.255     370.77      24.109      
59.3        42.812      135.877     2.348       4.031       21.117      17.019      30.814      15.339      7.43        28.177      14.307      3.331       1.968       314.329     42.2        1.08        1218.912    734.904     440.028     25.044      
59.4        30.049      135.408     2.339       4.196       24.272      17.444      28.82       15.339      7.109       28.263      14.243      3.223       1.895       314.656     41.464      1.08        1316.829    849.259     542.589     27.462      
59.5        26.672      135.245     2.332       4.256       26.154      17.398      27.192      15.122      6.833       28.018      14.141      2.885       1.789       314.656     41.032      1.08        1306.676    909.419     631.049     29.514      
59.6        31.471      135.077     2.321       4.002       25.78       16.098      25.284      14.597      6.694       27.217      14.065      2.859       1.84        314.656     40.92       1.08        1246.715    923.985     680.307     32.03       
59.7        43.205      134.988     2.304       3.873       23.665      14.659      22.956      13.942      6.726       25.799      14.012      2.95        1.928       314.269     40.92       1.08        1275.989    899.104     693.947     33.092      
59.8        46.494      134.691     2.291       3.689       21.544      13.991      20.91       13.421      6.726       23.928      13.898      2.914       1.875       313.312     40.92       1.08        1337.636    835.84      668.955     30.777      
59.9        35.039      134.917     2.279       4.118       20.531      14.188      19.028      13.246      6.726       22.127      13.676      2.778       1.794       311.984     40.92       1.08        1423.033    755.79      610.66      28.08       
60.0        29.714      135.631     2.269       4.236       20.622      14.883      17.157      13.246      6.766       20.454      13.332      2.697       1.722       310.438     40.92       1.08        1527.334    685.208     600.903     26.237      
60.1        26.377      135.993     2.265       4.957       21.294      15.718      15.529      13.246      7.04        18.893      12.941      2.57        1.65        308.722     41.112      1.08        1639.638    634.697     605.687     28.168      
60.2        24.48       135.55      2.267       4.835       21.056      16.215      14.417      13.305      7.125       17.843      12.61       2.498       1.617       306.852     41.584      1.08        1679.638    611.308     564.694     33.047      
60.3        23.178      134.288     2.275       5.095       19.655      16.01       13.899      13.359      7.148       17.02       12.389      2.388       1.598       304.838     42.296      1.08        1584.807    605.571     527.938     35.972      
60.4        22.824      134.902     2.287       4.764       18.417      15.508      13.625      13.203      7.172       16.073      12.292      2.391       1.613       302.663     43.224      1.08        1485.973    602.919     482.315     36.329      
60.5        23.288      135.891     2.298       4.733       17.183      15.148      13.309      13.015      7.291       14.901      12.294      2.444       1.632       300.289     44.264      1.08        1424.69     602.372     377.638     33.762      
60.6        26.324      138.403     2.302       4.482       16.016      15.085      12.916      12.826      7.212       13.343      12.332      2.449       1.693       297.632     45.344      1.08        1398.758    603.303     287.133     33.078      
60.7        30.865      140.826     2.297       4.665       14.873      14.956      12.395      12.315      6.949       11.812      12.347      2.429       1.751       294.617     46.376      1.08        1367.223    616.044     273.151     33.888      
60.8        23.894      147.327     2.281       4.829       13.789      14.472      11.758      11.457      6.506       10.788      12.306      2.283       1.626       291.19      47.304      1.08        1456.999    653.608     288.972     33.961      
60.9        19.022      149.326     2.266       4.969       12.893      13.511      11.028      10.19       6.168       10.365      12.238      2.108       1.482       287.38      48.144      1.08        1518.052    735.797     374.572     33.874      
61.0        17.784      140.319     2.263       5.331       12.292      12.298      10.363      8.695       5.858       10.313      12.195      1.992       1.425       283.272     48.936      1.08        1485.265    847.864     533.606     34.533      
61.1        17.499      137.791     2.269       5.606       11.934      11.488      10.096      7.613       5.858       10.313      12.277      1.854       1.393       279.022     49.712      1.08        1409.12     959.893     716.657     32.965      
61.2        17.234      136.557     2.279       5.499       11.607      11.112      10.094      7.223       5.858       10.313      12.52       1.999       1.42        274.786     50.528      1.08        1355.742    1081.095    905.535     28.998      
61.3        17.136      134.725     2.291       5.501       11.312      10.818      10.094      7.188       5.911       10.535      12.867      2.156       1.45        270.723     51.432      1.08        1408.007    1223.513    1041.226    23.65       
