~Version Information Section
VERS.                                         2.0:CWLS log ASCII Standart – VERSION 2.0
WRAP.                                          NO:One line per depth step
~Well Information Section
STRT.M                                        1.0:Начальная глубина
STOP.M                                      203.4:Конечная глубина
STEP.M                                          0:Шаг квантования по глубине
NULL.                                    -9999.25:Признак "Нет данных"
WELL.                                         3Мх:Скважина
~Parameter Information Section
~Curve Information Section
DEPTH.M                                          :Глубина
BK.Ohm*M                                         :BK
DS.mm                                            :DS  (ДС)
ГК.mcr/h                                         :GK          (ГК)
GZ1.Ohm*M                                        :GZ1   ГЗ1(A0.4M0.1N)
GZ2.Ohm*M                                        :GZ2   ГЗ2(A1.0M0.1N)
GZ3.Ohm*M                                        :GZ3   ГЗ3(A2.0M0.5N)
GZ4.Ohm*M                                        :GZ4   ГЗ4(A4.0M0.5N)
GZ5.Ohm*M                                        :GZ5   ГЗ5(A8.0M0.5N)
U2.mV                                            :U2
U3.mV                                            :U3
W.                                               :W
КП.%                                             :Кп
НГК.усл.ед                                       :ННКб
ННКМ.усл.ед                                      :ННКм
GZR.Ohm*M                                        :GZK   ГЗK(N0.5M2.0A)
ИК.Ohm*M                                         :IK
PS.mv                                            :PS       (ПС)
PZ.Ohm*M                                         :PZ    (КС)
RS.Ohm*M                                         :RS (Резистивиметр)
U1.mV                                            :U1
~ASCII LOG DATA
# ...
157.8       19.364      160.369     6.426       6.556       9.599       3.777       8.625       7.071       568.344     404.74      2.407       38.501      2.968       1.983       7.819       17.938      238.658     22.471      1.016       805.089     
157.9       19.861      160.661     6.249       3.914       8.728       3.977       8.125       6.371       548.176     397.842     2.407       38.114      3.019       1.992       7.719       17.872      238.803     22.471      1.016       785.905     
158.0       20.512      160.556     6.296       2.44        7.906       5.077       8.025       6.271       489.758     388.662     2.399       38.365      3.038       2.025       7.319       17.823      239.542     22.471      1.016       695.221     
158.1       21.577      160.749     6.455       1.884       7.422       5.777       7.925       6.171       439.177     411.397     2.384       38.843      3.051       2.064       7.119       17.799      239.829     22.262      1.016       583.824     
158.2       22.182      160.712     6.712       1.748       7.108       6.677       7.625       6.071       441.854     469.749     2.412       38.828      3.144       2.1         7.019       17.735      239.826     21.635      1.016       532.466     
158.3       21.281      160.954     6.856       1.685       6.987       6.577       7.625       5.971       508.008     538.424     2.432       37.197      3.205       2.148       6.919       17.716      239.637     20.591      1.016       583.415     
158.4       21.878      160.8       7.098       1.56        6.866       6.577       7.425       5.671       602.366     589.846     2.448       35.26       3.454       2.159       6.819       17.595      239.3       19.547      1.016       696.152     
158.5       23.714      160.635     7.2         1.429       6.793       6.477       7.225       5.671       688.672     625.463     2.47        33.639      3.517       2.148       6.619       17.533      238.707     18.92       1.016       805.813     
158.6       25.942      161.034     7.211       1.375       6.769       6.277       7.025       5.671       771.43      671.397     2.49        33.735      3.238       2.077       6.519       17.401      237.946     18.711      1.016       906.878     
158.7       27.227      161.444     7.078       1.327       6.914       6.177       7.025       5.671       883.077     749.176     2.477       35.543      3.098       1.973       6.419       17.317      237.373     18.711      1.016       1048.707    
158.8       21.135      161.699     6.992       1.298       7.084       6.077       6.925       5.571       1032.317    852.858     2.449       37.443      2.849       1.928       6.319       17.239      236.751     18.711      1.016       1251.954    
158.9       17.906      161.663     7.103       1.226       7.083       5.977       6.825       5.671       1174.26     945.358     2.426       40.422      2.786       1.914       6.219       17.124      235.762     18.711      1.016       1456.139    
159.0       17.418      161.364     7.241       1.211       7.011       5.977       6.725       5.771       1250.045    984.894     2.396       42.488      2.633       1.915       6.219       16.967      234.991     18.502      1.021       1581.314    
159.1       16.482      161.589     7.246       1.197       6.938       5.877       6.725       5.771       1235.414    952.021     2.381       43.092      2.582       1.92        6.219       16.721      234.619     18.084      1.021       1600.327    
159.2       15.776      161.542     7.12        1.211       6.89        5.777       6.725       5.771       1153.046    863.021     2.374       42.2        2.727       1.924       6.119       16.394      235.485     17.458      1.021       1542.547    
159.3       15.668      161.235     7.019       1.192       6.793       5.677       6.825       5.671       1045.753    759.585     2.359       39.95       2.763       1.928       6.119       16.052      236.999     17.04       1.021       1443.599    
159.4       16.788      161.404     7.071       1.197       6.745       5.577       6.925       5.671       947.449     681.697     2.356       38.804      2.957       1.95        6.019       15.815      238.563     16.831      1.021       1320.572    
159.5       17.1        161.499     6.998       1.197       6.673       5.477       6.925       5.571       872.279     645.832     2.374       38.871      2.98        1.979       5.919       15.47       238.951     16.831      1.021       1183.848    
159.6       15.959      161.418     6.806       1.177       6.624       5.377       6.925       5.471       812.28      637.306     2.385       39.713      2.903       2.01        5.919       15.256      237.386     16.831      1.021       1042.56     
159.7       16.827      161.365     6.529       1.173       6.6         5.377       6.925       5.471       745.231     625.021     2.399       40.261      2.892       2.022       5.919       15.057      233.473     16.831      1.021       895.827     
159.8       18.365      161.304     6.454       1.168       6.552       5.277       6.925       5.471       662.226     591.181     2.425       39.442      2.87        1.99        5.819       14.935      226.275     16.831      1.021       749.496     
159.9       18.197      161.467     6.493       1.192       6.503       5.277       6.925       5.471       585.626     546.508     2.446       38.562      2.929       1.969       5.719       14.847      215.999     16.831      1.021       637.451     
160.0       17.579      161.846     6.553       1.206       6.479       5.277       6.825       5.371       559.145     521.163     2.448       37.604      2.958       1.968       5.719       14.808      203.865     16.622      1.021       614.431     
160.1       16.672      161.66      6.537       1.231       6.455       5.277       6.825       5.371       595.887     527.711     2.448       37.178      2.977       1.956       5.719       14.651      192.713     15.995      1.025       690.491     
160.2       15.776      161.875     6.597       1.308       6.431       5.277       6.725       5.271       658.877     546.267     2.445       37.605      2.955       1.943       5.519       14.581      183.893     14.951      1.025       808.458     
160.3       15.311      161.83      6.811       1.313       6.479       5.277       6.725       5.271       696.46      545.202     2.441       37.944      2.842       1.937       5.519       14.467      177.95      13.907      1.03        897.395     
160.4       15.812      161.625     7.068       1.298       6.455       5.277       6.725       5.371       693.224     514.36      2.444       37.733      2.903       1.931       5.519       14.332      175.187     13.28       1.03        940.911     
160.5       16.293      161.698     7.219       1.288       6.479       5.277       6.725       5.371       672.065     470.368     2.448       37.392      2.963       1.927       5.519       14.2        176.508     13.071      1.03        968.438     
160.6       16.032      161.7       7.17        1.313       6.455       5.477       6.725       5.411       653.486     433.434     2.443       37.845      2.907       1.934       5.519       14.178      181.453     13.071      1.03        991.22      
160.7       15.776      161.993     7.111       1.337       6.479       5.577       6.725       5.411       635.934     408.898     2.442       39.437      2.864       1.945       5.519       14.113      187.246     13.071      1.03        989.874     
160.8       15.596      161.859     7.054       1.366       6.479       5.677       6.725       5.411       608.618     389.721     2.439       40.032      2.763       1.948       5.519       14.085      191.251     13.071      1.03        947.932     
160.9       15.382      161.864     7.088       1.375       6.503       5.777       6.825       5.471       567.559     365.62      2.419       39.391      2.825       1.947       5.419       14.07       192.53      13.071      1.03        877.241     
