~Version Information Section
VERS.                                         2.0:CWLS log ASCII Standart – VERSION 2.0
WRAP.                                          NO:One line per depth step
~Well Information Section
STRT.M                                        0.0:Начальная глубина
STOP.M                                      208.6:Конечная глубина
STEP.M                                          0:Шаг квантования по глубине
NULL.                                    -9999.25:Признак "Нет данных"
WELL.                                       140Мх:Скважина
~Parameter Information Section
~Curve Information Section
DEPTH.M                                          :Глубина
GZ1.ohmm                                         :Подошвенный градиент-зонд А0.4М0.1N
GZ2.ohmm                                         :Подошвенный градиент-зонд А1.0М0.1N
GZ3.ohmm                                         :Подошвенный градиент-зонд А2.0М0.5N
GZ5.ohmm                                         :Подошвенный градиент-зонд А8.0М1.0N
GZ3R.GZ3R                                        :GZ3R
GZ4.ohmm                                         :Подошвенный градиент-зонд А4.0М0.5N
GGK.g/cc                                         :Плотностной гамма-гамма каротаж
ГК.ur/h                                          :Гамма каротаж
ИК.ohmm                                          :Индукционный каротаж (сопротивление),
BK.ohmm                                          :Боковой каротаж
NKTS.ue                                          :Нейтронный каротаж по тепловым нейтронам (малый зонд)
WNK.De                                           :Водородосодержание по НК
НГК.ue                                           :Нейтронный каротаж по тепловым нейтронам (большой зонд)
PZ.ohmm                                          :Потенциал-зонд ИММ 0,5А; В4 0,25М
-.                                               :-      SP mv)
DS1.m                                            :Профиль 1 сечения ствола скважины по профилеметрии
DS.m                                             :Кавернометрия
DS2.m                                            :Профиль 2 сечения ствола скважины по профилеметрии
~ASCII LOG DATA
# ...
163.0       -9999.25    -9999.25    -9999.25    -9999.25    -9999.25    -9999.25    2.536       6.709       13.447      53.276      1.996       24.702      3.665       85.822      3309.422    0.153       0.149       0.146       
163.1       83.66       30.727      18.337      43.878      11.954      19.472      -9999.25    -9999.25    -9999.25    -9999.25    -9999.25    -9999.25    -9999.25    -9999.25    -9999.25    -9999.25    -9999.25    -9999.25    
163.2       -9999.25    -9999.25    -9999.25    -9999.25    -9999.25    -9999.25    2.567       8.543       12.896      157.428     2.02        25.189      3.709       95.243      3291.125    0.153       0.149       0.146       
163.3       86.48       45.298      25.982      67.003      20.163      30.662      -9999.25    -9999.25    -9999.25    -9999.25    -9999.25    -9999.25    -9999.25    -9999.25    -9999.25    -9999.25    -9999.25    -9999.25    
163.4       -9999.25    -9999.25    -9999.25    -9999.25    -9999.25    -9999.25    2.64        10.038      12.227      91.614      2.044       24.738      4.0         109.053     3282.086    0.153       0.149       0.145       
163.5       71.099      64.917      37.248      109.001     29.259      47.119      -9999.25    -9999.25    -9999.25    -9999.25    -9999.25    -9999.25    -9999.25    -9999.25    -9999.25    -9999.25    -9999.25    -9999.25    
163.6       -9999.25    -9999.25    -9999.25    -9999.25    -9999.25    -9999.25    2.672       8.43        11.54       141.131     2.237       24.462      4.381       105.96      3288.868    0.153       0.149       0.146       
163.7       103.666     99.917      56.36       167.565     41.481      74.356      -9999.25    -9999.25    -9999.25    -9999.25    -9999.25    -9999.25    -9999.25    -9999.25    -9999.25    -9999.25    -9999.25    -9999.25    
163.8       -9999.25    -9999.25    -9999.25    -9999.25    -9999.25    -9999.25    2.667       8.153       10.735      138.499     2.194       20.472      3.869       68.21       3307.929    0.154       0.15        0.146       
163.9       112.968     115.162     85.945      207.233     58.931      120.524     -9999.25    -9999.25    -9999.25    -9999.25    -9999.25    -9999.25    -9999.25    -9999.25    -9999.25    -9999.25    -9999.25    -9999.25    
164.0       -9999.25    -9999.25    -9999.25    -9999.25    -9999.25    -9999.25    2.562       9.099       9.837       26.516      1.756       23.287      2.769       26.768      3330.661    0.155       0.151       0.147       
164.1       152.537     172.935     119.261     201.668     70.987      167.091     -9999.25    -9999.25    -9999.25    -9999.25    -9999.25    -9999.25    -9999.25    -9999.25    -9999.25    -9999.25    -9999.25    -9999.25    
164.2       -9999.25    -9999.25    -9999.25    -9999.25    -9999.25    -9999.25    2.512       10.311      8.957       13.389      1.567       28.917      2.474       22.784      3341.956    0.155       0.151       0.147       
164.3       203.169     218.188     115.22      178.393     57.497      154.978     -9999.25    -9999.25    -9999.25    -9999.25    -9999.25    -9999.25    -9999.25    -9999.25    -9999.25    -9999.25    -9999.25    -9999.25    
164.4       -9999.25    -9999.25    -9999.25    -9999.25    -9999.25    -9999.25    2.495       10.361      8.424       12.391      1.579       34.863      2.106       24.38       3339.423    0.153       0.15        0.146       
164.5       103.013     110.446     71.261      138.693     30.008      81.96       -9999.25    -9999.25    -9999.25    -9999.25    -9999.25    -9999.25    -9999.25    -9999.25    -9999.25    -9999.25    -9999.25    -9999.25    
164.6       -9999.25    -9999.25    -9999.25    -9999.25    -9999.25    -9999.25    2.436       10.131      8.182       14.923      1.607       42.025      1.986       20.673      3330.164    0.155       0.151       0.147       
164.7       43.658      36.694      24.208      69.693      11.549      22.382      -9999.25    -9999.25    -9999.25    -9999.25    -9999.25    -9999.25    -9999.25    -9999.25    -9999.25    -9999.25    -9999.25    -9999.25    
164.8       -9999.25    -9999.25    -9999.25    -9999.25    -9999.25    -9999.25    2.412       9.677       8.098       13.036      1.503       35.815      2.278       18.901      3327.236    0.155       0.151       0.148       
164.9       29.177      22.734      9.425       19.772      9.039       6.671       -9999.25    -9999.25    -9999.25    -9999.25    -9999.25    -9999.25    -9999.25    -9999.25    -9999.25    -9999.25    -9999.25    -9999.25    
165.0       -9999.25    -9999.25    -9999.25    -9999.25    -9999.25    -9999.25    2.435       9.825       8.033       14.185      1.506       30.509      2.296       18.631      3326.986    0.155       0.151       0.148       
165.1       26.157      21.541      6.098       7.893       9.571       3.893       -9999.25    -9999.25    -9999.25    -9999.25    -9999.25    -9999.25    -9999.25    -9999.25    -9999.25    -9999.25    -9999.25    -9999.25    
165.2       -9999.25    -9999.25    -9999.25    -9999.25    -9999.25    -9999.25    2.47        10.377      8.033       14.51       1.47        34.341      2.065       18.199      3321.25     0.155       0.152       0.148       
165.3       21.246      18.948      4.972       5.176       10.162      3.018       -9999.25    -9999.25    -9999.25    -9999.25    -9999.25    -9999.25    -9999.25    -9999.25    -9999.25    -9999.25    -9999.25    -9999.25    
165.4       -9999.25    -9999.25    -9999.25    -9999.25    -9999.25    -9999.25    2.427       10.109      8.036       14.488      1.437       33.234      2.201       18.04       3313.617    0.155       0.151       0.148       
165.5       22.183      20.827      4.617       4.522       10.511      2.442       -9999.25    -9999.25    -9999.25    -9999.25    -9999.25    -9999.25    -9999.25    -9999.25    -9999.25    -9999.25    -9999.25    -9999.25    
165.6       -9999.25    -9999.25    -9999.25    -9999.25    -9999.25    -9999.25    2.428       9.775       8.062       14.833      1.472       33.962      2.149       18.037      3307.476    0.154       0.151       0.148       
165.7       21.448      17.387      5.326       4.049       11.118      2.259       -9999.25    -9999.25    -9999.25    -9999.25    -9999.25    -9999.25    -9999.25    -9999.25    -9999.25    -9999.25    -9999.25    -9999.25    
165.8       -9999.25    -9999.25    -9999.25    -9999.25    -9999.25    -9999.25    2.494       9.293       8.095       14.986      1.513       34.717      2.205       18.15       3303.065    0.154       0.151       0.148       
165.9       21.77       15.695      6.217       4.055       11.651      2.109       -9999.25    -9999.25    -9999.25    -9999.25    -9999.25    -9999.25    -9999.25    -9999.25    -9999.25    -9999.25    -9999.25    -9999.25    
166.0       -9999.25    -9999.25    -9999.25    -9999.25    -9999.25    -9999.25    2.47        9.661       8.121       16.348      1.523       33.89       2.217       17.529      3303.936    0.155       0.151       0.148       
166.1       21.664      15.245      8.115       3.923       12.325      2.1         -9999.25    -9999.25    -9999.25    -9999.25    -9999.25    -9999.25    -9999.25    -9999.25    -9999.25    -9999.25    -9999.25    -9999.25    
166.2       -9999.25    -9999.25    -9999.25    -9999.25    -9999.25    -9999.25    2.45        9.621       8.11        14.135      1.479       34.195      2.076       17.467      3308.908    0.155       0.151       0.148       
166.3       21.978      15.41       11.269      3.634       13.25       2.233       -9999.25    -9999.25    -9999.25    -9999.25    -9999.25    -9999.25    -9999.25    -9999.25    -9999.25    -9999.25    -9999.25    -9999.25    
166.4       -9999.25    -9999.25    -9999.25    -9999.25    -9999.25    -9999.25    2.453       9.696       8.121       15.215      1.483       39.159      1.966       18.029      3312.126    0.155       0.151       0.147       
