~Version Information Section
VERS.                                         2.0:CWLS log ASCII Standart – VERSION 2.0
WRAP.                                          NO:One line per depth step
~Well Information Section
STRT.M                                        0.7:Начальная глубина
STOP.M                                      200.1:Конечная глубина
STEP.M                                          0:Шаг квантования по глубине
NULL.                                    -9999.25:Признак "Нет данных"
WELL.                                       111Мх:Скважина
~Parameter Information Section
~Curve Information Section
DEPTH.M                                          :Глубина
DСР.mm                                           :Dср
ГК.1/min                                         :GK
ИК.mSim/m                                        :IK
N0.5M2.0A.Омм                                    :N0
НГК.усл.ед                                       :NGK
PZ.Ohm*M                                         :PZ
R.Ohm*M                                          :R
PS.mV                                            :ПС
U1.mV                                            :U1
U2.                                              :U2
U3.mV                                            :U3
А0.4М0.1N.Омм                                    :А0
А1.0М0.1N.Омм                                    :А1
А2.0М0.5N.Омм                                    :А2
А4.0М0.5N.Oмм                                    :А4
А8.0М1.0N.Омм                                    :А8
BK.Ohm*M                                         :БК
ГГК.1/min                                        :ГГК
КП.%                                             :Кп
ННКМ.усл.ед                                      :ННКм
~ASCII LOG DATA
# ...
135.1       132.061     3.84        34.72       73.733      1.387       111.0       1.06        274.613     1139.999    1375.999    1236.0      144.046     69.611      68.743      38.017      14.983      181.089     2.343       24.493      2.778       
135.2       131.846     3.994       35.209      67.863      1.424       111.0       1.06        275.229     1120.001    1370.0      1236.0      159.383     70.707      68.743      39.758      14.32       141.649     2.356       23.774      2.716       
135.3       130.74      4.07        35.333      60.691      1.653       111.0       1.06        276.091     1103.999    1368.0      1238.0      164.511     70.707      67.347      39.944      13.653      142.021     2.359       23.517      2.64        
135.4       130.038     4.685       35.253      54.757      1.68        111.0       1.06        277.2       1088.001    1370.0      1242.0      164.511     69.71       63.146      39.944      13.053      139.819     2.355       23.27       2.561       
135.5       131.542     4.685       34.984      50.781      1.673       111.0       1.06        278.062     1078.0      1375.0      1248.0      157.598     68.204      57.932      40.095      12.552      104.815     2.341       24.436      2.462       
135.6       132.213     4.013       34.459      48.624      1.771       111.0       1.06        278.555     1072.0      1380.0      1256.001    138.956     67.696      54.243      40.324      12.198      66.057      2.319       25.653      2.354       
135.7       132.072     4.08        33.765      47.827      1.836       110.6       1.06        278.555     1080.0      1387.0      1266.0      116.335     68.254      52.447      40.463      11.983      48.782      2.295       27.039      2.226       
135.8       132.117     4.416       33.031      47.181      1.899       107.8       1.06        278.555     1092.0      1392.0      1276.0      100.419     69.478      51.916      40.525      11.847      47.617      2.272       28.216      2.142       
135.9       131.464     4.954       32.283      46.249      1.898       105.4       1.06        278.555     1109.999    1396.0      1284.0      94.093      70.144      51.65       40.669      11.768      58.038      2.255       28.674      2.107       
136.0       130.524     5.491       31.617      45.14       1.867       103.3       1.06        278.062     1128.0      1404.0      1288.0      88.621      70.167      50.902      41.249      11.745      81.255      2.239       29.218      2.1         
136.1       130.696     5.043       31.217      43.618      1.872       101.6       1.06        276.83      1146.001    1411.0      1277.999    80.12       69.408      49.591      41.965      11.745      102.938     2.237       29.961      2.151       
136.2       130.627     4.954       31.033      41.482      1.712       100.2       1.06        275.229     1152.0      1415.0      1262.001    74.43       68.311      48.592      42.609      11.778      108.556     2.234       30.129      2.2         
136.3       131.208     4.666       30.9        38.454      1.608       99.0        1.06        273.134     1150.0      1419.0      1243.999    71.63       67.998      48.407      43.138      11.9        92.937      2.235       30.087      2.179       
136.4       131.35      4.595       30.677      34.507      1.481       98.1        1.06        270.794     1136.001    1423.0      1226.001    69.544      67.998      48.322      43.341      12.174      66.922      2.236       30.001      2.173       
136.5       131.066     4.243       30.254      30.735      1.563       97.6        1.06        268.206     1118.0      1423.0      1206.0      68.152      68.379      47.997      43.139      12.629      52.778      2.239       30.225      2.207       
136.6       131.155     4.525       29.561      28.018      1.512       97.2        1.06        265.989     1099.999    1423.0      1194.0      66.604      68.742      47.231      42.026      13.21       48.907      2.242       31.183      2.176       
136.7       131.628     5.088       28.694      26.282      1.432       96.8        1.06        264.141     1082.0      1422.0      1186.0      63.347      66.965      46.705      39.967      13.82       46.529      2.245       32.038      2.068       
136.8       132.489     5.101       27.864      25.402      1.392       96.4        1.06        262.909     1070.0      1418.0      1180.0      59.507      62.97       46.705      38.028      14.366      44.317      2.25        32.387      1.995       
136.9       132.23      5.107       27.06       25.078      1.378       96.0        1.06        262.17      1074.0      1412.0      1186.0      56.813      58.886      46.415      36.809      14.851      48.239      2.257       32.816      1.965       
137.0       132.251     6.003       26.293      24.764      1.611       95.8        1.06        261.923     1078.0      1406.0      1198.0      55.132      56.237      45.699      35.852      15.306      60.277      2.262       33.268      1.998       
137.1       132.618     5.99        25.739      24.111      1.467       95.5        1.06        261.8       1078.0      1402.0      1216.002    53.829      54.815      44.905      34.758      15.615      64.211      2.272       33.27       2.041       
137.2       133.457     4.838       25.383      23.398      1.416       95.2        1.06        261.8       1072.0      1403.0      1237.999    52.031      53.218      44.536      33.29       15.705      54.472      2.277       32.985      2.057       
137.3       133.88      5.27        25.162      22.927      1.388       94.9        1.06        261.8       1061.999    1409.0      1260.0      50.28       51.289      44.536      31.518      15.682      47.727      2.278       32.451      2.07        
137.4       132.72      5.702       25.032      22.769      1.486       93.2        1.06        261.8       1038.002    1416.999    1271.999    48.419      48.863      44.407      29.625      15.606      47.988      2.279       31.92       2.059       
137.5       132.021     5.536       24.81       22.769      1.508       91.3        1.06        261.8       1014.0      1425.0      1280.0      46.503      45.785      44.524      28.244      15.394      44.949      2.28        31.979      2.062       
137.6       132.732     5.453       24.472      22.784      1.419       88.5        1.06        261.8       991.999     1427.0      1282.0      45.009      43.473      44.957      27.847      14.906      38.233      2.286       32.039      2.089       
137.7       132.528     5.629       24.139      22.996      1.496       85.4        1.06        261.8       974.001     1422.172    1280.0      44.458      42.764      45.143      27.847      14.045      35.688      2.288       32.115      2.046       
137.8       132.471     5.664       23.807      24.087      1.464       82.2        1.06        261.923     958.0       1411.344    1272.0      45.089      43.366      45.143      27.847      12.918      38.199      2.29        32.287      1.978       
137.9       133.036     6.509       23.51       26.338      1.419       79.0        1.06        262.293     946.001     1396.635    1262.001    45.381      42.963      45.999      28.227      11.749      41.912      2.293       32.551      1.998       
138.0       132.989     6.182       23.356      29.124      1.656       76.1        1.06        263.155     940.0       1382.095    1246.0      45.042      41.958      48.139      29.451      10.704      45.49       2.293       32.489      2.039       
138.1       132.288     5.53        23.338      32.156      1.319       73.4        1.06        264.51      936.0       1370.581    1231.999    45.065      43.044      51.049      30.95       9.907       50.22       2.296       32.27       2.1         
138.2       132.382     5.251       23.348      35.089      1.472       70.8        1.06        266.605     944.0       1354.599    1214.0      45.481      44.377      54.431      32.376      9.461       51.42       2.302       32.056      2.171       
