~Version Information Section
VERS.                                         2.0:CWLS log ASCII Standart – VERSION 2.0
WRAP.                                          NO:One line per depth step
~Well Information Section
STRT.M                                        0.0:Начальная глубина
STOP.M                                      208.6:Конечная глубина
STEP.M                                          0:Шаг квантования по глубине
NULL.                                    -9999.25:Признак "Нет данных"
WELL.                                       140Мх:Скважина
~Parameter Information Section
~Curve Information Section
DEPTH.M                                          :Глубина
GZ1.ohmm                                         :Подошвенный градиент-зонд А0.4М0.1N
GZ2.ohmm                                         :Подошвенный градиент-зонд А1.0М0.1N
GZ3.ohmm                                         :Подошвенный градиент-зонд А2.0М0.5N
GZ5.ohmm                                         :Подошвенный градиент-зонд А8.0М1.0N
GZ3R.GZ3R                                        :GZ3R
GZ4.ohmm                                         :Подошвенный градиент-зонд А4.0М0.5N
GGK.g/cc                                         :Плотностной гамма-гамма каротаж
ГК.ur/h                                          :Гамма каротаж
ИК.ohmm                                          :Индукционный каротаж (сопротивление),
BK.ohmm                                          :Боковой каротаж
NKTS.ue                                          :Нейтронный каротаж по тепловым нейтронам (малый зонд)
WNK.De                                           :Водородосодержание по НК
НГК.ue                                           :Нейтронный каротаж по тепловым нейтронам (большой зонд)
PZ.ohmm                                          :Потенциал-зонд ИММ 0,5А; В4 0,25М
-.                                               :-      SP mv)
DS1.m                                            :Профиль 1 сечения ствола скважины по профилеметрии
DS.m                                             :Кавернометрия
DS2.m                                            :Профиль 2 сечения ствола скважины по профилеметрии
~ASCII LOG DATA
# ...
23.0        -9999.25    -9999.25    -9999.25    -9999.25    -9999.25    -9999.25    2.375       8.522       12.487      112.338     3.746       0.141       20.906      10712.117   -824.456    0.158       0.154       0.151       
23.1        66.237      398.471     14375.857   132.201     10617.571   15722.653   -9999.25    -9999.25    -9999.25    -9999.25    -9999.25    -9999.25    -9999.25    -9999.25    -9999.25    -9999.25    -9999.25    -9999.25    
23.2        -9999.25    -9999.25    -9999.25    -9999.25    -9999.25    -9999.25    2.298       7.025       12.612      3962.496    3.647       -1.572      20.336      9252.198    -892.088    0.158       0.155       0.151       
23.3        64.724      383.484     17984.389   134.613     28140.436   47501.211   -9999.25    -9999.25    -9999.25    -9999.25    -9999.25    -9999.25    -9999.25    -9999.25    -9999.25    -9999.25    -9999.25    -9999.25    
23.4        -9999.25    -9999.25    -9999.25    -9999.25    -9999.25    -9999.25    2.284       7.713       12.525      15997.357   3.442       -0.458      17.968      5127.284    -987.684    0.158       0.155       0.152       
23.5        64.543      381.609     17201.473   156.432     11738.025   12327.468   -9999.25    -9999.25    -9999.25    -9999.25    -9999.25    -9999.25    -9999.25    -9999.25    -9999.25    -9999.25    -9999.25    -9999.25    
23.6        -9999.25    -9999.25    -9999.25    -9999.25    -9999.25    -9999.25    2.267       8.781       11.994      4267.734    3.438       0.209       17.536      4777.348    -905.315    0.158       0.155       0.152       
23.7        64.543      384.674     22955.307   292.23      11908.64    15226.415   -9999.25    -9999.25    -9999.25    -9999.25    -9999.25    -9999.25    -9999.25    -9999.25    -9999.25    -9999.25    -9999.25    -9999.25    
23.8        -9999.25    -9999.25    -9999.25    -9999.25    -9999.25    -9999.25    2.282       9.536       11.563      201.201     3.279       -0.034      17.256      7629.06     -909.961    0.158       0.155       0.152       
23.9        64.691      385.214     11181.976   205.351     104272.727  310857.156  -9999.25    -9999.25    -9999.25    -9999.25    -9999.25    -9999.25    -9999.25    -9999.25    -9999.25    -9999.25    -9999.25    -9999.25    
24.0        -9999.25    -9999.25    -9999.25    -9999.25    -9999.25    -9999.25    2.328       10.117      11.438      5675805.0   3.34        0.477       16.942      2780.297    -892.686    0.159       0.156       0.153       
24.1        64.683      384.567     305348.5    372.683     101645.836  316187.5    -9999.25    -9999.25    -9999.25    -9999.25    -9999.25    -9999.25    -9999.25    -9999.25    -9999.25    -9999.25    -9999.25    -9999.25    
24.2        -9999.25    -9999.25    -9999.25    -9999.25    -9999.25    -9999.25    2.427       10.113      11.426      24258.789   3.356       0.687       17.713      3636.905    -734.038    0.158       0.155       0.153       
24.3        1531.838    385.853     135409.391  292.894     100860.758  310354.438  -9999.25    -9999.25    -9999.25    -9999.25    -9999.25    -9999.25    -9999.25    -9999.25    -9999.25    -9999.25    -9999.25    -9999.25    
24.4        -9999.25    -9999.25    -9999.25    -9999.25    -9999.25    -9999.25    2.437       8.627       11.431      15945.195   3.494       0.08        20.686      4704.376    -494.68     0.157       0.154       0.151       
24.5        1004.498    386.666     301880.938  226.768     73555.555   223277.781  -9999.25    -9999.25    -9999.25    -9999.25    -9999.25    -9999.25    -9999.25    -9999.25    -9999.25    -9999.25    -9999.25    -9999.25    
24.6        -9999.25    -9999.25    -9999.25    -9999.25    -9999.25    -9999.25    2.388       6.23        11.949      -81555536.0 3.835       -0.591      21.913      2275.615    -192.017    0.159       0.156       0.152       
24.7        599.327     386.859     143528.172  121.319     45301.676   132865.922  -9999.25    -9999.25    -9999.25    -9999.25    -9999.25    -9999.25    -9999.25    -9999.25    -9999.25    -9999.25    -9999.25    -9999.25    
24.8        -9999.25    -9999.25    -9999.25    -9999.25    -9999.25    -9999.25    2.382       4.891       12.855      163.032     4.066       0.103       21.929      558.375     19.837      0.16        0.156       0.153       
24.9        810.811     9475.428    23799.635   350.216     51134.145   120890.242  -9999.25    -9999.25    -9999.25    -9999.25    -9999.25    -9999.25    -9999.25    -9999.25    -9999.25    -9999.25    -9999.25    -9999.25    
25.0        -9999.25    -9999.25    -9999.25    -9999.25    -9999.25    -9999.25    2.358       5.425       13.611      194.26      4.242       -0.262      23.406      84.593      267.3       0.162       0.158       0.154       
25.1        1545.712    6383.266    83160.641   184.724     42468.422   129163.156  -9999.25    -9999.25    -9999.25    -9999.25    -9999.25    -9999.25    -9999.25    -9999.25    -9999.25    -9999.25    -9999.25    -9999.25    
25.2        -9999.25    -9999.25    -9999.25    -9999.25    -9999.25    -9999.25    2.395       5.594       13.773      176.774     4.105       -1.198      23.023      618.368     453.966     0.16        0.157       0.153       
25.3        833.697     3710.235    27820.24    114.027     120454.547  137969.703  -9999.25    -9999.25    -9999.25    -9999.25    -9999.25    -9999.25    -9999.25    -9999.25    -9999.25    -9999.25    -9999.25    -9999.25    
25.4        -9999.25    -9999.25    -9999.25    -9999.25    -9999.25    -9999.25    2.499       5.653       13.583      5217.614    3.942       -1.366      24.567      16648.855   484.572     0.159       0.156       0.152       
25.5        6550.842    5036.036    24191.393   109.858     82039.602   125326.734  -9999.25    -9999.25    -9999.25    -9999.25    -9999.25    -9999.25    -9999.25    -9999.25    -9999.25    -9999.25    -9999.25    -9999.25    
25.6        -9999.25    -9999.25    -9999.25    -9999.25    -9999.25    -9999.25    2.484       4.56        13.303      4922.536    4.089       -2.047      26.991      3546.326    468.492     0.158       0.155       0.152       
25.7        646.116     4134.228    13444.234   133.876     35759.793   256.799     -9999.25    -9999.25    -9999.25    -9999.25    -9999.25    -9999.25    -9999.25    -9999.25    -9999.25    -9999.25    -9999.25    -9999.25    
25.8        -9999.25    -9999.25    -9999.25    -9999.25    -9999.25    -9999.25    2.432       4.016       13.066      4975.506    4.19        -2.638      26.688      669.058     377.08      0.158       0.155       0.151       
25.9        10227.48    208.706     12455.986   -18.958     8285.224    -18.965     -9999.25    -9999.25    -9999.25    -9999.25    -9999.25    -9999.25    -9999.25    -9999.25    -9999.25    -9999.25    -9999.25    -9999.25    
26.0        -9999.25    -9999.25    -9999.25    -9999.25    -9999.25    -9999.25    2.453       4.698       12.768      6364.803    4.06        -1.981      24.423      20.018      336.352     0.158       0.155       0.151       
26.1        3682.428    48185.184   14330.128   -18.914     14363.408   159.385     -9999.25    -9999.25    -9999.25    -9999.25    -9999.25    -9999.25    -9999.25    -9999.25    -9999.25    -9999.25    -9999.25    -9999.25    
26.2        -9999.25    -9999.25    -9999.25    -9999.25    -9999.25    -9999.25    2.429       5.786       12.187      3179.672    4.222       -1.118      24.09       -3.506      467.51      0.159       0.156       0.152       
26.3        986.323     229.587     3290.148    -9.835      6151.978    8.796       -9999.25    -9999.25    -9999.25    -9999.25    -9999.25    -9999.25    -9999.25    -9999.25    -9999.25    -9999.25    -9999.25    -9999.25    
26.4        -9999.25    -9999.25    -9999.25    -9999.25    -9999.25    -9999.25    2.377       6.87        11.62       1998.673    3.843       -2.488      21.808      -3.811      613.792     0.162       0.158       0.155       
