~Version Information Section
VERS.                                         2.0:CWLS log ASCII Standart – VERSION 2.0
WRAP.                                          NO:One line per depth step
~Well Information Section
STRT.M                                        2.1:Начальная глубина
STOP.M                                      196.8:Конечная глубина
STEP.M                                          0:Шаг квантования по глубине
NULL.                                    -9999.25:Признак "Нет данных"
WELL.                                       154Мх:Скважина
~Parameter Information Section
~Curve Information Section
DEPTH.M                                          :Глубина
BK.lgОмм                                         :BK     (БК)
DСР.мм                                           :DS  (ДС)
ГГКП.g/cm3                                       :GGKp
ГК.мкР/час                                       :GK          (ГК)
ГЗ1.Омм                                          :GZ1   ГЗ1(A0.4M0.1N)
ГЗ2.Омм                                          :GZ2   ГЗ2(A1.0M0.1N)
ГЗ3.Омм                                          :GZ3   ГЗ3(A2.0M0.5N)
ГЗ4.Oмм                                          :GZ4   ГЗ4(A4.0M0.5N)
ГЗ5.Oмм                                          :GZ5   ГЗ5(A8.0M0.5N)
ГЗК.Омм                                          :GZR   ГЗK(N0.5M2.0A)
ИК.мСм/м                                         :IK
НГК.усл.ед.                                      :NGK     (НГК)
РЕЗ.Омм                                          :RS (Резистивиметр)
W.                                               :W
ННКМ.усл.ед                                      :NNKm  (ННКм)
PS.мB                                            :PS       (ПС)
~ASCII LOG DATA
# ...
78.1        39.567      148.894     2.167       4.209       97.41       46.874      56.422      16.943      18.39       76.36       25.69       1.193       0.975       34.879      1.152       73.107      
78.2        39.385      148.889     2.183       4.283       96.99       47.394      56.422      16.943      18.39       77.4        25.69       1.167       0.975       35.715      1.144       72.334      
78.3        39.205      148.942     2.175       4.27        96.57       47.394      56.422      16.943      18.53       80.52       25.846      1.156       0.975       36.061      1.135       71.561      
78.4        39.025      149.025     2.195       4.233       96.57       47.394      56.862      16.943      18.53       78.44       25.846      1.191       0.975       35.432      1.127       70.938      
78.5        38.207      149.112     2.184       4.274       96.57       47.914      56.862      16.943      18.53       78.44       25.953      1.189       0.975       34.17       1.127       70.189      
78.6        37.51       149.007     2.179       4.349       96.15       48.434      56.862      16.943      18.53       77.4        26.029      1.179       0.975       33.435      1.132       69.596      
78.7        38.761      149.028     2.152       4.341       95.73       48.434      57.302      16.943      18.53       76.36       26.029      1.188       0.975       33.192      1.136       69.1        
78.8        39.853      149.048     2.139       4.404       95.31       48.954      57.302      16.943      18.53       75.32       26.266      1.185       0.975       33.158      1.141       68.504      
78.9        40.944      149.012     2.128       4.421       95.31       48.954      57.302      16.943      18.53       75.32       26.386      1.15        0.975       33.458      1.146       68.064      
79.0        39.397      149.107     2.133       4.328       95.31       48.954      57.302      16.823      18.53       75.32       26.386      1.153       0.975       33.598      1.141       67.624      
79.1        38.767      149.094     2.145       4.309       95.31       48.954      57.302      16.823      18.53       75.32       26.345      1.149       0.975       33.288      1.133       67.135      
79.2        38.136      149.044     2.162       4.283       95.31       49.474      57.742      16.703      18.67       75.32       26.345      1.138       0.975       32.869      1.13        66.775      
79.3        38.612      149.041     2.172       4.181       95.73       49.474      57.742      16.703      18.81       75.32       26.466      1.118       0.975       32.641      1.131       66.339      
79.4        39.029      149.0       2.172       4.185       95.73       49.474      57.742      16.583      19.09       75.32       26.466      1.131       0.975       32.629      1.131       65.977      
79.5        39.659      149.044     2.175       4.327       96.15       49.474      57.742      16.463      19.23       76.36       26.578      1.139       0.975       32.863      1.134       65.613      
79.6        40.994      149.115     2.173       4.363       96.15       49.474      57.742      16.463      19.23       77.4        26.578      1.14        0.975       33.225      1.136       65.203      
79.7        42.33       149.082     2.17        4.372       96.57       49.474      57.742      16.343      19.23       78.44       26.69       1.153       0.975       33.398      1.133       64.919      
79.8        43.252      149.065     2.177       4.494       96.15       49.474      57.742      16.223      19.23       78.44       26.803      1.158       0.975       33.367      1.132       64.562      
79.9        43.054      149.176     2.188       4.426       95.73       49.474      57.742      16.223      19.09       79.48       26.803      1.165       0.976       33.408      1.136       64.098      
80.0        41.963      149.19      2.177       4.449       94.89       49.474      57.742      16.103      18.81       79.48       27.0        1.184       0.978       33.447      1.142       63.709      
80.1        41.226      149.219     2.166       4.255       94.05       48.434      57.742      16.103      18.67       80.52       27.0        1.192       0.98        33.208      1.145       63.193      
80.2        40.489      149.208     2.153       4.363       93.63       47.914      57.742      15.863      18.67       80.52       26.937      1.178       0.982       33.099      1.146       62.781      
80.3        40.52       149.242     2.143       4.214       93.21       47.394      57.742      15.863      18.67       78.44       27.063      1.172       0.983       33.403      1.143       62.262      
80.4        41.224      149.22      2.129       4.201       92.79       46.874      57.302      15.863      18.67       77.4        27.063      1.133       0.983       33.494      1.136       61.646      
80.5        41.733      149.252     2.137       4.133       92.79       46.874      57.302      15.743      18.53       76.36       27.137      1.119       0.983       33.201      1.126       61.151      
80.6        42.365      149.187     2.134       4.346       92.37       46.874      56.862      15.623      18.39       75.32       27.252      1.087       0.983       33.062      1.12        60.632      
80.7        40.612      149.205     2.136       4.194       92.37       46.354      55.982      15.503      18.39       75.32       27.252      1.084       0.983       33.063      1.123       60.116      
80.8        39.055      149.486     2.137       4.114       92.37       45.834      55.982      15.503      18.39       73.24       27.264      1.076       0.983       32.877      1.127       59.652      
80.9        37.966      149.483     2.143       4.108       91.95       45.314      55.542      15.503      18.25       72.2        27.264      1.115       0.983       32.702      1.132       59.113      
81.0        40.322      149.568     2.144       4.033       91.53       45.314      55.102      15.383      18.25       72.2        27.241      1.119       0.983       32.799      1.141       58.726      
81.1        42.679      149.657     2.17        3.909       91.53       44.794      55.102      15.383      18.25       72.2        27.252      1.144       0.983       33.134      1.153       58.362      
81.2        43.832      149.65      2.187       4.054       91.53       44.274      54.662      15.263      18.11       72.2        27.252      1.171       0.983       33.477      1.163       57.976      
81.3        43.098      149.643     2.186       4.205       91.53       44.274      54.222      15.263      17.97       72.2        27.421      1.225       0.983       33.859      1.164       57.718      
81.4        42.364      149.685     2.202       4.186       91.53       43.234      54.222      15.143      17.55       72.2        27.421      1.211       0.983       34.538      1.163       57.408      
81.5        42.928      149.805     2.217       4.057       91.53       42.714      53.782      15.143      17.41       72.2        27.368      1.213       0.983       35.029      1.163       57.127      
81.6        43.492      149.817     2.206       3.937       91.53       42.194      53.782      15.143      17.13       71.16       27.38       1.22        0.983       35.059      1.159       56.917      
81.7        43.139      150.746     2.209       3.77        91.53       41.674      53.782      15.023      16.99       70.12       27.38       1.217       0.983       34.905      1.15        56.711      
81.8        41.572      151.232     2.218       3.77        91.53       41.154      52.902      14.903      16.57       69.08       27.509      1.21        0.983       34.864      1.147       56.557      
81.9        40.005      151.581     2.185       3.809       91.53       40.634      52.902      14.783      16.43       68.04       27.574      1.219       0.983       34.793      1.15        56.428      
82.0        40.654      151.694     2.153       3.915       91.53       40.114      52.902      14.783      16.29       67.0        27.627      1.216       0.983       34.661      1.153       56.273      
