~Version Information Section
VERS.                                         2.0:CWLS log ASCII Standart – VERSION 2.0
WRAP.                                          NO:One line per depth step
~Well Information Section
STRT.M                                        0.6:Начальная глубина
STOP.M                                      143.2:Конечная глубина
STEP.M                                          0:Шаг квантования по глубине
NULL.                                    -9999.25:Признак "Нет данных"
WELL.                                       116Мх:Скважина
~Parameter Information Section
~Curve Information Section
DEPTH.M                                          :Глубина
BK.lgОмм                                         :BK     (БК)
ПРОФ_СР.мм                                       :DS  (ДС)
ГК.мкР/час                                       :GK          (ГК)
ГЗ1.Омм                                          :GZ1   ГЗ1(A0.4M0.1N)
ГЗ2.Омм                                          :GZ2   ГЗ2(A1.0M0.1N)
ГЗ3.Омм                                          :GZ3   ГЗ3(A2.0M0.5N)
ГЗ4.Oмм                                          :GZ4   ГЗ4(A4.0M0.5N)
ГЗ5.Oмм                                          :GZ5   ГЗ5(A8.0M0.5N)
ГЗК.Омм                                          :GZK   ГЗK(N0.5M2.0A)
ИК.мСм/м                                         :IK
НГК.усл.ед.                                      :NGK     (НГК)
ПС.мВ                                            :PS       (ПС)
PZ.Омм                                           :PZ    (КС)
RIS.Омм                                          :RS (Резистивиметр)
U1.мВ                                            :U1
U2.mV                                            :U2
U3.мВ                                            :U3
W.г/см3                                          :ГГКп
П.%                                              :п
ННКМ.усл.ед                                      :ННКм
~ASCII LOG DATA
# ...
109.4       27.04       155.666     6.895       30.13       42.183      58.491      42.058      27.573      82.921      14.775      1.054       495.88      111.289     1.125       680.0       770.0       1092.41     2.42        31.501      2.144       
109.5       25.527      155.36      7.134       30.24       42.745      61.035      42.566      27.651      83.307      15.157      1.059       494.853     111.911     1.125       680.0       770.0       1103.223    2.396       31.192      2.159       
109.6       24.434      154.687     7.219       30.423      43.451      63.019      43.277      27.755      83.735      15.586      1.073       493.941     112.563     1.125       680.0       770.0       1096.271    2.393       31.036      2.163       
109.7       23.335      154.823     7.182       30.706      44.315      64.459      44.269      27.891      84.207      16.077      1.077       493.028     113.2       1.125       680.0       790.0       1085.704    2.395       31.01       2.144       
109.8       23.714      154.775     7.102       31.121      45.294      65.371      45.53       28.067      84.726      16.077      1.076       491.887     113.867     1.125       670.0       790.0       1012.346    2.402       31.246      2.123       
109.9       23.714      153.981     6.962       31.692      46.619      66.011      47.069      28.289      85.295      16.77       1.082       490.062     114.622     1.125       620.0       800.0       905.343     2.408       31.357      2.119       
110.0       24.155      154.492     7.115       32.436      48.289      66.507      48.883      28.57       85.917      17.552      1.105       487.553     115.422     1.125       640.0       800.0       815.065     2.403       31.467      2.113       
110.1       32.137      156.895     6.686       33.361      50.247      66.987      50.925      28.934      86.596      18.586      1.115       484.701     116.163     1.125       640.0       820.0       807.489     2.386       28.954      2.107       
110.2       82.224      152.88      6.143       34.463      52.479      67.451      53.062      29.418      87.325      19.87       1.154       481.849     116.756     1.125       650.0       830.0       807.489     2.352       26.23       2.15        
110.3       239.332     149.279     5.214       35.722      55.014      67.867      55.254      30.073      88.096      19.87       1.221       479.339     117.244     1.125       650.0       830.0       862.679     2.285       23.15       2.206       
110.4       267.917     149.099     4.702       37.115      57.433      68.251      57.402      30.976      88.889      21.273      1.328       477.058     117.719     1.125       650.0       840.0       884.684     2.205       20.059      2.206       
110.5       267.917     149.15      4.259       38.623      59.679      68.619      59.418      32.169      89.679      22.684      1.497       475.119     118.252     1.125       650.0       840.0       884.684     2.123       16.889      2.247       
110.6       211.349     149.134     4.107       40.232      61.811      69.035      61.28       33.658      90.445      24.184      1.727       472.951     118.963     1.125       650.0       840.0       896.19      2.066       14.46       2.397       
110.7       169.044     149.07      3.892       41.938      63.827      69.483      63.056      35.411      91.174      24.184      1.99        470.327     119.985     1.125       569.079     810.0       885.181     2.048       12.442      2.637       
110.8       152.757     149.054     3.865       43.757      65.684      70.011      64.768      37.344      91.859      25.642      2.171       467.019     121.437     1.125       569.079     800.0       865.127     2.056       12.904      2.918       
110.9       143.88      149.041     3.597       45.708      67.47       70.635      66.506      39.312      92.515      27.27       2.224       463.369     123.363     1.125       580.094     800.0       864.965     2.079       13.46       3.01        
111.0       143.88      148.916     3.407       47.806      69.169      71.355      68.349      41.195      93.169      28.661      2.146       459.604     125.6       1.125       596.047     800.0       843.787     2.11        14.309      2.946       
111.1       131.826     148.894     3.255       50.056      70.739      72.187      70.272      42.901      93.853      29.967      2.088       455.612     128.133     1.125       596.047     790.0       808.07      2.123       14.676      2.89        
111.2       123.311     148.918     3.396       52.445      72.121      73.163      72.195      44.396      94.595      29.967      2.052       451.049     130.711     1.125       583.029     790.0       783.796     2.122       14.854      2.849       
111.3       119.124     148.934     3.74        54.927      73.316      74.331      74.051      45.708      95.424      31.259      2.073       445.687     133.319     1.125       547.198     790.0       783.796     2.135       14.445      2.849       
111.4       122.744     148.917     3.94        57.433      74.382      75.691      75.734      46.946      96.341      32.704      2.052       439.185     135.511     1.125       540.143     771.983     826.153     2.131       13.894      2.829       
111.5       123.311     148.879     3.983       59.882      75.476      77.243      77.155      48.237      97.325      33.7        2.039       431.77      137.215     1.125       533.586     807.539     901.686     2.128       13.179      2.82        
111.6       116.95      148.898     4.101       62.196      76.657      78.827      78.336      49.724      98.345      34.943      2.101       422.987     138.326     1.125       514.904     818.945     936.319     2.131       12.41       2.869       
111.7       116.95      148.931     4.163       64.317      77.953      80.443      79.328      51.507      99.363      35.938      2.164       413.633     139.259     1.125       514.904     818.945     936.319     2.118       11.66       2.94        
111.8       114.025     148.977     4.181       66.221      79.364      81.883      80.195      53.639      100.34      35.938      2.235       404.164     140.489     1.125       519.817     812.432     924.443     2.12        11.406      3.008       
111.9       111.686     149.046     3.945       67.919      80.891      83.115      81.011      56.119      101.259     37.016      2.207       396.293     142.385     1.125       516.065     782.19      868.539     2.136       11.357      3.007       
112.0       108.893     149.07      3.873       69.457      82.403      84.107      81.837      58.906      102.133     37.975      2.209       390.133     145.141     1.125       516.065     782.145     836.751     2.142       11.397      2.972       
112.1       108.393     149.125     3.825       70.892      83.799      84.987      82.701      61.917      102.983     38.613      2.146       385.228     148.311     1.125       547.45      778.722     814.05      2.14        11.395      3.005       
112.2       109.396     149.242     4.002       72.277      85.139      85.739      83.626      65.068      103.841     39.442      2.166       379.981     151.659     1.125       570.001     778.722     790.436     2.128       11.307      3.032       
112.3       115.611     149.254     3.996       73.654      86.463      86.539      84.669      68.269      104.736     39.442      2.138       373.821     154.652     1.125       582.932     777.542     767.513     2.146       11.404      3.018       
112.4       130.017     149.27      4.037       75.049      87.903      87.419      85.875      71.432      105.688     40.44       2.16        366.292     157.378     1.125       594.786     770.495     747.108     2.175       12.014      3.026       
112.5       130.017     149.262     3.99        76.473      89.372      88.571      87.318      74.456      106.706     40.845      2.129       357.85      159.63      1.125       603.897     765.973     729.61      2.197       13.192      3.045       
