~Version Information Section
VERS.                                         2.0:CWLS log ASCII Standart – VERSION 2.0
WRAP.                                          NO:One line per depth step
~Well Information Section
STRT.M                                        0.4:Начальная глубина
STOP.M                                      191.4:Конечная глубина
STEP.M                                          0:Шаг квантования по глубине
NULL.                                    -9999.25:Признак "Нет данных"
WELL.                                       113Мх:Скважина
~Parameter Information Section
~Curve Information Section
DEPTH.M                                          :Глубина
БК.Омм                                           :BK     (БК)
DСР.мм                                           :DS  (ДС)
GGKP.g/cm3                                       :GGKp
ГК.гамма                                         :GK          (ГК)
А0.4М0.1N.Омм                                    :GZ1   ГЗ1(A0.4M0.1N)
А1.0М0.1N.Омм                                    :GZ2   ГЗ2(A1.0M0.1N)
А2.0М0.5N.Омм                                    :GZ3   ГЗ3(A2.0M0.5N)
А4.0М0.5N.Oмм                                    :GZ4   ГЗ4(A4.0M0.5N)
А8.0М1.0N.Омм                                    :GZ5   ГЗ5(A8.0M0.5N)
N0.5M2.0A.Омм                                    :GZK   ГЗK(N0.5M2.0A)
ИК.мСм/м                                         :IK
НГК.усл.ед                                       :NNKb  (ННКб)
ННКМ.усл.ед                                      :NNKm  (ННКм)
ПС.мВ                                            :PS       (ПС)
PZ.Омм                                           :PZ    (КС)
R.Омм                                            :RS (Резистивиметр)
U1.мВ                                            :U1
U2.mV                                            :U2
U3.мВ                                            :U3
КП.%                                             :Кп
~ASCII LOG DATA
# ...
96.4        93.329      134.283     2.32        6.83        48.476      56.139      83.189      77.972      89.384      34.662      18.086      2.679       1.772       130.909     99.203      1.12        398.623     417.374     421.493     32.095      
96.6        59.416      133.946     2.322       7.201       30.574      39.524      58.119      56.452      89.2        36.827      16.511      2.737       1.743       135.094     86.294      1.12        362.568     355.192     400.479     30.201      
96.8        97.026      134.169     2.36        5.469       25.843      22.634      32.313      31.644      79.654      35.436      16.972      3.234       2.056       137.862     78.401      1.12        301.747     297.929     350.063     29.677      
97.0        92.516      135.454     2.374       4.628       23.321      11.278      14.669      15.351      56.955      26.155      17.954      3.118       1.947       140.17      74.818      1.12        276.995     275.501     311.728     27.311      
97.2        41.245      133.842     2.333       5.302       21.407      8.085       7.674       9.264       34.132      17.239      18.241      2.573       1.71        141.987     73.642      1.12        258.316     230.661     263.758     29.757      
97.4        24.878      138.032     2.315       5.462       20.333      8.085       6.473       7.62        21.514      14.691      18.796      2.227       1.602       143.648     73.427      1.12        260.7       201.875     231.908     33.935      
97.6        25.487      137.97      2.324       5.727       20.227      9.988       6.473       7.118       18.453      14.691      19.382      2.083       1.534       144.996     73.784      1.12        405.577     237.294     210.316     36.501      
97.8        26.365      137.581     2.342       5.614       20.336      14.611      6.617       7.093       18.371      15.306      20.097      2.162       1.52        145.943     74.919      1.12        363.961     249.91      285.906     35.957      
98.0        45.358      134.588     2.331       5.377       21.548      19.217      7.392       7.233       19.024      17.946      21.616      2.539       1.677       146.823     77.238      1.12        217.722     220.45      382.085     33.751      
98.2        76.045      134.26      2.302       4.72        24.089      22.341      8.87        8.333       21.289      21.447      23.577      2.897       1.845       147.74      80.933      1.12        159.751     220.898     438.48      30.724      
98.4        72.672      134.498     2.321       4.897       27.483      24.294      11.862      9.913       24.257      25.007      24.446      2.968       1.87        148.679     85.923      1.12        375.191     301.271     390.146     28.817      
98.6        40.396      135.731     2.381       5.085       30.358      25.241      17.783      11.27       26.762      29.262      25.062      3.039       1.826       149.527     92.234      1.12        586.874     334.086     297.97      27.693      
98.8        98.923      134.072     2.423       4.937       34.269      25.826      26.089      12.069      27.87       34.277      26.644      3.376       1.926       150.165     100.567     1.12        532.245     270.831     212.259     26.836      
99.0        219.25      132.805     2.413       4.512       41.714      27.326      33.092      12.375      27.869      38.456      29.032      3.648       2.05        150.555     112.345     1.12        319.289     188.47      201.144     25.333      
99.2        318.772     133.28      2.371       4.069       51.592      30.098      34.93       12.473      26.7        40.615      30.38       3.679       2.103       150.728     128.867     1.12        159.073     165.087     254.049     24.884      
99.4        334.199     132.563     2.325       3.796       58.647      33.648      34.556      12.441      24.0        40.82       30.943      3.59        2.064       150.739     147.748     1.12        195.746     168.869     231.763     24.867      
99.6        305.987     131.977     2.302       3.503       59.38       36.176      31.334      12.368      21.329      40.55       31.046      3.497       2.042       150.609     163.032     1.12        227.219     143.285     147.873     25.599      
99.8        238.309     133.206     2.304       3.697       57.441      37.229      27.997      12.362      19.576      39.87       30.774      3.349       1.995       150.331     170.021     1.12        258.968     173.468     158.718     26.164      
100.0       139.575     135.786     2.309       3.941       49.785      37.338      26.842      12.375      18.511      39.739      29.967      3.146       1.941       149.905     162.355     1.12        278.596     212.703     207.425     26.637      
100.2       75.569      136.223     2.313       4.212       41.939      37.198      26.842      12.854      17.688      39.782      28.519      3.061       1.872       149.366     143.973     1.12        310.71      196.672     168.17      27.074      
100.4       45.463      134.392     2.332       4.245       37.547      36.425      26.951      14.785      16.92       40.465      27.319      3.211       1.836       148.785     122.017     1.12        231.594     175.269     203.54      26.709      
100.6       92.774      134.34      2.361       4.052       35.732      34.479      27.451      17.847      15.913      41.142      27.42       3.394       1.933       148.241     104.223     1.12        224.837     171.127     200.764     26.586      
100.8       120.858     134.358     2.389       3.802       34.537      31.933      27.983      20.585      14.468      41.156      27.652      3.374       2.016       147.791     94.815      1.12        319.256     190.366     182.276     26.483      
101.0       96.415      134.296     2.406       3.73        33.796      29.351      28.175      21.701      12.948      40.628      26.841      3.228       1.976       147.463     90.872      1.12        454.209     365.02      281.015     27.282      
101.2       55.447      136.115     2.394       3.91        32.879      27.333      28.18       21.726      11.672      38.966      25.693      3.192       1.903       147.255     88.688      1.12        391.188     428.385     408.996     27.479      
101.4       56.101      133.4       2.389       3.98        32.343      26.016      27.794      20.695      10.578      36.29       25.198      3.287       1.97        147.144     86.927      1.12        267.052     335.816     373.341     27.232      
101.6       63.365      133.462     2.397       4.114       32.161      24.83       26.491      18.194      9.511       32.516      25.242      3.335       2.033       147.097     85.785      1.12        209.549     222.343     302.626     26.585      
101.8       59.611      134.688     2.394       4.084       32.161      23.961      24.193      16.094      8.681       28.638      24.917      3.22        1.956       147.091     85.291      1.12        236.189     211.183     258.036     27.665      
102.0       49.511      136.176     2.381       4.04        32.528      23.739      22.095      15.071      8.166       26.125      24.207      2.841       1.821       147.131     85.442      1.12        292.714     218.967     239.853     28.879      
102.2       49.285      135.689     2.378       4.085       33.059      23.739      20.771      14.549      7.833       24.824      23.837      2.764       1.769       147.264     86.23       1.12        313.519     239.135     229.419     29.465      
102.4       57.019      135.269     2.39        3.947       33.684      23.831      19.761      13.92       7.655       23.304      24.484      3.117       1.882       147.573     87.702      1.12        317.113     248.887     236.146     28.215      
102.6       63.05       135.494     2.411       3.989       34.009      23.959      18.593      13.22       7.638       21.437      25.336      3.31        1.921       148.15      89.781      1.12        364.039     254.309     217.554     26.282      
