~Version Information Section
VERS.                                         2.0:CWLS log ASCII Standart – VERSION 2.0
WRAP.                                          NO:One line per depth step
~Well Information Section
STRT.M                                        0.6:Начальная глубина
STOP.M                                      205.9:Конечная глубина
STEP.M                                          0:Шаг квантования по глубине
NULL.                                    -9999.25:Признак "Нет данных"
WELL.                                       106Мх:Скважина
~Parameter Information Section
~Curve Information Section
DEPTH.M                                          :Глубина
BK.Ohm*M                                         :BK     (БК)
DS.mm                                            :DS  (ДС)
GGK.g/cm3                                        :GGKp
ГК.mcr/h                                         :GK          (ГК)
GZ1.Ohm*M                                        :GZ1   ГЗ1(A0.4M0.1N)
GZ2.Ohm*M                                        :GZ2   ГЗ2(A1.0M0.1N)
GZ3.Ohm*M                                        :GZ3   ГЗ3(A2.0M0.5N)
U2.mV                                            :U2
U3.mV                                            :U3
КП.%                                             :Кп
GZ4.Ohm*M                                        :GZ4   ГЗ4(A4.0M0.5N)
GZ5.Ohm*M                                        :GZ5   ГЗ5(A8.0M0.5N)
GZR.Ohm*M                                        :GZK   ГЗK(N0.5M2.0A)
ИК.Ohm*M                                         :IK
НГК.u.e.                                         :NGK
NNKM.                                            :NNKm  (ННКм)
PS.mv                                            :PS       (ПС)
PZ.Ohm*M                                         :PZ    (КС)
RS.Ohm*M                                         :RS (Резистивиметр)
U1.mV                                            :U1
~ASCII LOG DATA
# ...
96.6        27.542      129.136     2.353       7.387       19.421      17.629      16.608      524.837     690.014     32.163      30.394      21.446      3.819       16.695      1.214       2.172       631.058     22.415      1.1         518.628     
96.7        26.546      129.673     2.354       7.23        19.875      17.438      16.52       510.667     704.083     33.128      31.27       21.718      3.539       16.73       1.212       2.159       634.822     22.252      1.1         482.95      
96.8        26.424      129.851     2.36        7.057       19.875      17.036      16.15       436.491     663.545     32.728      30.654      21.811      3.215       16.674      1.214       2.217       640.64      22.089      1.1         455.807     
96.9        28.119      130.67      2.366       7.041       19.818      15.937      15.33       398.818     598.475     30.25       28.912      21.753      2.878       16.787      1.205       2.293       648.169     21.896      1.1         444.799     
97.0        29.512      131.185     2.374       6.94        19.259      14.213      14.308      398.818     535.43      28.017      26.615      21.696      2.631       16.745      1.245       2.481       655.356     21.704      1.1         484.354     
97.1        43.152      130.504     2.375       6.876       18.355      12.721      13.203      424.678     493.331     26.229      24.39       21.658      2.558       16.831      1.263       2.695       662.2       21.496      1.1         559.745     
97.2        51.761      128.851     2.361       7.001       17.475      11.929      12.395      450.538     471.05      26.191      22.709      22.006      2.95        16.888      1.307       2.525       668.36      21.304      1.1         636.328     
97.3        39.355      129.001     2.332       7.017       16.663      11.473      12.387      461.632     461.501     28.63       21.863      23.239      3.977       16.961      1.264       2.27        673.493     21.111      1.1         663.258     
97.4        32.063      129.344     2.307       7.215       16.187      12.193      13.339      448.71      456.76      30.744      22.329      26.033      5.8         16.888      1.224       2.158       679.311     20.963      1.1         641.265     
97.5        28.054      129.597     2.284       7.529       16.187      14.481      15.485      417.663     446.037     33.375      24.593      30.743      8.409       16.78       1.171       2.088       684.787     20.859      1.1         601.269     
97.6        26.485      129.542     2.27        7.976       16.217      17.292      18.81       386.616     431.16      33.891      28.649      37.253      11.702      16.52       1.165       2.123       691.631     20.815      1.1         564.016     
97.7        25.586      130.103     2.273       7.985       17.093      20.65       23.146      362.417     416.201     32.807      34.624      44.96       15.169      16.247      1.159       2.158       696.422     20.785      1.1         533.794     
97.8        25.351      129.932     2.284       7.661       19.194      24.766      27.448      355.31      401.234     31.27       43.58       52.935      17.994      15.939      1.162       2.14        700.187     20.741      1.1         516.659     
97.9        25.351      130.501     2.296       7.346       21.892      28.657      31.122      346.298     382.943     30.043      55.625      60.128      19.817      15.728      1.173       2.123       701.556     20.652      1.1         512.57      
98.0        29.923      131.606     2.32        7.323       24.347      29.579      33.727      332.036     361.365     30.959      67.792      65.563      20.781      15.451      1.186       2.11        702.24      20.548      1.1         538.62      
98.1        26.122      133.283     2.353       7.439       25.456      29.178      34.498      324.395     358.974     32.781      76.276      68.485      20.602      15.242      1.194       2.109       702.24      20.385      1.1         541.51      
98.2        20.37       133.168     2.388       7.546       25.456      27.502      33.157      324.395     390.906     32.667      78.963      69.463      19.329      14.896      1.281       2.182       702.24      20.089      1.1         509.298     
98.3        16.749      132.67      2.424       7.492       25.431      24.335      30.255      336.985     457.464     29.655      74.434      68.313      17.253      14.432      1.343       2.337       701.556     19.526      1.1         427.25      
98.4        21.577      132.537     2.453       7.26        24.577      20.622      26.069      349.576     519.175     25.38       62.848      65.134      14.533      14.104      1.414       2.62        700.187     18.77       1.1         368.369     
98.5        43.853      132.201     2.463       7.21        22.896      16.479      20.898      338.289     539.53      22.083      47.956      59.292      11.674      13.831      1.47        2.808       697.791     17.97       1.1         343.541     
98.6        77.804      131.926     2.455       6.978       19.872      11.612      15.81       321.743     505.98      21.627      34.407      51.506      9.452       13.765      1.451       2.806       694.711     17.333      1.1         350.174     
98.7        83.176      131.68      2.438       7.057       16.228      7.003       11.361      308.571     443.291     22.12       24.493      42.732      8.231       13.825      1.421       2.721       690.604     16.889      1.1         382.035     
98.8        73.282      132.337     2.416       7.269       12.97       5.683       7.82        295.398     383.003     24.562      18.528      34.027      7.499       13.8        1.289       2.469       685.813     16.622      1.1         438.209     
98.9        28.84       131.615     2.391       7.954       11.06       5.984       5.5         295.398     370.401     27.553      15.674      26.336      7.317       13.657      1.242       2.204       680.68      16.459      1.1         510.097     
99.0        19.409      131.786     2.371       8.501       9.977       6.536       4.664       307.576     417.553     29.969      14.421      20.274      7.472       13.316      1.135       2.008       675.547     16.356      1.1         559.349     
99.1        19.187      131.809     2.353       8.967       9.188       6.982       4.389       445.612     507.649     31.126      13.693      16.016      7.595       12.918      1.095       1.924       669.387     16.252      1.1         572.527     
99.2        19.055      133.382     2.334       9.064       8.582       7.323       4.157       506.27      573.796     32.636      13.126      13.342      7.641       12.468      1.069       1.946       662.884     16.133      1.1         552.903     
99.3        16.982      135.41      2.32        8.993       8.253       7.64        3.926       456.652     582.485     34.35       12.622      11.806      7.635       11.906      1.093       1.922       655.698     15.985      1.1         524.635     
99.4        15.631      135.839     2.322       8.724       8.166       7.935       3.727       415.349     544.207     35.084      12.171      10.94       7.621       11.54       1.096       1.874       649.538     15.793      1.1         507.214     
99.5        15.996      135.253     2.337       8.604       8.166       8.052       3.548       415.349     492.703     34.334      11.794      10.404      7.505       11.324      1.1         1.933       643.036     15.541      1.1         534.722     
99.6        16.144      135.527     2.347       8.369       8.209       8.137       3.425       435.99      444.527     32.748      11.528      10.018      7.421       11.179      1.099       2.024       636.191     15.259      1.1         601.396     
99.7        15.74       136.816     2.348       8.171       8.304       8.0         3.481       432.824     401.561     32.676      11.378      9.716       7.393       11.132      1.066       1.958       628.32      15.022      1.1         697.102     
