~Version Information Section
VERS.                                         2.0:CWLS log ASCII Standart – VERSION 2.0
WRAP.                                          NO:One line per depth step
~Well Information Section
STRT.M                                        0.8:Начальная глубина
STOP.M                                      209.6:Конечная глубина
STEP.M                                          0:Шаг квантования по глубине
NULL.                                    -9999.25:Признак "Нет данных"
WELL.                                         5Мх:Скважина
~Parameter Information Section
~Curve Information Section
DEPTH.M                                          :Глубина
BK.Ohm*M                                         :BK     (БК)
DS.mm                                            :DS  (ДС)
ГК.mcr/h                                         :GK          (ГК)
GZ1.Ohm*M                                        :GZ1   ГЗ1(A0.4M0.1N)
GZ2.Ohm*M                                        :GZ2   ГЗ2(A1.0M0.1N)
GZ3.Ohm*M                                        :GZ3   ГЗ3(A2.0M0.5N)
GZ4.Ohm*M                                        :GZ4   ГЗ4(A4.0M0.5N)
GZ5.Ohm*M                                        :GZ5   ГЗ5(A8.0M0.5N)
GZR.Ohm*M                                        :GZK   ГЗK(N0.5M2.0A)
ИК.Ohm*M                                         :IK
НГК.                                             :NNKb  (ННКб)
NNKM.                                            :NNKm  (ННКм)
PS.mv                                            :PS       (ПС)
PZ.Ohm*M                                         :PZ    (КС)
RS.Ohm*M                                         :RS (Резистивиметр)
W.%                                              :W
ГГК.g/cm3                                        :ГГК
SGDT1.1/min                                      :ПЛ1
SGDT2.1/min                                      :ПЛ2
SGDT3.1/min                                      :ПЛ3
SGDT4.1/min                                      :ПЛ4
~ASCII LOG DATA
# ...
19.4        15.885      195.529     5.462       2.676       10.203      4.534       3.604       16.522      2.386       -9999.25    2.239       1.712       959.464     7.436       0.887       39.81       2.24        16039.991   21000.0     15680.001   4660.0      
19.6        16.749      197.449     5.54        2.799       10.054      4.714       3.604       16.522      2.386       -9999.25    2.162       1.702       963.713     7.898       0.887       41.576      2.154       18560.0     21900.0     17900.0     6040.0      
19.8        19.907      198.889     5.681       2.822       10.221      4.894       3.604       16.702      2.386       -9999.25    2.092       1.676       959.056     9.016       0.887       41.851      2.045       23760.029   26860.0     20140.0     6520.0      
20.0        17.62       200.809     5.664       2.792       10.277      4.714       3.524       16.702      2.386       -9999.25    2.109       1.612       954.108     9.715       0.887       41.186      2.018       28160.0     29140.0     20820.0     5740.0      
20.2        18.197      201.769     5.876       2.923       10.444      4.174       3.284       16.702      2.866       35.733      2.04        1.59        943.502     10.271      0.887       39.671      2.085       22800.0     25360.0     17480.0     5180.0      
20.4        21.281      202.729     5.984       3.023       10.686      3.994       3.284       16.702      3.346       27.679      2.353       1.656       920.063     11.089      0.887       35.705      2.144       18160.006   22140.0     16020.0     4840.0      
20.6        24.266      202.729     6.19        3.005       10.872      3.634       3.364       16.522      3.826       23.26       2.35        1.718       885.228     12.425      0.887       37.958      2.153       16680.0     20100.0     15920.001   5020.0      
20.8        22.029      202.666     6.472       2.863       10.798      3.634       3.684       16.342      3.826       21.101      2.152       1.739       851.03      12.501      0.89        41.582      2.152       17440.006   20580.0     15860.001   4920.0      
21.0        18.75       201.891     6.252       2.904       10.798      3.634       3.684       16.342      5.266       18.566      2.268       1.704       836.237     11.526      0.893       40.658      2.184       16920.0     21140.0     14780.0     4700.0      
21.2        21.086      201.793     5.453       2.92        10.835      3.994       3.684       16.522      5.266       16.804      2.175       1.767       834.121     10.91       0.893       41.92       2.214       14960.0     20540.0     14260.0     4740.0      
21.4        21.627      201.008     5.248       2.823       10.779      4.534       3.604       16.522      6.226       15.647      2.342       1.77        834.274     10.997      0.893       40.155      2.19        14919.991   19760.0     14420.0     5140.0      
21.6        16.904      200.634     5.009       2.804       10.761      4.534       3.604       16.522      6.226       14.95       2.273       1.773       832.71      11.952      0.893       41.254      2.148       16960.0     20740.0     15380.001   5340.0      
21.8        16.482      199.257     5.176       2.804       10.723      4.534       3.364       16.342      5.746       14.561      2.186       1.741       829.579     13.621      0.893       41.984      2.137       18559.994   21200.0     15639.999   4940.0      
22.0        17.742      198.236     5.147       2.741       10.649      4.534       3.284       16.702      5.266       14.514      2.203       1.666       828.381     14.879      0.893       40.329      2.136       17520.0     21580.0     15260.0     4800.0      
22.2        15.922      197.183     4.993       2.659       10.612      4.534       3.124       16.882      5.746       14.832      2.224       1.778       830.078     15.967      0.893       41.691      2.126       17880.0     22220.0     15759.999   5120.0      
22.4        14.962      194.906     5.281       2.495       10.388      4.534       3.204       16.702      8.626       15.169      2.183       1.724       836.244     15.66       0.893       41.654      2.143       18440.004   21460.0     15160.0     5400.0      
22.6        13.428      192.804     5.633       2.395       9.96        4.534       3.604       15.622      12.946      15.598      2.22        1.701       839.031     14.481      0.893       40.067      2.174       17280.0     20620.0     15200.0     4900.0      
22.8        13.305      190.422     5.116       2.41        9.569       4.714       3.524       15.982      13.426      16.252      2.335       1.695       842.193     16.208      0.893       38.178      2.175       15919.998   20760.0     15759.999   4700.0      
23.0        19.907      186.23      5.298       2.562       8.675       8.134       3.124       15.982      6.946       17.711      2.212       1.737       845.85      18.939      0.893       41.958      2.161       17280.0     21320.0     15200.0     4820.0      
23.2        31.261      184.649     5.904       2.611       6.889       7.234       3.444       15.442      3.346       19.213      1.986       1.718       845.218     25.662      0.893       45.557      2.153       18440.0     21920.0     15639.999   5240.0      
23.4        32.137      176.984     6.181       3.754       7.596       6.514       3.604       15.442      2.866       20.454      2.269       1.69        838.637     33.397      0.893       39.287      2.114       19319.996   22760.0     17000.0     5680.0      
23.6        109.901     170.76      6.616       5.072       9.067       5.794       3.844       15.442      2.866       21.099      2.659       1.744       834.74      36.744      0.893       33.036      2.063       20560.0     23940.0     16720.0     5180.0      
23.8        192.309     168.532     6.052       4.279       9.737       5.794       5.124       15.442      2.866       21.157      3.21        1.957       829.588     37.275      0.893       29.74       2.125       22239.996   23300.0     16560.0     5160.0      
24.0        66.834      167.028     5.125       4.1         10.09       4.894       4.964       20.122      3.826       20.689      4.019       2.175       825.614     35.736      0.893       25.481      2.325       18040.0     21620.0     15399.999   5340.0      
24.2        45.814      166.35      4.233       3.386       10.835      4.714       4.804       19.582      5.266       19.915      4.836       2.404       825.262     29.823      0.893       21.865      2.508       10880.0     19500.0     14060.0     5180.0      
24.4        25.645      166.099     3.283       2.76        10.63       3.634       4.484       17.962      5.266       18.692      5.469       2.684       828.149     21.18       0.893       21.625      2.48        8840.001    18680.0     13980.0     4940.0      
24.6        18.072      166.773     3.092       2.913       10.63       3.094       3.844       17.602      5.266       17.847      4.919       2.792       831.734     14.232      0.893       27.279      2.299       11520.0     20700.0     15519.999   5180.0      
24.8        24.491      168.294     3.703       2.577       10.593      2.914       3.604       16.882      5.266       17.282      3.821       2.55        839.568     11.135      0.893       33.127      2.166       19240.021   23800.0     17280.0     5440.0      
25.0        17.219      172.628     4.187       2.443       10.537      3.094       3.444       16.522      4.306       16.825      3.239       2.202       852.836     10.489      0.893       35.44       2.167       20920.0     24280.0     18340.0     5280.0      
25.2        15.885      172.726     4.987       2.507       10.5        3.454       2.884       15.982      2.866       16.653      2.769       1.981       860.119     11.074      0.893       37.211      2.199       18600.0     23280.0     18300.0     5500.0      
25.4        18.88       169.84      5.51        2.596       10.426      3.454       3.044       15.802      2.866       16.972      2.662       1.911       865.35      12.113      0.893       37.494      2.182       17520.008   22700.0     17820.0     5420.0      
