~Version Information Section
VERS.                                         2.0:CWLS log ASCII Standart – VERSION 2.0
WRAP.                                          NO:One line per depth step
~Well Information Section
STRT.M                                        1.0:Начальная глубина
STOP.M                                      203.4:Конечная глубина
STEP.M                                          0:Шаг квантования по глубине
NULL.                                    -9999.25:Признак "Нет данных"
WELL.                                         3Мх:Скважина
~Parameter Information Section
~Curve Information Section
DEPTH.M                                          :Глубина
BK.Ohm*M                                         :BK
DS.mm                                            :DS  (ДС)
ГК.mcr/h                                         :GK          (ГК)
GZ1.Ohm*M                                        :GZ1   ГЗ1(A0.4M0.1N)
GZ2.Ohm*M                                        :GZ2   ГЗ2(A1.0M0.1N)
GZ3.Ohm*M                                        :GZ3   ГЗ3(A2.0M0.5N)
GZ4.Ohm*M                                        :GZ4   ГЗ4(A4.0M0.5N)
GZ5.Ohm*M                                        :GZ5   ГЗ5(A8.0M0.5N)
U2.mV                                            :U2
U3.mV                                            :U3
W.                                               :W
КП.%                                             :Кп
НГК.усл.ед                                       :ННКб
ННКМ.усл.ед                                      :ННКм
GZR.Ohm*M                                        :GZK   ГЗK(N0.5M2.0A)
ИК.Ohm*M                                         :IK
PS.mv                                            :PS       (ПС)
PZ.Ohm*M                                         :PZ    (КС)
RS.Ohm*M                                         :RS (Резистивиметр)
U1.mV                                            :U1
~ASCII LOG DATA
# ...
58.6        51.642      153.005     3.725       6.364       10.204      7.904       8.825       8.704       520.536     583.511     2.406       26.513      4.754       2.364       6.404       29.209      57.849      60.234      0.981       412.059     
58.7        37.584      153.046     3.593       6.364       10.204      7.904       8.325       8.704       465.592     661.08      2.31        30.735      3.657       2.3         6.704       28.518      50.504      58.979      0.981       349.826     
58.8        35.481      153.202     3.406       6.364       10.204      7.904       7.604       8.704       410.168     696.216     2.239       33.715      3.438       2.224       7.004       27.718      43.25       58.407      0.981       325.565     
58.9        34.834      153.709     3.296       6.364       10.204      7.904       7.904       8.704       380.547     683.896     2.21        33.387      3.67        2.207       7.004       26.91       36.449      58.295      0.981       342.969     
59.0        33.963      154.109     3.238       6.364       10.204      7.904       8.204       8.704       410.647     648.761     2.217       33.206      3.67        2.203       7.004       25.983      30.973      58.07       0.981       389.909     
59.1        33.266      153.798     3.29        6.364       10.204      7.904       8.204       8.704       519.578     621.383     2.245       34.539      3.618       2.254       7.004       25.054      27.416      57.647      0.981       454.252     
59.2        32.584      153.692     3.387       6.664       10.204      7.904       8.504       8.704       656.22      625.49      2.273       34.86       3.605       2.318       7.304       24.2        25.915      56.823      0.981       519.649     
59.3        37.757      153.813     3.483       6.664       10.204      7.904       8.804       8.704       748.912     675.684     2.281       33.919      3.636       2.277       7.604       23.426      25.36       55.545      0.981       567.118     
59.4        45.709      154.171     3.557       6.664       9.904       7.904       8.804       9.004       764.203     752.339     2.287       34.265      3.642       2.213       7.604       22.759      25.459      53.843      0.981       592.433     
59.5        38.905      154.34      3.653       6.664       9.904       7.904       9.104       9.004       736.491     826.718     2.301       35.629      3.639       2.299       7.604       22.241      25.333      51.886      0.981       599.817     
59.6        31.333      155.202     3.828       6.964       9.604       7.904       9.404       9.004       715.947     859.115     2.336       35.857      3.638       2.396       7.604       21.663      26.627      49.547      0.981       610.892     
59.7        29.785      158.231     4.086       6.964       9.304       7.904       9.404       9.004       704.958     852.27      2.374       34.267      3.731       2.34        7.604       21.17       29.754      47.079      0.981       634.625     
59.8        29.648      159.751     4.393       7.264       9.304       7.904       9.404       9.004       689.668     819.416     2.431       32.812      3.749       2.274       7.904       20.67       37.558      44.783      0.981       674.181     
59.9        33.189      162.583     4.696       7.264       9.304       7.904       9.704       9.004       659.569     790.67      2.452       32.731      3.556       2.213       8.204       20.175      48.5        43.312      0.981       723.757     
60.0        30.974      161.915     4.909       7.264       9.304       7.904       9.704       9.004       639.98      776.981     2.442       34.12       3.507       2.15        8.204       19.514      61.599      42.221      0.981       775.971     
60.1        16.711      157.326     5.009       7.264       8.704       7.904       9.704       9.004       650.491     785.65      2.429       35.664      3.597       2.241       8.204       18.333      72.437      41.452      0.981       830.821     
60.2        16.144      156.534     5.008       7.264       8.404       7.904       9.704       9.004       694.446     808.465     2.424       35.185      3.619       2.369       8.204       17.648      81.37       40.762      0.981       889.89      
60.3        24.831      156.551     4.899       7.264       8.404       7.904       9.704       9.004       746.047     833.562     2.412       33.057      4.01        2.386       8.204       16.874      87.762      40.618      0.981       964.256     
60.4        35.645      156.455     4.675       7.264       8.404       7.904       9.704       9.004       775.669     844.969     2.433       31.817      4.107       2.376       8.204       16.211      93.044      40.687      0.981       1044.42     
60.5        30.974      157.226     4.395       7.264       8.404       7.904       9.704       8.704       779.491     839.036     2.476       32.89       3.784       2.357       8.204       15.785      96.837      40.809      0.981       1115.094    
60.6        28.314      159.05      4.252       7.264       8.404       8.204       9.704       8.704       773.279     829.455     2.519       34.587      3.703       2.337       8.204       15.374      99.49       40.719      0.981       1144.629    
60.7        22.699      161.797     4.332       7.264       8.404       8.204       9.704       8.704       784.268     834.474     2.564       35.197      3.684       2.339       8.204       14.984      101.447     40.645      0.981       1125.642    
60.8        20.893      162.552     4.506       7.264       8.404       8.204       9.704       8.704       817.236     865.503     2.627       34.966      3.675       2.348       8.204       14.574      103.087     40.53       0.981       1061.297    
60.9        25.468      165.169     4.73        7.264       8.404       8.204       9.704       8.704       859.757     902.918     2.663       34.407      3.403       2.234       8.204       14.122      105.195     40.267      0.981       981.66      
61.0        21.777      166.716     4.912       7.264       8.404       8.204       9.704       8.704       886.991     930.296     2.669       34.082      3.335       2.088       7.904       13.806      107.42      39.7        0.981       909.931     
61.1        19.231      169.041     5.19        7.264       8.404       8.204       9.704       8.704       880.303     934.859     2.645       34.515      3.131       2.014       7.904       13.391      108.967     38.771      0.981       867.739     
61.2        15.382      169.185     5.508       7.264       8.404       8.204       9.704       8.704       857.848     937.597     2.623       37.678      2.996       1.939       7.904       12.992      109.295     37.638      0.981       858.774     
61.3        12.942      169.948     5.893       7.264       8.404       8.204       9.704       8.704       867.407     956.762     2.585       41.286      2.601       1.899       7.904       12.784      108.951     36.474      0.981       880.925     
61.4        11.376      170.108     6.203       7.264       8.404       8.204       9.704       8.704       955.965     1019.726    2.575       44.561      2.503       1.888       7.604       12.49       108.08      35.599      0.981       934.72      
61.5        10.839      170.94      6.366       7.264       8.404       8.204       9.704       8.704       1107.978    1102.542    2.555       45.158      2.475       1.871       7.604       12.142      106.671     35.07       0.976       1019.107    
61.6        10.617      170.773     6.417       7.264       8.404       8.504       9.704       8.704       1216.19     1145.436    2.531       45.435      2.447       1.843       7.604       11.846      104.66      34.857      0.976       1117.428    
61.7        10.046      169.994     6.5         7.264       8.404       8.504       9.704       8.704       1180.274    1055.349    2.49        46.12       2.374       1.82        7.604       11.637      103.336     34.665      0.976       1181.151    
