~Version Information Section
VERS.                                         2.0:CWLS log ASCII Standart – VERSION 2.0
WRAP.                                          NO:One line per depth step
~Well Information Section
STRT.M                                        0.6:Начальная глубина
STOP.M                                      208.2:Конечная глубина
STEP.M                                          0:Шаг квантования по глубине
NULL.                                    -9999.25:Признак "Нет данных"
WELL.                                       156Мх:Скважина
~Parameter Information Section
~Curve Information Section
DEPTH.M                                          :Глубина
БК.Ом                                            :BK     (БК)
DСР.мм                                           :DS  (ДС)
ПЛОТНОСТЬ.г/см^3                                 :GGKp
ГК.мкР/час                                       :GK          (ГК)
А0.4М0.1N.Ом                                     :GZ1   ГЗ1(A0.4M0.1N)
А1.0М0.1N.Ом                                     :GZ2   ГЗ2(A1.0M0.1N)
А2.0М0.5N.Ом                                     :GZ3   ГЗ3(A2.0M0.5N)
А4.0М0.5N.Oм                                     :GZ4   ГЗ4(A4.0M0.5N)
А8.0М1.0N.Ом                                     :GZ5   ГЗ5(A8.0M0.5N)
N0.5M2.0A.Ом                                     :GZR   ГЗK(N0.5M2.0A)
ИК.мСм/м                                         :IK
НГК.усл.ед                                       :NGK     (НГК)
ННКМ.усл.ед                                      :NNKm  (ННКм)
ПС.mv                                            :PS       (ПС)
N11.0M0.5A.Ом                                    :PZ    (КС)
РЕЗИСТИВИМЕТР.Ом                                 :RS (Резистивиметр)
КПSIO.%                                          :W
~ASCII LOG DATA
# ...
85.7        37.867      151.932     2.297       5.558       55.938      50.247      23.322      23.091      31.058      40.601      27.913      1.298       1.558       51.326      58.528      1.31        23.927      
85.8        30.165      153.459     2.284       5.677       51.427      52.99       22.777      22.392      28.79       34.935      27.291      1.259       1.501       51.435      58.736      1.31        24.871      
85.9        33.5        151.91      2.279       5.736       50.787      59.0        22.463      22.414      26.787      31.349      26.595      1.241       1.454       51.631      56.641      1.31        25.543      
86.0        40.565      152.548     2.28        5.769       53.701      67.548      22.057      22.681      24.739      29.173      25.891      1.233       1.406       51.764      52.94       1.31        25.953      
86.1        39.987      152.588     2.284       5.918       54.582      70.082      21.249      22.39       22.786      27.983      25.199      1.224       1.382       51.746      49.506      1.31        26.187      
86.2        34.302      151.403     2.287       6.064       49.158      61.585      19.797      20.862      21.09       27.302      24.547      1.212       1.39        51.521      47.348      1.31        26.317      
86.3        29.903      150.576     2.283       6.208       39.782      47.288      17.58       18.054      19.563      26.338      23.94       1.189       1.388       51.302      45.609      1.31        26.593      
86.4        28.944      150.585     2.267       6.351       32.136      36.154      15.237      14.823      18.132      24.577      23.384      1.139       1.381       51.246      42.537      1.31        27.179      
86.5        32.501      150.937     2.241       6.588       28.073      30.494      13.781      12.198      16.555      22.307      22.881      1.081       1.363       51.174      37.81       1.31        27.969      
86.6        36.293      153.088     2.205       7.045       24.748      26.268      13.677      10.693      14.919      20.023      22.422      1.024       1.324       51.008      32.942      1.31        28.947      
86.7        28.795      151.871     2.162       7.489       21.11       22.12       14.574      10.17       13.945      17.777      21.939      0.971       1.276       50.835      29.564      1.31        30.161      
86.8        17.515      151.01      2.116       7.901       18.564      19.407      16.201      10.381      14.031      15.564      21.398      0.928       1.194       50.879      27.932      1.31        31.388      
86.9        14.556      150.848     2.078       8.325       17.952      19.088      19.055      11.437      14.984      13.822      20.801      0.908       1.118       51.285      27.206      1.31        32.588      
87.0        14.252      151.142     2.051       8.632       18.552      20.438      23.955      13.374      16.203      13.062      20.219      0.913       1.032       52.035      26.714      1.31        33.619      
87.1        13.872      152.371     2.041       8.514       19.897      23.466      30.681      15.759      17.486      13.397      19.752      0.94        0.957       52.989      26.324      1.31        34.458      
87.2        13.593      157.868     2.055       8.209       22.664      27.979      37.936      17.994      18.783      14.603      19.46       0.979       0.906       53.954      26.135      1.31        34.865      
87.3        13.543      157.774     2.089       7.943       26.48       31.472      44.383      19.719      20.088      16.804      19.353      1.014       0.898       55.04       26.233      1.31        34.814      
87.4        14.071      160.42      2.134       7.645       29.885      31.885      48.711      20.635      21.161      19.928      19.421      1.042       0.906       56.223      26.569      1.31        34.246      
87.5        16.073      164.392     2.183       7.319       32.589      30.328      50.043      20.61       22.161      23.203      19.675      1.058       0.96        57.318      26.944      1.31        33.318      
87.6        19.564      181.062     2.228       7.067       35.142      28.714      48.608      20.007      23.151      25.698      20.109      1.064       1.018       58.252      27.111      1.31        32.09       
87.7        22.405      200.593     2.258       6.947       37.152      27.066      46.185      19.52       23.889      27.059      20.677      1.072       1.104       58.787      27.155      1.31        30.844      
87.8        30.236      181.171     2.27        6.799       37.162      24.757      44.632      19.539      23.925      27.301      21.268      1.081       1.189       58.709      27.424      1.31        29.599      
87.9        38.923      155.666     2.267       6.799       36.107      23.785      44.499      19.943      23.31       26.352      21.76       1.091       1.239       58.174      28.023      1.31        28.761      
88.0        31.399      153.444     2.258       6.799       37.092      26.634      45.047      20.402      22.4        24.635      22.05       1.099       1.263       57.544      29.079      1.31        28.415      
88.1        28.351      151.938     2.249       6.835       40.566      32.163      45.401      20.595      21.663      23.196      22.108      1.103       1.273       56.996      30.532      1.31        28.374      
88.2        27.626      151.732     2.241       6.998       42.025      35.505      44.908      20.284      21.166      22.854      21.94       1.104       1.242       56.077      32.076      1.31        28.551      
88.3        24.463      149.691     2.234       7.213       38.389      33.552      43.169      19.501      20.857      23.364      21.613      1.099       1.21        54.724      33.171      1.31        29.077      
88.4        22.811      149.206     2.226       7.33        32.324      28.829      40.158      18.81       20.504      23.786      21.171      1.09        1.196       53.291      33.193      1.31        29.622      
88.5        23.182      149.191     2.215       7.529       29.505      26.926      36.566      18.906      19.783      23.436      20.705      1.085       1.189       51.824      31.813      1.31        29.981      
88.6        25.656      149.118     2.197       7.812       30.956      29.149      33.66       20.151      18.477      22.415      20.237      1.085       1.211       50.574      29.359      1.31        30.247      
88.7        29.424      149.008     2.178       8.042       32.36       31.36       31.986      22.192      16.827      21.313      19.762      1.089       1.232       49.727      26.94       1.31        30.413      
88.8        25.72       149.022     2.16        8.216       30.768      30.217      30.584      24.031      15.324      20.569      19.261      1.101       1.216       49.41       25.693      1.31        30.464      
88.9        17.832      149.115     2.148       8.259       27.137      26.307      28.261      24.933      14.34       20.162      18.75       1.115       1.202       49.596      25.616      1.31        30.384      
89.0        15.698      149.567     2.142       8.22        24.003      22.382      25.033      24.92       13.725      19.914      18.26       1.127       1.19        49.965      25.569      1.31        30.181      
89.1        16.97       151.419     2.142       8.144       22.069      19.889      21.828      24.56       13.022      19.578      17.816      1.132       1.161       50.392      24.614      1.31        29.829      
89.2        19.041      149.98      2.144       8.282       20.818      18.637      19.506      24.326      12.172      18.871      17.43       1.123       1.133       50.948      22.805      1.31        29.868      
89.3        19.878      150.092     2.147       8.605       19.628      17.686      18.258      24.253      11.351      17.794      17.099      1.092       1.143       51.635      20.975      1.31        30.212      
