~Version Information Section
VERS.                                         2.0:CWLS log ASCII Standart – VERSION 2.0
WRAP.                                          NO:One line per depth step
~Well Information Section
STRT.M                                        0.0:Начальная глубина
STOP.M                                      211.0:Конечная глубина
STEP.M                                          0:Шаг квантования по глубине
NULL.                                    -9999.25:Признак "Нет данных"
WELL.                                       125Мх:Скважина
~Parameter Information Section
~Curve Information Section
DEPTH.M                                          :Глубина
BK.lgОмм                                         :BK
D.                                               :D sr
GGKP.g/sm3                                       :GGKp
ГК.гамма                                         :GK
ИК.мСм/м                                         :IK
KP.%                                             :Kp
PS.                                              :PS       (ПС)
PZ.Омм                                           :PZ
RIS.Омм                                          :RIS
U1.                                              :U1
U2.                                              :U2
U3.                                              :U3
БЗ.                                              :БЗ (ГГК-1)
ГЗ1.Омм                                          :ГЗ1
ГЗ2.Омм                                          :ГЗ2
ГЗ3.Омм                                          :ГЗ3
ГЗ4.Oмм                                          :ГЗ4
ГЗ5.Oмм                                          :ГЗ5
ГЗК.Омм                                          :ГЗК
ИКБ.мСм/м                                        :ИКБ
МЗ.                                              :МЗ жесткий (ГГК-4)
ННКМ.усл.ед                                      :ННКм
ИКМ.мСм/м                                        :ИКМ
НГК.усл.ед                                       :ННКб
~ASCII LOG DATA
# ...
132.3       21.577      126.706     2.416       6.668       22.698      29.854      139.061     38.546      1.107       429.745     102.312     251.598     12108.571   35.763      35.136      40.741      22.748      21.065      37.465      24.652      19257.143   1.023       16.744      1.997       
132.4       21.827      129.536     2.421       7.002       22.347      30.563      138.559     37.896      1.107       426.864     98.999      253.313     11838.571   32.358      33.053      37.667      23.654      20.595      37.293      24.475      19255.715   1.01        16.584      1.972       
132.5       22.08       131.493     2.421       7.106       22.043      30.897      137.939     37.468      1.107       410.57      96.826      251.114     11802.857   31.281      32.748      35.887      25.389      20.449      37.368      24.398      18810.0     0.986       16.499      1.987       
132.6       22.182      131.809     2.411       7.037       21.784      30.54       137.217     37.312      1.107       394.898     94.938      249.911     11694.667   31.827      33.056      35.222      27.351      20.636      37.805      24.425      18568.0     0.974       16.522      2.106       
132.7       22.594      131.519     2.401       6.687       21.663      29.216      136.405     37.473      1.108       384.937     97.526      252.692     12014.286   33.117      33.457      35.242      29.322      21.001      39.103      24.574      18318.572   0.962       16.686      2.165       
132.8       23.121      131.319     2.396       6.115       21.649      27.827      135.517     37.945      1.108       388.142     101.977     258.095     11773.75    34.643      33.302      35.484      31.361      21.285      41.377      24.86       17566.25    0.959       17.002      2.263       
132.9       24.66       130.244     2.395       5.535       21.736      26.942      134.563     38.661      1.107       397.534     107.487     266.363     11280.0     36.757      33.111      35.636      33.584      21.371      44.435      25.258      16992.309   0.964       17.407      2.3         
133.0       29.309      128.395     2.4         5.073       21.921      26.63       133.552     39.534      1.108       408.147     112.248     275.091     11052.0     39.372      33.255      35.762      35.932      21.343      48.158      25.735      16910.666   1.031       17.819      2.359       
133.1       37.757      127.121     2.406       4.787       22.253      26.669      132.491     40.511      1.108       418.139     116.723     282.822     10687.143   41.66       33.524      36.019      38.202      21.318      51.981      26.274      16874.285   1.054       18.24       2.388       
133.2       45.499      127.843     2.411       4.838       22.686      27.251      131.385     41.559      1.108       421.493     118.897     284.881     10938.667   43.731      34.215      36.299      40.116      21.462      55.406      26.865      17286.666   1.083       18.676      2.424       
133.3       43.954      126.805     2.411       5.071       23.172      27.972      130.239     42.695      1.108       415.618     118.498     277.547     11477.143   45.813      34.859      36.457      41.515      21.634      58.114      27.489      18281.428   1.089       19.104      2.354       
133.4       37.67       127.234     2.406       5.222       23.722      28.158      129.057     43.921      1.108       405.933     115.812     263.615     11660.0     47.527      35.417      36.472      42.358      21.987      60.164      28.159      18737.5     1.072       19.532      2.293       
133.5       33.42       127.783     2.402       5.326       24.308      28.06       127.844     45.193      1.108       392.813     108.243     243.012     11842.857   48.557      35.774      36.406      43.061      22.229      61.992      28.896      18830.0     1.066       19.948      2.372       
133.6       31.842      126.221     2.395       5.516       24.875      28.003      126.605     46.446      1.108       376.799     98.625      221.251     12081.333   48.77       36.218      36.334      43.89       22.446      63.633      29.673      19008.0     1.06        20.355      2.438       
133.7       31.189      126.841     2.39        5.417       25.418      27.811      125.348     47.628      1.108       362.565     90.006      204.523     11867.692   49.5        37.704      36.399      44.662      22.606      64.959      30.454      18389.23    1.063       20.734      2.399       
133.8       31.989      126.98      2.387       5.342       25.943      27.709      124.079     48.745      1.108       351.946     85.685      198.266     11984.706   50.78       39.764      36.786      44.916      22.898      66.018      31.234      18034.117   1.07        21.083      2.379       
133.9       35.727      126.183     2.383       5.23        26.475      28.011      122.805     49.87       1.109       341.642     83.846      198.728     12258.462   52.698      42.173      37.297      44.574      23.645      66.879      32.016      18695.385   1.097       21.459      2.383       
134.0       40.458      125.752     2.378       5.208       26.961      28.34       121.534     51.082      1.108       334.643     85.368      204.258     12298.571   55.13       44.412      37.577      43.764      24.273      67.987      32.806      18791.428   1.11        21.857      2.362       
134.1       41.115      125.991     2.377       5.01        27.439      28.519      120.272     52.427      1.108       331.624     89.551      210.949     12612.0     56.995      45.442      37.648      42.702      24.927      69.52       33.616      18982.666   1.049       22.287      2.296       
134.2       40.179      126.623     2.377       4.828       27.949      29.188      119.026     53.903      1.109       331.095     93.734      217.642     12794.286   57.171      45.06       37.523      41.647      25.619      71.652      34.455      19010.0     1.041       22.725      2.289       
134.3       40.926      126.612     2.377       4.873       28.473      29.389      117.802     55.488      1.109       337.369     97.291      222.254     12712.0     57.421      45.046      37.333      41.126      26.251      74.118      35.3        18846.666   1.134       23.125      2.294       
134.4       44.875      125.586     2.377       5.088       29.032      28.873      116.603     57.191      1.109       344.006     99.595      223.879     12467.143   58.402      45.978      37.222      41.235      26.914      76.222      36.132      19014.285   1.136       23.495      2.397       
134.5       48.641      126.14      2.375       5.219       29.653      28.909      115.435     59.107      1.109       350.532     100.988     223.278     12586.25    60.163      47.502      37.449      41.696      27.73       77.752      36.951      19080.0     1.107       23.845      2.542       
134.6       45.186      126.193     2.36        5.272       30.295      29.188      114.299     61.362      1.109       356.337     100.934     222.261     13033.846   62.1        49.147      37.977      42.62       28.766      79.218      37.782      19643.076   1.09        24.243      2.374       
134.7       37.411      127.178     2.34        5.155       30.928      28.586      113.201     63.98       1.109       362.504     100.042     220.83      13774.667   64.403      51.019      38.908      44.179      29.825      81.01       38.668      19909.334   1.047       24.744      2.211       
134.8       31.623      127.568     2.319       4.759       31.507      28.186      112.143     66.859      1.109       364.312     96.694      219.169     14660.0     67.17       53.216      40.448      46.266      30.981      83.299      39.618      19334.285   1.057       25.315      2.326       
134.9       35.4        124.119     2.3         4.501       32.066      28.286      111.128     69.882      1.109       366.121     92.507      217.092     14793.333   70.931      56.4        42.673      48.725      32.146      86.149      40.629      19332.0     1.074       25.91       2.401       
