~Version Information Section
VERS.                                         2.0:CWLS log ASCII Standart – VERSION 2.0
WRAP.                                          NO:One line per depth step
~Well Information Section
STRT.M                                        1.2:Начальная глубина
STOP.M                                      208.4:Конечная глубина
STEP.M                                          0:Шаг квантования по глубине
NULL.                                    -9999.25:Признак "Нет данных"
WELL.                                       109Мх:Скважина
~Parameter Information Section
~Curve Information Section
DEPTH.M                                          :Глубина
BK.Ohm*M                                         :BK     (БК)
DS.mm                                            :DS  (ДС)
GGK.g/cm3                                        :GGKp
ГК.mcr/h                                         :GK          (ГК)
GZ1.Ohm*M                                        :GZ1   ГЗ1(A0.4M0.1N)
GZ2.Ohm*M                                        :GZ2   ГЗ2(A1.0M0.1N)
GZ3.Ohm*M                                        :GZ3   ГЗ3(A2.0M0.5N)
GZ4.Ohm*M                                        :GZ4   ГЗ4(A4.0M0.5N)
GZ5.Ohm*M                                        :GZ5   ГЗ5(A8.0M0.5N)
GZR.Ohm*M                                        :GZK   ГЗK(N0.5M2.0A)
ИК.Ohm*M                                         :IK
НГК.u.e.                                         :NGK
NNKM.                                            :NNKm  (ННКм)
U1.mV                                            :U1
U2.mV                                            :U2
U3.mV                                            :U3
КП.%                                             :Кп
PS.mv                                            :PS       (ПС)
PZ.Ohm*M                                         :PZ    (КС)
RS.Ohm*M                                         :RS (Резистивиметр)
~ASCII LOG DATA
# ...
193.2       72.111      125.246     2.466       4.65        150.33      146.194     148.822     40.823      43.31       267.72      10.215      1.989       3.299       848.198     624.429     630.156     14.72       1121.852    195.074     -9999.25    
193.3       75.509      125.717     2.537       4.766       149.91      145.674     147.942     40.703      43.31       267.72      10.215      2.049       3.344       683.172     560.21      657.547     14.996      1122.129    194.714     -9999.25    
193.4       80.168      126.123     2.682       4.602       148.65      145.154     147.942     40.463      43.31       267.72      10.215      2.036       3.359       511.081     441.114     605.527     14.677      1122.355    194.281     -9999.25    
193.5       87.297      131.28      2.679       4.862       147.39      144.634     147.942     40.103      43.31       267.72      10.215      1.896       3.353       416.032     330.146     490.193     13.969      1122.531    193.632     -9999.25    
193.6       93.111      142.65      2.603       4.643       146.97      144.114     147.942     39.983      43.45       267.72      10.215      1.676       3.326       412.863     278.997     383.78      13.244      1122.665    192.983     -9999.25    
193.7       84.723      156.428     2.399       4.913       146.13      143.594     147.942     39.863      43.45       267.72      10.138      1.456       3.268       438.878     289.705     359.184     13.286      1122.774    192.262     -9999.25    
193.8       68.077      154.336     2.221       5.266       145.29      143.594     144.862     39.863      43.45       268.76      9.988       1.349       3.026       453.531     344.699     436.173     16.054      1122.866    191.613     -9999.25    
193.9       66.222      142.794     2.138       5.985       142.77      143.594     145.302     39.623      43.59       268.76      9.915       1.329       2.51        469.527     420.891     566.356     19.077      1122.942    191.109     -9999.25    
194.0       29.444      150.093     2.175       6.272       141.93      143.594     145.302     39.503      43.73       269.8       9.843       1.343       2.18        476.419     473.195     679.656     24.095      1123.0      190.892     -9999.25    
194.1       16.444      139.572     2.292       6.085       141.51      143.594     145.742     39.383      43.87       -9999.25    9.772       1.449       2.074       451.93      475.42      746.516     27.023      1123.042    190.964     -9999.25    
194.2       14.289      135.721     2.449       5.751       139.83      143.594     146.182     -9999.25    44.01       -9999.25    9.772       1.609       1.99        462.216     482.836     789.628     26.827      1123.076    191.613     -9999.25    
194.3       13.964      127.279     2.492       5.401       139.41      144.114     146.622     -9999.25    44.01       -9999.25    9.772       1.763       2.389       620.949     590.871     858.573     23.72       1123.101    191.613     -9999.25    
194.4       21.281      127.499     2.522       4.94        138.57      144.634     147.062     -9999.25    44.15       -9999.25    9.702       1.856       2.889       939.94      814.365     964.628     18.48       1123.126    191.541     -9999.25    
194.5       48.195      127.787     2.483       4.49        137.31      144.634     147.502     -9999.25    44.85       -9999.25    9.702       1.976       3.167       1232.348    994.445     1007.808    15.932      1123.151    191.253     -9999.25    
194.6       48.195      133.798     2.515       4.282       134.79      147.234     148.382     -9999.25    44.99       -9999.25    9.702       2.029       3.39        1274.046    945.587     876.861     13.771      1123.185    190.676     -9999.25    
194.7       61.659      144.688     2.494       4.246       133.95      148.274     149.702     -9999.25    44.99       -9999.25    9.702       2.069       3.423       1077.248    721.937     654.045     13.16       1123.235    189.811     -9999.25    
194.8       63.68       153.243     2.526       4.291       133.53      147.234     150.142     -9999.25    44.57       -9999.25    9.702       2.016       3.406       807.665     521.56      530.54      12.78       1123.302    188.585     -9999.25    
194.9       60.534      163.747     2.501       4.167       132.69      146.194     150.142     -9999.25    44.01       -9999.25    9.702       1.996       3.4         621.661     449.57      547.423     12.464      1123.386    187.215     -9999.25    
195.0       52.36       138.211     2.507       4.339       131.43      143.074     149.702     -9999.25    43.03       -9999.25    9.702       1.943       3.398       532.514     419.417     546.468     12.57       1123.486    185.341     -9999.25    
195.1       56.105      127.154     2.469       4.561       130.59      140.994     148.382     -9999.25    42.19       -9999.25    9.702       1.869       3.344       533.888     372.657     446.945     13.454      1123.604    183.033     -9999.25    
195.2       56.885      126.693     2.485       4.645       130.17      135.794     147.502     -9999.25    41.49       -9999.25    9.702       1.723       3.274       658.009     380.812     360.339     14.222      1123.738    180.221     -9999.25    
195.3       46.989      128.223     2.518       4.775       130.17      132.674     146.182     -9999.25    41.35       -9999.25    9.632       1.556       3.273       853.873     473.205     375.744     14.365      1123.889    176.472     -9999.25    
195.4       54.954      134.59      2.496       4.978       129.33      132.154     144.862     -9999.25    41.07       -9999.25    9.632       1.389       3.315       1014.371    583.495     447.86      14.184      1124.056    173.083     -9999.25    
195.5       53.58       135.049     2.414       5.853       127.65      131.634     144.422     -9999.25    40.93       -9999.25    9.632       1.316       3.224       1072.448    646.337     505.368     15.242      1124.241    169.694     -9999.25    
195.6       53.58       145.564     2.301       6.676       127.23      129.034     143.982     -9999.25    40.51       -9999.25    9.632       1.269       2.931       1056.915    671.739     546.938     16.956      1124.442    166.45      -9999.25    
195.7       42.364      152.527     2.276       7.298       127.23      126.434     141.342     -9999.25    40.37       -9999.25    9.632       1.243       2.694       1032.997    696.137     593.955     20.303      1124.66     163.493     -9999.25    
195.8       24.266      162.165     2.316       7.687       125.13      124.874     138.262     -9999.25    39.95       -9999.25    9.632       1.216       2.449       1028.393    736.053     656.455     22.57       1124.894    160.754     -9999.25    
195.9       19.055      151.551     2.365       7.398       124.71      123.834     135.182     -9999.25    39.81       -9999.25    9.632       1.203       2.267       1060.883    801.317     739.34      24.771      1125.137    158.374     -9999.25    
196.0       20.845      124.494     2.364       7.076       124.71      123.834     132.542     -9999.25    39.67       -9999.25    9.564       1.209       2.275       1085.802    857.32      818.891     25.086      1125.389    155.851     -9999.25    
196.1       21.627      122.658     2.365       6.389       123.03      122.794     131.222     -9999.25    39.39       -9999.25    9.564       1.223       2.282       1014.39     837.058     851.006     24.958      1125.64     153.76      -9999.25    
196.2       24.717      122.377     2.412       6.072       122.61      122.274     130.782     -9999.25    38.97       -9999.25    9.564       1.236       2.332       892.56      755.091     823.25      24.514      1125.892    151.524     -9999.25    
196.3       25.763      121.743     2.462       6.354       122.19      120.714     129.902     -9999.25    38.69       -9999.25    9.497       1.236       2.383       915.076     715.747     760.734     23.845      1126.135    149.578     -9999.25    
