~Version Information Section
VERS.                                         2.0:CWLS log ASCII Standart – VERSION 2.0
WRAP.                                          NO:One line per depth step
~Well Information Section
STRT.M                                        0.4:Начальная глубина
STOP.M                                      170.2:Конечная глубина
STEP.M                                          0:Шаг квантования по глубине
NULL.                                    -9999.25:Признак "Нет данных"
WELL.                                       121Мх:Скважина
~Parameter Information Section
~Curve Information Section
DEPTH.M                                          :Глубина
BK.Ohm*M                                         :BK     (БК)
DS.mm                                            :DS  (ДС)
GGK.g/cm3                                        :GGKp
ГК.mcr/h                                         :GK          (ГК)
GZ1.Ohm*M                                        :GZ1   ГЗ1(A0.4M0.1N)
GZ2.Ohm*M                                        :GZ2   ГЗ2(A1.0M0.1N)
GZ3.Ohm*M                                        :GZ3   ГЗ3(A2.0M0.5N)
GZ4.Ohm*M                                        :GZ4   ГЗ4(A4.0M0.5N)
GZ5.Ohm*M                                        :GZ5   ГЗ5(A8.0M0.5N)
GZR.Ohm*M                                        :GZK   ГЗK(N0.5M2.0A)
ИК.Ohm*M                                         :IK
НГК.u.e.                                         :NGK
NNKM.                                            :NNKm  (ННКм)
PS.mv                                            :PS       (ПС)
PZ.Ohm*M                                         :PZ    (КС)
RS.Ohm*M                                         :RS (Резистивиметр)
U1.mV                                            :U1
U2.mV                                            :U2
U3.mV                                            :U3
КП.%                                             :Кп
~ASCII LOG DATA
# ...
154.0       35.481      121.343     2.499       4.104       48.756      18.298      17.29       48.049      53.055      31.597      9.818       1.382       2.523       387.392     41.26       1.08        441.333     381.6       379.2       29.025      
154.2       30.974      121.068     2.552       4.814       60.066      23.019      20.114      52.057      59.794      33.384      10.397      1.304       2.636       390.176     42.507      1.08        432.8       353.601     380.8       27.696      
154.4       31.477      120.889     2.516       4.935       76.408      27.995      24.422      56.842      67.481      34.319      10.802      1.234       2.584       392.64      45.195      1.08        422.133     328.8       398.401     30.103      
154.6       26.363      120.975     2.501       4.653       97.371      33.89       28.998      60.993      73.822      33.423      11.113      1.359       2.484       394.656     48.624      1.08        416.533     344.8       423.2       32.113      
154.8       35.727      121.375     2.522       4.101       114.157     37.502      31.254      63.289      77.822      30.68       11.487      1.483       2.555       396.208     51.685      1.08        413.333     356.8       424.0       27.219      
155.0       194.536     121.326     2.508       3.611       122.017     37.733      30.746      63.077      78.934      26.196      11.826      1.626       2.955       397.28      53.862      1.08        400.0       352.8       404.0       23.572      
155.2       76.56       121.427     2.508       3.622       118.361     36.406      28.68       61.021      78.059      22.49       11.94       1.599       2.866       397.824     55.312      1.08        366.135     332.8       384.8       27.922      
155.4       134.277     121.496     2.483       3.947       107.782     37.916      27.262      58.629      76.76       20.8        11.881      1.381       2.756       397.984     56.41       -9999.25    324.265     310.399     364.799     28.124      
155.6       97.949      121.309     2.417       3.545       99.185      43.847      27.96       57.878      76.574      21.351      11.696      1.36        2.672       398.0       57.584      -9999.25    318.934     293.6       335.199     29.908      
155.8       63.826      121.316     2.39        3.573       96.805      50.691      30.651      58.074      77.438      22.273      11.35       1.332       2.601       398.064     59.151      -9999.25    337.067     287.2       288.8       31.234      
156.0       42.462      121.287     2.387       3.636       97.162      53.62       32.778      58.132      78.643      22.554      10.889      1.372       2.643       398.592     61.049      -9999.25    342.667     256.001     268.0       29.935      
156.2       43.152      121.237     2.493       3.887       95.096      52.837      33.883      58.244      78.112      21.731      10.444      1.593       2.71        400.448     62.662      -9999.25    321.601     216.8       256.8       25.728      
156.4       58.345      121.106     2.621       3.55        93.181      50.193      33.604      57.705      74.335      20.772      10.0        1.755       2.981       404.48      63.078      -9999.25    283.998     208.0       252.0       21.49       
156.6       195.434     121.328     2.671       3.274       83.169      44.161      31.314      55.08       67.691      19.531      9.311       1.812       3.212       410.24      62.837      -9999.25    240.848     180.474     244.8       18.111      
156.8       97.275      121.473     2.502       3.08        67.226      36.207      27.689      51.394      59.61       18.792      8.646       1.744       3.134       416.304     60.398      -9999.25    201.057     165.658     228.8       24.432      
157.0       57.943      121.494     2.379       3.736       50.394      29.863      24.49       48.346      50.82       18.41       8.227       1.502       2.706       421.488     54.941      -9999.25    188.809     180.226     213.6       29.005      
157.2       56.364      121.504     2.409       4.582       41.497      25.956      21.496      45.106      43.059      17.543      7.819       1.434       2.598       426.016     48.23       -9999.25    200.764     186.461     203.2       28.895      
157.4       67.92       121.557     2.593       4.06        33.249      20.585      17.738      42.09       37.769      15.812      7.123       1.6         2.751       430.688     42.874      -9999.25    216.789     188.177     191.2       20.748      
157.6       8.913       121.861     2.761       3.787       26.605      14.039      13.734      39.684      34.972      13.582      6.254       1.507       3.113       435.392     40.24       -9999.25    218.228     181.619     188.743     19.526      
157.8       11.455      122.481     2.609       5.277       23.197      9.543       10.774      37.944      33.532      11.169      6.175       1.335       2.534       439.152     39.344      -9999.25    223.666     191.672     166.353     30.267      
158.0       16.144      123.365     2.534       6.541       23.801      8.308       9.425       36.706      33.465      9.9         6.863       1.174       2.066       441.216     38.922      -9999.25    216.275     193.979     165.119     32.595      
158.2       16.069      123.15      2.522       6.706       24.067      7.786       9.177       36.245      34.191      10.074      7.294       1.164       2.048       441.904     38.504      -9999.25    205.119     207.502     160.314     33.862      
158.4       14.028      121.893     2.502       6.474       24.327      7.656       9.694       36.51       34.582      11.142      7.539       1.194       1.984       442.032     38.021      -9999.25    224.944     218.264     183.615     32.323      
158.6       14.355      121.913     2.506       6.654       25.377      8.483       11.228      37.643      34.581      12.949      7.651       1.145       1.996       442.352     37.39       -9999.25    239.9       216.726     208.718     33.77       
158.8       17.378      121.642     2.553       6.506       28.697      11.192      14.063      39.711      34.628      15.502      7.744       1.016       2.006       443.616     36.535      -9999.25    211.513     205.008     212.563     35.247      
159.0       16.032      121.727     2.542       6.272       33.216      14.3        17.488      42.456      35.166      18.398      7.943       1.037       2.071       446.688     35.566      -9999.25    187.866     206.762     206.267     37.012      
159.2       16.406      121.683     2.452       6.491       36.952      16.267      19.721      45.578      35.456      21.323      8.076       1.084       2.06        451.936     35.2        -9999.25    203.235     212.051     215.857     37.056      
159.4       36.308      121.709     2.395       6.158       37.861      15.983      19.763      47.144      35.596      22.48       8.098       1.178       2.124       458.624     35.8        -9999.25    209.266     208.79      230.651     35.961      
159.6       39.174      121.464     2.385       5.973       37.366      14.734      17.718      -9999.25    34.832      -9999.25    8.158       1.233       2.286       465.616     36.6        -9999.25    195.522     214.241     219.695     33.569      
159.8       55.847      121.597     2.451       5.312       34.314      11.929      13.934      -9999.25    33.387      -9999.25    8.036       1.271       2.436       472.16      36.8        -9999.25    203.296     221.6       210.993     28.728      
160.0       48.306      121.659     2.496       5.609       30.067      9.335       9.116       -9999.25    31.193      -9999.25    7.804       1.216       2.506       477.968     36.1        -9999.25    212.374     214.545     245.268     27.596      
160.2       15.101      122.059     2.487       6.423       26.648      8.18        5.078       -9999.25    29.174      -9999.25    7.592       1.127       2.136       482.912     34.9        -9999.25    206.38      202.545     252.685     35.486      
