~Version Information Section
VERS.                                         2.0:CWLS log ASCII Standart – VERSION 2.0
WRAP.                                          NO:One line per depth step
~Well Information Section
STRT.M                                        2.1:Начальная глубина
STOP.M                                      196.8:Конечная глубина
STEP.M                                          0:Шаг квантования по глубине
NULL.                                    -9999.25:Признак "Нет данных"
WELL.                                       154Мх:Скважина
~Parameter Information Section
~Curve Information Section
DEPTH.M                                          :Глубина
BK.lgОмм                                         :BK     (БК)
DСР.мм                                           :DS  (ДС)
ГГКП.g/cm3                                       :GGKp
ГК.мкР/час                                       :GK          (ГК)
ГЗ1.Омм                                          :GZ1   ГЗ1(A0.4M0.1N)
ГЗ2.Омм                                          :GZ2   ГЗ2(A1.0M0.1N)
ГЗ3.Омм                                          :GZ3   ГЗ3(A2.0M0.5N)
ГЗ4.Oмм                                          :GZ4   ГЗ4(A4.0M0.5N)
ГЗ5.Oмм                                          :GZ5   ГЗ5(A8.0M0.5N)
ГЗК.Омм                                          :GZR   ГЗK(N0.5M2.0A)
ИК.мСм/м                                         :IK
НГК.усл.ед.                                      :NGK     (НГК)
РЕЗ.Омм                                          :RS (Резистивиметр)
W.                                               :W
ННКМ.усл.ед                                      :NNKm  (ННКм)
PS.мB                                            :PS       (ПС)
~ASCII LOG DATA
# ...
90.1        17.236      149.925     2.252       6.896       87.75       43.234      49.382      15.263      16.15       57.64       18.552      1.019       0.975       37.67       1.018       58.888      
90.2        16.389      150.821     2.237       6.827       87.33       42.714      48.942      15.263      16.01       55.56       18.362      1.029       0.975       38.193      0.996       59.327      
90.3        15.542      151.064     2.2         6.616       86.91       42.194      48.502      15.143      15.87       54.52       18.362      1.056       0.975       37.779      0.98        59.719      
90.4        15.591      150.963     2.164       6.497       86.91       41.154      48.502      15.023      15.87       54.52       18.08       1.098       0.975       36.697      0.983       60.106      
90.5        16.79       151.294     2.146       6.15        86.91       41.154      48.502      14.903      15.73       53.48       17.866      1.076       0.975       35.78       1.003       60.519      
90.6        17.989      150.787     2.151       6.032       86.91       40.114      48.502      14.903      15.45       52.44       17.866      1.061       0.975       35.678      1.029       60.885      
90.7        22.127      151.25      2.175       6.179       86.91       39.594      47.622      14.783      15.45       51.4        17.685      1.044       0.975       35.897      1.048       61.246      
90.8        23.9        152.353     2.189       6.233       86.91       39.074      47.622      14.663      15.31       51.4        17.685      0.997       0.975       36.727      1.056       61.607      
90.9        23.23       152.012     2.207       6.37        86.91       39.074      47.622      14.543      15.17       50.36       17.567      0.944       0.975       38.289      1.057       61.965      
91.0        19.269      151.304     2.22        6.7         86.91       38.554      47.622      14.543      15.17       49.32       17.483      0.958       0.975       40.144      1.047       62.276      
91.1        16.194      151.607     2.199       6.898       86.91       37.514      47.622      14.423      15.17       48.28       17.334      0.954       0.975       41.792      1.024       62.663      
91.2        15.304      150.807     2.183       6.94        86.91       37.514      47.622      14.423      15.17       47.24       17.334      0.956       0.975       42.365      0.997       62.972      
91.3        14.415      150.768     2.191       7.092       86.91       36.994      47.622      14.303      15.03       47.24       17.074      0.958       0.975       41.398      0.972       63.231      
91.4        14.136      149.62      2.204       7.262       86.91       36.474      47.622      14.303      14.89       47.24       16.917      0.941       0.975       39.641      0.959       63.567      
91.5        14.115      149.667     2.192       7.38        86.91       35.954      48.062      14.183      14.89       45.16       16.917      0.939       0.975       37.736      0.956       63.899      
91.6        14.752      149.776     2.216       7.526       86.91       35.954      48.062      14.183      14.75       44.12       16.69       0.944       0.975       36.112      0.959       64.21       
91.7        16.362      148.93      2.226       7.477       86.07       35.434      48.062      14.183      14.61       44.12       16.556      0.939       0.975       34.858      0.974       64.52       
91.8        17.972      148.895     2.25        7.294       86.07       34.914      48.062      14.183      14.61       44.12       16.556      0.941       0.975       34.671      0.99        64.804      
91.9        18.448      148.986     2.279       7.203       85.65       34.394      48.062      14.063      14.61       44.12       16.566      0.954       0.975       35.524      0.996       65.161      
92.0        17.363      149.07      2.313       7.11        85.65       33.874      48.062      14.063      14.61       44.12       16.529      0.943       0.975       36.701      0.993       65.523      
92.1        16.278      148.904     2.312       6.933       85.23       33.874      48.502      14.063      14.61       44.12       16.529      0.93        0.975       37.252      0.985       65.884      
92.2        15.549      148.971     2.276       6.832       85.23       33.874      48.942      13.943      14.61       44.12       16.641      0.947       0.975       37.514      0.975       66.248      
92.3        15.525      149.087     2.246       6.814       84.81       33.874      48.942      13.823      14.61       44.12       16.717      0.985       0.975       37.532      0.971       66.68       
92.4        15.537      149.061     2.199       6.46        84.81       33.874      48.942      13.823      14.61       44.12       16.744      0.998       0.975       36.945      0.969       67.118      
92.5        15.668      149.1       2.205       5.894       84.39       33.874      48.942      13.703      14.61       44.12       16.744      1.063       0.975       35.8        0.967       67.634      
92.6        15.422      149.089     2.251       5.414       83.97       33.874      48.942      13.703      14.61       44.12       16.712      1.109       0.975       34.464      0.969       68.181      
92.7        15.141      149.1       2.297       4.972       83.97       33.874      48.942      13.703      14.61       44.12       16.803      1.129       0.975       33.09       0.997       68.821      
92.8        15.541      149.077     2.308       4.488       83.97       33.874      48.942      13.703      14.61       44.12       16.803      1.141       0.975       31.468      1.044       69.44       
92.9        18.366      149.176     2.321       4.312       83.97       33.874      48.502      13.703      14.61       44.12       16.825      1.164       0.975       30.861      1.089       70.135      
93.0        21.191      149.276     2.302       4.547       83.97       33.874      48.502      13.703      14.61       45.16       16.825      1.123       0.975       30.762      1.134       70.711      
93.1        23.626      149.34      2.252       4.687       83.97       34.394      48.502      13.703      14.61       46.2        16.995      1.105       0.975       31.358      1.173       71.356      
93.2        24.924      149.311     2.241       5.038       83.97       34.394      48.502      13.703      14.61       47.24       17.135      1.093       0.975       32.791      1.184       71.975      
93.3        26.221      149.374     2.251       5.422       83.97       34.914      48.502      13.703      14.61       47.24       17.135      1.054       0.975       34.532      1.168       72.54       
93.4        25.93       149.399     2.257       5.816       83.97       35.434      48.502      13.703      14.61       47.24       17.339      1.018       0.975       35.029      1.15        73.009      
93.5        22.864      149.43      2.253       5.969       83.97       35.954      48.502      13.703      14.61       47.24       17.441      0.99        0.975       35.22       1.131       73.5        
93.6        19.798      149.462     2.259       6.037       83.97       35.954      48.502      13.703      14.61       47.24       17.441      0.992       0.975       35.642      1.108       73.862      
93.7        17.72       149.626     2.274       5.867       83.97       34.914      48.502      13.823      14.61       47.24       17.542      0.966       0.975       35.522      1.087       74.296      
93.8        17.45       149.618     2.262       5.867       83.97       34.394      48.502      13.823      14.61       47.24       17.483      0.961       0.975       35.298      1.075       74.696      
93.9        17.299      149.777     2.286       6.029       84.39       33.874      48.502      13.943      14.61       47.24       17.425      0.958       0.975       35.604      1.069       75.031      
94.0        17.459      150.051     2.304       5.993       84.81       33.354      48.502      13.943      14.61       47.24       17.425      0.973       0.975       35.847      1.065       75.369      
