~Version Information Section
VERS.                                         2.0:CWLS log ASCII Standart – VERSION 2.0
WRAP.                                          NO:One line per depth step
~Well Information Section
STRT.M                                        0.6:Начальная глубина
STOP.M                                      191.4:Конечная глубина
STEP.M                                          0:Шаг квантования по глубине
NULL.                                    -9999.25:Признак "Нет данных"
WELL.                                       129Мх:Скважина
~Parameter Information Section
~Curve Information Section
DEPTH.M                                          :Глубина
BK.lgОмм                                         :BK     (БК)
ПРОФ_СР.мм                                       :DS  (ДС)
ГК.имп/мин                                       :GK          (ГК)
ГЗ1.Омм                                          :GZ1   ГЗ1(A0.4M0.1N)
ГЗ2.Омм                                          :GZ2   ГЗ2(A1.0M0.1N)
ГЗ3.Омм                                          :GZ3   ГЗ3(A2.0M0.5N)
ГЗ4.Oмм                                          :GZ4   ГЗ4(A4.0M0.5N)
ГЗ5.Oмм                                          :GZ5   ГЗ5(A8.0M0.5N)
ГЗК.Омм                                          :GZK   ГЗK(N0.5M2.0A)
ИК.мСм/м                                         :IK
НГК.усл.ед                                       :NNKb  (ННКб)
ННКМ.усл.ед                                      :NNKm  (ННКм)
PZ.Омм                                           :PZ    (КС)
РЕЗ.Омм                                          :RS (Резистивиметр)
U1.мВ                                            :U1
U2.mV                                            :U2
U3.мВ                                            :U3
КП.%                                             :Кп
ПС.                                              :ПС
~ASCII LOG DATA
# ...
174.0       247.995     121.933     2.554       206.693     149.411     194.518     50.614      138.778     12.134      30.97       10.575      3.879       200.038     1.14        1304.0      1557.334    994.666     11.013      -125.36     
174.1       189.959     121.932     3.078       200.946     129.969     183.746     38.127      135.533     13.262      29.928      10.439      3.871       180.54      1.14        1320.001    1549.334    1008.001    11.96       -123.12     
174.2       135.8       121.753     3.341       193.187     113.234     171.279     27.512      133.044     14.017      29.928      10.34       3.831       160.456     1.14        1327.999    1583.998    1023.999    13.021      -120.92     
174.3       89.947      121.644     2.899       184.176     99.526      157.405     19.406      130.733     14.318      28.819      9.771       3.731       142.28      1.14        1328.0      1618.667    1034.667    15.298      -118.84     
174.4       90.874      121.834     2.995       174.852     88.885      142.624     14.104      128.378     14.318      27.302      8.458       3.62        127.692     1.14        1311.999    1656.001    1031.999    17.253      -116.68     
174.5       105.448     121.9       3.475       165.708     81.1        127.666     11.269      124.689     14.151      27.302      7.535       3.533       117.072     1.14        1298.667    1666.666    1024.001    19.448      -114.72     
174.6       94.828      121.592     3.75        156.791     75.691      113.373     10.217      118.467     13.662      26.29       6.565       3.405       109.64      1.14        1293.333    1672.0      1026.667    20.972      -112.8      
174.7       74.063      121.263     4.301       147.671     71.908      100.41      10.017      108.689     13.047      25.394      6.116       3.278       103.97      1.14        1298.666    1666.667    1037.333    21.783      -110.92     
174.8       41.549      120.809     5.094       138.101     68.858      89.095      10.017      96.644      12.475      25.09       5.496       3.007       98.737      1.14        1322.667    1656.0      1048.0      21.018      -109.0      
174.9       31.865      120.356     5.491       127.993     65.778      79.375      10.063      83.667      12.022      25.09       5.554       2.734       93.131      1.14        1354.668    1645.333    1045.333    19.58       -107.24     
175.0       24.971      120.628     5.676       117.597     62.355      71.048      10.09       72.2        11.785      24.852      5.746       2.729       86.955      1.14        1365.333    1642.667    1024.002    18.254      -105.68     
175.1       25.395      120.916     5.722       107.31      58.633      63.931      10.109      63.444      11.785      24.335      6.212       2.829       80.393      1.14        1357.332    1656.001    1005.332    17.903      -104.64     
175.2       40.66       121.224     4.493       97.565      54.836      57.985      10.126      58.422      12.118      24.057      6.601       3.038       73.793      1.14        1349.333    1658.667    978.667     19.446      -104.24     
175.3       52.937      121.117     4.493       88.462      51.084      53.241      10.139      55.756      13.12       23.977      6.478       3.186       67.481      1.14        1357.333    1656.0      970.667     21.327      -104.24     
175.4       57.502      120.891     3.859       79.776      47.396      49.681      10.148      54.244      14.593      23.977      6.16        3.184       61.722      1.14        1376.001    1618.665    962.667     23.324      -104.24     
175.5       44.16       121.204     4.218       71.418      43.81       47.114      10.491      52.733      15.767      24.011      5.504       3.056       56.678      1.14        1386.666    1592.002    965.333     24.556      -104.56     
175.6       32.213      121.19      4.934       63.63       40.469      45.256      11.17       51.267      16.378      23.82       5.035       2.806       52.423      1.14        1386.666    1573.334    968.0       25.267      -105.52     
175.7       27.978      121.24      4.942       56.982      37.635      43.882      12.307      49.756      16.378      23.743      4.599       2.664       48.937      1.14        1381.334    1583.999    962.667     24.495      -106.88     
175.8       36.903      121.133     4.954       52.035      35.753      43.056      13.228      48.244      16.133      23.743      4.796       2.64        46.123      1.14        1376.0      1597.333    957.333     23.56       -108.44     
175.9       42.068      121.394     4.32        49.16       35.205      42.995      13.933      46.733      15.4        23.799      5.151       2.666       43.855      1.14        1378.667    1616.001    968.001     22.421      -110.04     
176.0       47.336      121.468     3.686       48.415      35.205      42.995      14.3        45.311      14.178      23.778      5.338       2.715       42.01       1.14        1386.666    1618.667    991.998     21.199      -111.68     
176.1       44.875      121.224     3.456       48.415      36.248      43.881      14.667      43.933      13.091      23.989      5.671       2.803       40.523      1.14        1394.667    1615.999    1018.667    20.175      -113.4      
176.2       51.211      121.085     3.341       49.378      38.611      45.59       15.033      42.689      12.1        23.989      6.106       2.909       39.457      1.14        1400.0      1608.0      1039.999    19.42       -116.24     
176.3       56.584      121.222     3.648       51.441      41.877      47.825      15.278      41.578      11.393      23.572      6.43        3.006       38.97       1.14        1408.0      1618.667    1064.0      19.464      -120.12     
176.4       65.518      121.149     3.725       54.058      45.556      50.276      15.4        40.689      10.782      23.118      6.482       3.133       38.97       1.14        1408.0      1642.668    1085.334    20.29       -125.08     
176.5       74.412      121.086     4.109       56.927      49.323      52.754      15.4        40.022      10.406      22.344      6.322       3.259       38.97       1.14        1400.001    1663.999    1090.667    21.799      -131.0      
176.6       80.709      121.019     4.124       59.92       53.003      55.112      15.4        39.622      10.017      21.608      5.922       3.219       38.97       1.14        1383.999    1685.334    1058.664    23.106      -137.84     
176.7       83.444      121.073     4.186       62.96       56.542      57.205      15.4        39.489      9.52        21.133      5.761       3.09        39.203      -9999.25    1383.999    1693.333    1026.669    24.293      -143.76     
176.8       68.878      121.144     4.278       65.963      59.911      58.876      15.4        39.489      8.811       21.133      5.369       2.955       40.277      -9999.25    1397.333    1698.667    1005.333    24.452      -148.8      
176.9       63.887      121.141     4.416       68.793      62.927      59.998      15.4        39.622      8.084       20.574      5.293       2.845       42.173      -9999.25    1408.0      1696.0      1013.334    23.921      -152.92     
177.0       68.405      121.079     4.224       71.103      65.012      60.541      15.156      40.067      7.37        19.907      5.225       2.827       44.644      -9999.25    1408.0      1690.667    1018.667    22.699      -156.2      
177.1       86.883      121.099     4.128       72.447      65.577      60.585      14.544      40.822      6.67        19.152      5.28        2.844       47.281      -9999.25    1402.667    1701.334    1018.666    21.484      -158.44     
177.2       99.243      120.911     3.92        72.447      65.577      60.585      13.444      42.111      5.99        19.152      5.408       2.953       49.704      -9999.25    1400.0      1709.332    1013.334    21.177      -160.52     
177.3       102.33      121.0       3.878       72.408      64.202      60.338      12.223      44.067      5.362       18.491      5.664       3.024       51.618      -9999.25    1400.0      1717.333    1010.667    21.573      -162.52     
