~Version Information Section
VERS.                                         2.0:CWLS log ASCII Standart – VERSION 2.0
WRAP.                                          NO:One line per depth step
~Well Information Section
STRT.M                                       0.67:Начальная глубина
STOP.M                                     204.27:Конечная глубина
STEP.M                                          0:Шаг квантования по глубине
NULL.                                    -9999.25:Признак "Нет данных"
WELL.                                       110Мх:Скважина
~Parameter Information Section
~Curve Information Section
DEPTH.M                                          :Глубина
БК.Омм                                           :BK     (БК)
DСР.мм                                           :DS  (ДС)
ГК.гамма                                         :GK          (ГК)
А0.4М0.1N.Омм.ohmm                               :GZ1   ГЗ1(A0.4M0.1N)
А1.0М0.1N.Омм.ohmm                               :GZ2   ГЗ2(A1.0M0.1N)
А2.0М0.5N.Омм.ohmm                               :GZ3   ГЗ3(A2.0M0.5N)
А4.0М0.5N.Oмм.ohmm                               :GZ4   ГЗ4(A4.0M0.5N)
А8.0М1.0N.Омм.ohmm                               :GZ5   ГЗ5(A8.0M0.5N)
N0.5M2.0A.Омм.ohmm                               :GZK   ГЗK(N0.5M2.0A)
ИК.мСм/м                                         :IK
НГК.усл.ед                                       :NGK     (НГК)
ПС.mv                                            :PS       (ПС)
КС.Омм                                           :PZ    (КС)
R.Омм                                            :RS (Резистивиметр)
W_SI.%                                           :п
ННКМ.имп/1,25с                                   :ННКм
ПЛОТНОСТЬГГК.г/см3                               :плотностьГГК
~ASCII LOG DATA
# ...
109.37      25.642      131.693     6.72        -9999.25    -9999.25    -9999.25    -9999.25    -9999.25    -9999.25    23.614      1.247       353.949     43.349      0.96        25.24       1.732       2.472       
109.4       -9999.25    -9999.25    -9999.25    40.888      43.488      34.983      44.747      6.805       29.618      -9999.25    -9999.25    -9999.25    -9999.25    -9999.25    -9999.25    -9999.25    -9999.25    
109.47      29.251      131.107     6.948       -9999.25    -9999.25    -9999.25    -9999.25    -9999.25    -9999.25    23.714      1.287       353.149     43.45       0.959       25.956      1.736       2.463       
109.5       -9999.25    -9999.25    -9999.25    39.07       44.113      35.011      50.163      7.165       31.068      -9999.25    -9999.25    -9999.25    -9999.25    -9999.25    -9999.25    -9999.25    -9999.25    
109.57      30.647      130.378     7.274       -9999.25    -9999.25    -9999.25    -9999.25    -9999.25    -9999.25    23.929      1.309       352.356     44.422      0.96        26.265      1.761       2.462       
109.6       -9999.25    -9999.25    -9999.25    39.664      46.0        34.021      52.704      7.724       30.555      -9999.25    -9999.25    -9999.25    -9999.25    -9999.25    -9999.25    -9999.25    -9999.25    
109.67      28.333      130.788     7.423       -9999.25    -9999.25    -9999.25    -9999.25    -9999.25    -9999.25    24.238      1.307       351.446     45.222      0.97        26.301      1.787       2.469       
109.7       -9999.25    -9999.25    -9999.25    40.819      44.743      32.72       52.405      8.657       29.209      -9999.25    -9999.25    -9999.25    -9999.25    -9999.25    -9999.25    -9999.25    -9999.25    
109.77      28.322      131.061     7.398       -9999.25    -9999.25    -9999.25    -9999.25    -9999.25    -9999.25    24.562      1.286       350.279     43.871      0.968       26.194      1.769       2.48        
109.8       -9999.25    -9999.25    -9999.25    37.569      37.351      30.855      49.424      9.984       29.05       -9999.25    -9999.25    -9999.25    -9999.25    -9999.25    -9999.25    -9999.25    -9999.25    
109.87      31.729      130.99      7.282       -9999.25    -9999.25    -9999.25    -9999.25    -9999.25    -9999.25    24.848      1.28        348.79      41.71       0.96        26.041      1.728       2.492       
109.9       -9999.25    -9999.25    -9999.25    35.839      31.299      28.762      47.174      11.391      30.629      -9999.25    -9999.25    -9999.25    -9999.25    -9999.25    -9999.25    -9999.25    -9999.25    
109.97      30.039      131.369     7.061       -9999.25    -9999.25    -9999.25    -9999.25    -9999.25    -9999.25    25.013      1.301       346.997     40.314      0.959       25.822      1.719       2.507       
110.0       -9999.25    -9999.25    -9999.25    36.469      27.982      28.015      51.52       12.779      34.996      -9999.25    -9999.25    -9999.25    -9999.25    -9999.25    -9999.25    -9999.25    -9999.25    
110.07      27.787      131.851     6.956       -9999.25    -9999.25    -9999.25    -9999.25    -9999.25    -9999.25    25.159      1.33        344.942     39.285      0.958       25.533      1.772       2.519       
110.1       -9999.25    -9999.25    -9999.25    36.554      26.87       31.713      65.275      14.14       43.152      -9999.25    -9999.25    -9999.25    -9999.25    -9999.25    -9999.25    -9999.25    -9999.25    
110.17      26.296      131.32      7.338       -9999.25    -9999.25    -9999.25    -9999.25    -9999.25    -9999.25    25.498      1.345       342.717     38.576      0.958       25.049      1.794       2.527       
110.2       -9999.25    -9999.25    -9999.25    33.415      27.73       37.644      88.709      15.085      53.671      -9999.25    -9999.25    -9999.25    -9999.25    -9999.25    -9999.25    -9999.25    -9999.25    
110.27      24.228      130.704     7.825       -9999.25    -9999.25    -9999.25    -9999.25    -9999.25    -9999.25    26.05       1.347       340.501     38.532      0.958       24.211      1.777       2.535       
110.3       -9999.25    -9999.25    -9999.25    35.362      38.212      43.963      114.838     16.192      63.908      -9999.25    -9999.25    -9999.25    -9999.25    -9999.25    -9999.25    -9999.25    -9999.25    
110.37      23.27       130.615     8.608       -9999.25    -9999.25    -9999.25    -9999.25    -9999.25    -9999.25    26.843      1.357       338.456     39.07       0.958       23.3        1.769       2.544       
110.4       -9999.25    -9999.25    -9999.25    43.812      50.33       53.977      130.602     17.034      74.901      -9999.25    -9999.25    -9999.25    -9999.25    -9999.25    -9999.25    -9999.25    -9999.25    
110.47      29.57       130.506     8.889       -9999.25    -9999.25    -9999.25    -9999.25    -9999.25    -9999.25    27.85       1.397       336.679     40.445      0.958       22.315      1.872       2.554       
110.5       -9999.25    -9999.25    -9999.25    53.262      57.924      63.6        127.824     18.024      85.236      -9999.25    -9999.25    -9999.25    -9999.25    -9999.25    -9999.25    -9999.25    -9999.25    
110.57      51.087      129.185     8.884       -9999.25    -9999.25    -9999.25    -9999.25    -9999.25    -9999.25    29.088      1.478       335.256     42.067      0.959       21.319      1.943       2.557       
110.6       -9999.25    -9999.25    -9999.25    67.651      65.711      69.995      113.802     19.269      88.038      -9999.25    -9999.25    -9999.25    -9999.25    -9999.25    -9999.25    -9999.25    -9999.25    
110.67      82.035      126.738     8.47        -9999.25    -9999.25    -9999.25    -9999.25    -9999.25    -9999.25    30.215      1.565       334.258     43.772      0.959       21.313      2.091       2.555       
110.7       -9999.25    -9999.25    -9999.25    190.707     61.802      71.02       102.579     20.197      83.344      -9999.25    -9999.25    -9999.25    -9999.25    -9999.25    -9999.25    -9999.25    -9999.25    
110.77      97.253      126.447     7.607       -9999.25    -9999.25    -9999.25    -9999.25    -9999.25    -9999.25    31.089      1.64        333.648     45.519      0.959       21.763      2.238       2.547       
110.8       -9999.25    -9999.25    -9999.25    190.629     48.34       67.88       96.641      20.578      74.806      -9999.25    -9999.25    -9999.25    -9999.25    -9999.25    -9999.25    -9999.25    -9999.25    
110.87      88.862      128.317     6.967       -9999.25    -9999.25    -9999.25    -9999.25    -9999.25    -9999.25    31.861      1.683       333.315     46.594      0.959       22.013      2.233       2.532       
110.9       -9999.25    -9999.25    -9999.25    201.376     42.266      64.131      89.752      19.801      68.194      -9999.25    -9999.25    -9999.25    -9999.25    -9999.25    -9999.25    -9999.25    -9999.25    
110.97      59.093      129.379     6.327       -9999.25    -9999.25    -9999.25    -9999.25    -9999.25    -9999.25    32.429      1.706       333.145     47.191      0.959       22.159      2.144       2.508       
111.0       -9999.25    -9999.25    -9999.25    356.879     45.195      60.123      79.195      19.18       65.75       -9999.25    -9999.25    -9999.25    -9999.25    -9999.25    -9999.25    -9999.25    -9999.25    
111.07      47.246      130.438     6.148       -9999.25    -9999.25    -9999.25    -9999.25    -9999.25    -9999.25    33.083      1.679       333.081     47.649      0.959       22.747      1.884       2.479       
111.1       -9999.25    -9999.25    -9999.25    411.854     51.724      57.222      67.773      18.966      64.679      -9999.25    -9999.25    -9999.25    -9999.25    -9999.25    -9999.25    -9999.25    -9999.25    
111.17      64.926      130.631     5.984       -9999.25    -9999.25    -9999.25    -9999.25    -9999.25    -9999.25    33.62       1.541       333.088     49.286      0.959       23.816      1.786       2.45        
