~Version Information Section
VERS.                                         2.0:CWLS log ASCII Standart – VERSION 2.0
WRAP.                                          NO:One line per depth step
~Well Information Section
STRT.M                                        0.0:Начальная глубина
STOP.M                                      211.0:Конечная глубина
STEP.M                                          0:Шаг квантования по глубине
NULL.                                    -9999.25:Признак "Нет данных"
WELL.                                       125Мх:Скважина
~Parameter Information Section
~Curve Information Section
DEPTH.M                                          :Глубина
BK.lgОмм                                         :BK
D.                                               :D sr
GGKP.g/sm3                                       :GGKp
ГК.гамма                                         :GK
ИК.мСм/м                                         :IK
KP.%                                             :Kp
PS.                                              :PS       (ПС)
PZ.Омм                                           :PZ
RIS.Омм                                          :RIS
U1.                                              :U1
U2.                                              :U2
U3.                                              :U3
БЗ.                                              :БЗ (ГГК-1)
ГЗ1.Омм                                          :ГЗ1
ГЗ2.Омм                                          :ГЗ2
ГЗ3.Омм                                          :ГЗ3
ГЗ4.Oмм                                          :ГЗ4
ГЗ5.Oмм                                          :ГЗ5
ГЗК.Омм                                          :ГЗК
ИКБ.мСм/м                                        :ИКБ
МЗ.                                              :МЗ жесткий (ГГК-4)
ННКМ.усл.ед                                      :ННКм
ИКМ.мСм/м                                        :ИКМ
НГК.усл.ед                                       :ННКб
~ASCII LOG DATA
# ...
172.8       30.269      125.85      2.529       5.396       20.336      24.23       103.584     45.366      1.104       447.698     106.26      269.605     9658.823    53.943      52.208      31.91       7.344       40.754      47.16       17.534      17341.176   1.255       13.373      2.972       
172.9       18.45       124.842     2.52        5.823       19.17       25.272      109.301     37.507      1.104       430.094     103.322     269.372     9642.857    35.29       39.513      18.64       4.482       23.289      39.276      16.455      17175.715   1.12        12.501      2.604       
173.0       15.066      128.801     2.522       6.207       18.02       25.983      114.795     31.347      1.104       411.823     99.65       269.081     9301.538    27.469      34.251      10.577      3.227       12.722      31.375      15.498      16995.385   1.076       11.795      2.467       
173.1       14.191      129.625     2.536       6.192       16.955      26.439      119.924     27.084      1.104       393.555     95.978      268.789     8549.333    23.108      31.292      7.623       2.578       6.642       24.023      14.681      16165.333   1.046       11.248      2.39        
173.2       13.996      125.408     2.551       6.32        15.978      26.425      126.0       24.461      1.104       378.938     93.04       268.556     7941.429    20.948      29.543      6.559       2.156       4.715       18.086      14.0        15472.857   1.055       10.844      2.471       
173.3       13.932      122.48      2.555       6.193       15.108      26.092      131.6       22.934      1.104       370.695     91.168      271.387     7648.0      19.761      28.107      6.191       1.95        4.026       13.502      13.46       15161.333   1.067       10.554      2.533       
173.4       14.028      122.185     2.551       5.979       14.335      25.75       136.8       21.842      1.104       376.237     94.507      274.276     7724.286    18.999      26.655      6.428       1.809       3.638       10.657      13.045      15360.0     1.065       10.361      2.609       
173.5       14.928      122.119     2.538       5.749       13.671      26.001      141.6       20.94       1.104       385.434     99.37       275.926     8169.333    18.47       25.017      7.022       1.692       3.398       9.255       12.746      15549.333   1.073       10.227      2.599       
173.6       16.749      122.201     2.519       5.679       13.134      26.421      146.0       20.218      1.105       397.241     104.966     272.0       8617.143    18.284      23.654      7.911       1.545       3.147       9.262       12.532      16108.571   1.169       10.141      2.573       
173.7       17.219      122.216     2.505       5.646       12.714      26.569      150.0       19.637      1.105       399.691     108.26      261.54      8882.667    18.135      22.261      9.225       1.439       2.973       9.584       12.383      16074.667   1.172       10.091      2.576       
173.8       16.293      122.19      2.494       5.886       12.391      27.084      153.797     19.177      1.105       399.423     111.222     247.947     9254.286    17.859      20.806      10.906      1.36        2.831       9.962       12.277      15960.0     1.104       10.086      2.56        
173.9       14.825      122.177     2.484       6.021       12.151      27.655      157.481     18.818      1.105       389.168     111.418     233.324     9137.5      17.662      19.615      12.89       1.337       2.703       10.349      12.204      16183.75    1.087       10.096      2.456       
174.0       14.488      122.169     2.476       6.159       11.97       27.478      160.976     18.538      1.105       381.73      111.507     219.999     9222.667    17.499      18.752      14.989      1.347       2.639       10.694      12.153      15824.0     1.059       10.111      2.347       
174.1       14.622      122.198     2.47        6.381       11.842      27.169      162.855     18.315      1.105       377.034     111.597     215.603     9460.0      17.361      18.086      17.206      1.376       2.57        11.03       12.119      16004.286   1.057       10.124      2.389       
174.2       14.689      122.158     2.458       6.42        11.755      27.101      164.459     18.145      1.105       382.495     111.857     223.745     9430.0      17.269      17.578      19.323      1.424       2.452       11.35       12.097      15797.143   1.059       10.137      2.438       
174.3       14.791      122.186     2.449       6.294       11.698      26.888      165.76      18.019      1.105       387.963     112.118     234.031     9392.0      17.318      17.217      21.06       1.497       2.38        11.65       12.081      15502.667   1.051       10.151      2.464       
174.4       14.825      122.219     2.446       6.257       11.661      26.833      166.745     17.918      1.105       393.286     111.068     245.347     9441.429    17.399      16.982      22.476      1.584       2.291       11.908      12.066      15444.286   1.045       10.16       2.439       
174.5       14.757      122.211     2.445       6.414       11.638      27.085      167.406     17.83       1.105       395.793     109.334     252.807     9528.571    17.468      16.812      23.589      1.67        2.245       12.123      12.051      15601.429   1.042       10.169      2.329       
174.6       14.689      122.207     2.448       6.364       11.623      27.857      167.741     17.754      1.105       396.818     107.113     253.002     9463.75     17.529      16.681      24.239      1.767       2.197       12.298      12.038      15843.75    1.042       10.174      2.269       
174.7       14.555      122.183     2.455       6.38        11.613      28.55       167.884     17.688      1.105       400.106     107.023     247.193     9733.846    17.62       16.586      24.432      1.863       2.13        12.442      12.028      16333.846   1.054       10.175      2.17        
174.8       14.588      122.219     2.464       6.53        11.606      28.692      167.746     17.625      1.104       408.284     109.35      240.594     9797.5      17.657      16.466      24.2        1.99        2.097       12.556      12.022      16732.5     1.057       10.178      2.235       
174.9       14.791      122.192     2.472       6.535       11.601      28.372      167.401     17.562      1.104       418.522     113.981     238.359     9608.571    17.671      16.397      23.677      2.16        2.052       12.654      12.018      16662.857   1.037       10.181      2.369       
175.0       14.962      122.25      2.483       6.448       11.601      27.677      166.949     17.488      1.104       428.761     118.612     239.981     9348.0      17.731      16.405      22.872      2.416       2.031       12.746      12.012      16541.334   1.026       10.182      2.409       
175.1       14.997      122.192     2.487       6.399       11.593      26.729      166.452     17.412      1.104       433.667     123.844     244.583     9057.143    17.821      16.439      21.961      2.762       2.07        12.811      11.998      16221.429   1.011       10.19       2.448       
175.2       14.928      122.182     2.49        6.412       11.58       26.218      165.945     17.336      1.104       434.562     128.635     249.051     8889.333    17.869      16.415      21.153      4.991       2.083       12.862      11.977      16218.667   1.024       10.196      2.422       
175.3       14.928      122.211     2.487       6.321       11.569      26.278      165.462     17.262      1.104       429.991     131.008     252.295     9168.571    17.874      16.359      20.412      7.2         2.085       12.924      11.953      16335.714   1.048       10.193      2.389       
175.4       14.825      122.236     2.481       6.375       11.558      26.351      165.024     17.19       1.104       422.793     130.237     251.226     9378.571    17.882      16.311      19.742      9.405       2.035       12.988      11.926      16604.285   1.048       10.192      2.371       
