~Version Information Section
VERS.                                         2.0:CWLS log ASCII Standart – VERSION 2.0
WRAP.                                          NO:One line per depth step
~Well Information Section
STRT.M                                        1.0:Начальная глубина
STOP.M                                      208.3:Конечная глубина
STEP.M                                          0:Шаг квантования по глубине
NULL.                                    -9999.25:Признак "Нет данных"
WELL.                                       131Мх:Скважина
~Parameter Information Section
~Curve Information Section
DEPTH.M                                          :Глубина
БК.Омм                                           :BK     (БК)
DСР.мм                                           :DS  (ДС)
ГК.гамма                                         :GK          (ГК)
А0.4М0.1N.Омм.ohmm                               :GZ1   ГЗ1(A0.4M0.1N)
А1.0М0.1N.Омм.ohmm                               :GZ2   ГЗ2(A1.0M0.1N)
А2.0М0.5N.Омм.ohmm                               :GZ3   ГЗ3(A2.0M0.5N)
А4.0М0.5N.Oмм.ohmm                               :GZ4   ГЗ4(A4.0M0.5N)
А8.0М1.0N.Омм.ohmm                               :GZ5   ГЗ5(A8.0M0.5N)
N0.5M2.0A.Омм.ohmm                               :GZK   ГЗK(N0.5M2.0A)
ИК.мСм/м                                         :IK
НГК.усл.ед                                       :NGK     (НГК)
ПС.mv                                            :PS       (ПС)
П.%                                              :п
PZ.Омм                                           :PZ    (КС)
R.Омм                                            :RS (Резистивиметр)
U1.мВ                                            :U1
U2.mV                                            :U2
U3.мВ                                            :U3
W.г/см3                                          :ГГКп
~ASCII LOG DATA
# ...
159.5       21.085      138.011     5.757       -9999.25    -9999.25    -9999.25    -9999.25    -9999.25    -9999.25    13.814      1.177       184.536     31.385      28.004      1.12        1348.04     1332.365    1319.302    2.4         
159.55      -9999.25    -9999.25    -9999.25    18.275      16.351      16.778      13.056      10.128      30.634      -9999.25    -9999.25    -9999.25    -9999.25    -9999.25    -9999.25    -9999.25    -9999.25    -9999.25    -9999.25    
159.6       21.432      137.904     5.819       -9999.25    -9999.25    -9999.25    -9999.25    -9999.25    -9999.25    13.739      1.172       184.618     31.032      28.013      1.12        1348.04     1333.382    1337.943    2.41        
159.65      -9999.25    -9999.25    -9999.25    18.039      16.062      16.414      12.619      9.849       31.793      -9999.25    -9999.25    -9999.25    -9999.25    -9999.25    -9999.25    -9999.25    -9999.25    -9999.25    -9999.25    
159.7       21.778      137.757     6.041       -9999.25    -9999.25    -9999.25    -9999.25    -9999.25    -9999.25    13.684      1.187       184.553     30.709      28.047      1.12        1388.718    1355.113    1341.669    2.402       
159.75      -9999.25    -9999.25    -9999.25    17.866      15.844      16.135      12.267      9.589       33.107      -9999.25    -9999.25    -9999.25    -9999.25    -9999.25    -9999.25    -9999.25    -9999.25    -9999.25    -9999.25    
159.8       21.759      137.051     6.363       -9999.25    -9999.25    -9999.25    -9999.25    -9999.25    -9999.25    13.65       1.183       184.305     30.806      28.127      1.12        1427.29     1374.508    1342.575    2.385       
159.85      -9999.25    -9999.25    -9999.25    17.756      15.705      15.945      12.007      9.341       34.513      -9999.25    -9999.25    -9999.25    -9999.25    -9999.25    -9999.25    -9999.25    -9999.25    -9999.25    -9999.25    
159.9       21.354      136.803     6.347       -9999.25    -9999.25    -9999.25    -9999.25    -9999.25    -9999.25    13.637      1.161       183.84      30.899      28.291      1.12        1433.496    1379.322    1341.836    2.391       
159.95      -9999.25    -9999.25    -9999.25    17.703      15.599      15.805      11.819      9.091       35.929      -9999.25    -9999.25    -9999.25    -9999.25    -9999.25    -9999.25    -9999.25    -9999.25    -9999.25    -9999.25    
160.0       20.451      136.812     6.225       -9999.25    -9999.25    -9999.25    -9999.25    -9999.25    -9999.25    13.632      1.132       183.219     30.83       28.536      1.12        1438.409    1364.407    1304.754    2.378       
160.05      -9999.25    -9999.25    -9999.25    17.689      15.542      15.678      11.671      8.827       37.075      -9999.25    -9999.25    -9999.25    -9999.25    -9999.25    -9999.25    -9999.25    -9999.25    -9999.25    -9999.25    
160.1       19.606      136.904     6.276       -9999.25    -9999.25    -9999.25    -9999.25    -9999.25    -9999.25    13.62       1.133       182.501     30.55       28.868      1.12        1438.483    1359.039    1302.342    2.36        
160.15      -9999.25    -9999.25    -9999.25    17.668      15.468      15.537      11.482      8.549       37.722      -9999.25    -9999.25    -9999.25    -9999.25    -9999.25    -9999.25    -9999.25    -9999.25    -9999.25    -9999.25    
160.2       19.667      136.784     6.168       -9999.25    -9999.25    -9999.25    -9999.25    -9999.25    -9999.25    13.607      1.129       181.685     29.938      29.273      1.12        1411.985    1356.706    1302.342    2.355       
160.25      -9999.25    -9999.25    -9999.25    17.626      15.29       15.316      11.189      8.269       37.886      -9999.25    -9999.25    -9999.25    -9999.25    -9999.25    -9999.25    -9999.25    -9999.25    -9999.25    -9999.25    
160.3       20.289      137.469     5.88        -9999.25    -9999.25    -9999.25    -9999.25    -9999.25    -9999.25    13.6        1.139       180.757     29.378      29.768      1.12        1373.386    1346.626    1322.402    2.357       
160.35      -9999.25    -9999.25    -9999.25    17.505      14.937      14.963      10.738      8.006       37.886      -9999.25    -9999.25    -9999.25    -9999.25    -9999.25    -9999.25    -9999.25    -9999.25    -9999.25    -9999.25    
160.4       20.581      137.532     5.869       -9999.25    -9999.25    -9999.25    -9999.25    -9999.25    -9999.25    13.617      1.183       179.732     28.869      30.289      1.12        1340.153    1338.091    1339.61     2.363       
160.45      -9999.25    -9999.25    -9999.25    17.244      14.473      14.503      10.05       7.787       37.886      -9999.25    -9999.25    -9999.25    -9999.25    -9999.25    -9999.25    -9999.25    -9999.25    -9999.25    -9999.25    
160.5       20.275      137.241     6.167       -9999.25    -9999.25    -9999.25    -9999.25    -9999.25    -9999.25    13.687      1.239       178.645     28.549      30.883      1.12        1326.583    1338.091    1355.148    2.367       
160.55      -9999.25    -9999.25    -9999.25    16.962      13.942      13.96       9.048       7.623       37.533      -9999.25    -9999.25    -9999.25    -9999.25    -9999.25    -9999.25    -9999.25    -9999.25    -9999.25    -9999.25    
160.6       20.185      137.14      6.033       -9999.25    -9999.25    -9999.25    -9999.25    -9999.25    -9999.25    13.824      1.234       177.485     28.298      31.589      1.12        1326.583    1338.66     1363.564    2.383       
160.65      -9999.25    -9999.25    -9999.25    16.69       13.426      13.424      7.807       7.509       36.193      -9999.25    -9999.25    -9999.25    -9999.25    -9999.25    -9999.25    -9999.25    -9999.25    -9999.25    -9999.25    
160.7       21.219      137.546     5.913       -9999.25    -9999.25    -9999.25    -9999.25    -9999.25    -9999.25    14.028      1.222       176.195     28.565      32.497      1.12        1371.284    1356.867    1327.747    2.391       
160.75      -9999.25    -9999.25    -9999.25    16.587      13.051      12.967      6.583       7.442       33.816      -9999.25    -9999.25    -9999.25    -9999.25    -9999.25    -9999.25    -9999.25    -9999.25    -9999.25    -9999.25    
160.8       22.022      137.45      6.028       -9999.25    -9999.25    -9999.25    -9999.25    -9999.25    -9999.25    14.298      1.19        174.765     29.026      33.613      1.12        1446.667    1358.041    1292.935    2.397       
160.85      -9999.25    -9999.25    -9999.25    16.587      13.051      12.724      5.549       7.413       30.569      -9999.25    -9999.25    -9999.25    -9999.25    -9999.25    -9999.25    -9999.25    -9999.25    -9999.25    -9999.25    
160.9       21.392      136.194     6.074       -9999.25    -9999.25    -9999.25    -9999.25    -9999.25    -9999.25    14.637      1.162       173.247     29.803      35.072      1.12        1406.974    1334.247    1283.177    2.409       
160.95      -9999.25    -9999.25    -9999.25    16.587      13.051      12.724      4.842       7.406       26.401      -9999.25    -9999.25    -9999.25    -9999.25    -9999.25    -9999.25    -9999.25    -9999.25    -9999.25    -9999.25    
161.0       20.258      135.735     5.954       -9999.25    -9999.25    -9999.25    -9999.25    -9999.25    -9999.25    15.017      1.127       171.67      30.821      36.891      1.12        1406.974    1334.247    1283.177    2.406       
161.05      -9999.25    -9999.25    -9999.25    16.587      13.051      12.724      4.64        7.406       21.386      -9999.25    -9999.25    -9999.25    -9999.25    -9999.25    -9999.25    -9999.25    -9999.25    -9999.25    -9999.25    
161.1       18.951      135.635     6.07        -9999.25    -9999.25    -9999.25    -9999.25    -9999.25    -9999.25    15.385      1.112       170.102     32.234      39.011      1.12        1409.387    1346.477    1304.508    2.413       
161.15      -9999.25    -9999.25    -9999.25    17.126      13.086      12.724      4.64        7.406       16.636      -9999.25    -9999.25    -9999.25    -9999.25    -9999.25    -9999.25    -9999.25    -9999.25    -9999.25    -9999.25    
