~Version Information Section
VERS.                                         2.0:CWLS log ASCII Standart – VERSION 2.0
WRAP.                                          NO:One line per depth step
~Well Information Section
STRT.M                                        1.0:Начальная глубина
STOP.M                                      203.4:Конечная глубина
STEP.M                                          0:Шаг квантования по глубине
NULL.                                    -9999.25:Признак "Нет данных"
WELL.                                         3Мх:Скважина
~Parameter Information Section
~Curve Information Section
DEPTH.M                                          :Глубина
BK.Ohm*M                                         :BK
DS.mm                                            :DS  (ДС)
ГК.mcr/h                                         :GK          (ГК)
GZ1.Ohm*M                                        :GZ1   ГЗ1(A0.4M0.1N)
GZ2.Ohm*M                                        :GZ2   ГЗ2(A1.0M0.1N)
GZ3.Ohm*M                                        :GZ3   ГЗ3(A2.0M0.5N)
GZ4.Ohm*M                                        :GZ4   ГЗ4(A4.0M0.5N)
GZ5.Ohm*M                                        :GZ5   ГЗ5(A8.0M0.5N)
U2.mV                                            :U2
U3.mV                                            :U3
W.                                               :W
КП.%                                             :Кп
НГК.усл.ед                                       :ННКб
ННКМ.усл.ед                                      :ННКм
GZR.Ohm*M                                        :GZK   ГЗK(N0.5M2.0A)
ИК.Ohm*M                                         :IK
PS.mv                                            :PS       (ПС)
PZ.Ohm*M                                         :PZ    (КС)
RS.Ohm*M                                         :RS (Резистивиметр)
U1.mV                                            :U1
~ASCII LOG DATA
# ...
45.8        36.308      157.271     5.763       1.602       6.697       5.277       6.725       4.371       456.025     337.716     2.371       37.662      3.134       2.098       4.919       15.34       -9999.25    -9999.25    1.034       861.016     
45.9        35.975      156.181     5.937       1.646       6.672       5.277       6.725       4.371       453.231     373.345     2.35        37.62       3.093       2.067       4.919       15.451      -9999.25    -9999.25    1.034       745.663     
46.0        26.182      155.77      6.068       1.714       6.648       5.277       6.725       4.471       450.284     373.901     2.353       37.612      3.088       2.054       4.919       15.608      -9999.25    -9999.25    1.034       686.912     
46.1        21.184      156.5       6.125       1.738       6.648       5.277       6.725       4.471       446.147     348.56      2.34        37.067      3.084       2.043       4.919       15.678      -9999.25    -9999.25    1.034       684.167     
46.2        22.646      158.225     6.172       1.752       6.648       5.277       6.625       4.471       442.167     322.908     2.354       36.352      3.187       2.051       4.919       15.591      -9999.25    -9999.25    1.034       703.81      
46.3        23.878      157.572     6.077       1.733       6.624       5.377       6.625       4.571       437.726     302.33      2.354       35.59       3.256       2.071       4.919       15.435      -9999.25    -9999.25    1.034       737.908     
46.4        22.08       158.589     6.045       1.853       6.673       5.377       6.625       4.571       435.246     286.743     2.365       35.16       3.206       2.057       4.919       15.156      -9999.25    -9999.25    1.034       787.687     
46.5        19.588      161.402     5.99        1.893       6.769       5.377       6.625       4.571       443.196     291.34      2.376       35.395      3.172       2.02        4.919       14.879      -9999.25    -9999.25    1.034       838.219     
46.6        18.967      162.296     5.954       1.834       6.721       5.377       6.625       4.571       470.783     338.962     2.373       36.162      3.112       2.009       5.219       14.69       -9999.25    -9999.25    1.039       858.595     
46.7        22.131      161.326     5.848       1.853       6.793       5.377       6.625       4.571       510.978     410.51      2.385       38.358      3.051       2.015       5.419       14.355      -9999.25    -9999.25    1.039       861.041     
46.8        19.187      160.571     5.76        1.771       6.842       5.377       6.625       4.571       541.834     450.525     2.382       41.158      2.851       2.018       5.419       14.187      -9999.25    -9999.25    1.039       886.602     
46.9        16.52       160.43      5.881       1.54        6.818       5.377       6.625       4.571       546.751     426.681     2.381       42.275      2.717       2.019       5.419       13.931      -9999.25    -9999.25    1.039       945.875     
47.0        17.742      162.452     6.188       1.457       6.745       5.477       6.725       4.571       530.884     368.114     2.36        40.265      2.787       1.985       5.419       13.724      -9999.25    -9999.25    1.039       988.954     
47.1        19.099      163.204     6.513       1.409       6.673       5.477       6.725       4.571       514.202     327.936     2.373       37.789      2.893       1.899       5.419       13.614      -9999.25    -9999.25    1.039       973.651     
47.2        19.679      162.893     6.624       1.525       6.672       5.477       6.725       4.571       511.208     323.719     2.363       36.966      2.754       1.83        5.419       13.529      -9999.25    -9999.25    1.039       924.778     
47.3        17.989      163.052     6.594       1.694       6.745       5.477       6.825       4.571       526.097     341.774     2.358       38.784      2.661       1.799       5.419       13.489      -9999.25    -9999.25    1.039       899.859     
47.4        15.631      162.879     6.531       1.752       6.793       5.477       7.025       4.571       559.689     374.637     2.352       41.531      2.538       1.784       5.419       13.523      -9999.25    -9999.25    1.039       920.893     
47.5        13.366      162.756     6.437       1.767       6.745       5.477       7.125       4.671       611.085     432.925     2.355       44.35       2.354       1.776       5.419       13.529      -9999.25    -9999.25    1.039       955.252     
47.6        12.972      161.979     6.142       1.853       6.769       5.477       7.125       4.671       671.137     514.233     2.341       46.748      2.398       1.808       5.419       13.484      -9999.25    -9999.25    1.039       971.723     
47.7        12.794      161.278     5.713       2.125       6.842       5.477       7.125       4.771       712.133     582.454     2.342       47.116      2.442       1.88        5.519       13.44       -9999.25    -9999.25    1.039       957.113     
47.8        12.531      159.511     5.258       2.159       6.866       5.477       7.125       4.771       703.115     591.713     2.343       46.334      2.652       1.973       5.519       13.357      -9999.25    -9999.25    1.039       914.263     
47.9        13.397      157.217     4.863       2.056       6.745       5.477       7.125       4.971       627.395     522.706     2.357       45.129      2.968       2.116       5.519       13.262      -9999.25    -9999.25    1.039       836.785     
48.0        14.928      156.37      4.423       1.892       6.334       5.477       7.125       4.971       506.608     407.286     2.385       44.582      3.003       2.216       5.619       13.295      -9999.25    -9999.25    1.039       727.476     
48.1        14.421      155.126     3.881       2.565       5.996       5.577       7.125       5.171       385.402     304.538     2.414       44.562      3.145       2.289       5.619       13.348      -9999.25    -9999.25    1.039       600.328     
48.2        30.061      154.049     3.315       2.603       6.31        5.577       7.125       5.171       302.334     256.028     2.426       44.291      3.198       2.359       5.619       13.489      -9999.25    -9999.25    1.039       480.825     
48.3        36.141      154.055     2.955       2.68        6.455       5.577       7.125       5.171       265.825     261.234     2.425       43.418      3.279       2.388       5.719       13.735      -9999.25    -9999.25    1.039       387.538     
48.4        46.132      154.335     3.122       3.029       6.721       5.577       7.125       5.171       263.991     291.15      2.43        41.187      3.307       2.387       5.719       14.15       -9999.25    -9999.25    1.039       335.481     
48.5        51.05       155.516     3.88        3.076       7.011       5.577       7.125       5.271       289.253     331.129     2.427       38.53       3.349       2.297       5.719       14.69       -9999.25    -9999.25    1.039       331.227     
48.6        48.306      156.468     5.067       3.279       7.156       5.577       7.125       5.271       339.586     383.278     2.434       35.042      3.323       2.178       5.719       15.374      -9999.25    -9999.25    1.039       371.715     
48.7        43.652      157.576     5.969       3.081       7.229       5.577       7.125       5.271       404.374     449.58      2.451       33.893      3.27        2.04        5.719       15.876      -9999.25    -9999.25    1.034       432.228     
48.8        24.266      159.184     6.224       2.864       7.398       5.577       7.125       5.271       457.388     512.333     2.448       36.371      3.175       1.965       5.719       16.453      -9999.25    -9999.25    1.034       477.359     
48.9        16.106      158.973     5.665       2.652       7.494       5.577       7.225       5.271       475.709     543.943     2.422       39.917      2.796       2.008       5.719       16.77       -9999.25    -9999.25    1.034       489.927     
