~Version Information Section
VERS.                                         2.0:CWLS log ASCII Standart – VERSION 2.0
WRAP.                                          NO:One line per depth step
~Well Information Section
STRT.M                                        1.0:Начальная глубина
STOP.M                                      151.7:Конечная глубина
STEP.M                                          0:Шаг квантования по глубине
NULL.                                    -9999.25:Признак "Нет данных"
WELL.                                       117Мх:Скважина
~Parameter Information Section
~Curve Information Section
DEPTH.M                                          :Глубина
DСР.мм                                           :Dср
ГК.гамма                                         :GK
ИК.мСм/м                                         :IK
N0.5M2.0A.Омм.                                   :N0.5M2.0A.Омм
R.Омм                                            :R
U1.                                              :U1
U2.                                              :U2
U3.                                              :U3
W.имп/1,25с                                      :W
А0.4М0.1N.Омм.                                   :А0.4М0.1N.Омм
А1.0М0.1N.Омм.                                   :А1.0М0.1N.Омм
А2.0М0.5N.Омм.                                   :А2.0М0.5N.Омм
А4.0М0.5N.Oмм.                                   :А4.0М0.5N.Oмм
А8.0М1.0N.Омм.                                   :А8.0М1.0N.Омм
БЗ.имп/мин                                       :БЗ
БК.Омм                                           :БК
КС.Омм                                           :КС
ПС.                                              :ПС
МЗ.имп/мин                                       :МЗ
НГК.имп/1,25с                                    :ННКб
ННКМ.имп/1,25с                                   :ННКм
ПЛОТНОСТЬГГК.г/см3                               :плотностьГГК
~ASCII LOG DATA
# ...
61.9        132.44      9.25        21.66       49.341      1.345       309.729     158.703     223.057     29.58       26.372      19.061      24.113      10.128      14.368      12000.0     23.976      37.815      106.601     6140.0      2.44        1.613       2.379       
62.0        132.483     9.301       22.283      58.843      1.406       318.469     162.414     231.052     29.366      27.702      19.431      23.788      12.222      16.035      11720.0     23.236      38.99       102.757     6020.0      2.419       1.632       2.388       
62.1        132.46      9.095       22.799      76.929      1.428       325.11      164.355     234.649     28.699      23.952      17.483      24.828      16.523      17.762      11080.0     23.053      40.191      98.295      5720.0      2.473       1.635       2.398       
62.2        131.89      8.645       23.331      99.154      1.433       331.751     166.296     238.245     27.737      20.342      16.444      28.197      22.167      19.228      10480.0     23.958      41.599      93.275      5600.0      2.675       1.661       2.411       
62.3        129.81      8.004       24.065      124.151     1.446       333.887     165.1       238.242     26.48       19.596      17.235      32.728      32.308      20.42       10140.0     32.525      43.801      87.79       5600.0      3.0         1.714       2.425       
62.4        129.586     6.894       25.047      139.272     1.472       336.023     163.904     238.239     25.192      18.231      18.226      38.259      51.399      21.705      9980.0      56.069      47.282      81.979      5580.0      3.441       1.766       2.436       
62.5        129.587     5.766       26.095      133.753     1.512       340.259     161.279     238.13      23.904      20.643      26.245      44.655      87.062      22.799      10100.0     89.395      61.732      76.036      5480.0      3.861       1.933       2.448       
62.6        127.653     4.835       27.374      122.714     1.541       341.675     159.643     237.974     22.834      27.046      35.108      49.571      128.195     23.305      9620.0      122.77      92.054      70.142      5460.0      4.182       2.071       2.46        
62.7        127.629     4.113       29.188      109.225     1.547       335.84      157.739     234.433     22.044      35.194      37.167      52.597      148.406     23.438      9540.0      156.462     129.261     64.445      5580.0      4.468       2.254       2.474       
62.8        127.127     3.483       31.345      96.584      1.548       330.688     156.042     230.945     21.633      44.197      36.369      53.137      134.386     23.445      9600.0      194.683     167.874     59.101      5680.0      4.686       2.299       2.479       
62.9        128.123     3.177       33.577      84.568      1.547       327.49      155.847     228.985     21.291      59.553      34.556      52.885      111.41      23.486      9520.0      238.409     207.433     54.257      5680.0      4.951       2.373       2.482       
63.0        129.762     2.895       36.189      68.731      1.539       322.192     157.08      227.13      21.07       154.653     36.095      52.175      103.612     23.553      9420.0      284.75      246.307     50.025      5880.0      5.197       2.426       2.48        
63.1        127.454     2.627       39.253      57.834      1.53        310.107     155.298     221.081     20.916      261.349     41.285      51.703      106.297     23.654      9360.0      328.164     281.522     46.468      5880.0      5.41        2.484       2.476       
63.2        127.706     2.432       41.654      56.923      1.511       305.273     153.784     218.417     21.026      296.896     47.211      52.351      105.953     24.094      9400.0      362.889     303.197     43.608      5860.0      5.557       2.531       2.464       
63.3        127.63      2.386       43.149      58.903      1.493       300.439     152.27      215.752     21.289      317.787     56.617      53.114      91.891      24.719      9660.0      379.559     305.088     41.449      5800.0      5.479       2.554       2.45        
63.4        127.211     2.454       44.564      61.811      1.49        283.765     139.673     202.9       21.702      324.146     70.007      54.329      68.871      25.568      9660.0      370.047     294.318     40.001      5820.0      5.222       2.529       2.435       
63.5        127.429     2.557       45.967      65.086      1.486       267.09      127.075     190.048     22.244      319.683     96.667      56.012      43.847      27.481      10060.0     341.929     278.869     39.25       5800.0      4.914       2.482       2.422       
63.6        127.843     2.729       47.118      67.123      1.486       263.306     114.429     180.745     22.846      313.472     137.59      57.729      25.834      32.201      10220.0     308.793     264.086     39.137      5880.0      4.686       2.408       2.412       
63.7        127.603     2.886       47.832      66.874      1.481       259.521     101.783     171.442     23.321      292.034     175.353     59.153      17.98       41.478      10640.0     271.554     253.185     39.592      5880.0      4.559       2.377       2.41        
63.8        127.831     2.992       48.011      63.777      1.469       243.115     87.586      157.032     23.509      250.383     198.67      59.357      18.684      55.28       10740.0     231.329     246.92      40.56       5880.0      4.397       2.333       2.41        
63.9        128.252     3.074       47.787      60.78       1.528       236.597     82.971      151.281     23.228      222.057     205.302     58.698      27.949      72.417      10780.0     194.78      243.431     41.999      5760.0      4.247       2.273       2.419       
64.0        128.728     3.193       47.394      62.06       1.582       237.805     80.176      149.332     22.557      226.764     199.324     58.208      41.116      91.484      10560.0     168.062     243.444     43.867      5620.0      4.183       2.212       2.431       
64.1        128.849     3.349       47.092      72.173      1.601       232.91      80.444      148.027     21.661      243.323     189.228     59.724      51.963      109.935     10100.0     148.268     248.918     46.111      5500.0      4.259       2.168       2.445       
64.2        128.657     3.443       46.723      85.372      1.569       222.4       78.882      143.931     20.762      247.005     183.672     64.009      70.43       126.374     9880.0      135.586     257.007     48.7        5560.0      4.635       2.169       2.455       
64.3        128.167     3.382       45.86       99.513      1.501       224.512     78.87       144.942     19.949      244.348     185.509     76.271      108.074     141.471     9380.0      147.781     262.176     51.634      5420.0      5.169       2.198       2.461       
64.4        127.653     3.277       44.799      115.934     1.45        225.622     80.408      145.819     19.282      240.714     190.502     93.242      167.073     153.44      8960.0      211.488     261.689     54.932      5400.0      5.614       2.263       2.463       
64.5        128.017     3.109       43.878      136.832     1.396       219.006     80.127      142.894     18.889      227.81      210.023     115.939     253.055     160.495     8740.0      320.069     256.049     58.59       5400.0      5.834       2.403       2.46        
64.6        128.828     2.881       42.701      160.35      1.355       212.39      79.846      139.97      19.025      233.632     242.751     148.827     313.844     160.033     8780.0      421.045     246.098     62.577      5380.0      5.879       2.514       2.45        
64.7        128.46      2.746       41.254      184.182     1.324       211.389     81.397      139.836     19.737      267.938     279.607     185.74      303.299     150.74      9100.0      480.161     230.564     66.845      5380.0      5.873       2.588       2.438       
