~Version Information Section
VERS.                                         2.0:CWLS log ASCII Standart – VERSION 2.0
WRAP.                                          NO:One line per depth step
~Well Information Section
STRT.M                                        0.1:Начальная глубина
STOP.M                                      167.0:Конечная глубина
STEP.M                                          0:Шаг квантования по глубине
NULL.                                    -9999.25:Признак "Нет данных"
WELL.                                        143К:Скважина
~Parameter Information Section
~Curve Information Section
DEPTH.M                                          :Глубина
БК.Омм                                           :BK     (БК)
DСР.мм                                           :DS  (ДС)
ПЛОТНОСТЬ.г/см^3                                 :GGKp
ГК.гамма                                         :GK          (ГК)
ИК.мСм/м                                         :IK
НГК.усл.ед                                       :NGK     (НГК)
ННКМ.усл.ед                                      :NNKm  (ННКм)
ПС.mv                                            :PS       (ПС)
N11.0M0.5A.Омм                                   :PZ    (КС)
R.Омм                                            :RS (Резистивиметр)
КП.%                                             :W
А0.4М0.1N.Омм                                    :GZ1   ГЗ1(A0.4M0.1N)
А1.0М0.1N.Омм                                    :GZ2   ГЗ2(A1.0M0.1N)
А2.0М0.5N.Омм                                    :GZ3   ГЗ3(A2.0M0.5N)
А4.0М0.5N.Oмм                                    :GZ4   ГЗ4(A4.0M0.5N)
А8.0М1.0N.Омм                                    :GZ5   ГЗ5(A8.0M0.5N)
N0.5M2.0A.Омм                                    :GZR   ГЗK(N0.5M2.0A)
~ASCII LOG DATA
# ...
151.8       13.902      141.702     2.406       8.706       13.931      1.22        2.091       65.852      16.655      1.0         27.689      15.84       18.803      20.718      19.557      11.901      17.26       
151.9       15.274      141.981     2.418       8.509       13.931      1.248       2.145       65.764      16.377      1.0         27.124      16.52       18.068      20.658      19.725      11.901      17.529      
152.0       15.92       143.879     2.426       8.337       13.956      1.264       2.186       65.662      16.218      1.0         26.319      16.875      16.667      20.159      19.794      11.812      17.645      
152.1       18.102      149.04      2.423       8.442       14.066      1.268       2.208       65.578      16.192      1.0         25.629      16.933      15.376      19.251      19.796      11.575      17.652      
152.2       25.002      157.986     2.412       8.764       14.254      1.25        2.199       65.54       16.192      -9999.25    25.242      16.933      13.96       18.438      19.795      11.407      17.654      
152.3       32.645      150.095     2.394       9.194       14.461      1.227       2.158       65.567      16.192      -9999.25    25.286      16.838      13.136      18.065      19.791      11.378      17.655      
152.4       36.191      149.368     2.374       9.53        14.629      1.22        2.096       65.669      16.276      -9999.25    25.679      16.742      13.136      18.024      19.789      11.378      17.654      
152.5       29.737      148.952     2.358       9.791       14.745      1.218       2.03        65.854      16.517      -9999.25    26.306      16.742      13.136      17.995      19.79       11.465      17.653      
152.6       21.623      148.184     2.349       9.962       14.826      1.223       1.976       66.126      16.875      -9999.25    26.993      16.742      13.209      17.926      19.789      11.49       17.654      
152.7       15.43       147.103     2.352       9.853       14.894      1.239       1.961       66.484      17.297      -9999.25    27.466      16.779      13.954      17.994      19.787      11.591      17.655      
152.8       14.647      147.168     2.362       9.434       14.969      1.246       2.003       66.922      17.674      -9999.25    27.585      16.987      15.368      18.281      19.785      11.937      17.656      
152.9       15.016      147.718     2.372       9.064       15.066      1.241       2.065       67.429      17.914      -9999.25    27.512      17.422      16.775      18.448      19.784      12.438      17.654      
153.0       15.855      147.592     2.372       8.72        15.199      1.235       2.124       67.989      18.037      -9999.25    27.264      18.143      17.747      18.448      19.784      13.17       17.652      
153.1       17.007      148.028     2.365       8.483       15.373      1.224       2.162       68.587      18.149      -9999.25    26.914      19.121      18.054      18.339      19.783      14.443      17.654      
153.2       18.439      152.065     2.352       8.608       15.577      1.203       2.177       69.206      18.337      -9999.25    26.648      20.112      18.233      17.952      19.783      15.657      17.655      
153.3       19.762      155.462     2.34        8.749       15.796      1.199       2.16        69.831      18.6        -9999.25    26.61       21.04       18.609      17.409      19.783      16.626      17.653      
153.4       20.368      155.485     2.334       8.801       16.018      1.208       2.149       70.445      18.923      -9999.25    26.685      21.969      18.854      16.985      19.782      17.117      17.651      
153.5       20.728      155.332     2.335       8.849       16.219      1.219       2.138       71.037      19.211      -9999.25    26.919      22.665      18.982      16.71       19.781      17.117      17.649      
153.6       21.624      155.624     2.338       8.866       16.39       1.23        2.132       71.593      19.36       -9999.25    27.301      22.891      19.206      16.562      19.779      17.117      17.646      
153.7       23.475      152.291     2.342       8.658       16.53       1.238       2.127       72.105      19.397      -9999.25    27.772      22.891      19.186      16.513      19.777      17.027      17.643      
153.8       24.833      150.466     2.342       8.49        16.638      1.232       2.128       72.565      19.397      -9999.25    28.209      22.648      18.793      16.498      19.777      16.395      17.643      
153.9       24.333      149.265     2.338       8.418       16.712      1.217       2.11        72.968      19.376      -9999.25    28.612      22.027      18.309      16.498      19.777      15.767      17.643      
154.0       22.491      149.585     2.334       8.51        16.759      1.201       2.09        73.313      19.23       -9999.25    28.9        21.235      17.982      16.524      19.776      15.232      17.642      
154.1       21.253      150.082     2.325       8.474       16.786      1.175       2.084       73.601      18.966      -9999.25    29.217      20.543      18.24       16.612      19.775      15.05       17.641      
154.2       21.354      149.011     2.311       8.355       16.798      1.158       2.077       73.834      18.739      -9999.25    29.559      19.897      18.574      16.727      19.775      14.87       17.641      
154.3       21.107      147.217     2.289       8.183       16.801      1.158       2.054       74.018      18.586      -9999.25    29.699      19.345      18.577      16.908      19.776      14.639      17.642      
154.4       20.035      147.296     2.268       8.055       16.804      1.16        2.034       74.161      18.471      -9999.25    29.805      19.08       18.687      17.199      19.775      14.638      17.642      
154.5       18.924      148.709     2.25        7.9         16.808      1.168       2.024       74.273      18.42       -9999.25    29.95       18.973      19.003      17.522      19.772      14.844      17.642      
154.6       18.785      149.167     2.241       7.681       16.819      1.195       2.021       74.362      18.42       -9999.25    29.919      18.94       19.332      17.878      19.77       15.055      17.641      
154.7       19.87       149.707     2.242       7.487       16.837      1.218       2.036       74.438      18.42       -9999.25    29.649      18.928      19.947      18.278      19.77       15.235      17.641      
154.8       20.865      149.747     2.248       7.316       16.855      1.219       2.066       74.509      18.421      -9999.25    29.401      18.921      20.921      18.615      19.77       15.724      17.64       
154.9       21.44       150.337     2.251       7.03        16.871      1.211       2.121       74.584      18.424      -9999.25    29.051      18.918      21.606      18.858      19.772      16.392      17.64       
155.0       24.222      149.556     2.243       6.568       16.881      1.211       2.166       74.669      18.433      -9999.25    28.719      18.917      21.81       19.253      19.776      17.114      17.641      
155.1       33.377      148.863     2.228       6.371       16.881      1.215       2.189       74.768      18.446      -9999.25    28.348      18.917      21.811      20.071      19.778      17.891      17.64       
155.2       41.264      148.192     2.218       6.326       16.881      1.229       2.191       74.884      18.455      -9999.25    27.968      18.917      21.807      20.97       19.78       18.683      17.64       
155.3       40.718      146.959     2.227       6.481       16.879      1.248       2.199       75.019      18.457      -9999.25    27.56       18.916      21.802      21.425      19.784      19.442      17.64       
155.4       33.253      145.02      2.257       6.732       16.864      1.271       2.203       75.174      18.459      -9999.25    27.127      18.915      21.798      21.516      19.788      20.198      17.643      
