~Version Information Section
VERS.                                         2.0:CWLS log ASCII Standart – VERSION 2.0
WRAP.                                          NO:One line per depth step
~Well Information Section
STRT.M                                        0.0:Начальная глубина
STOP.M                                      211.0:Конечная глубина
STEP.M                                          0:Шаг квантования по глубине
NULL.                                    -9999.25:Признак "Нет данных"
WELL.                                       125Мх:Скважина
~Parameter Information Section
~Curve Information Section
DEPTH.M                                          :Глубина
BK.lgОмм                                         :BK
D.                                               :D sr
GGKP.g/sm3                                       :GGKp
ГК.гамма                                         :GK
ИК.мСм/м                                         :IK
KP.%                                             :Kp
PS.                                              :PS       (ПС)
PZ.Омм                                           :PZ
RIS.Омм                                          :RIS
U1.                                              :U1
U2.                                              :U2
U3.                                              :U3
БЗ.                                              :БЗ (ГГК-1)
ГЗ1.Омм                                          :ГЗ1
ГЗ2.Омм                                          :ГЗ2
ГЗ3.Омм                                          :ГЗ3
ГЗ4.Oмм                                          :ГЗ4
ГЗ5.Oмм                                          :ГЗ5
ГЗК.Омм                                          :ГЗК
ИКБ.мСм/м                                        :ИКБ
МЗ.                                              :МЗ жесткий (ГГК-4)
ННКМ.усл.ед                                      :ННКм
ИКМ.мСм/м                                        :ИКМ
НГК.усл.ед                                       :ННКб
~ASCII LOG DATA
# ...
99.9        25.003      131.923     2.387       4.544       21.794      29.81       188.646     33.524      1.107       333.293     95.931      222.945     12321.429   33.506      31.603      33.276      33.344      28.575      31.436      23.937      18941.428   1.067       17.535      2.13        
100.0       25.645      130.169     2.377       4.537       22.049      29.831      188.843     33.92       1.107       333.87      92.008      221.851     12400.0     34.638      32.843      34.487      34.742      29.681      31.977      24.249      18430.0     1.056       17.751      2.252       
100.1       25.351      129.536     2.371       4.544       22.257      29.952      189.052     34.354      1.107       350.911     91.414      231.466     12587.692   36.172      34.17       35.753      35.99       30.675      32.628      24.549      18178.461   1.043       17.89       2.285       
100.2       24.774      128.592     2.367       4.517       22.46       29.77       189.265     34.809      1.106       367.628     90.926      236.57      12350.0     37.684      35.098      36.857      37.0        31.513      33.501      24.807      18278.75    1.03        18.011      2.181       
100.3       25.235      128.9       2.371       4.659       22.718      29.414      189.469     35.255      1.106       372.176     90.78       235.181     12038.462   39.67       36.131      37.784      37.699      32.067      34.751      25.049      17710.77    1.024       18.143      2.148       
100.4       28.249      129.301     2.373       4.581       22.954      29.459      189.655     35.654      1.106       357.503     90.853      219.891     11590.0     41.444      36.743      38.398      38.077      31.835      36.31       25.305      17368.75    1.046       18.383      2.193       
100.5       33.037      129.218     2.367       4.477       23.116      29.544      189.81      35.995      1.106       324.276     92.716      196.158     11227.692   43.059      37.359      38.633      38.102      32.243      37.92       25.576      17550.77    1.061       18.644      2.249       
100.6       36.983      128.887     2.359       4.369       23.263      29.404      189.925     36.276      1.106       291.049     94.58       172.425     11816.0     44.493      37.808      38.426      37.776      31.592      39.342      25.844      17596.0     1.078       18.834      2.333       
100.7       37.844      128.588     2.341       4.188       23.373      29.152      189.989     36.51       1.106       261.262     96.265      154.448     12448.571   45.496      37.65       37.843      37.183      31.694      40.369      26.102      17535.715   1.076       18.986      2.323       
100.8       36.224      129.194     2.318       3.981       23.493      29.053      189.997     36.679      1.106       243.473     96.151      142.964     13103.75    45.367      36.857      36.893      36.279      30.815      41.062      26.304      18022.5     1.055       19.133      2.294       
100.9       33.497      128.638     2.301       3.908       23.656      29.176      189.944     36.771      1.106       236.629     93.701      138.131     13685.714   44.851      36.256      35.781      35.406      30.558      41.412      26.436      17922.857   1.054       19.197      2.241       
101.0       30.2        128.45      2.292       4.026       23.84       29.195      189.828     36.767      1.106       234.619     90.08       136.162     13394.667   43.765      35.753      34.675      34.579      30.374      41.338      26.497      17473.334   1.059       19.225      2.206       
101.1       27.479      128.728     2.29        4.168       23.952      29.212      189.652     36.665      1.106       230.624     86.458      132.83      13222.857   42.334      35.576      33.728      33.844      30.269      40.899      26.511      17378.572   1.061       19.222      2.291       
101.2       26.062      128.954     2.3         4.303       23.944      29.526      189.418     36.49       1.107       218.587     86.361      128.506     13162.667   40.382      35.417      32.862      33.319      30.361      40.174      26.472      17393.334   1.063       19.16       2.29        
101.3       25.177      129.002     2.315       4.572       23.894      29.754      189.135     36.286      1.107       206.551     86.589      125.166     12813.846   38.531      35.595      32.182      32.994      30.996      39.301      26.403      17324.615   1.044       18.97       2.171       
101.4       24.604      129.237     2.333       4.815       23.834      29.953      188.811     36.068      1.107       198.771     96.818      126.82      12780.0     36.964      35.58       31.761      32.827      31.195      38.483      26.301      17821.428   1.025       18.735      2.111       
101.5       23.823      129.244     2.351       4.937       23.734      30.435      188.455     35.865      1.107       200.382     123.925     135.792     12468.0     35.66       35.55       31.615      32.794      32.137      37.885      26.184      18145.334   1.028       18.536      2.085       
101.6       23.388      129.345     2.362       5.064       23.676      30.83       188.078     35.696      1.107       204.313     151.032     146.128     12173.75    34.943      35.767      31.633      32.874      32.451      37.71       26.073      18213.75    1.031       18.392      2.082       
101.7       23.714      129.698     2.367       5.077       23.614      30.961      187.689     35.597      1.107       216.301     174.106     153.886     12072.308   34.983      36.254      31.805      33.063      33.6        37.842      26.011      18112.309   1.025       18.273      2.089       
101.8       24.155      129.772     2.358       5.013       23.532      31.002      187.298     35.596      1.107       228.288     187.883     158.281     12210.0     35.222      36.266      32.029      33.276      34.14       38.273      25.999      17866.25    1.021       18.222      2.086       
101.9       24.547      129.503     2.343       5.078       23.46       30.867      186.912     35.718      1.107       235.807     193.774     156.366     12612.857   35.678      36.06       32.214      33.522      34.626      38.994      26.046      18090.0     1.015       18.255      2.079       
102.0       24.491      129.832     2.328       5.121       23.436      30.5        186.534     35.964      1.107       230.925     182.276     148.084     13198.667   36.406      35.668      32.395      33.906      35.051      39.871      26.146      17950.666   1.006       18.334      2.077       
102.1       25.704      128.782     2.317       5.129       23.465      30.136      186.169     36.313      1.107       225.708     169.393     139.802     13701.538   37.488      35.44       32.725      34.272      35.464      40.741      26.28       18118.461   0.982       18.466      2.084       
102.2       28.642      128.434     2.308       5.226       23.557      29.755      185.816     36.739      1.107       223.34      148.958     139.877     13942.857   38.79       35.395      33.197      34.626      35.936      41.498      26.42       18572.857   0.988       18.67       2.118       
102.3       31.333      127.854     2.305       5.177       23.76       29.33       185.474     37.244      1.107       229.321     137.752     147.791     14100.0     40.244      35.72       33.792      34.872      36.187      42.067      26.582      18945.715   1.006       18.937      2.167       
102.4       31.842      127.601     2.305       5.168       23.968      29.052      185.136     37.815      1.107       256.201     127.262     176.426     14402.857   41.703      36.121      34.393      34.912      36.384      42.453      26.789      19215.715   1.034       19.196      2.247       
102.5       30.974      127.753     2.299       5.055       24.18       29.043      184.798     38.446      1.107       320.775     139.225     237.874     14667.143   42.756      36.299      34.935      34.728      36.772      42.69       27.037      19701.428   1.058       19.445      2.271       
