~Version Information Section
VERS.                                         2.0:CWLS log ASCII Standart – VERSION 2.0
WRAP.                                          NO:One line per depth step
~Well Information Section
STRT.M                                        0.2:Начальная глубина
STOP.M                                      176.0:Конечная глубина
STEP.M                                          0:Шаг квантования по глубине
NULL.                                    -9999.25:Признак "Нет данных"
WELL.                                       112Мх:Скважина
~Parameter Information Section
~Curve Information Section
DEPTH.M                                          :Глубина
BK.Ohm*M                                         :BK     (БК)
DS.mm                                            :DS  (ДС)
GGK.g/cm3                                        :GGKp
ГК.mcr/h                                         :GK          (ГК)
GZ1.Ohm*M                                        :GZ1   ГЗ1(A0.4M0.1N)
GZ2.Ohm*M                                        :GZ2   ГЗ2(A1.0M0.1N)
GZ3.Ohm*M                                        :GZ3   ГЗ3(A2.0M0.5N)
GZ4.Ohm*M                                        :GZ4   ГЗ4(A4.0M0.5N)
GZ5.Ohm*M                                        :GZ5   ГЗ5(A8.0M0.5N)
GZR.Ohm*M                                        :GZK   ГЗK(N0.5M2.0A)
ИК.Ohm*M                                         :IK
НГК.ue                                           :NGK     (НГК)
NNKM.                                            :NNKm  (ННКм)
PS.mv                                            :PS       (ПС)
PZ.Ohm*M                                         :PZ    (КС)
U1.mV                                            :U1
U2.mV                                            :U2
U3.mV                                            :U3
КП.%                                             :Кп
~ASCII LOG DATA
# ...
170.2       42.222      126.703     2.351       7.362       -9999.25    -9999.25    -9999.25    -9999.25    -9999.25    -9999.25    11.768      1.16        1.986       253.74      32.6        470.0       2790.0      460.0       43.261      
170.3       38.104      126.349     2.351       7.007       -9999.25    -9999.25    -9999.25    -9999.25    -9999.25    -9999.25    11.784      1.147       1.913       255.52      32.28       470.0       2790.0      460.0       42.348      
170.4       34.813      126.388     2.354       6.793       -9999.25    -9999.25    -9999.25    -9999.25    -9999.25    -9999.25    11.759      1.13        1.834       257.18      32.08       480.0       2790.0      470.0       41.798      
170.5       35.757      125.784     2.362       6.742       -9999.25    -9999.25    -9999.25    -9999.25    -9999.25    -9999.25    11.711      1.087       1.862       258.68      32.0        480.0       2810.0      480.0       41.755      
170.6       37.399      125.758     2.375       7.251       -9999.25    -9999.25    -9999.25    -9999.25    -9999.25    -9999.25    11.706      1.046       1.91        260.04      32.0        -9999.25    -9999.25    -9999.25    41.542      
170.7       39.464      125.762     2.389       7.353       -9999.25    -9999.25    -9999.25    -9999.25    -9999.25    -9999.25    11.768      1.05        1.972       261.28      32.0        -9999.25    -9999.25    -9999.25    41.128      
170.8       42.368      125.805     2.399       7.322       -9999.25    -9999.25    -9999.25    -9999.25    -9999.25    -9999.25    11.878      1.059       2.041       262.48      32.0        -9999.25    -9999.25    -9999.25    40.985      
170.9       45.635      125.864     2.399       7.296       -9999.25    -9999.25    -9999.25    -9999.25    -9999.25    -9999.25    12.022      1.094       2.087       263.74      32.0        -9999.25    -9999.25    -9999.25    40.449      
171.0       47.126      125.888     2.389       7.264       -9999.25    -9999.25    -9999.25    -9999.25    -9999.25    -9999.25    12.157      1.096       2.092       265.06      32.0        -9999.25    -9999.25    -9999.25    40.192      
171.1       45.862      125.085     2.371       6.938       -9999.25    -9999.25    -9999.25    -9999.25    -9999.25    -9999.25    12.222      1.125       2.064       266.44      32.04       -9999.25    -9999.25    -9999.25    40.197      
171.2       42.843      125.021     2.348       6.431       -9999.25    -9999.25    -9999.25    -9999.25    -9999.25    -9999.25    12.25       1.154       2.071       267.92      32.12       -9999.25    -9999.25    -9999.25    40.511      
171.3       43.43       124.926     2.323       6.171       -9999.25    -9999.25    -9999.25    -9999.25    -9999.25    -9999.25    12.251      1.208       2.086       269.42      30.0        -9999.25    -9999.25    -9999.25    40.453      
171.4       45.285      124.689     2.313       6.431       -9999.25    -9999.25    -9999.25    -9999.25    -9999.25    -9999.25    12.212      1.255       2.064       270.86      30.0        -9999.25    -9999.25    -9999.25    39.528      
171.5       44.873      124.763     2.312       6.795       -9999.25    -9999.25    -9999.25    -9999.25    -9999.25    -9999.25    12.203      1.258       2.035       272.22      30.0        -9999.25    -9999.25    -9999.25    38.458      
171.6       45.314      124.646     2.322       7.024       -9999.25    -9999.25    -9999.25    -9999.25    -9999.25    -9999.25    12.233      1.243       2.015       273.46      30.0        -9999.25    -9999.25    -9999.25    39.516      
171.7       44.071      124.625     2.329       7.311       -9999.25    -9999.25    -9999.25    -9999.25    -9999.25    -9999.25    12.235      1.195       1.984       274.52      30.0        -9999.25    -9999.25    -9999.25    41.523      
171.8       41.038      124.626     2.329       7.417       -9999.25    -9999.25    -9999.25    -9999.25    -9999.25    -9999.25    12.172      1.135       1.957       275.42      30.0        -9999.25    -9999.25    -9999.25    43.222      
171.9       40.712      124.325     2.326       7.655       -9999.25    -9999.25    -9999.25    -9999.25    -9999.25    -9999.25    12.104      1.06        1.934       276.06      30.0        -9999.25    -9999.25    -9999.25    42.965      
172.0       39.41       124.326     2.32        7.83        -9999.25    -9999.25    -9999.25    -9999.25    -9999.25    -9999.25    12.007      1.047       1.919       276.32      32.0        -9999.25    -9999.25    -9999.25    42.403      
172.1       37.721      124.361     2.319       7.844       -9999.25    -9999.25    -9999.25    -9999.25    -9999.25    -9999.25    11.925      1.056       1.89        276.36      32.0        -9999.25    -9999.25    -9999.25    42.48       
172.2       37.734      124.256     2.326       7.686       -9999.25    -9999.25    -9999.25    -9999.25    -9999.25    -9999.25    11.876      1.086       1.863       276.36      32.0        -9999.25    -9999.25    -9999.25    42.574      
172.3       37.581      124.287     2.339       7.135       -9999.25    -9999.25    -9999.25    -9999.25    -9999.25    -9999.25    11.825      1.062       1.872       276.22      33.0        -9999.25    -9999.25    -9999.25    41.988      
172.4       38.285      124.428     2.352       6.83        -9999.25    -9999.25    -9999.25    -9999.25    -9999.25    -9999.25    11.803      1.072       1.895       275.8       33.0        -9999.25    -9999.25    -9999.25    40.744      
172.5       40.451      124.139     2.354       6.548       -9999.25    -9999.25    -9999.25    -9999.25    -9999.25    -9999.25    11.832      1.125       1.928       275.14      33.0        -9999.25    -9999.25    -9999.25    41.149      
172.6       40.651      123.886     2.347       6.436       -9999.25    -9999.25    -9999.25    -9999.25    -9999.25    -9999.25    11.902      1.183       1.947       274.46      33.0        -9999.25    -9999.25    -9999.25    42.575      
172.7       39.978      123.802     2.338       6.403       -9999.25    -9999.25    -9999.25    -9999.25    -9999.25    -9999.25    11.955      1.167       1.94        273.96      33.0        -9999.25    -9999.25    -9999.25    42.917      
172.8       38.729      123.815     2.328       6.552       -9999.25    -9999.25    -9999.25    -9999.25    -9999.25    -9999.25    12.004      1.121       1.924       273.68      33.0        -9999.25    -9999.25    -9999.25    41.266      
172.9       36.753      123.833     2.321       6.602       -9999.25    -9999.25    -9999.25    -9999.25    -9999.25    -9999.25    12.06       1.079       1.9         273.6       33.0        -9999.25    -9999.25    -9999.25    40.925      
173.0       36.014      123.806     2.323       7.065       -9999.25    -9999.25    -9999.25    -9999.25    -9999.25    -9999.25    12.073      1.101       1.895       273.6       33.0        -9999.25    -9999.25    -9999.25    42.238      
173.1       35.604      123.88      2.331       7.57        -9999.25    -9999.25    -9999.25    -9999.25    -9999.25    -9999.25    12.089      1.128       1.905       273.6       32.0        -9999.25    -9999.25    -9999.25    43.615      
173.2       35.421      124.017     2.35        7.787       -9999.25    -9999.25    -9999.25    -9999.25    -9999.25    -9999.25    12.102      1.148       1.898       273.62      27.0        -9999.25    -9999.25    -9999.25    42.588      
173.3       35.369      124.497     2.376       7.699       -9999.25    -9999.25    -9999.25    -9999.25    -9999.25    -9999.25    12.107      1.155       1.889       273.7       25.0        -9999.25    -9999.25    -9999.25    40.378      
173.4       -9999.25    125.237     2.406       7.37        -9999.25    -9999.25    -9999.25    -9999.25    -9999.25    -9999.25    12.147      1.116       1.954       273.82      24.0        -9999.25    -9999.25    -9999.25    37.307      
173.5       -9999.25    125.461     2.436       7.475       -9999.25    -9999.25    -9999.25    -9999.25    -9999.25    -9999.25    12.276      1.106       2.034       273.96      23.0        -9999.25    -9999.25    -9999.25    33.916      
