~Version Information Section
VERS.                                         2.0:CWLS log ASCII Standart – VERSION 2.0
WRAP.                                          NO:One line per depth step
~Well Information Section
STRT.M                                        0.1:Начальная глубина
STOP.M                                      167.0:Конечная глубина
STEP.M                                          0:Шаг квантования по глубине
NULL.                                    -9999.25:Признак "Нет данных"
WELL.                                        143К:Скважина
~Parameter Information Section
~Curve Information Section
DEPTH.M                                          :Глубина
БК.Омм                                           :BK     (БК)
DСР.мм                                           :DS  (ДС)
ПЛОТНОСТЬ.г/см^3                                 :GGKp
ГК.гамма                                         :GK          (ГК)
ИК.мСм/м                                         :IK
НГК.усл.ед                                       :NGK     (НГК)
ННКМ.усл.ед                                      :NNKm  (ННКм)
ПС.mv                                            :PS       (ПС)
N11.0M0.5A.Омм                                   :PZ    (КС)
R.Омм                                            :RS (Резистивиметр)
КП.%                                             :W
А0.4М0.1N.Омм                                    :GZ1   ГЗ1(A0.4M0.1N)
А1.0М0.1N.Омм                                    :GZ2   ГЗ2(A1.0M0.1N)
А2.0М0.5N.Омм                                    :GZ3   ГЗ3(A2.0M0.5N)
А4.0М0.5N.Oмм                                    :GZ4   ГЗ4(A4.0M0.5N)
А8.0М1.0N.Омм                                    :GZ5   ГЗ5(A8.0M0.5N)
N0.5M2.0A.Омм                                    :GZR   ГЗK(N0.5M2.0A)
~ASCII LOG DATA
# ...
137.0       198.308     149.105     2.099       4.969       75.873      1.195       2.23        4.799       206.83      1.02        32.525      180.417     175.314     137.204     121.342     42.022      103.324     
137.1       177.576     149.1       2.097       4.974       75.586      1.205       2.231       5.543       202.47      1.02        32.184      179.065     170.42      135.815     118.899     44.585      100.933     
137.2       166.942     148.855     2.092       5.0         75.335      1.212       2.232       6.298       197.624     1.02        31.856      176.308     165.028     134.568     117.342     47.61       99.229      
137.3       165.853     148.192     2.085       4.906       75.126      1.212       2.23        7.05        192.488     1.02        31.689      172.664     159.758     133.619     116.634     50.962      98.052      
137.4       161.484     148.044     2.082       4.822       74.934      1.207       2.223       7.782       187.193     1.02        31.618      169.124     154.654     132.39      116.485     54.424      97.292      
137.5       152.711     148.086     2.084       4.717       74.699      1.199       2.215       8.483       182.147     1.02        31.562      165.955     150.121     130.586     116.485     57.598      96.66       
137.6       142.999     147.648     2.09        4.608       74.267      1.192       2.207       9.144       178.017     1.02        31.581      163.652     147.107     128.838     116.485     60.247      95.845      
137.7       130.452     146.936     2.102       4.576       73.621      1.192       2.198       9.759       175.119     1.02        31.545      162.518     145.406     127.353     116.596     62.599      94.595      
137.8       118.233     146.578     2.118       4.602       72.748      1.206       2.196       10.33       173.102     1.02        31.494      162.239     144.15      125.714     116.706     64.361      93.043      
137.9       113.108     146.627     2.135       4.608       71.659      1.231       2.205       10.862      171.548     1.02        31.441      162.239     143.067     123.628     116.706     65.814      91.39       
138.0       113.978     146.326     2.151       4.636       70.472      1.248       2.221       11.37       170.378     1.02        31.314      161.798     142.086     121.256     116.589     66.961      89.773      
138.1       119.139     145.165     2.163       4.807       69.411      1.26        2.243       11.87       169.346     1.02        31.051      161.15      140.86      119.117     116.23      68.018      88.477      
138.2       123.334     144.541     2.166       4.927       68.517      1.272       2.26        12.385      168.096     1.02        30.747      161.436     139.368     117.356     115.873     68.933      87.785      
138.3       127.019     143.277     2.165       4.991       67.797      1.275       2.278       12.939      166.874     1.02        30.25       162.247     137.862     116.523     115.588     69.745      87.319      
138.4       127.908     143.081     2.163       5.023       67.268      1.281       2.295       13.554      166.097     1.02        29.565      162.634     136.611     116.434     115.42      70.52       86.788      
138.5       125.315     142.825     2.164       5.006       66.84       1.299       2.312       14.252      165.574     1.02        28.852      162.449     135.494     116.369     115.42      71.435      86.262      
138.6       122.5       142.384     2.174       4.928       66.414      1.306       2.317       15.049      165.159     1.02        28.308      161.879     134.496     116.285     115.42      72.483      85.839      
138.7       120.856     141.645     2.191       4.888       65.972      1.299       2.323       15.952      164.843     1.02        27.953      161.963     134.065     116.416     115.45      73.556      85.753      
138.8       116.565     141.252     2.207       4.834       65.514      1.292       2.322       16.963      164.427     1.02        27.782      162.437     133.845     116.748     116.174     74.776      85.773      
138.9       111.849     141.431     2.216       4.782       65.036      1.282       2.314       18.076      163.908     1.02        27.848      161.825     133.272     116.947     117.581     75.901      85.828      
139.0       112.143     140.849     2.216       4.799       64.537      1.262       2.305       19.277      163.27      1.02        28.092      161.825     132.706     116.997     118.68      76.479      86.094      
139.1       116.002     140.956     2.208       4.867       64.045      1.259       2.309       20.545      162.59      1.02        28.307      163.232     131.874     116.997     119.068     76.688      86.664      
139.2       117.665     141.152     2.2         4.819       63.561      1.27        2.319       21.848      161.526     1.02        28.3        163.432     130.383     116.513     119.068     76.758      87.284      
139.3       111.542     140.465     2.2         4.784       63.095      1.287       2.344       23.153      159.901     1.02        28.033      162.205     128.512     114.877     118.969     76.839      88.425      
139.4       107.802     140.634     2.21        4.789       62.645      1.305       2.377       24.419      157.902     1.02        27.515      160.86      124.986     112.124     118.306     77.01       90.387      
139.5       109.6       140.807     2.225       4.744       62.216      1.322       2.414       25.611      156.138     1.02        26.796      158.982     119.473     108.592     116.39      76.929      92.649      
139.6       112.273     140.642     2.241       4.693       61.805      1.335       2.452       26.695      155.243     1.02        26.05       156.821     113.525     104.564     113.757     76.746      95.219      
139.7       106.244     140.509     2.251       4.719       61.421      1.351       2.479       27.644      154.987     1.02        25.456      154.568     108.148     100.775     111.676     76.575      98.408      
139.8       99.201      141.192     2.255       4.687       61.08       1.37        2.486       28.444      154.987     1.02        25.09       153.237     104.08      98.033      110.872     76.468      102.125     
139.9       99.246      140.399     2.254       4.636       60.809      1.38        2.48        29.088      154.987     1.02        24.965      154.161     102.423     96.501      110.867     76.357      105.886     
140.0       97.264      140.233     2.256       4.732       60.661      1.382       2.469       29.577      155.477     1.02        25.027      155.182     102.423     95.859      110.831     76.453      109.494     
140.1       89.218      140.705     2.265       4.757       60.632      1.382       2.462       29.921      157.309     1.02        25.152      155.279     102.34      95.548      110.721     76.56       112.789     
140.2       80.627      141.052     2.281       4.684       60.632      1.401       2.467       30.136      160.114     1.02        25.271      154.838     102.244     95.338      110.88      76.667      115.585     
140.3       86.353      140.702     2.297       4.704       60.665      1.433       2.492       30.243      162.435     1.02        25.193      155.854     102.858     94.988      111.759     76.848      117.912     
140.4       97.282      139.765     2.31        4.767       60.82       1.461       2.529       30.274      163.627     1.02        24.842      159.301     104.926     94.564      113.096     77.373      120.033     
140.5       104.112     140.024     2.317       4.761       61.11       1.482       2.567       30.262      164.009     1.02        24.451      162.796     107.626     94.462      114.216     77.821      122.324     
140.6       114.914     140.177     2.316       4.815       61.478      1.492       2.598       30.237      164.219     1.02        24.061      166.134     109.68      94.493      114.773     78.141      124.648     
