~Version Information Section
VERS.                                         2.0:CWLS log ASCII Standart – VERSION 2.0
WRAP.                                          NO:One line per depth step
~Well Information Section
STRT.M                                        0.0:Начальная глубина
STOP.M                                      133.6:Конечная глубина
STEP.M                                          0:Шаг квантования по глубине
NULL.                                    -9999.25:Признак "Нет данных"
WELL.                                       118Мх:Скважина
~Parameter Information Section
~Curve Information Section
DEPTH.M                                          :Глубина
BK.Ohm*M                                         :BK     (БК)
DS.mm                                            :DS  (ДС)
GGK.g/cm3                                        :GGKp
ГК.mcr/h                                         :GK          (ГК)
GZ1.Ohm*M                                        :GZ1   ГЗ1(A0.4M0.1N)
GZ2.Ohm*M                                        :GZ2   ГЗ2(A1.0M0.1N)
GZ3.Ohm*M                                        :GZ3   ГЗ3(A2.0M0.5N)
GZ4.Ohm*M                                        :GZ4   ГЗ4(A4.0M0.5N)
GZ5.Ohm*M                                        :GZ5   ГЗ5(A8.0M0.5N)
GZR.Ohm*M                                        :GZK   ГЗK(N0.5M2.0A)
ИК.Ohm*M                                         :IK
НГК.усл.ед                                       :NGK
NNKM.                                            :NNKm  (ННКм)
PS.mv                                            :PS       (ПС)
PZ.Ohm*M                                         :PZ    (КС)
RS.Ohm*M                                         :RS (Резистивиметр)
U1.mV                                            :U1
U2.mV                                            :U2
U3.mV                                            :U3
W.%                                              :W
~ASCII LOG DATA
# ...
115.2       139.959     152.304     2.13        3.81        137.646     292.84      291.571     132.44      48.001      378.431     18.115      1.249       2.334       939.766     482.821     1.04        1162.334    791.192     576.013     29.073      
115.4       145.546     151.601     2.157       3.519       139.038     286.015     288.52      136.04      48.055      379.931     18.192      1.215       2.402       940.486     483.788     1.04        1420.267    957.267     680.633     30.178      
115.6       129.42      151.415     2.199       3.631       132.77      270.769     287.666     139.64      48.237      379.931     18.215      1.191       2.468       940.726     485.91      1.041       1118.722    756.213     545.149     30.076      
115.8       140.605     151.037     2.207       3.886       134.679     269.149     286.653     140.84      48.694      379.931     18.196      1.266       2.337       940.006     488.676     1.041       989.022     714.212     555.069     30.272      
116.0       154.525     152.521     2.2         3.467       143.699     285.349     292.702     142.64      50.763      379.931     18.285      1.268       2.563       938.326     491.469     1.041       885.166     698.9       600.276     25.984      
116.2       189.234     150.97      2.225       3.681       146.159     324.229     301.461     144.44      52.574      376.931     18.355      1.313       2.441       935.686     494.074     1.041       569.275     508.473     523.803     29.827      
116.4       183.654     150.901     2.214       3.84        150.259     345.289     310.1       145.64      55.183      372.431     18.462      1.299       2.472       932.326     497.324     1.044       700.111     612.191     629.133     28.984      
116.6       165.196     150.63      2.184       3.64        155.999     359.869     316.428     145.64      57.324      369.431     18.467      1.261       2.473       928.246     501.675     1.04        1190.003    794.406     590.849     30.132      
116.8       205.589     150.289     2.174       3.574       160.099     366.349     322.479     145.64      59.246      366.431     18.425      1.185       2.436       923.686     506.939     1.057       1415.888    989.525     769.828     28.231      
117.0       193.642     150.101     2.174       3.54        161.739     374.449     327.242     145.04      60.807      361.931     18.431      1.252       2.437       918.886     512.445     1.082       1466.612    1309.605    1246.649    30.009      
117.2       185.353     150.718     2.169       3.386       163.379     385.789     328.512     143.24      62.814      361.931     18.451      1.193       2.441       914.806     518.004     1.082       1181.941    1121.679    1123.719    30.35       
117.4       173.38      150.299     2.16        3.56        163.379     397.129     317.603     140.84      66.412      364.931     18.48       1.184       2.458       911.686     523.188     1.082       753.79      716.356     745.904     29.333      
117.6       138.676     150.568     2.142       3.377       163.379     405.229     316.383     138.44      78.717      367.931     18.401      1.185       2.44        909.046     527.512     1.082       731.235     705.645     766.547     30.84       
117.8       170.608     150.633     2.158       3.633       160.919     405.229     323.703     136.64      106.26      370.931     18.351      1.21        2.435       907.366     530.063     1.082       557.027     570.27      743.674     27.185      
118.0       159.221     151.424     2.173       3.953       159.279     403.609     324.923     136.64      115.36      373.931     18.291      1.286       2.464       907.126     530.6       -9999.25    714.007     618.805     662.414     26.181      
118.2       218.273     151.168     2.176       3.908       155.999     397.129     328.583     136.64      119.56      381.431     18.382      1.261       2.527       908.806     529.499     -9999.25    1076.099    917.6       838.627     28.181      
118.4       174.582     150.501     2.162       3.564       155.179     393.889     331.023     136.64      120.26      384.431     18.478      1.291       2.455       911.446     527.673     -9999.25    1056.312    946.931     912.701     28.018      
118.6       179.061     151.528     2.19        3.277       155.179     372.829     334.683     137.24      120.26      385.931     18.383      1.353       2.407       915.526     525.793     -9999.25    1131.214    910.315     800.612     27.595      
118.8       162.93      151.019     2.217       3.296       155.999     358.249     340.783     138.44      120.26      388.931     18.266      1.302       2.504       920.566     524.772     -9999.25    1023.31     801.094     705.731     26.564      
119.0       151.356     151.205     2.207       3.769       157.639     363.109     345.663     140.24      120.96      388.931     18.289      1.227       2.606       927.286     525.256     -9999.25    738.115     626.402     617.548     27.837      
119.2       165.959     151.543     2.18        3.66        159.279     372.829     348.103     140.84      122.36      384.431     18.194      1.246       2.536       934.006     526.948     -9999.25    701.482     546.193     478.211     27.447      
119.4       194.984     151.283     2.182       3.698       160.099     382.549     348.103     141.44      123.76      381.431     18.167      1.272       2.59        941.206     529.15      -9999.25    501.988     383.667     339.132     29.374      
119.6       169.434     152.004     2.176       3.678       161.739     389.029     348.103     141.44      125.16      373.931     18.045      1.278       2.559       947.446     531.057     -9999.25    449.176     365.661     355.577     27.895      
119.8       177.828     151.75      2.158       3.569       165.019     395.509     345.663     141.44      127.26      367.931     17.973      1.286       2.592       953.686     532.158     -9999.25    639.28      587.615     608.775     26.075      
120.0       179.061     151.806     2.163       3.589       166.659     397.129     339.563     141.44      127.96      361.931     17.853      1.263       2.536       959.686     531.379     -9999.25    804.091     728.475     665.026     28.747      
120.2       145.546     150.704     2.2         3.829       169.119     390.649     329.803     141.44      128.66      349.931     17.679      1.303       2.571       965.446     527.968     -9999.25    561.288     601.887     481.43      30.098      
120.4       189.234     150.776     2.246       3.788       170.759     384.169     284.663     137.24      128.66      331.931     17.417      1.412       2.609       971.926     521.791     -9999.25    453.487     408.486     493.073     26.802      
120.6       167.109     150.85      2.221       3.369       174.859     382.549     274.903     127.04      128.66      312.431     17.115      1.357       2.679       978.886     513.976     -9999.25    484.331     410.551     560.423     24.788      
120.8       171.002     150.661     2.24        3.405       172.399     379.309     255.383     122.84      127.26      303.431     16.828      1.385       2.663       986.566     505.677     -9999.25    630.139     555.031     594.098     26.352      
121.0       119.95      151.319     2.24        3.663       169.119     374.449     237.083     114.44      126.56      295.931     16.308      1.454       2.707       994.006     497.62      -9999.25    791.836     698.65      627.772     26.893      
121.2       123.88      151.393     2.252       3.663       166.659     295.069     226.103     107.84      122.36      288.431     15.736      1.52        2.82        1002.406    488.972     -9999.25    762.861     692.631     641.735     25.199      
121.4       138.676     152.407     2.27        3.434       154.359     286.969     217.563     95.24       117.46      276.431     15.019      1.668       2.802       1009.606    479.196     -9999.25    601.165     614.372     463.508     25.24       
