~Version Information Section
VERS.                                         2.0:CWLS log ASCII Standart – VERSION 2.0
WRAP.                                          NO:One line per depth step
~Well Information Section
STRT.M                                        1.2:Начальная глубина
STOP.M                                      169.7:Конечная глубина
STEP.M                                          0:Шаг квантования по глубине
NULL.                                    -9999.25:Признак "Нет данных"
WELL.                                       115Мх:Скважина
~Parameter Information Section
~Curve Information Section
DEPTH.M                                          :Глубина
BK.Ohm*M                                         :BK     (БК)
DS.mm                                            :DS  (ДС)
GGK.g/cm3                                        :GGKp
ГК.mcr/h                                         :GK          (ГК)
GZ1.Ohm*M                                        :GZ1   ГЗ1(A0.4M0.1N)
GZ2.Ohm*M                                        :GZ2   ГЗ2(A1.0M0.1N)
GZ3.Ohm*M                                        :GZ3   ГЗ3(A2.0M0.5N)
GZ4.Ohm*M                                        :GZ4   ГЗ4(A4.0M0.5N)
GZ5.Ohm*M                                        :GZ5   ГЗ5(A8.0M0.5N)
GZR.Ohm*M                                        :GZK   ГЗK(N0.5M2.0A)
ИК.Ohm*M                                         :IK
НГК.ue                                           :NGK     (НГК)
NNKM.                                            :NNKm  (ННКм)
PS.mv                                            :PS       (ПС)
PZ.Ohm*M                                         :PZ    (КС)
RS.Ohm*M                                         :RS (Резистивиметр)
U1.mV                                            :U1
U2.mV                                            :U2
U3.mV                                            :U3
КП.%                                             :Кп
~ASCII LOG DATA
# ...
62.0        16.904      133.757     2.25        5.159       1.854       6.673       5.177       6.725       5.171       4.919       15.795      1.32        2.315       1024.629    6.671       1.008       449.708     510.992     580.41      27.359      
62.1        16.368      134.009     2.296       5.105       1.67        6.842       5.077       6.725       5.171       4.919       15.768      1.282       2.422       1024.895    6.687       1.008       385.911     467.651     567.361     25.997      
62.2        15.101      133.962     2.335       5.019       1.457       6.793       5.077       6.725       5.171       4.919       15.768      1.203       2.528       1024.114    6.718       1.008       383.94      411.75      486.382     25.551      
62.3        14.655      134.813     2.367       4.856       1.308       6.721       5.177       6.725       5.171       4.919       15.741      1.129       2.46        1023.07     6.78        1.008       443.795     343.295     337.481     27.182      
62.4        15.101      133.666     2.382       4.781       1.24        6.624       5.277       6.725       5.171       4.919       15.751      1.135       2.37        1021.908    6.904       1.008       480.696     294.076     219.459     29.259      
62.5        15.241      134.112     2.373       4.947       1.177       6.576       5.277       6.725       5.171       4.919       15.795      1.116       2.176       1020.432    7.091       1.008       432.81      276.656     200.256     32.95       
62.6        15.031      134.578     2.332       5.477       1.109       6.503       5.277       6.725       5.171       4.919       15.849      1.064       1.982       1018.702    7.339       1.008       344.231     308.525     306.394     34.504      
62.7        15.101      134.729     2.276       6.263       1.027       6.407       5.277       6.725       5.071       4.919       15.959      0.983       1.931       1016.769    7.665       1.008       299.743     357.87      439.013     35.779      
62.8        15.959      137.16      2.237       6.961       0.964       6.286       5.277       6.825       5.071       4.919       16.014      0.957       1.881       1014.319    8.085       1.008       331.363     390.369     488.172     35.653      
62.9        16.596      136.963     2.187       7.601       1.003       6.189       5.377       6.825       5.071       5.019       16.07       0.956       1.82        1012.127    8.613       1.008       395.632     387.857     425.192     36.777      
63.0        17.179      138.592     2.145       7.913       1.042       6.237       5.377       6.825       5.071       5.019       16.165      0.95        1.763       1010.337    9.25        1.008       446.974     354.083     302.117     38.204      
63.1        18.493      138.303     2.124       7.86        1.08        6.286       5.377       6.825       5.071       5.119       16.193      0.942       1.783       1009.577    10.012      1.008       451.506     323.515     231.008     39.514      
63.2        21.135      137.807     2.13        7.458       1.187       6.31        5.477       6.825       5.071       5.119       16.25       0.989       1.798       1008.497    10.866      1.008       408.594     296.827     214.021     39.532      
63.3        21.528      138.084     2.141       7.109       1.269       6.262       5.577       6.825       5.071       5.119       16.296      1.023       1.78        1007.706    11.814      1.008       345.165     287.345     282.105     39.129      
63.4        20.184      138.105     2.17        6.861       1.37        6.31        5.677       6.825       5.071       5.219       16.279      1.029       1.769       1006.612    12.824      1.008       261.682     296.196     439.351     38.597      
63.5        20.184      136.858     2.2         6.68        1.341       6.358       5.777       6.825       5.071       5.219       16.211      0.976       1.791       1005.874    13.834      1.008       218.52      314.812     549.566     38.119      
63.6        20.184      136.035     2.225       6.562       1.298       6.382       5.777       6.825       5.071       5.319       16.204      0.928       1.804       1005.24     14.844      1.008       240.292     325.293     516.356     37.825      
63.7        21.038      136.276     2.235       6.465       1.303       6.383       5.477       6.825       5.071       5.319       16.211      0.936       1.785       1004.812    15.853      1.008       277.461     311.975     391.648     37.301      
63.8        18.281      136.533     2.282       6.135       1.293       6.407       5.377       6.925       5.071       5.319       16.108      0.971       1.799       1004.364    16.832      1.008       263.347     281.647     318.84      36.37       
63.9        16.634      136.19      2.319       5.505       1.25        6.431       5.277       6.925       5.071       5.319       15.996      1.024       1.871       1004.351    17.749      1.008       191.977     235.15      311.395     35.191      
64.0        15.382      135.533     2.374       4.92        1.167       6.479       5.277       6.925       5.071       5.319       15.849      1.027       1.985       1004.771    18.573      1.008       198.356     225.601     300.096     32.735      
64.1        14.488      135.701     2.404       4.601       1.119       6.431       5.177       6.925       5.071       5.319       15.751      0.998       2.163       1005.313    19.303      1.008       302.54      261.112     275.929     29.825      
64.2        14.125      135.946     2.406       4.55        1.109       6.382       5.177       6.925       4.871       5.319       15.688      0.994       2.225       1005.641    19.909      1.008       418.245     290.564     227.792     28.31       
64.3        14.488      136.119     2.371       4.692       1.105       6.334       5.177       6.925       4.871       5.319       15.671      0.991       2.135       1006.463    20.406      1.008       444.886     265.433     164.61      29.081      
64.4        14.289      136.329     2.352       5.019       1.08        6.334       5.177       6.925       4.871       5.319       15.678      0.976       2.044       1007.785    20.794      1.008       390.502     218.426     126.877     31.308      
64.5        14.191      136.985     2.314       5.483       1.032       6.237       5.177       6.825       4.771       5.319       15.688      0.945       1.968       1009.946    21.09       1.008       346.188     209.298     134.239     32.888      
64.6        18.155      137.935     2.299       5.873       1.042       6.189       5.177       6.825       4.771       5.319       15.741      0.955       1.914       1012.252    21.323      1.008       314.08      238.509     215.592     34.318      
64.7        23.933      137.507     2.296       6.023       1.085       6.189       5.177       6.725       4.771       5.319       15.768      0.985       1.874       1014.602    21.493      1.008       268.767     264.667     339.003     35.519      
64.8        19.498      138.773     2.311       6.036       1.124       6.117       5.177       6.625       4.771       5.319       15.761      0.995       1.871       1016.754    21.602      1.008       205.425     279.14      495.939     35.311      
64.9        14.588      138.009     2.29        6.034       1.172       6.092       5.277       6.625       4.771       5.319       15.778      0.972       1.892       1018.504    21.664      1.008       155.577     276.21      570.189     34.301      
65.0        21.429      137.586     2.281       6.022       1.211       6.044       5.377       6.625       4.771       5.319       15.904      0.948       1.891       1020.559    21.695      1.008       127.999     253.693     528.079     34.202      
65.1        76.913      138.084     2.278       6.046       1.264       6.044       5.377       6.625       4.771       5.219       16.08       0.949       1.88        1022.585    21.711      1.008       128.723     225.531     410.146     35.226      
