~Version Information Section
VERS.                                         2.0:CWLS log ASCII Standart – VERSION 2.0
WRAP.                                          NO:One line per depth step
~Well Information Section
STRT.M                                        0.4:Начальная глубина
STOP.M                                      190.1:Конечная глубина
STEP.M                                          0:Шаг квантования по глубине
NULL.                                    -9999.25:Признак "Нет данных"
WELL.                                       135Мх:Скважина
~Parameter Information Section
~Curve Information Section
DEPTH.M                                          :Глубина
DS.mm                                            :DS  (ДС)
GGK.g/cm3                                        :GGKp
ГК.mcr/h                                         :GK          (ГК)
GZ1.Ohm*M                                        :GZ1   ГЗ1(A0.4M0.1N)
GZ2.Ohm*M                                        :GZ2   ГЗ2(A1.0M0.1N)
GZ3.Ohm*M                                        :GZ3   ГЗ3(A2.0M0.5N)
GZ4.Ohm*M                                        :GZ4   ГЗ4(A4.0M0.5N)
GZ5.Ohm*M                                        :GZ5   ГЗ5(A8.0M0.5N)
GZR.Ohm*M                                        :GZK   ГЗK(N0.5M2.0A)
ИК.Ohm*M                                         :IK
НГК.ue                                           :NGK     (НГК)
NNKM.                                            :NNKm  (ННКм)
PS.mv                                            :PS       (ПС)
PZ.Ohm*M                                         :PZ    (КС)
RS.Ohm*M                                         :RS (Резистивиметр)
U1.mV                                            :U1
U2.mV                                            :U2
U3.mV                                            :U3
BK.Ohm*M                                         :БК
ПОРИСТОСТЬ.                                      :Пористость ННК
~ASCII LOG DATA
# ...
128.4       132.661     2.264       8.057       38.865      29.755      7.709       20.167      9.44        25.628      25.739      1.629       2.214       400.509     20.308      1.32        202.666     117.333     209.332     22.135      29.702      
128.5       132.633     2.266       7.808       38.556      29.598      9.02        20.189      9.634       25.339      25.769      1.596       2.198       403.083     20.487      1.32        189.334     114.666     190.668     21.802      30.096      
128.6       132.604     2.275       7.513       37.839      29.536      11.139      20.491      9.829       25.17       25.772      1.524       2.188       405.822     20.644      1.32        181.333     112.0       177.333     21.489      30.702      
128.7       132.575     2.28        7.603       37.083      29.606      13.672      21.017      10.024      25.142      25.772      1.486       2.181       408.839     20.855      1.32        176.0       109.334     169.333     21.544      30.901      
128.8       132.575     2.286       7.495       36.747      29.804      16.365      21.45       12.12       25.286      25.772      1.471       2.178       411.952     21.098      1.32        168.0       101.333     164.0       22.239      30.953      
128.9       132.612     2.295       7.457       36.87       30.33       17.82       21.672      12.37       25.666      25.762      1.463       2.193       414.883     21.337      1.32        157.333     98.666      153.333     22.89       30.863      
129.0       132.682     2.299       7.462       37.771      31.382      19.444      21.608      12.619      26.202      25.727      1.444       2.202       417.556     21.541      1.32        146.667     96.0        145.334     23.183      30.743      
129.1       132.715     2.318       7.616       39.786      32.784      21.084      21.508      15.212      26.804      25.684      1.429       2.207       420.08      21.637      1.32        138.667     98.667      140.0       23.715      30.379      
129.2       132.691     2.34        7.645       42.362      34.238      22.404      21.777      14.782      27.418      25.628      1.455       2.208       422.374     21.606      1.32        136.0       104.0       140.0       22.592      30.481      
129.3       132.691     2.349       7.474       44.658      35.385      22.811      22.567      14.206      28.285      25.564      1.478       2.19        424.324     21.518      1.32        120.0       112.0       145.333     23.071      30.532      
129.4       132.763     2.331       7.434       46.091      35.976      31.265      23.706      13.453      29.706      25.481      1.478       2.175       425.687     21.405      1.32        106.666     114.667     153.334     20.332      30.72       
129.5       132.929     2.299       7.492       46.699      36.127      30.822      24.988      12.455      31.589      25.379      1.455       2.165       426.445     21.28       1.32        96.0        112.0       164.0       20.082      31.001      
129.6       133.043     2.275       7.755       46.798      36.177      30.379      26.051      11.812      33.592      25.26       1.43        2.131       426.544     21.148      1.32        104.0       104.0       177.334     19.778      31.464      
129.7       133.051     2.262       8.106       46.549      36.143      30.141      27.122      11.749      35.238      25.11       1.45        2.096       426.183     21.019      1.32        114.666     98.667      187.999     19.661      33.006      
129.8       133.031     2.253       8.43        45.895      35.669      30.124      29.323      11.749      36.126      24.942      1.554       2.065       425.538     20.901      1.32        120.0       98.667      190.667     19.419      34.675      
129.9       133.031     2.249       8.497       44.799      34.518      30.347      33.04       12.831      36.336      24.754      1.707       2.071       424.713     20.788      1.32        120.0       104.0       182.666     19.486      35.474      
130.0       133.091     2.266       8.502       43.529      32.707      30.848      37.809      15.342      36.2        24.548      1.77        2.144       423.658     20.665      1.32        112.0       112.0       164.001     19.324      33.782      
130.1       133.268     2.303       8.38        42.477      30.625      31.582      42.749      18.203      35.914      24.326      1.721       2.264       422.502     20.508      1.32        106.667     114.667     139.998     19.22       30.548      
130.2       133.064     2.353       8.352       41.805      28.733      32.566      46.248      20.674      35.61       24.151      1.638       2.392       421.278     20.317      1.32        98.667      114.667     121.334     21.502      28.374      
130.3       132.685     2.38        8.374       41.357      27.125      33.277      47.161      21.942      35.373      24.061      1.579       2.438       419.89      20.111      1.32        88.0        109.333     116.0       23.859      27.066      
130.4       132.677     2.397       8.313       40.648      25.822      33.644      45.815      21.627      35.27       24.023      1.544       2.389       418.339     20.575      1.32        77.333      101.333     124.0       33.88       28.267      
130.5       132.677     2.401       8.032       39.635      24.862      33.833      43.056      20.904      35.267      23.996      1.49        2.296       416.623     20.268      1.32        72.0        90.667      139.999     27.511      29.73       
130.6       132.708     2.38        7.967       38.471      24.188      33.618      39.872      20.361      35.491      23.919      1.459       2.199       414.743     19.872      1.32        82.667      80.0        158.668     17.712      32.021      
130.7       132.738     2.365       7.856       37.482      23.878      33.398      37.323      19.76       36.139      23.833      1.498       2.145       412.694     19.8        1.32        93.333      72.0        172.0       16.555      32.823      
130.8       132.788     2.362       7.713       37.104      23.837      33.511      35.793      19.061      37.13       23.785      1.549       2.12        410.447     19.8        1.32        101.333     66.667      169.333     17.818      32.734      
130.9       132.928     2.359       7.625       37.07       23.923      33.624      35.033      18.421      38.231      23.767      1.602       2.095       407.944     20.136      1.32        96.0        64.0        155.999     18.642      32.161      
131.0       132.995     2.346       7.782       37.14       24.128      33.549      34.74       17.833      39.005      23.739      1.588       2.093       405.382     21.036      1.32        90.667      66.666      140.001     19.229      31.909      
131.1       133.164     2.335       8.201       37.448      24.401      33.279      34.683      17.636      39.15       23.696      1.55        2.123       402.936     21.864      1.32        88.0        74.667      126.666     19.316      31.437      
131.2       133.322     2.331       8.232       37.64       24.791      32.952      34.822      17.636      38.609      23.646      1.53        2.168       400.533     22.5        1.32        90.667      90.666      118.667     20.004      30.843      
131.3       133.266     2.328       7.861       37.399      25.424      32.818      35.063      18.102      37.479      23.6        1.523       2.211       398.251     23.1        1.32        98.667      106.667     113.333     21.525      30.364      
131.4       133.199     2.319       7.409       36.901      26.204      32.802      35.059      18.162      35.874      23.6        1.541       2.233       396.119     23.364      1.32        109.334     122.667     110.667     23.192      29.801      
131.5       133.199     2.32        6.921       36.133      26.736      32.698      34.59       18.016      33.742      23.614      1.535       2.23        394.225     23.4        1.32        117.333     133.333     110.667     24.723      29.622      
