~Version Information Section
VERS.                                         2.0:CWLS log ASCII Standart – VERSION 2.0
WRAP.                                          NO:One line per depth step
~Well Information Section
STRT.M                                        1.0:Начальная глубина
STOP.M                                      203.4:Конечная глубина
STEP.M                                          0:Шаг квантования по глубине
NULL.                                    -9999.25:Признак "Нет данных"
WELL.                                         3Мх:Скважина
~Parameter Information Section
~Curve Information Section
DEPTH.M                                          :Глубина
BK.Ohm*M                                         :BK
DS.mm                                            :DS  (ДС)
ГК.mcr/h                                         :GK          (ГК)
GZ1.Ohm*M                                        :GZ1   ГЗ1(A0.4M0.1N)
GZ2.Ohm*M                                        :GZ2   ГЗ2(A1.0M0.1N)
GZ3.Ohm*M                                        :GZ3   ГЗ3(A2.0M0.5N)
GZ4.Ohm*M                                        :GZ4   ГЗ4(A4.0M0.5N)
GZ5.Ohm*M                                        :GZ5   ГЗ5(A8.0M0.5N)
U2.mV                                            :U2
U3.mV                                            :U3
W.                                               :W
КП.%                                             :Кп
НГК.усл.ед                                       :ННКб
ННКМ.усл.ед                                      :ННКм
GZR.Ohm*M                                        :GZK   ГЗK(N0.5M2.0A)
ИК.Ohm*M                                         :IK
PS.mv                                            :PS       (ПС)
PZ.Ohm*M                                         :PZ    (КС)
RS.Ohm*M                                         :RS (Резистивиметр)
U1.mV                                            :U1
~ASCII LOG DATA
# ...
97.0        15.031      172.411     6.009       1.255       6.213       4.777       6.625       4.371       369.535     391.789     2.425       48.395      2.369       1.844       5.319       15.741      164.79      3.88        1.008       376.669     
97.1        15.101      168.373     6.009       1.288       6.213       4.677       6.525       4.371       389.307     369.795     2.381       46.868      2.428       1.872       5.319       15.751      161.892     4.298       1.008       439.357     
97.2        15.959      163.13      6.149       1.303       6.238       4.677       6.525       4.271       396.746     335.353     2.364       44.485      2.558       1.9         5.419       15.795      158.655     5.133       1.008       488.025     
97.3        16.596      160.4       6.275       1.491       6.213       4.677       6.525       4.171       393.264     305.253     2.366       42.634      2.819       1.949       5.519       15.849      156.337     6.387       1.008       511.804     
97.4        17.179      160.639     6.308       1.646       6.286       4.677       6.525       4.171       386.839     287.214     2.364       41.928      2.772       1.978       5.519       15.959      154.51      8.058       1.008       520.348     
97.5        18.493      161.132     6.104       1.602       6.358       4.677       6.425       4.171       389.444     287.292     2.372       42.439      2.703       1.966       5.619       16.014      154.018     9.729       1.008       529.531     
97.6        21.135      161.597     5.821       1.592       6.334       4.677       6.325       4.071       412.344     315.938     2.4         42.504      2.723       1.961       5.619       16.07       153.629     10.982      1.008       546.839     
97.7        21.528      163.976     5.635       1.578       6.358       4.677       6.325       4.071       454.288     374.959     2.422       41.799      2.763       1.968       5.419       16.165      152.913     12.027      1.008       564.951     
97.8        20.184      161.51      5.749       1.54        6.382       4.777       6.325       4.071       496.643     448.005     2.426       40.635      2.81        1.97        5.419       16.193      150.545     13.28       1.008       566.547     
97.9        20.184      161.547     6.129       1.534       6.431       4.877       6.325       4.071       517.166     514.537     2.443       39.599      2.879       1.964       5.319       16.25       147.275     14.742      1.008       537.975     
98.0        20.184      165.576     6.47        1.463       6.431       4.977       6.325       4.071       509.104     573.333     2.459       38.789      2.799       1.929       5.219       16.296      144.064     16.204      1.008       479.012     
98.1        21.038      169.628     6.642       1.409       6.358       5.077       6.325       4.071       482.271     632.364     2.454       38.703      2.637       1.835       5.219       16.279      143.096     17.249      1.008       404.01      
98.2        18.281      171.763     6.676       1.274       6.334       5.177       6.325       4.071       445.305     676.593     2.428       38.94       2.6         1.768       5.219       16.211      143.798     18.084      1.008       332.576     
98.3        16.634      172.273     6.798       1.245       6.189       5.177       6.325       4.071       395.397     661.099     2.406       40.176      2.544       1.754       5.219       16.204      145.207     18.502      1.008       279.931     
98.4        15.382      172.309     6.964       1.351       6.165       5.177       6.425       4.071       329.766     557.492     2.386       43.113      2.453       1.75        5.219       16.211      145.062     18.711      1.008       250.71      
98.5        14.488      172.906     7.002       1.486       6.286       5.177       6.425       4.071       261.605     398.506     2.351       45.369      2.27        1.761       5.219       16.108      144.465     18.711      1.008       241.553     
98.6        14.125      174.37      6.779       1.569       6.31        5.277       6.425       4.071       216.56      257.122     2.315       46.233      2.413       1.807       5.219       15.996      144.175     18.711      1.008       252.135     
98.7        14.488      175.157     6.32        1.641       6.358       5.277       6.425       4.071       213.203     185.205     2.304       45.178      2.628       1.901       5.219       15.849      145.211     18.711      1.008       290.622     
98.8        14.289      172.237     5.882       1.728       6.431       5.277       6.425       4.071       248.108     178.726     2.301       44.339      2.676       1.973       5.219       15.751      145.854     18.711      1.008       361.895     
98.9        14.191      161.482     5.494       1.791       6.503       5.177       6.425       4.171       299.29      202.238     2.275       43.392      2.865       2.047       5.319       15.688      145.412     18.711      1.008       449.239     
99.0        18.155      160.4       5.255       1.883       6.576       5.177       6.525       4.271       342.453     227.048     2.275       41.616      3.018       2.128       5.319       15.671      144.292     18.711      1.008       518.938     
99.1        23.933      162.113     5.004       1.936       6.648       5.177       6.625       4.271       363.325     242.824     2.319       40.213      3.247       2.181       5.319       15.678      144.087     18.711      1.008       544.09      
99.2        19.498      158.724     4.852       1.932       6.697       5.177       6.725       4.271       361.878     250.037     2.358       40.04       3.318       2.246       5.319       15.688      145.783     18.711      1.008       524.494     
99.3        14.588      158.541     4.758       1.858       6.673       5.177       6.725       4.271       349.355     251.8       2.409       39.84       3.605       2.412       5.319       15.741      148.603     18.711      1.008       486.014     
99.4        21.429      157.748     4.826       1.791       6.648       5.177       6.725       4.271       340.861     251.921     2.458       36.066      3.656       2.506       5.319       15.768      151.873     18.711      1.008       463.925     
99.5        76.913      157.734     5.083       1.714       6.6         5.177       6.725       4.271       343.338     249.701     2.48        31.733      3.861       2.307       5.319       15.761      155.412     18.711      1.008       481.958     
99.6        106.414     157.552     5.615       1.791       6.697       5.177       6.725       4.271       346.988     237.69      2.473       30.011      3.861       2.147       5.319       15.778      159.822     18.711      1.008       532.223     
99.7        58.076      158.359     6.356       1.863       6.818       5.177       6.725       4.271       334.302     209.332     2.467       32.161      3.135       2.038       5.219       15.904      164.844     18.711      1.008       579.335     
99.8        39.174      159.861     7.12        1.786       6.818       5.177       6.725       4.271       299.434     170.665     2.439       36.542      3.02        1.916       5.219       16.08       168.939     18.711      1.008       584.96      
99.9        18.75       160.317     7.58        1.689       6.842       5.177       6.725       4.271       255.002     139.511     2.429       39.226      2.558       1.857       5.219       16.372      170.148     18.711      1.008       534.19      
100.0       12.303      161.841     7.654       1.563       6.793       5.177       6.725       4.271       219.446     132.241     2.428       43.235      2.558       1.811       5.119       16.453      168.654     18.711      1.008       442.486     
100.1       12.19       162.845     7.368       1.593       6.769       5.177       6.725       4.271       201.558     152.084     2.427       45.014      2.465       1.854       5.119       15.751      166.339     18.711      1.008       340.239     
