~Version Information Section
VERS.                                         2.0:CWLS log ASCII Standart – VERSION 2.0
WRAP.                                          NO:One line per depth step
~Well Information Section
STRT.M                                        0.4:Начальная глубина
STOP.M                                      190.1:Конечная глубина
STEP.M                                          0:Шаг квантования по глубине
NULL.                                    -9999.25:Признак "Нет данных"
WELL.                                       135Мх:Скважина
~Parameter Information Section
~Curve Information Section
DEPTH.M                                          :Глубина
DS.mm                                            :DS  (ДС)
GGK.g/cm3                                        :GGKp
ГК.mcr/h                                         :GK          (ГК)
GZ1.Ohm*M                                        :GZ1   ГЗ1(A0.4M0.1N)
GZ2.Ohm*M                                        :GZ2   ГЗ2(A1.0M0.1N)
GZ3.Ohm*M                                        :GZ3   ГЗ3(A2.0M0.5N)
GZ4.Ohm*M                                        :GZ4   ГЗ4(A4.0M0.5N)
GZ5.Ohm*M                                        :GZ5   ГЗ5(A8.0M0.5N)
GZR.Ohm*M                                        :GZK   ГЗK(N0.5M2.0A)
ИК.Ohm*M                                         :IK
НГК.ue                                           :NGK     (НГК)
NNKM.                                            :NNKm  (ННКм)
PS.mv                                            :PS       (ПС)
PZ.Ohm*M                                         :PZ    (КС)
RS.Ohm*M                                         :RS (Резистивиметр)
U1.mV                                            :U1
U2.mV                                            :U2
U3.mV                                            :U3
BK.Ohm*M                                         :БК
ПОРИСТОСТЬ.                                      :Пористость ННК
~ASCII LOG DATA
# ...
150.8       124.716     2.442       7.685       2.635       0.747       9.996       99.117      3.344       20.536      26.924      2.124       3.274       251.28      37.8        1.38        165.459     72.339      113.463     77.972      18.276      
150.9       124.716     2.437       8.496       2.757       0.875       10.683      93.882      3.344       15.346      26.601      2.19        3.336       254.983     37.8        1.38        164.794     71.557      112.871     66.763      17.71       
151.0       124.766     2.455       8.716       3.042       1.076       11.88       80.459      3.345       12.428      26.181      2.235       3.365       259.934     37.8        1.38        160.735     69.201      109.824     69.11       17.268      
151.1       124.843     2.477       8.516       3.671       1.411       13.487      62.138      3.345       11.132      25.64       2.18        3.335       266.513     37.128      1.38        157.339     67.627      107.368     148.06      17.752      
151.2       124.911     2.495       7.64        4.638       1.929       15.373      43.206      3.346       10.719      25.002      2.093       3.222       274.747     36.672      1.38        151.223     65.743      103.095     202.698     18.42       
151.3       125.253     2.506       6.93        5.854       2.53        17.408      27.4        3.347       10.652      24.324      1.985       3.03        284.513     36.742      1.38        148.501     65.435      101.277     57.405      20.755      
151.4       125.791     2.505       6.664       7.231       3.192       19.493      16.696      3.348       10.672      23.61       1.879       2.827       295.604     36.644      1.38        145.578     64.721      99.245      25.338      23.331      
151.5       126.103     2.482       7.205       8.881       3.923       21.576      10.706      3.363       10.759      22.84       1.81        2.674       307.53      35.584      1.38        145.376     64.317      99.031      19.418      24.787      
151.6       126.125     2.444       7.617       11.208      4.68        23.614      7.844       3.407       10.951      22.023      1.751       2.564       319.732     33.195      1.38        145.507     64.529      99.068      18.354      25.805      
151.7       126.136     2.408       8.15        14.756      5.72        25.548      6.625       3.505       11.258      21.149      1.684       2.496       332.019     29.611      1.38        145.845     63.88       99.256      18.599      26.013      
151.8       126.168     2.382       8.665       19.479      7.287       27.294      6.088       3.68        11.655      20.234      1.581       2.444       344.104     25.412      1.38        146.183     63.231      99.444      18.986      25.666      
151.9       126.191     2.349       9.027       24.425      7.449       28.757      5.81        3.956       12.081      19.351      1.553       2.414       355.559     21.259      1.38        142.169     61.64       96.243      17.968      25.309      
152.0       126.194     2.323       8.872       28.445      10.093      29.871      5.657       4.355       12.489      18.537      1.613       2.399       366.087     17.688      1.38        138.151     61.316      93.107      17.238      25.116      
152.1       126.198     2.315       8.508       30.876      12.783      30.626      5.576       4.909       12.864      17.816      1.662       2.381       375.392     14.975      1.38        137.777     60.02       92.644      17.137      25.125      
152.2       126.209     2.315       8.325       31.736      15.151      31.091      5.528       5.708       13.206      17.219      1.634       2.356       383.112     13.114      1.38        141.421     59.048      95.318      17.209      25.751      
152.3       126.226     2.307       8.307       31.568      16.911      31.394      5.491       6.841       13.528      16.739      1.586       2.327       389.21      11.938      1.38        145.083     58.11       98.022      16.961      26.298      
152.4       126.213     2.312       8.334       30.99       17.879      31.686      5.458       8.401       13.85       16.341      1.596       2.307       393.762     11.235      1.38        145.101     58.144      98.052      16.875      27.073      
152.5       126.187     2.334       8.57        30.205      18.223      32.127      5.429       10.438      14.189      16.019      1.624       2.308       396.863     10.802      1.38        147.227     57.869      99.51       16.967      27.434      
152.6       126.184     2.35        8.982       29.276      18.126      32.857      5.4         11.079      14.539      15.77       1.588       2.316       398.856     10.501      1.38        149.337     57.559      100.938     17.235      27.627      
152.7       126.184     2.356       9.293       28.413      17.731      33.971      5.365       12.057      14.874      15.571      1.502       2.298       400.165     10.261      1.38        154.716     59.52       104.69      17.112      27.972      
152.8       126.184     2.366       9.281       27.774      17.298      35.511      5.313       13.242      15.16       15.422      1.437       2.261       400.964     10.057      1.38        166.89      63.096      113.825     16.89       28.204      
152.9       126.18      2.371       8.899       27.354      16.917      37.472      5.237       14.504      15.365      15.321      1.43        2.226       401.427     9.879       1.38        179.065     66.672      122.959     16.691      28.649      
153.0       126.179     2.366       8.527       27.026      16.532      36.151      5.148       14.381      15.482      15.256      1.45        2.212       401.732     9.728       1.38        180.179     66.764      124.245     16.501      28.863      
153.1       126.179     2.358       8.285       26.735      16.145      35.06       5.056       14.159      15.527      15.207      1.488       2.212       401.886     9.608       1.38        172.389     65.55       118.721     16.571      28.858      
153.2       126.182     2.354       8.459       26.492      15.783      34.075      4.976       13.78       15.534      15.169      1.582       2.238       401.91      9.519       1.38        162.85      64.575      112.005     16.607      28.816      
153.3       126.185     2.361       8.519       26.28       15.459      33.077      4.92        13.154      15.521      15.132      1.649       2.28        401.853     9.459       1.38        161.1       64.815      110.811     16.697      28.803      
153.4       126.185     2.366       8.457       26.08       15.183      31.965      4.888       12.888      15.508      15.099      1.628       2.303       401.705     9.418       1.38        152.254     66.242      104.308     16.901      28.911      
153.5       126.186     2.372       8.266       25.884      14.966      30.677      4.873       12.041      15.504      15.073      1.533       2.315       401.468     9.39        1.38        145.16      67.43       98.998      17.396      29.044      
153.6       126.186     2.383       7.842       25.698      14.813      29.149      4.87        10.326      15.509      15.059      1.488       2.301       401.202     9.367       1.38        148.899     64.965      101.712     17.718      29.03       
153.7       126.194     2.386       7.664       25.553      14.721      27.293      4.875       10.291      15.525      15.049      1.495       2.282       400.952     9.348       1.38        143.514     55.671      97.538      17.102      29.122      
153.8       126.204     2.385       7.598       25.463      14.68       25.033      4.901       9.576       15.556      15.037      1.456       2.276       400.71      9.335       1.38        138.128     46.375      93.363      16.593      29.533      
153.9       126.212     2.38        8.002       25.413      14.668      22.326      4.972       5.226       15.599      15.024      1.441       2.264       400.523     9.33        1.38        122.817     42.073      81.983      16.545      29.949      
