~Version Information Section
VERS.                                         2.0:CWLS log ASCII Standart – VERSION 2.0
WRAP.                                          NO:One line per depth step
~Well Information Section
STRT.M                                        0.6:Начальная глубина
STOP.M                                      209.2:Конечная глубина
STEP.M                                          0:Шаг квантования по глубине
NULL.                                    -9999.25:Признак "Нет данных"
WELL.                                       107Мх:Скважина
~Parameter Information Section
~Curve Information Section
DEPTH.M                                          :Глубина
PS.mv                                            :PS       (ПС)
PZ.Ohm*M                                         :PZ    (КС)
RS.Ohm*M                                         :RS (Резистивиметр)
U1.mV                                            :U1
U2.mV                                            :U2
U3.mV                                            :U3
КП.%                                             :Кп
BK.Ohm*M                                         :BK     (БК)
DS.mm                                            :DS  (ДС)
GGK.g/cm3                                        :GGKp
ГК.mcr/h                                         :GK          (ГК)
GZ1.Ohm*M                                        :GZ1   ГЗ1(A0.4M0.1N)
GZ2.Ohm*M                                        :GZ2   ГЗ2(A1.0M0.1N)
GZ3.Ohm*M                                        :GZ3   ГЗ3(A2.0M0.5N)
GZ4.Ohm*M                                        :GZ4   ГЗ4(A4.0M0.5N)
GZ5.Ohm*M                                        :GZ5   ГЗ5(A8.0M0.5N)
GZR.Ohm*M                                        :GZK   ГЗK(N0.5M2.0A)
ИК.Ohm*M                                         :IK
НГК.u.e.                                         :NGK
NNKM.                                            :NNKm  (ННКм)
~ASCII LOG DATA
# ...
115.8       1041.286    45.551      1.0         962.865     395.249     325.525     25.344      36.224      151.463     2.442       4.404       99.51       36.994      55.102      14.903      15.87       49.32       10.566      1.336       18.326      
115.9       1041.286    45.551      1.0         937.417     420.104     358.187     26.135      24.266      152.105     2.427       4.512       99.51       37.514      55.102      15.023      15.87       49.32       10.566      1.329       17.849      
116.0       1041.286    45.551      1.0         848.168     424.2       375.646     27.328      24.266      151.739     2.433       4.583       98.67       38.554      55.102      15.023      16.01       49.32       10.485      1.3         17.563      
116.1       1041.286    45.927      1.0         778.582     441.578     405.276     28.052      23.768      151.885     2.435       5.013       98.25       39.594      55.542      15.623      16.01       49.32       10.407      1.231       16.908      
116.2       1041.286    46.679      1.0         766.646     484.804     456.731     27.674      26.122      151.863     2.448       5.251       97.83       40.634      55.982      15.743      16.15       50.36       10.344      1.169       16.254      
116.3       1041.286    47.807      1.0         813.168     556.339     537.464     26.928      26.122      152.101     2.391       5.534       97.83       41.154      56.422      15.863      16.15       50.36       10.313      1.136       16.476      
116.4       1041.286    49.687      1.0         892.863     674.797     677.974     26.832      27.479      152.011     2.361       5.195       97.41       43.234      56.862      16.103      16.29       52.44       10.313      1.167       16.698      
116.5       1041.286    51.943      1.0         969.193     815.366     857.707     27.213      22.08       151.977     2.327       4.853       97.41       44.274      57.302      16.223      16.57       52.44       10.298      1.19        16.528      
116.6       1041.286    54.951      1.0         1015.909    926.922     1019.104    28.183      22.08       152.344     2.341       4.511       98.25       44.794      58.182      16.583      17.13       54.52       10.283      1.165       16.316      
116.7       1041.286    57.959      1.0         1036.081    995.805     1136.941    28.841      26.122      152.242     2.351       4.385       100.77      45.314      58.182      16.823      17.27       61.8        10.283      1.121       16.448      
116.8       1041.286    60.967      1.0         1073.343    1036.595    1187.449    29.256      24.322      151.45      2.365       4.501       101.61      46.874      58.622      17.183      17.97       64.92       10.283      1.108       16.737      
116.9       1041.286    63.599      1.0         1134.854    1056.39     1173.063    28.954      28.314      151.552     2.394       4.493       102.45      50.514      58.622      17.303      18.67       69.08       10.314      1.15        16.85       
117.0       1041.286    66.231      1.0         1194.566    1064.05     1132.634    28.447      26.546      151.934     2.416       4.721       102.87      53.634      59.062      17.543      19.23       73.24       10.376      1.154       16.843      
117.1       1041.286    68.863      1.0         1259.577    1070.139    1080.735    28.14       26.546      152.118     2.432       4.674       103.29      54.674      60.822      18.143      19.51       74.28       10.376      1.135       16.731      
117.2       1041.286    72.623      1.0         1377.017    1101.538    1032.741    27.815      24.491      152.12      2.424       4.967       106.23      56.234      61.702      18.743      20.07       75.32       10.502      1.117       16.197      
117.3       1041.286    78.263      1.0         1508.244    1148.6      1011.125    27.615      19.953      151.812     2.411       4.871       110.85      57.794      62.142      19.583      20.77       81.56       10.613      1.118       15.769      
117.4       1041.286    86.911      1.0         1615.117    1187.066    1005.171    27.757      19.953      152.077     2.387       4.919       111.27      58.834      64.342      20.423      20.91       86.76       10.613      1.127       15.642      
117.5       1041.286    97.439      1.0         1738.978    1227.484    996.435     28.859      24.21       152.086     2.396       4.822       117.99      61.954      66.982      20.543      21.89       91.96       10.763      1.143       15.514      
117.6       1041.286    108.719     1.0         1867.585    1266.375    983.436     29.959      22.646      152.092     2.42        4.911       116.31      66.114      69.182      21.143      22.73       99.24       10.918      1.161       15.69       
117.7       1041.286    119.247     1.0         1891.979    1269.354    976.87      30.471      22.646      152.133     2.429       5.017       113.79      66.634      73.582      21.743      22.87       104.44      11.129      1.139       15.91       
117.8       1041.286    127.519     1.0         1808.017    1237.933    981.145     30.099      24.66       152.042     2.407       5.022       109.59      69.234      75.782      22.343      23.43       111.72      11.384      1.124       16.673      
117.9       1041.286    133.911     1.0         1705.684    1213.581    1005.646    28.61       32.885      151.681     2.395       4.771       104.13      71.834      77.542      22.823      23.71       119.0       11.384      1.109       17.573      
118.0       1041.286    138.047     1.0         1596.833    1197.698    1045.181    27.413      32.885      151.965     2.413       4.573       102.87      69.754      78.422      22.943      23.99       125.24      11.594      1.149       17.595      
118.1       1041.286    142.559     1.0         1462.778    1163.181    1069.57     25.609      26.182      151.934     2.456       4.452       102.45      69.234      79.742      23.063      23.99       123.16      11.792      1.167       17.28       
118.2       1041.286    147.823     1.0         1380.949    1128.727    1064.223    24.853      34.754      151.645     2.482       4.261       101.19      66.634      81.502      22.463      23.85       121.08      11.792      1.161       17.34       
118.3       1041.286    154.967     1.0         1455.095    1155.065    1062.114    24.242      128.825     151.005     2.497       3.689       100.77      60.914      82.822      21.623      23.43       119.0       11.91       1.203       18.21       
118.4       1041.286    162.111     1.0         1655.391    1241.618    1079.09     24.278      128.825     150.767     2.468       3.101       100.35      57.274      83.262      21.503      23.01       109.64      12.031      1.237       19.005      
118.5       1041.286    170.007     1.0         1971.973    1411.071    1155.482    25.445      160.325     150.888     2.475       2.785       99.93       54.154      85.022      20.663      21.19       101.32      12.031      1.317       19.719      
118.6       1041.286    177.151     1.0         2414.295    1741.048    1404.502    27.225      91.622      151.421     2.44        2.846       99.09       52.594      85.022      19.943      20.21       101.32      12.098      1.285       20.291      
118.7       1041.286    184.295     1.0         2934.27     2199.215    1804.624    28.292      78.524      151.09      2.454       3.123       98.25       50.514      83.262      19.703      19.51       98.2        12.165      1.253       19.834      
118.8       1041.286    189.935     1.0         3374.689    2634.394    2215.594    27.514      78.524      151.179     2.433       3.467       97.83       48.954      81.062      19.463      19.51       97.16       12.165      1.192       19.376      
118.9       1041.286    196.327     1.0         3674.524    2978.263    2567.264    26.101      57.148      150.866     2.427       3.659       97.41       47.914      78.422      19.343      19.51       93.0        12.256      1.212       18.993      
