~Version Information Section
VERS.                                         2.0:CWLS log ASCII Standart – VERSION 2.0
WRAP.                                          NO:One line per depth step
~Well Information Section
STRT.M                                        1.2:Начальная глубина
STOP.M                                      169.7:Конечная глубина
STEP.M                                          0:Шаг квантования по глубине
NULL.                                    -9999.25:Признак "Нет данных"
WELL.                                       115Мх:Скважина
~Parameter Information Section
~Curve Information Section
DEPTH.M                                          :Глубина
BK.Ohm*M                                         :BK     (БК)
DS.mm                                            :DS  (ДС)
GGK.g/cm3                                        :GGKp
ГК.mcr/h                                         :GK          (ГК)
GZ1.Ohm*M                                        :GZ1   ГЗ1(A0.4M0.1N)
GZ2.Ohm*M                                        :GZ2   ГЗ2(A1.0M0.1N)
GZ3.Ohm*M                                        :GZ3   ГЗ3(A2.0M0.5N)
GZ4.Ohm*M                                        :GZ4   ГЗ4(A4.0M0.5N)
GZ5.Ohm*M                                        :GZ5   ГЗ5(A8.0M0.5N)
GZR.Ohm*M                                        :GZK   ГЗK(N0.5M2.0A)
ИК.Ohm*M                                         :IK
НГК.ue                                           :NGK     (НГК)
NNKM.                                            :NNKm  (ННКм)
PS.mv                                            :PS       (ПС)
PZ.Ohm*M                                         :PZ    (КС)
RS.Ohm*M                                         :RS (Резистивиметр)
U1.mV                                            :U1
U2.mV                                            :U2
U3.mV                                            :U3
КП.%                                             :Кп
~ASCII LOG DATA
# ...
100.4       33.884      127.886     2.234       5.378       8.673       10.226      9.677       10.425      8.771       9.519       25.269      1.312       2.372       1050.694    50.248      0.994       427.206     388.379     366.757     30.159      
100.5       35.075      127.632     2.233       5.456       9.023       10.685      9.777       10.525      8.771       9.619       25.082      1.272       2.301       1053.999    49.621      0.994       389.138     381.066     374.795     30.31       
100.6       50.699      127.483     2.246       5.32        9.715       11.266      9.677       10.525      8.771       9.619       24.876      1.208       2.234       1056.631    49.121      0.994       488.328     450.488     415.413     30.113      
100.7       56.364      127.397     2.228       5.158       10.026      11.699      9.677       10.725      8.671       9.619       24.52       1.185       2.252       1059.051    48.798      0.994       555.622     494.784     438.279     30.045      
100.8       41.591      128.86      2.264       5.095       9.096       11.072      9.577       10.825      8.671       9.619       24.02       1.196       2.257       1061.164    48.682      0.994       592.882     519.015     451.091     30.406      
100.9       30.479      129.378     2.27        5.129       8.987       11.072      9.477       10.925      8.571       9.619       23.58       1.282       2.211       1063.144    48.766      0.994       615.267     552.432     494.376     30.067      
101.0       25.468      130.394     2.283       5.148       8.852       10.95       9.477       11.025      8.571       9.619       23.15       1.331       2.234       1064.014    49.044      0.994       662.591     623.168     584.817     28.212      
101.1       22.646      129.956     2.289       4.922       8.989       10.999      9.377       11.025      8.571       9.619       22.896      1.342       2.345       1064.665    49.511      0.994       811.514     769.943     727.805     27.094      
101.2       23.659      130.152     2.321       4.602       9.475       11.265      9.377       11.125      8.671       9.719       22.968      1.321       2.414       1064.303    50.155      0.994       1036.817    952.189     871.161     27.721      
101.3       28.054      130.594     2.297       4.425       9.34        11.266      9.377       11.125      8.671       9.719       23.128      1.241       2.413       1062.051    50.959      0.994       1217.27     1055.215    912.856     29.729      
101.4       30.409      131.686     2.269       4.494       9.405       11.239      9.277       11.125      8.871       9.819       23.294      1.255       2.321       1059.868    51.916      0.99        1275.101    1042.131    850.731     30.585      
101.5       29.377      130.801     2.291       4.365       9.802       11.339      9.177       11.125      8.771       9.919       23.51       1.254       2.265       1058.47     52.997      0.99        1232.407    984.082     787.124     29.442      
101.6       26.977      130.356     2.313       4.255       10.464      11.723      9.377       11.125      8.671       9.919       23.733      1.31        2.308       1058.084    54.164      0.99        1196.342    987.898     821.696     27.463      
101.7       25.586      130.695     2.301       4.154       10.899      11.966      9.377       11.125      8.571       10.019      23.875      1.301       2.347       1058.077    55.369      0.99        1164.737    1042.046    936.503     26.518      
101.8       24.889      130.184     2.304       4.534       10.558      11.847      9.577       11.025      8.271       10.119      24.165      1.264       2.413       1058.133    56.555      0.99        1115.491    1038.609    964.31      27.452      
101.9       24.889      129.539     2.329       4.946       9.823       11.409      9.777       11.025      8.271       10.019      24.631      1.236       2.424       1057.971    57.692      0.99        1057.246    984.567     910.845     29.914      
102.0       29.174      129.859     2.293       5.261       9.731       11.459      9.877       11.025      8.271       10.019      25.361      1.2         2.319       1057.341    58.768      0.99        1125.295    992.587     871.63      32.155      
102.1       40.644      130.452     2.267       5.403       9.149       11.096      9.877       10.925      8.271       10.019      26.373      1.156       2.233       1055.822    59.776      0.985       1331.186    1113.607    926.618     33.593      
102.2       49.431      130.03      2.265       5.565       8.398       10.588      9.877       10.825      8.271       9.919       27.283      1.106       2.176       1053.565    60.71       0.981       1555.8      1293.75     1070.151    34.739      
102.3       53.951      131.683     2.272       6.029       9.304       11.144      9.777       10.725      8.271       9.719       28.065      1.083       2.128       1051.412    61.577      0.981       1663.048    1422.559    1211.213    34.667      
102.4       53.951      130.334     2.261       6.387       10.145      11.75       9.677       10.625      8.271       9.619       28.373      1.09        2.106       1049.392    62.357      0.981       1551.742    1384.813    1228.482    33.816      
102.5       35.4        130.764     2.264       6.639       11.044      12.113      9.577       10.525      8.371       9.519       28.647      1.122       2.092       1047.648    63.051      0.981       1332.382    1227.434    1121.911    32.581      
102.6       27.416      130.919     2.265       6.543       10.701      11.75       9.577       10.425      8.471       9.319       28.926      1.139       2.082       1046.121    63.656      0.981       1118.591    1008.406    912.694     32.088      
102.7       29.107      131.157     2.265       6.265       9.71        11.12       9.677       10.425      8.471       9.219       29.507      1.151       2.073       1045.058    64.166      0.981       1016.23     844.892     722.091     31.954      
102.8       44.463      131.478     2.258       5.738       8.84        10.539      9.777       10.425      8.571       9.119       30.231      1.138       2.065       1044.313    64.578      0.981       1024.883    736.95      550.827     31.908      
102.9       85.31       129.773     2.28        5.631       8.153       10.153      9.977       10.425      8.671       9.219       31.343      1.133       2.09        1043.587    64.919      0.981       1018.768    630.195     403.686     31.726      
103.0       71.614      130.013     2.286       5.572       8.148       9.767       10.077      10.425      8.771       9.319       32.316      1.177       2.132       1042.963    65.176      0.981       1000.548    527.354     282.812     31.504      
103.1       54.45       130.218     2.27        5.613       9.088       10.347      10.277      10.425      8.771       9.419       33.156      1.224       2.181       1042.636    65.334      0.981       1022.842    481.072     228.289     29.997      
103.2       76.736      130.468     2.277       5.107       9.19        10.588      10.377      10.425      8.771       9.519       33.76       1.317       2.224       1043.203    65.364      0.972       1094.716    490.715     218.942     28.67       
103.3       80.538      130.014     2.291       4.674       10.759      11.289      10.277      10.425      8.671       9.719       34.021      1.325       2.268       1044.628    65.273      0.972       1141.48     561.1       284.208     27.22       
103.4       56.624      129.752     2.271       4.637       12.018      11.966      10.277      10.425      8.671       9.819       34.389      1.333       2.312       1046.119    65.045      0.972       1113.925    642.037     388.172     27.197      
103.5       59.293      130.714     2.271       4.824       10.437      11.386      10.277      10.425      8.571       9.919       34.581      1.296       2.327       1047.991    64.685      0.972       1048.109    758.639     578.767     27.807      
