~Version Information Section
VERS.                                         2.0:CWLS log ASCII Standart – VERSION 2.0
WRAP.                                          NO:One line per depth step
~Well Information Section
STRT.M                                        0.6:Начальная глубина
STOP.M                                      205.9:Конечная глубина
STEP.M                                          0:Шаг квантования по глубине
NULL.                                    -9999.25:Признак "Нет данных"
WELL.                                       106Мх:Скважина
~Parameter Information Section
~Curve Information Section
DEPTH.M                                          :Глубина
BK.Ohm*M                                         :BK     (БК)
DS.mm                                            :DS  (ДС)
GGK.g/cm3                                        :GGKp
ГК.mcr/h                                         :GK          (ГК)
GZ1.Ohm*M                                        :GZ1   ГЗ1(A0.4M0.1N)
GZ2.Ohm*M                                        :GZ2   ГЗ2(A1.0M0.1N)
GZ3.Ohm*M                                        :GZ3   ГЗ3(A2.0M0.5N)
U2.mV                                            :U2
U3.mV                                            :U3
КП.%                                             :Кп
GZ4.Ohm*M                                        :GZ4   ГЗ4(A4.0M0.5N)
GZ5.Ohm*M                                        :GZ5   ГЗ5(A8.0M0.5N)
GZR.Ohm*M                                        :GZK   ГЗK(N0.5M2.0A)
ИК.Ohm*M                                         :IK
НГК.u.e.                                         :NGK
NNKM.                                            :NNKm  (ННКм)
PS.mv                                            :PS       (ПС)
PZ.Ohm*M                                         :PZ    (КС)
RS.Ohm*M                                         :RS (Резистивиметр)
U1.mV                                            :U1
~ASCII LOG DATA
# ...
167.0       19.32       131.824     2.333       8.578       9.29        8.243       9.296       310.75      365.482     30.695      7.861       2.8         8.58        10.78       1.106       2.093       723.8       18.0        1.1         390.56      
167.1       19.231      131.832     2.326       8.644       9.285       8.253       9.092       310.75      394.546     30.412      8.069       2.8         8.743       10.838      1.128       2.098       723.8       17.985      1.1         396.162     
167.2       19.409      131.618     2.322       8.251       9.285       8.239       8.93        310.75      412.444     31.16       8.413       2.8         8.957       10.839      1.104       2.11        723.8       17.941      1.1         405.48      
167.3       19.588      131.696     2.317       8.203       9.278       8.165       8.706       310.75      421.872     31.573      9.032       2.8         9.18        10.868      1.116       2.107       723.8       17.852      1.1         418.516     
167.4       19.815      131.503     2.316       8.408       9.278       8.125       8.628       324.67      427.255     31.171      10.01       3.033       9.389       10.883      1.074       2.106       723.8       17.733      1.1         440.744     
167.5       19.364      131.447     2.319       8.695       9.297       8.142       8.573       324.67      440.12      30.548      11.265      3.267       9.576       10.914      1.125       2.115       723.458     17.585      1.1         472.159     
167.6       18.365      131.501     2.321       8.623       9.367       8.191       8.433       338.591     455.651     31.039      12.628      4.2         9.786       10.915      1.151       2.13        722.089     17.407      1.1         506.477     
167.7       18.578      131.196     2.322       8.116       9.443       8.247       8.363       338.591     471.691     32.478      14.286      5.133       9.832       10.914      1.231       2.143       719.693     17.2        1.1         514.839     
167.8       18.967      131.049     2.322       7.996       9.477       8.226       8.304       366.43      476.509     33.268      16.434      6.067       9.729       10.913      1.224       2.154       716.613     17.007      1.1         490.011     
167.9       19.724      131.394     2.321       8.051       9.478       8.21        8.197       353.072     468.121     33.595      18.659      6.533       9.33        10.914      1.133       2.159       713.533     16.859      1.1         438.287     
168.0       19.364      131.23      2.318       8.436       9.478       8.191       8.102       313.165     447.276     33.413      20.798      7.0         8.858       10.929      1.084       2.137       710.111     16.756      1.1         398.984     
168.1       18.664      131.717     2.317       8.499       9.475       8.205       8.06        313.165     422.179     32.233      23.0        7.7         8.411       10.943      1.119       2.107       706.347     16.652      1.1         390.453     
168.2       19.231      131.86      2.32        8.33        9.475       8.208       7.983       314.465     399.616     31.122      24.78       8.4         8.02        10.914      1.14        2.094       702.582     16.533      1.1         408.481     
168.3       19.454      132.797     2.321       7.954       9.48        8.197       7.941       305.662     384.535     30.225      25.654      8.867       7.673       10.929      1.157       2.087       698.476     16.4        1.1         422.293     
168.4       19.454      132.883     2.322       7.994       9.501       8.122       7.887       295.561     377.549     30.22       25.957      9.1         7.319       10.931      1.088       2.086       693.684     16.267      1.1         424.979     
168.5       19.907      132.245     2.325       8.459       9.572       8.046       7.792       295.561     377.868     30.165      25.924      9.1         7.132       10.958      1.103       2.086       687.867     16.148      1.1         430.926     
168.6       19.815      132.286     2.326       8.8         9.698       8.038       7.701       313.726     382.93      30.642      25.518      8.867       7.102       10.975      1.092       2.084       682.049     16.059      1.1         451.261     
168.7       18.88       132.454     2.326       8.761       9.869       8.011       7.628       331.89      391.881     32.353      24.957      8.4         7.351       10.974      1.08        2.077       676.916     16.015      1.1         456.13      
168.8       18.535      132.196     2.332       8.538       10.032      7.963       7.56        321.859     395.445     32.943      24.384      7.467       7.662       10.944      1.038       2.061       672.809     16.0        1.1         425.204     
168.9       18.072      132.325     2.338       8.497       10.175      7.965       7.49        293.663     383.216     32.294      23.793      6.533       8.016       10.944      1.026       2.061       669.729     16.0        1.1         384.11      
169.0       18.281      131.934     2.34        8.472       10.267      7.981       7.393       286.251     352.162     30.598      23.156      5.367       8.413       10.928      1.01        2.093       667.676     16.03       1.1         393.333     
169.1       18.707      132.245     2.342       8.341       10.327      7.999       7.272       278.839     323.524     30.153      22.463      4.667       8.854       10.927      1.047       2.102       666.307     16.119      1.1         458.143     
169.2       18.836      132.129     2.342       8.317       10.355      8.083       7.19        278.839     322.586     30.084      21.779      4.2         9.336       10.928      1.101       2.082       665.622     16.311      1.1         518.034     
169.3       18.664      132.026     2.337       8.454       10.38       8.193       7.127       320.506     356.7       29.7        21.171      4.2         9.852       10.928      1.155       2.09        664.938     16.578      1.1         538.177     
169.4       19.011      132.125     2.332       8.488       10.407      8.311       7.07        362.174     402.475     29.729      20.666      3.967       10.123      10.99       1.168       2.114       664.253     16.889      1.1         493.091     
169.5       19.588      132.26      2.328       8.586       10.461      8.472       7.022       335.51      427.589     30.072      20.286      3.733       10.274      11.035      1.126       2.116       663.227     17.185      1.1         417.645     
169.6       18.239      132.576     2.322       8.471       10.554      8.628       6.961       267.18      412.358     30.763      20.021      3.5         10.349      11.081      1.08        2.107       662.542     17.452      1.1         347.087     
169.7       18.365      132.063     2.317       8.777       10.699      8.722       6.908       255.583     368.426     30.774      19.806      3.5         10.372      11.097      1.089       2.097       662.2       17.689      1.1         333.008     
169.8       18.664      132.037     2.316       8.737       10.88       8.806       6.853       255.583     328.07      29.932      19.587      3.733       10.371      11.144      1.069       2.089       662.2       17.896      1.1         365.268     
169.9       18.923      131.61      2.319       8.88        11.079      8.831       6.802       255.071     321.486     29.775      19.331      3.92        10.362      11.206      1.106       2.114       663.569     18.104      1.1         397.527     
170.0       19.815      132.326     2.327       8.362       11.267      8.831       6.714       255.071     353.394     30.865      19.017      4.106       10.325      11.255      1.095       2.137       666.649     18.296      1.1         459.056     
170.1       20.23       131.842     2.335       8.073       11.445      8.831       6.674       255.071     412.119     31.911      18.66       4.322       10.295      11.318      1.123       2.133       673.493     18.519      1.1         516.201     
