~Version Information Section
VERS.                                         2.0:CWLS log ASCII Standart – VERSION 2.0
WRAP.                                          NO:One line per depth step
~Well Information Section
STRT.M                                        0.5:Начальная глубина
STOP.M                                      201.9:Конечная глубина
STEP.M                                          0:Шаг квантования по глубине
NULL.                                    -9999.25:Признак "Нет данных"
WELL.                                       138Мх:Скважина
~Parameter Information Section
~Curve Information Section
DEPTH.M                                          :Глубина
БК.Омм                                           :BK     (БК)
DСР.мм                                           :DS  (ДС)
W.g/cm3                                          :GGKp
ГК.гамма                                         :GK          (ГК)
А0.4М0.1N.Омм.ohmm                               :GZ1   ГЗ1(A0.4M0.1N)
А1.0М0.1N.Омм.ohmm                               :GZ2   ГЗ2(A1.0M0.1N)
А2.0М0.5N.Омм.ohmm                               :GZ3   ГЗ3(A2.0M0.5N)
А4.0М0.5N.Oмм.ohmm                               :GZ4   ГЗ4(A4.0M0.5N)
А8.0М1.0N.Омм.ohmm                               :GZ5   ГЗ5(A8.0M0.5N)
N0.5M2.0A.Омм.ohmm                               :GZK   ГЗK(N0.5M2.0A)
ИК.мСм/м                                         :IK
ННКМ.усл.ед                                      :NNKm  (ННКм)
ПС.мВ                                            :PS       (ПС)
КС.Омм                                           :PZ    (КС)
R.Омм                                            :RS (Резистивиметр)
U1.мВ                                            :U1
U2.mV                                            :U2
U3.мВ                                            :U3
КП.%                                             :Кп
НГК.усл.ед                                       :NGK
~ASCII LOG DATA
# ...
70.9        29.18       148.149     2.077       5.149       21.931      20.357      22.732      10.145      10.738      20.663      16.671      1.66        255.064     70.251      1.08        368.218     208.951     110.454     31.128      1.087       
71.0        29.12       148.342     2.082       5.101       21.931      20.293      22.588      12.101      10.708      20.691      16.554      1.665       255.064     71.403      1.08        385.145     239.719     117.839     30.757      1.133       
71.1        29.666      148.473     2.084       5.035       21.969      20.231      22.444      14.362      10.69       20.779      16.476      1.653       255.064     72.501      1.08        314.026     264.952     161.802     31.791      1.171       
71.2        31.624      148.521     2.086       4.96        22.113      20.156      22.284      16.651      10.684      20.926      16.491      1.64        255.096     73.55       1.08        174.407     276.306     234.185     33.251      1.177       
71.3        34.097      146.972     2.089       5.133       22.247      20.008      22.095      18.714      10.684      21.114      16.592      1.62        255.176     74.576      1.08        133.802     280.454     308.163     34.667      1.157       
71.4        34.574      145.626     2.095       5.0         22.274      19.754      21.883      20.347      10.684      21.304      16.681      1.565       255.288     75.626      1.08        146.955     296.209     354.534     34.68       1.133       
71.5        34.162      145.305     2.103       4.821       22.233      19.466      21.676      21.458      10.684      21.459      16.741      1.533       255.4       76.754      1.08        226.219     336.362     363.681     34.254      1.162       
71.6        32.187      145.203     2.112       4.804       22.186      19.26       21.546      22.154      10.684      21.57       16.772      1.574       255.512     78.005      1.08        357.512     368.356     340.042     35.251      1.212       
71.7        29.752      144.941     2.114       4.979       22.181      19.191      21.515      22.563      10.695      21.682      16.757      1.584       255.64      79.405      1.08        431.395     369.616     304.332     37.379      1.208       
71.8        28.123      144.862     2.107       5.149       22.19       19.191      21.515      22.774      10.741      21.874      16.764      1.54        255.752     80.949      1.08        439.167     346.473     277.422     40.418      1.193       
71.9        26.187      144.735     2.094       5.06        22.2        19.191      21.515      22.901      10.846      22.24       16.753      1.508       255.992     82.598      1.08        394.912     327.776     274.324     42.134      1.091       
72.0        25.145      144.678     2.078       5.164       22.201      19.191      21.515      22.955      11.017      22.893      16.722      1.5         256.376     84.288      1.08        421.034     356.808     289.578     40.04       1.058       
72.1        26.8        144.561     2.065       5.271       22.201      19.226      21.629      22.946      11.261      23.933      16.712      1.552       256.952     85.942      1.08        480.378     392.837     304.831     36.774      1.074       
72.2        28.398      144.607     2.061       5.284       22.221      19.365      21.966      22.79       11.552      25.31       16.691      1.635       257.704     87.483      1.08        553.487     428.865     320.085     33.697      1.122       
72.3        25.318      145.777     2.064       5.093       22.424      19.62       22.415      22.375      11.801      26.844      16.652      1.664       258.68      88.854      1.08        664.394     494.547     373.027     33.395      1.148       
72.4        22.047      145.673     2.068       4.707       22.951      19.845      22.779      21.695      11.928      28.354      16.614      1.667       259.592     90.027      1.08        849.016     659.938     525.674     32.849      1.133       
72.5        23.018      144.481     2.073       4.429       23.552      19.918      22.918      20.795      11.928      29.645      16.58       1.65        260.456     91.005      1.08        1103.421    878.836     709.197     31.911      1.192       
72.6        26.945      142.765     2.071       4.127       23.852      19.792      22.863      19.848      11.878      30.578      16.639      1.622       261.224     91.818      1.08        1395.374    1101.284    874.215     31.427      1.258       
72.7        31.609      142.045     2.064       4.283       23.896      19.416      22.522      19.019      11.634      31.182      16.78       1.543       261.88      92.518      1.08        1719.263    1287.967    925.546     32.14       1.226       
72.8        37.747      141.88      2.059       4.647       23.707      18.89       21.803      18.399      11.234      31.549      16.98       1.466       262.392     93.165      1.08        2053.805    1405.609    937.548     34.196      1.132       
72.9        42.024      141.868     2.051       5.361       23.115      18.312      20.907      18.007      10.766      31.753      17.159      1.41        262.936     93.814      1.08        2244.221    1461.008    915.117     37.386      1.009       
73.0        39.93       142.04      2.043       5.821       22.152      17.767      20.046      17.776      10.303      31.891      17.294      1.371       263.512     94.514      1.08        2261.059    1445.459    906.663     41.825      0.952       
73.1        31.183      142.913     2.039       6.01        21.072      17.423      19.385      17.609      9.903       31.999      17.288      1.404       264.104     95.293      1.08        2183.725    1513.931    1026.051    43.299      0.925       
73.2        24.814      143.699     2.038       5.712       20.261      17.285      18.954      17.449      9.597       32.077      17.183      1.448       264.744     96.168      1.08        2149.029    1588.84     1114.3      42.021      0.942       
73.3        22.481      143.803     2.038       5.463       19.952      17.234      18.648      17.281      9.375       32.2        17.025      1.483       265.416     97.131      1.08        2175.771    1622.05     1135.433    38.48       1.004       
73.4        21.477      143.683     2.047       5.08        19.933      17.222      18.37       17.126      9.226       32.416      16.873      1.524       266.088     98.154      1.08        2217.468    1540.677    1003.897    36.167      1.046       
73.5        20.969      143.497     2.059       4.771       19.933      17.222      18.105      16.993      9.133       32.703      16.777      1.569       266.712     99.195      1.08        2254.561    1384.08     842.658     34.585      1.109       
73.6        21.102      143.275     2.068       4.531       19.933      17.222      17.869      16.871      9.075       33.051      16.782      1.573       267.272     100.211     1.08        2264.913    1175.207    650.58      33.575      1.146       
73.7        21.821      143.54      2.072       4.658       19.933      17.222      17.69       16.794      9.037       33.419      16.892      1.544       267.752     101.152     1.08        2260.309    957.11      449.779     33.799      1.203       
73.8        24.642      143.402     2.069       4.671       20.159      17.249      17.616      16.776      9.021       33.754      17.127      1.541       268.152     101.99      1.08        2071.082    799.231     309.8       34.59       1.19        
73.9        28.51       143.085     2.059       4.731       20.764      17.311      17.615      16.776      9.021       34.086      17.52       1.55        268.44      102.715     1.08        1786.87     735.345     267.789     34.665      1.169       
74.0        28.575      142.883     2.046       4.6         21.605      17.368      17.615      16.776      9.021       34.562      17.97       1.551       268.648     103.33      1.08        1502.65     726.795     293.606     34.474      1.113       
