~Version Information Section
VERS.                                         2.0:CWLS log ASCII Standart – VERSION 2.0
WRAP.                                          NO:One line per depth step
~Well Information Section
STRT.M                                        1.2:Начальная глубина
STOP.M                                      208.4:Конечная глубина
STEP.M                                          0:Шаг квантования по глубине
NULL.                                    -9999.25:Признак "Нет данных"
WELL.                                       109Мх:Скважина
~Parameter Information Section
~Curve Information Section
DEPTH.M                                          :Глубина
BK.Ohm*M                                         :BK     (БК)
DS.mm                                            :DS  (ДС)
GGK.g/cm3                                        :GGKp
ГК.mcr/h                                         :GK          (ГК)
GZ1.Ohm*M                                        :GZ1   ГЗ1(A0.4M0.1N)
GZ2.Ohm*M                                        :GZ2   ГЗ2(A1.0M0.1N)
GZ3.Ohm*M                                        :GZ3   ГЗ3(A2.0M0.5N)
GZ4.Ohm*M                                        :GZ4   ГЗ4(A4.0M0.5N)
GZ5.Ohm*M                                        :GZ5   ГЗ5(A8.0M0.5N)
GZR.Ohm*M                                        :GZK   ГЗK(N0.5M2.0A)
ИК.Ohm*M                                         :IK
НГК.u.e.                                         :NGK
NNKM.                                            :NNKm  (ННКм)
U1.mV                                            :U1
U2.mV                                            :U2
U3.mV                                            :U3
КП.%                                             :Кп
PS.mv                                            :PS       (ПС)
PZ.Ohm*M                                         :PZ    (КС)
RS.Ohm*M                                         :RS (Резистивиметр)
~ASCII LOG DATA
# ...
161.2       17.742      127.865     2.341       6.364       90.69       27.114      46.742      13.103      13.07       38.92       8.468       1.031       1.935       568.492     453.969     579.326     28.905      1050.279    11.141      1.026       
161.3       17.539      127.826     2.317       6.155       90.69       27.114      46.742      13.103      13.07       38.92       8.415       1.106       1.932       728.175     537.954     559.778     28.262      1050.187    10.781      1.026       
161.4       16.827      127.798     2.33        6.396       90.27       27.114      46.742      13.103      12.93       38.92       8.415       1.095       1.933       787.628     553.685     522.585     28.181      1050.12     10.492      1.026       
161.5       18.923      127.821     2.306       6.542       89.85       27.114      46.742      13.103      12.79       38.92       8.483       1.078       1.932       739.678     509.842     480.402     28.382      1050.078    10.276      1.026       
161.6       19.543      127.793     2.315       6.647       89.85       27.114      46.742      13.103      12.79       38.92       8.378       1.045       1.926       647.822     448.225     441.631     28.737      1050.061    10.06       1.026       
161.7       19.543      127.824     2.296       6.597       89.43       27.114      46.742      13.103      12.79       38.92       8.327       1.095       1.921       559.931     384.885     397.164     28.924      1050.069    9.844       1.026       
161.8       18.793      127.826     2.297       6.775       89.01       27.114      46.742      13.103      12.79       38.92       8.225       1.096       1.939       506.996     336.254     354.103     28.732      1050.103    9.699       1.026       
161.9       17.338      127.827     2.296       6.964       89.01       27.634      47.182      13.103      12.79       38.92       8.176       1.132       1.962       485.993     318.845     342.266     28.291      1050.161    9.555       1.026       
162.0       16.711      128.335     2.298       7.139       88.59       27.634      47.182      13.103      12.79       38.92       8.126       1.132       1.959       480.112     332.76      372.888     27.86       1050.245    9.483       1.026       
162.1       16.904      128.329     2.311       7.175       88.59       28.154      47.182      13.103      12.79       38.92       8.126       1.126       1.945       504.716     369.438     420.458     27.843      1050.346    9.555       1.026       
162.2       16.943      128.05      2.333       7.183       88.59       28.154      47.182      13.223      12.79       38.92       8.176       1.093       1.931       585.888     413.848     441.833     28.983      1050.463    9.771       1.026       
162.3       16.52       128.335     2.316       7.133       88.59       28.154      47.182      13.343      12.93       38.92       8.327       1.058       1.915       709.336     451.628     427.136     30.194      1050.589    10.06       1.026       
162.4       16.52       128.607     2.295       7.125       88.59       28.154      47.182      13.343      12.93       38.92       8.378       1.066       1.908       830.519     467.371     386.768     30.93       1050.715    10.348      1.026       
162.5       16.218      127.541     2.276       7.116       89.01       28.154      47.182      13.463      12.93       38.92       8.431       1.064       1.912       921.092     471.307     352.404     30.669      1050.84     10.565      1.026       
162.6       15.849      127.074     2.237       6.733       89.85       28.154      47.182      13.463      12.93       38.92       8.591       1.085       1.908       993.304     490.497     348.316     30.718      1050.966    10.637      1.026       
162.7       15.382      127.134     2.208       6.454       90.27       28.674      47.182      14.063      12.93       39.96       8.932       1.104       1.877       1035.755    522.795     370.58      30.941      1051.083    10.709      1.026       
162.8       15.382      127.106     2.19        6.445       91.95       29.194      47.182      14.183      12.93       41.0        8.932       1.135       1.853       1002.021    531.995     393.575     30.311      1051.192    10.781      1.026       
162.9       15.241      127.099     2.209       6.968       92.79       30.234      47.182      14.423      13.07       41.0        9.632       1.134       1.89        897.979     507.635     404.154     29.261      1051.293    10.781      1.026       
163.0       15.631      127.11      2.237       7.344       93.63       30.234      47.182      14.423      13.21       42.04       9.988       1.12        1.928       837.42      513.867     437.416     28.456      1051.385    10.781      1.026       
163.1       16.144      127.056     2.265       7.36        94.05       31.274      47.182      14.663      13.35       43.08       10.063      1.044       1.923       890.104     578.406     498.728     28.664      1051.469    10.781      1.026       
163.2       16.032      127.056     2.298       6.963       94.47       31.274      47.182      14.783      13.35       43.08       10.138      1.054       1.917       969.444     630.479     532.215     28.763      1051.544    10.781      1.026       
163.3       15.776      127.129     2.343       6.651       95.31       31.794      47.622      15.263      13.63       43.08       10.372      1.047       1.946       971.047     606.91      503.244     28.171      1051.611    10.925      1.026       
163.4       15.776      127.093     2.343       6.733       95.31       32.314      48.062      15.503      13.77       43.08       10.452      1.089       1.996       846.65      511.809     456.205     27.444      1051.67     11.141      1.026       
163.5       17.579      127.053     2.327       7.063       98.25       32.314      48.942      15.743      13.91       43.08       10.533      1.084       2.005       670.399     427.014     479.054     27.102      1051.72     12.007      1.026       
163.6       18.621      127.082     2.265       7.216       98.67       32.834      49.382      16.463      14.05       45.16       10.7        1.159       1.979       570.512     417.578     565.566     27.532      1051.762    13.304      1.026       
163.7       17.061      127.275     2.257       7.405       99.09       33.354      50.262      16.943      14.19       46.2        10.786      1.201       1.945       659.882     514.756     656.986     29.36       1051.796    14.891      1.026       
163.8       15.996      127.316     2.282       7.087       99.51       33.874      52.022      17.063      14.33       46.2        10.872      1.238       1.873       856.4       652.225     704.672     31.575      1051.821    16.765      1.026       
163.9       15.996      127.314     2.342       6.749       99.51       35.954      53.342      17.423      14.75       47.24       11.05       1.216       1.828       971.529     734.054     717.554     33.719      1051.838    19.217      1.026       
164.0       13.868      127.281     2.407       5.567       99.51       36.474      54.662      18.863      15.03       48.28       11.05       1.216       1.872       994.044     770.048     744.251     34.44       1051.838    22.029      1.026       
164.1       12.735      127.62      2.433       4.75        99.51       37.514      56.862      19.343      15.17       49.32       11.05       1.216       1.939       1100.178    863.671     823.58      33.617      1051.821    25.49       1.026       
164.2       13.183      127.583     2.45        4.119       99.93       40.634      58.182      19.583      15.31       53.48       11.141      1.216       2.096       1374.296    1058.881    955.799     32.239      1051.796    29.528      1.026       
164.3       21.086      127.559     2.448       4.044       100.35      42.194      59.942      20.303      15.45       56.6        11.234      1.216       2.221       1653.727    1251.135    1078.546    30.062      1051.754    34.142      1.026       
