~Version Information Section
VERS.                                         2.0:CWLS log ASCII Standart – VERSION 2.0
WRAP.                                          NO:One line per depth step
~Well Information Section
STRT.M                                       0.67:Начальная глубина
STOP.M                                     204.27:Конечная глубина
STEP.M                                          0:Шаг квантования по глубине
NULL.                                    -9999.25:Признак "Нет данных"
WELL.                                       110Мх:Скважина
~Parameter Information Section
~Curve Information Section
DEPTH.M                                          :Глубина
БК.Омм                                           :BK     (БК)
DСР.мм                                           :DS  (ДС)
ГК.гамма                                         :GK          (ГК)
А0.4М0.1N.Омм.ohmm                               :GZ1   ГЗ1(A0.4M0.1N)
А1.0М0.1N.Омм.ohmm                               :GZ2   ГЗ2(A1.0M0.1N)
А2.0М0.5N.Омм.ohmm                               :GZ3   ГЗ3(A2.0M0.5N)
А4.0М0.5N.Oмм.ohmm                               :GZ4   ГЗ4(A4.0M0.5N)
А8.0М1.0N.Омм.ohmm                               :GZ5   ГЗ5(A8.0M0.5N)
N0.5M2.0A.Омм.ohmm                               :GZK   ГЗK(N0.5M2.0A)
ИК.мСм/м                                         :IK
НГК.усл.ед                                       :NGK     (НГК)
ПС.mv                                            :PS       (ПС)
КС.Омм                                           :PZ    (КС)
R.Омм                                            :RS (Резистивиметр)
W_SI.%                                           :п
ННКМ.имп/1,25с                                   :ННКм
ПЛОТНОСТЬГГК.г/см3                               :плотностьГГК
~ASCII LOG DATA
# ...
53.87       23.304      132.484     3.858       -9999.25    -9999.25    -9999.25    -9999.25    -9999.25    -9999.25    19.301      1.261       333.405     32.441      0.959       26.773      1.952       2.441       
53.9        -9999.25    -9999.25    -9999.25    40.337      33.773      45.775      31.164      23.976      18.419      -9999.25    -9999.25    -9999.25    -9999.25    -9999.25    -9999.25    -9999.25    -9999.25    
53.97       21.038      132.307     4.442       -9999.25    -9999.25    -9999.25    -9999.25    -9999.25    -9999.25    19.131      1.242       332.297     33.42       0.959       26.457      1.997       2.447       
54.0        -9999.25    -9999.25    -9999.25    39.473      28.063      39.726      34.078      25.082      17.659      -9999.25    -9999.25    -9999.25    -9999.25    -9999.25    -9999.25    -9999.25    -9999.25    
54.07       28.444      131.586     4.941       -9999.25    -9999.25    -9999.25    -9999.25    -9999.25    -9999.25    19.0        1.21        331.736     32.14       0.96        26.348      1.993       2.447       
54.1        -9999.25    -9999.25    -9999.25    38.384      26.074      33.15       36.992      28.612      18.055      -9999.25    -9999.25    -9999.25    -9999.25    -9999.25    -9999.25    -9999.25    -9999.25    
54.17       39.676      131.351     4.914       -9999.25    -9999.25    -9999.25    -9999.25    -9999.25    -9999.25    18.896      1.169       331.606     29.141      0.96        26.841      1.807       2.436       
54.2        -9999.25    -9999.25    -9999.25    39.22       23.001      31.798      39.099      31.942      19.239      -9999.25    -9999.25    -9999.25    -9999.25    -9999.25    -9999.25    -9999.25    -9999.25    
54.27       35.293      132.303     4.471       -9999.25    -9999.25    -9999.25    -9999.25    -9999.25    -9999.25    18.738      1.109       331.894     26.336      0.96        27.445      1.731       2.42        
54.3        -9999.25    -9999.25    -9999.25    44.606      21.788      38.421      42.555      32.052      25.537      -9999.25    -9999.25    -9999.25    -9999.25    -9999.25    -9999.25    -9999.25    -9999.25    
54.37       34.023      132.999     3.896       -9999.25    -9999.25    -9999.25    -9999.25    -9999.25    -9999.25    18.519      1.086       332.871     25.3        0.96        27.088      1.739       2.405       
54.4        -9999.25    -9999.25    -9999.25    49.144      24.501      48.653      46.506      31.42       42.929      -9999.25    -9999.25    -9999.25    -9999.25    -9999.25    -9999.25    -9999.25    -9999.25    
54.47       50.717      132.626     3.43        -9999.25    -9999.25    -9999.25    -9999.25    -9999.25    -9999.25    18.378      1.111       334.554     26.047      0.96        26.337      1.743       2.399       
54.5        -9999.25    -9999.25    -9999.25    62.138      46.588      57.975      53.28       30.605      56.294      -9999.25    -9999.25    -9999.25    -9999.25    -9999.25    -9999.25    -9999.25    -9999.25    
54.57       56.59       132.659     3.378       -9999.25    -9999.25    -9999.25    -9999.25    -9999.25    -9999.25    18.315      1.173       336.741     27.248      0.96        25.157      1.759       2.402       
54.6        -9999.25    -9999.25    -9999.25    78.567      70.017      64.978      61.218      29.737      57.392      -9999.25    -9999.25    -9999.25    -9999.25    -9999.25    -9999.25    -9999.25    -9999.25    
54.67       53.097      132.556     3.441       -9999.25    -9999.25    -9999.25    -9999.25    -9999.25    -9999.25    18.178      1.244       338.963     30.659      0.96        23.71       1.771       2.415       
54.7        -9999.25    -9999.25    -9999.25    78.314      67.253      63.997      65.813      29.884      52.783      -9999.25    -9999.25    -9999.25    -9999.25    -9999.25    -9999.25    -9999.25    -9999.25    
54.77       56.184      131.556     3.638       -9999.25    -9999.25    -9999.25    -9999.25    -9999.25    -9999.25    17.895      1.317       340.683     35.82       0.96        23.041      1.957       2.433       
54.8        -9999.25    -9999.25    -9999.25    64.667      50.087      57.116      60.92       30.335      38.684      -9999.25    -9999.25    -9999.25    -9999.25    -9999.25    -9999.25    -9999.25    -9999.25    
54.87       56.577      131.436     3.831       -9999.25    -9999.25    -9999.25    -9999.25    -9999.25    -9999.25    17.378      1.428       341.627     39.329      0.96        23.116      2.329       2.453       
54.9        -9999.25    -9999.25    -9999.25    50.395      31.696      41.535      46.605      29.64       23.837      -9999.25    -9999.25    -9999.25    -9999.25    -9999.25    -9999.25    -9999.25    -9999.25    
54.97       39.719      132.271     4.228       -9999.25    -9999.25    -9999.25    -9999.25    -9999.25    -9999.25    16.739      1.478       341.711     39.47       0.96        22.775      2.434       2.472       
55.0        -9999.25    -9999.25    -9999.25    40.096      21.999      28.402      32.026      28.402      18.514      -9999.25    -9999.25    -9999.25    -9999.25    -9999.25    -9999.25    -9999.25    -9999.25    
55.07       22.408      133.026     4.733       -9999.25    -9999.25    -9999.25    -9999.25    -9999.25    -9999.25    16.15       1.445       341.039     35.153      0.96        22.043      2.181       2.481       
55.1        -9999.25    -9999.25    -9999.25    39.665      23.44       23.709      27.974      24.447      17.289      -9999.25    -9999.25    -9999.25    -9999.25    -9999.25    -9999.25    -9999.25    -9999.25    
55.17       15.203      134.037     5.626       -9999.25    -9999.25    -9999.25    -9999.25    -9999.25    -9999.25    15.601      1.352       340.009     28.949      0.96        21.455      2.076       2.475       
55.2        -9999.25    -9999.25    -9999.25    47.559      33.735      20.669      34.398      17.306      13.853      -9999.25    -9999.25    -9999.25    -9999.25    -9999.25    -9999.25    -9999.25    -9999.25    
55.27       14.07       134.498     6.575       -9999.25    -9999.25    -9999.25    -9999.25    -9999.25    -9999.25    15.092      1.278       339.059     23.943      0.96        22.117      1.704       2.455       
55.3        -9999.25    -9999.25    -9999.25    40.4        31.267      20.574      40.954      14.126      8.526       -9999.25    -9999.25    -9999.25    -9999.25    -9999.25    -9999.25    -9999.25    -9999.25    
55.37       17.014      134.2       7.489       -9999.25    -9999.25    -9999.25    -9999.25    -9999.25    -9999.25    14.731      1.247       338.388     21.149      0.96        23.432      1.545       2.425       
55.4        -9999.25    -9999.25    -9999.25    28.923      21.019      19.808      38.123      12.894      6.31        -9999.25    -9999.25    -9999.25    -9999.25    -9999.25    -9999.25    -9999.25    -9999.25    
55.47       20.171      133.15      8.062       -9999.25    -9999.25    -9999.25    -9999.25    -9999.25    -9999.25    14.492      1.232       338.078     22.087      0.96        24.811      1.643       2.39        
55.5        -9999.25    -9999.25    -9999.25    28.414      19.979      16.948      27.566      12.301      6.867       -9999.25    -9999.25    -9999.25    -9999.25    -9999.25    -9999.25    -9999.25    -9999.25    
55.57       22.991      131.548     8.036       -9999.25    -9999.25    -9999.25    -9999.25    -9999.25    -9999.25    14.301      1.261       338.044     25.556      0.96        26.19       1.72        2.355       
55.6        -9999.25    -9999.25    -9999.25    30.383      20.433      13.855      17.491      12.188      6.994       -9999.25    -9999.25    -9999.25    -9999.25    -9999.25    -9999.25    -9999.25    -9999.25    
55.67       26.75       130.503     7.724       -9999.25    -9999.25    -9999.25    -9999.25    -9999.25    -9999.25    14.073      1.319       338.233     26.701      0.96        26.94       1.762       2.326       
