~Version Information Section
VERS.                                         2.0:CWLS log ASCII Standart – VERSION 2.0
WRAP.                                          NO:One line per depth step
~Well Information Section
STRT.M                                        0.6:Начальная глубина
STOP.M                                      205.9:Конечная глубина
STEP.M                                          0:Шаг квантования по глубине
NULL.                                    -9999.25:Признак "Нет данных"
WELL.                                       106Мх:Скважина
~Parameter Information Section
~Curve Information Section
DEPTH.M                                          :Глубина
BK.Ohm*M                                         :BK     (БК)
DS.mm                                            :DS  (ДС)
GGK.g/cm3                                        :GGKp
ГК.mcr/h                                         :GK          (ГК)
GZ1.Ohm*M                                        :GZ1   ГЗ1(A0.4M0.1N)
GZ2.Ohm*M                                        :GZ2   ГЗ2(A1.0M0.1N)
GZ3.Ohm*M                                        :GZ3   ГЗ3(A2.0M0.5N)
U2.mV                                            :U2
U3.mV                                            :U3
КП.%                                             :Кп
GZ4.Ohm*M                                        :GZ4   ГЗ4(A4.0M0.5N)
GZ5.Ohm*M                                        :GZ5   ГЗ5(A8.0M0.5N)
GZR.Ohm*M                                        :GZK   ГЗK(N0.5M2.0A)
ИК.Ohm*M                                         :IK
НГК.u.e.                                         :NGK
NNKM.                                            :NNKm  (ННКм)
PS.mv                                            :PS       (ПС)
PZ.Ohm*M                                         :PZ    (КС)
RS.Ohm*M                                         :RS (Резистивиметр)
U1.mV                                            :U1
~ASCII LOG DATA
# ...
115.8       105.925     127.402     2.361       4.959       50.041      38.607      16.42       283.489     380.91      24.419      36.005      16.401      24.857      33.49       1.37        2.935       767.604     47.837      1.1         379.685     
115.9       91.622      127.368     2.357       5.427       45.209      38.225      15.848      279.344     387.145     24.333      32.637      16.317      24.957      34.069      1.432       2.958       771.027     48.978      1.1         377.08      
116.0       80.353      127.532     2.356       5.898       41.331      38.145      15.601      279.344     402.305     24.846      30.63       16.653      26.485      34.069      1.444       2.871       776.16      50.267      1.1         406.845     
116.1       60.395      127.49      2.357       6.178       38.571      37.64       16.266      337.591     420.395     25.239      29.722      17.656      30.522      33.965      1.353       2.751       781.978     51.6        1.1         507.958     
116.2       47.753      127.226     2.361       6.368       36.996      36.743      17.998      470.979     429.521     25.905      29.803      19.76       36.5        33.965      1.289       2.629       789.164     52.622      1.1         570.702     
116.3       45.499      127.323     2.365       6.472       36.996      37.67       21.188      377.583     412.39      26.533      31.086      23.23       43.433      33.676      1.285       2.569       795.324     53.156      1.1         591.322     
116.4       43.053      127.502     2.364       6.386       37.092      39.924      25.878      327.017     386.445     27.429      33.511      28.214      49.782      33.348      1.318       2.571       800.458     53.304      1.1         541.892     
116.5       46.026      127.525     2.363       6.133       39.466      43.223      31.97       327.017     366.297     27.926      37.373      34.614      55.208      33.348      1.352       2.553       802.511     53.319      1.1         581.119     
116.6       50.234      126.898     2.361       5.96        44.883      48.243      39.724      371.526     369.885     27.86       44.041      42.031      58.905      33.633      1.393       2.531       802.511     53.481      1.1         677.492     
116.7       43.251      126.823     2.356       5.95        53.959      55.076      47.969      416.035     413.233     27.597      54.467      49.778      60.433      33.532      1.408       2.556       801.142     54.044      1.1         682.548     
116.8       45.92       127.324     2.351       6.107       65.691      61.485      55.418      431.12      490.796     27.646      67.827      56.952      58.954      33.777      1.406       2.591       794.982     55.259      1.1         585.593     
116.9       53.951      126.86      2.346       6.272       77.508      66.211      60.921      423.762     572.157     28.179      81.897      62.568      53.967      34.217      1.373       2.619       785.058     57.007      1.1         442.54      
117.0       43.954      127.56      2.344       6.402       86.918      69.08       63.752      419.066     602.531     28.784      93.569      65.746      46.341      34.41       1.356       2.661       774.449     59.067      1.1         407.983     
117.1       38.994      127.224     2.345       5.92        93.016      68.644      63.438      414.37      581.923     29.016      99.338      66.944      37.442      34.714      1.421       2.759       764.867     61.096      1.1         442.333     
117.2       49.545      126.952     2.35        5.302       94.819      65.836      60.275      414.37      549.302     27.253      96.955      66.11       29.073      34.868      1.484       2.875       756.996     62.978      1.1         491.401     
117.3       114.288     127.069     2.36        4.414       94.819      61.919      54.8        426.165     536.947     24.688      87.024      63.622      21.584      35.451      1.566       3.107       749.124     64.519      1.1         533.126     
117.4       271.019     126.824     2.372       4.26        91.719      56.658      47.38       470.649     538.987     21.01       72.608      59.288      16.118      36.221      1.662       3.3         742.28      65.763      1.1         556.582     
117.5       333.426     126.071     2.381       4.387       83.267      48.947      39.505      453.596     529.036     19.385      57.346      54.214      13.25       36.744      1.765       3.333       734.751     66.8        1.1         559.373     
117.6       367.282     126.456     2.386       4.822       71.943      43.015      32.564      417.492     508.103     18.495      44.197      49.737      12.996      38.116      1.768       3.321       725.511     67.733      1.1         552.327     
117.7       223.357     126.424     2.385       5.289       60.795      40.353      27.366      417.492     496.466     19.515      34.782      47.106      14.824      39.154      1.671       3.188       713.533     68.548      1.1         554.025     
117.8       119.399     127.81      2.376       5.486       52.61       40.035      24.755      419.84      502.225     21.457      29.07       46.177      18.053      39.648      1.566       2.989       701.556     69.422      1.1         603.272     
117.9       77.983      128.443     2.366       5.966       49.273      43.906      24.767      518.186     516.433     23.929      26.234      47.449      22.281      39.648      1.492       2.771       691.973     70.667      1.1         649.666     
118.0       62.087      128.326     2.351       6.4         49.273      50.096      26.954      504.089     512.793     26.334      25.378      50.961      27.088      39.203      1.444       2.622       685.129     72.696      1.1         675.426     
118.1       51.88       128.218     2.337       6.816       51.009      57.012      30.855      454.264     490.177     27.873      25.997      57.463      31.504      39.154      1.389       2.543       678.627     75.156      1.1         659.587     
118.2       47.973      127.968     2.331       7.053       57.821      64.727      35.863      454.264     457.486     28.835      29.09       66.398      35.254      38.391      1.364       2.505       671.782     77.807      1.1         674.475     
118.3       45.709      127.638     2.33        7.152       68.586      73.508      41.897      460.345     429.948     28.518      36.449      77.174      38.472      38.068      1.41        2.507       663.227     80.385      1.1         730.223     
118.4       40.458      127.381     2.335       7.252       82.21       83.197      48.958      458.117     412.505     27.953      48.803      89.158      40.862      37.837      1.449       2.585       653.987     83.363      1.1         732.162     
118.5       47.315      126.851     2.355       7.655       98.542      95.025      57.211      397.879     404.863     26.73       66.549      101.553     42.647      37.655      1.497       2.698       643.72      86.681      1.1         655.168     
118.6       66.834      126.82      2.374       8.17        117.606     111.524     66.363      348.57      404.279     25.953      90.464      113.339     43.772      37.393      1.524       2.891       634.822     90.667      1.1         544.382     
118.7       76.384      126.735     2.389       8.136       136.664     131.1       75.825      343.741     406.744     24.154      119.622     123.328     43.812      38.342      1.622       3.077       627.636     95.437      1.1         481.482     
118.8       126.765     126.8       2.405       7.398       151.29      145.861     84.855      338.911     401.528     22.761      149.633     130.404     42.594      38.579      1.738       3.232       622.844     101.378     1.1         468.388     
118.9       311.172     127.231     2.412       6.284       158.783     153.348     92.353      330.535     382.302     21.566      174.396     134.008     40.844      39.154      1.8         3.38        618.738     107.274     1.1         461.213     
