~Version Information Section
VERS.                                         2.0:CWLS log ASCII Standart – VERSION 2.0
WRAP.                                          NO:One line per depth step
~Well Information Section
STRT.M                                        0.2:Начальная глубина
STOP.M                                      176.0:Конечная глубина
STEP.M                                          0:Шаг квантования по глубине
NULL.                                    -9999.25:Признак "Нет данных"
WELL.                                       112Мх:Скважина
~Parameter Information Section
~Curve Information Section
DEPTH.M                                          :Глубина
BK.Ohm*M                                         :BK     (БК)
DS.mm                                            :DS  (ДС)
GGK.g/cm3                                        :GGKp
ГК.mcr/h                                         :GK          (ГК)
GZ1.Ohm*M                                        :GZ1   ГЗ1(A0.4M0.1N)
GZ2.Ohm*M                                        :GZ2   ГЗ2(A1.0M0.1N)
GZ3.Ohm*M                                        :GZ3   ГЗ3(A2.0M0.5N)
GZ4.Ohm*M                                        :GZ4   ГЗ4(A4.0M0.5N)
GZ5.Ohm*M                                        :GZ5   ГЗ5(A8.0M0.5N)
GZR.Ohm*M                                        :GZK   ГЗK(N0.5M2.0A)
ИК.Ohm*M                                         :IK
НГК.ue                                           :NGK     (НГК)
NNKM.                                            :NNKm  (ННКм)
PS.mv                                            :PS       (ПС)
PZ.Ohm*M                                         :PZ    (КС)
U1.mV                                            :U1
U2.mV                                            :U2
U3.mV                                            :U3
КП.%                                             :Кп
~ASCII LOG DATA
# ...
146.4       139.661     127.73      2.163       3.16        156.087     179.879     163.545     30.266      28.811      118.925     57.889      1.629       2.657       319.36      195.4       720.0       3240.0      940.0       28.178      
146.5       151.792     127.551     2.145       3.249       156.742     181.449     167.946     32.803      28.821      118.895     57.892      1.693       2.698       322.34      193.72      760.0       3240.0      960.0       27.244      
146.6       158.864     127.522     2.13        3.26        157.785     182.098     172.075     36.174      28.824      118.74      58.086      1.67        2.715       325.68      192.04      760.0       3240.0      950.0       26.634      
146.7       164.221     127.666     2.128       3.322       159.019     182.111     175.647     40.367      28.823      118.334     57.984      1.644       2.71        329.1       190.4       810.0       3220.0      920.0       27.379      
146.8       171.186     127.671     2.137       3.366       160.262     182.042     178.446     45.248      28.812      117.727     57.958      1.639       2.727       332.46      189.0       800.0       3220.0      910.0       29.123      
146.9       168.468     127.657     2.154       3.382       161.341     181.478     180.371     50.61       28.767      117.153     57.942      1.664       2.751       335.74      187.84      770.0       3270.0      910.0       30.983      
147.0       154.377     127.701     2.163       3.38        162.155     179.874     181.443     56.211      28.674      116.865     57.869      1.798       2.692       338.94      186.96      770.0       3190.0      970.0       31.49       
147.1       140.674     127.725     2.163       3.247       162.693     177.526     181.811     61.827      28.542      116.865     57.383      1.907       2.627       342.12      186.24      820.0       3160.0      960.0       31.785      
147.2       130.065     127.738     2.161       3.201       163.038     174.824     181.802     67.286      28.404      116.866     57.146      1.968       2.617       345.28      185.76      810.0       3140.0      940.0       32.027      
147.3       128.871     127.769     2.157       3.252       163.287     171.937     181.688     72.47       28.289      116.929     56.76       1.933       2.608       348.34      185.44      810.0       3130.0      920.0       32.617      
147.4       138.309     127.946     2.157       3.301       163.529     168.798     181.121     77.297      28.224      117.413     56.101      1.86        2.607       351.26      185.32      800.0       3130.0      910.0       34.951      
147.5       142.282     128.06      2.159       3.296       163.877     165.287     179.691     81.708      28.21       118.912     55.782      1.787       2.593       353.8       185.32      790.0       3140.0      890.0       37.998      
147.6       137.016     128.076     2.158       3.183       164.441     161.269     177.354     85.641      28.21       121.617     55.626      1.73        2.555       355.76      185.32      780.0       3120.0      880.0       39.303      
147.7       134.156     128.089     2.154       3.147       165.303     156.721     174.085     89.036      28.215      125.603     55.556      1.715       2.502       357.2       185.32      780.0       3110.0      880.0       38.645      
147.8       142.318     128.042     2.147       3.189       166.537     151.884     169.919     91.881      28.261      130.782     55.267      1.681       2.447       358.16      185.32      900.0       3090.0      830.0       39.634      
147.9       152.677     128.01      2.146       3.2         168.179     147.128     165.024     94.218      28.42       136.797     55.393      1.656       2.398       358.66      185.48      920.0       3090.0      830.0       42.04       
148.0       145.718     128.014     2.151       3.251       170.184     142.827     159.652     96.124      28.723      143.155     55.021      1.543       2.365       358.88      185.72      900.0       3090.0      810.0       43.082      
148.1       125.312     128.239     2.165       3.22        172.423     139.367     154.07      97.715      29.155      149.301     54.361      1.47        2.366       358.98      186.32      890.0       3070.0      810.0       41.615      
148.2       125.989     128.676     2.179       3.282       174.804     136.992     148.523     99.136      29.677      154.753     53.63       1.413       2.38        359.0       188.08      880.0       3070.0      910.0       40.474      
148.3       143.319     128.783     2.191       3.167       177.272     135.661     143.217     100.461     30.222      159.205     53.495      1.444       2.429       359.0       191.24      870.0       3070.0      900.0       41.367      
148.4       160.274     129.227     2.191       3.047       179.775     135.226     138.29      101.675     30.71       162.553     53.833      1.426       2.475       359.0       195.8       870.0       3070.0      890.0       42.534      
148.5       167.205     129.983     2.186       2.931       182.273     135.226     133.838     102.764     31.062      164.909     54.787      1.373       2.43        359.0       202.36      860.0       3060.0      840.0       42.105      
148.6       165.85      130.952     2.176       2.921       184.827     135.242     129.98      103.702     31.246      166.526     56.768      1.308       2.368       359.0       210.52      860.0       3050.0      840.0       40.676      
148.7       160.501     130.398     2.169       2.78        187.464     135.424     126.796     104.43      31.289      167.699     58.184      1.293       2.317       359.0       219.0       860.0       3050.0      830.0       39.195      
148.8       158.652     130.175     2.17        2.645       190.202     136.22      124.296     104.941     31.29       168.672     59.011      1.324       2.289       359.0       228.28      860.0       3110.0      820.0       39.061      
148.9       170.037     130.363     2.178       2.655       193.304     138.066     122.433     105.291     31.25       169.573     59.586      1.353       2.301       359.0       238.48      850.0       3130.0      800.0       42.463      
149.0       181.012     130.454     2.181       2.983       197.351     140.996     121.085     105.524     31.058      170.311     60.106      1.366       2.295       359.02      249.44      830.0       3230.0      800.0       45.303      
149.1       173.933     130.685     2.177       3.225       203.02      145.082     120.08      105.733     30.661      170.701     60.207      1.352       2.277       359.1       261.24      820.0       3230.0      840.0       47.183      
149.2       157.138     130.823     2.165       3.382       211.065     150.281     119.302     106.056     30.049      170.785     60.481      1.34        2.275       359.28      273.92      820.0       3220.0      840.0       45.969      
149.3       140.124     130.685     2.153       3.38        222.045     156.514     118.713     106.668     29.222      170.763     61.098      1.311       2.281       359.6       285.8       820.0       3160.0      830.0       44.663      
149.4       164.125     130.807     2.146       3.348       235.798     163.565     118.317     107.731     28.204      170.576     61.594      1.268       2.28        360.12      296.56      820.0       3130.0      810.0       44.411      
149.5       197.853     130.912     2.148       3.324       251.341     171.17      118.146     109.325     27.07       169.984     61.727      1.238       2.277       360.88      304.72      760.0       3130.0      790.0       44.475      
149.6       209.472     131.028     2.155       3.18        267.241     179.044     118.146     111.389     25.931      169.001     61.607      1.23        2.273       361.84      310.16      760.0       3190.0      770.0       43.193      
149.7       215.493     131.339     2.164       3.285       281.889     186.822     118.152     113.751     24.898      167.864     61.864      1.227       2.276       362.94      313.28      790.0       3180.0      750.0       41.044      
