~Version Information Section
VERS.                                         2.0:CWLS log ASCII Standart – VERSION 2.0
WRAP.                                          NO:One line per depth step
~Well Information Section
STRT.M                                        0.5:Начальная глубина
STOP.M                                      201.9:Конечная глубина
STEP.M                                          0:Шаг квантования по глубине
NULL.                                    -9999.25:Признак "Нет данных"
WELL.                                       138Мх:Скважина
~Parameter Information Section
~Curve Information Section
DEPTH.M                                          :Глубина
БК.Омм                                           :BK     (БК)
DСР.мм                                           :DS  (ДС)
W.g/cm3                                          :GGKp
ГК.гамма                                         :GK          (ГК)
А0.4М0.1N.Омм.ohmm                               :GZ1   ГЗ1(A0.4M0.1N)
А1.0М0.1N.Омм.ohmm                               :GZ2   ГЗ2(A1.0M0.1N)
А2.0М0.5N.Омм.ohmm                               :GZ3   ГЗ3(A2.0M0.5N)
А4.0М0.5N.Oмм.ohmm                               :GZ4   ГЗ4(A4.0M0.5N)
А8.0М1.0N.Омм.ohmm                               :GZ5   ГЗ5(A8.0M0.5N)
N0.5M2.0A.Омм.ohmm                               :GZK   ГЗK(N0.5M2.0A)
ИК.мСм/м                                         :IK
ННКМ.усл.ед                                      :NNKm  (ННКм)
ПС.мВ                                            :PS       (ПС)
КС.Омм                                           :PZ    (КС)
R.Омм                                            :RS (Резистивиметр)
U1.мВ                                            :U1
U2.mV                                            :U2
U3.мВ                                            :U3
КП.%                                             :Кп
НГК.усл.ед                                       :NGK
~ASCII LOG DATA
# ...
122.1       101.741     135.583     2.023       2.207       144.036     128.361     68.363      59.26       20.865      58.492      35.73       2.11        265.144     109.435     1.08        1421.609    973.454     668.502     32.76       1.243       
122.2       102.963     135.066     2.041       2.16        144.168     133.118     70.683      59.321      21.756      58.492      35.666      2.066       264.808     114.277     1.08        1504.315    1023.088    697.804     34.138      1.257       
122.3       112.456     133.429     2.054       2.429       144.231     135.907     73.018      59.427      22.864      58.492      35.652      2.026       264.376     120.085     1.08        1331.552    890.258     598.017     34.217      1.178       
122.4       120.553     132.68      2.06        2.61        144.244     137.349     75.622      60.055      24.161      58.76       35.643      1.995       263.864     126.651     1.08        973.305     633.437     415.025     33.038      1.167       
122.5       109.607     132.93      2.068       2.821       144.257     138.112     79.119      61.816      25.668      59.747      35.509      2.032       263.336     133.582     1.08        684.794     458.53      306.747     31.377      1.184       
122.6       97.706      133.483     2.077       2.868       144.257     138.948     84.28       64.864      27.344      61.394      35.179      2.073       262.744     140.25      1.08        538.899     387.534     274.043     30.102      1.196       
122.7       94.323      133.646     2.09        3.012       144.257     139.895     92.002      68.477      29.041      62.965      34.826      2.085       262.12      146.12      1.08        499.998     376.93      278.918     29.71       1.201       
122.8       92.55       133.542     2.111       3.139       144.43      140.283     102.158     71.183      30.365      63.609      34.466      2.108       261.4       150.781     1.08        507.034     392.678     303.023     29.348      1.27        
122.9       89.17       134.914     2.13        3.223       144.884     140.028     112.748     72.085      30.947      63.592      33.937      2.154       260.632     153.75      1.08        557.921     443.429     354.738     27.805      1.336       
123.0       84.991      134.512     2.144       3.098       145.163     138.807     120.885     71.586      30.947      62.53       33.289      2.234       259.8       155.075     1.08        680.553     545.964     438.644     26.137      1.379       
123.1       82.977      134.269     2.156       2.74        145.158     135.675     124.017     69.1        30.557      59.415      32.698      2.308       258.936     155.075     1.08        892.764     700.26      549.898     23.202      1.342       
123.2       99.048      134.175     2.167       2.389       143.32      129.23      124.074     63.94       29.143      54.578      32.307      2.298       258.04      155.075     1.08        1092.233    835.796     653.848     21.619      1.338       
123.3       121.681     134.514     2.176       2.247       137.472     119.732     120.916     57.203      26.844      49.033      31.827      2.257       257.192     155.043     1.08        985.555     801.862     697.206     22.434      1.315       
123.4       155.806     134.827     2.187       2.397       127.705     109.063     112.176     50.6        24.109      43.898      31.387      2.13        256.392     153.998     1.08        690.161     637.197     675.747     24.9        1.31        
123.5       182.529     134.206     2.194       2.497       114.73      98.21       100.143     45.314      21.39       39.891      30.933      2.009       255.608     152.294     1.08        358.423     431.306     597.712     28.129      1.226       
123.6       157.119     133.309     2.193       2.88        99.243      87.862      87.883      41.408      18.952      37.177      30.442      1.976       254.856     150.451     1.08        261.088     343.104     485.012     29.619      1.178       
123.7       97.821      133.595     2.184       3.336       84.483      79.625      77.699      38.43       16.929      35.474      29.853      1.912       254.152     148.573     1.08        255.865     318.131     380.079     31.192      1.109       
123.8       69.582      133.208     2.171       3.76        73.269      73.832      70.204      36.002      15.343      34.462      29.08       1.82        253.48      146.67      1.08        319.948     325.011     311.407     31.601      1.114       
123.9       61.639      134.32      2.155       3.918       65.337      69.245      65.063      33.957      14.147      33.948      28.149      1.772       252.824     144.696     1.08        443.622     361.076     300.934     31.246      1.152       
124.0       52.708      134.509     2.14        3.949       60.079      65.245      61.583      32.281      13.311      33.756      27.214      1.8         252.248     142.562     1.08        612.123     446.808     346.95      29.964      1.189       
124.1       45.939      133.709     2.129       4.158       56.956      61.73       58.929      31.127      12.744      33.71       26.335      1.845       251.736     140.165     1.08        824.726     586.615     427.816     28.756      1.227       
124.2       37.16       135.05      2.123       4.197       54.575      58.397      56.842      30.715      12.39       33.71       25.681      1.907       251.272     137.411     1.08        1157.029    768.16      524.717     26.832      1.251       
124.3       40.085      136.365     2.119       4.211       51.875      54.935      55.31       30.715      12.247      33.71       25.185      1.918       250.792     134.224     1.08        1562.529    1007.686    675.468     25.16       1.256       
124.4       52.607      135.643     2.122       4.314       49.159      51.763      54.404      30.715      12.247      33.71       24.935      1.889       250.296     130.562     1.08        1905.392    1332.308    898.627     24.271      1.245       
124.5       60.495      135.043     2.126       4.73        46.823      49.369      54.137      30.715      12.247      33.748      24.751      1.822       249.752     126.43      1.08        2228.815    1553.652    1044.92     24.559      1.225       
124.6       62.33       135.368     2.126       5.252       45.276      47.881      54.137      30.837      12.247      33.992      24.64       1.751       249.176     121.95      1.08        2331.239    1611.858    1062.936    26.969      1.234       
124.7       59.899      135.541     2.123       5.513       44.704      46.851      54.137      31.687      12.247      34.613      24.538      1.7         248.584     117.315     1.08        2324.047    1504.752    973.685     29.38       1.236       
124.8       54.331      135.86      2.112       5.589       44.659      46.004      54.137      33.505      12.272      35.528      24.275      1.656       248.056     112.778     1.08        2156.984    1429.995    945.265     33.637      1.231       
124.9       43.814      135.56      2.09        5.249       44.659      45.307      54.393      35.761      12.439      36.523      23.831      1.7         247.592     108.605     1.08        2092.944    1410.749    947.718     34.942      1.207       
125.0       30.772      134.073     2.066       5.002       44.659      44.503      55.106      37.763      12.803      37.367      23.187      1.763       247.208     105.045     1.08        2109.417    1428.932    966.811     33.866      1.163       
125.1       31.517      135.035     2.046       4.553       44.659      43.386      55.665      38.83       13.438      37.798      22.781      1.818       246.904     102.219     1.08        2020.794    1479.489    1016.134    30.963      1.16        
125.2       42.763      134.996     2.034       4.447       44.66       41.932      55.766      39.057      14.421      37.88       22.57       1.857       246.616     100.149     1.08        1932.174    1524.62     1104.061    29.287      1.19        
