~Version Information Section
VERS.                                         2.0:CWLS log ASCII Standart – VERSION 2.0
WRAP.                                          NO:One line per depth step
~Well Information Section
STRT.M                                        0.0:Начальная глубина
STOP.M                                      180.0:Конечная глубина
STEP.M                                          0:Шаг квантования по глубине
NULL.                                    -9999.25:Признак "Нет данных"
WELL.                                       120Мх:Скважина
~Parameter Information Section
~Curve Information Section
DEPTH.M                                          :Глубина
BK.Ohm*M                                         :BK     (БК)
DS.mm                                            :DS  (ДС)
GGK.g/cm3                                        :GGKp
ГК.mcr/h                                         :GK          (ГК)
GZ1.Ohm*M                                        :GZ1   ГЗ1(A0.4M0.1N)
GZ2.Ohm*M                                        :GZ2   ГЗ2(A1.0M0.1N)
GZ3.Ohm*M                                        :GZ3   ГЗ3(A2.0M0.5N)
GZ4.Ohm*M                                        :GZ4   ГЗ4(A4.0M0.5N)
GZ5.Ohm*M                                        :GZ5   ГЗ5(A8.0M0.5N)
GZR.Ohm*M                                        :GZK   ГЗK(N0.5M2.0A)
ИК.Ohm*M                                         :IK
НГК.u.e.                                         :NGK
NNKM.                                            :NNKm  (ННКм)
PS.mv                                            :PS       (ПС)
PZ.Ohm*M                                         :PZ    (КС)
RS.Ohm*M                                         :RS (Резистивиметр)
U1.mV                                            :U1
U2.mV                                            :U2
U3.mV                                            :U3
КП.%                                             :Кп
~ASCII LOG DATA
# ...
76.8        31.117      133.064     2.364       5.202       33.717      25.533      19.767      52.759      33.225      33.317      9.505       1.012       2.128       472.524     44.799      1.34        1490.07     1287.489    1161.722    32.224      
77.0        24.491      128.147     2.334       5.46        37.381      25.483      21.078      48.948      31.225      37.581      9.466       1.029       2.147       482.691     45.426      1.34        1366.043    1099.486    926.377     33.303      
77.2        22.961      130.438     2.295       5.254       37.38       26.473      21.307      39.39       27.892      41.651      9.427       1.024       2.109       492.569     50.94       1.345       767.775     547.511     430.282     33.736      
77.4        28.973      134.712     2.31        4.774       37.165      26.808      24.17       48.637      25.892      45.03       9.44        0.984       2.119       502.409     53.071      1.36        777.274     585.719     487.707     36.258      
77.6        30.339      134.896     2.283       4.407       40.38       31.243      22.082      53.386      25.225      48.792      9.531       1.055       2.19        511.049     53.447      1.379       843.066     739.02      716.067     36.6        
77.8        24.774      134.199     2.288       4.151       37.26       27.068      19.922      53.117      25.892      50.494      9.692       1.083       2.21        517.807     58.084      1.394       685.11      676.21      742.23      30.156      
78.0        23.823      134.105     2.339       3.822       37.711      17.862      25.94       42.665      27.225      53.023      9.719       1.125       2.051       523.049     59.964      1.406       718.484     597.252     607.074     33.771      
78.2        30.13       133.664     2.324       3.716       38.802      22.307      28.993      45.771      27.225      64.774      9.76        1.099       2.2         526.572     53.447      1.418       741.954     371.424     275.632     38.567      
78.4        29.854      130.465     2.342       4.415       49.766      44.371      42.841      59.375      28.558      75.685      9.914       1.027       2.29        527.772     55.828      1.427       578.096     400.973     408.874     28.436      
78.6        29.512      129.587     2.361       4.575       68.875      50.811      46.323      65.811      32.558      78.291      10.015      1.014       2.257       526.486     63.474      1.436       447.873     531.142     757.253     36.215      
78.8        30.549      128.734     2.39        3.715       58.449      29.416      33.108      53.617      33.225      70.251      10.044      1.073       2.292       524.048     63.098      1.438       462.62      529.324     723.851     30.472      
79.0        57.016      131.064     2.431       3.811       38.406      16.391      19.005      35.41       32.558      61.319      10.283      1.187       2.407       520.688     56.706      1.433       518.341     459.296     491.52      30.019      
79.2        71.121      131.271     2.432       4.399       30.295      14.531      9.55        30.812      31.225      73.645      10.548      1.19        2.545       516.684     50.815      1.424       691.712     371.782     263.928     28.171      
79.4        22.909      131.62      2.39        5.168       33.721      20.435      17.034      38.296      31.225      85.515      10.503      1.105       2.512       512.604     50.063      1.42        818.272     342.029     195.016     27.815      
79.6        16.904      131.934     2.333       5.258       43.944      29.206      26.732      48.532      31.225      88.26       10.255      1.042       2.243       509.004     59.463      1.419       633.022     434.323     380.027     31.725      
79.8        19.011      129.133     2.358       4.451       71.504      38.486      22.921      48.376      31.225      78.21       10.339      1.187       2.142       506.163     68.863      1.413       622.349     548.76      543.962     34.736      
80.0        44.463      128.902     2.439       3.878       93.053      40.659      20.96       47.989      31.225      67.617      10.964      1.383       2.316       504.406     74.127      1.404       613.117     473.608     416.85      28.465      
80.2        109.396     128.951     2.358       4.14        94.339      41.769      23.538      50.412      32.558      68.345      11.691      1.453       2.651       503.244     76.007      1.4         594.756     420.307     334.633     21.304      
80.4        117.22      131.072     2.404       4.102       88.042      54.262      16.491      45.044      33.225      63.145      12.279      1.395       2.679       502.764     84.906      1.395       641.117     424.887     315.849     22.99       
80.6        88.308      131.236     2.379       4.233       80.9        65.974      18.633      39.397      34.558      56.116      12.574      1.379       2.642       502.726     101.826     1.38        882.021     557.759     380.374     24.699      
80.8        92.683      129.954     2.31        4.618       74.304      66.461      23.936      37.674      37.825      52.409      12.751      1.352       2.586       502.726     109.722     1.365       1049.069    539.509     324.681     25.921      
81.0        66.069      133.964     2.245       5.094       69.737      64.092      23.552      37.232      47.31       55.101      12.832      1.302       2.471       502.726     112.228     1.36        670.273     266.214     152.256     24.604      
81.2        55.208      133.611     2.267       5.257       62.941      58.602      33.973      43.149      62.836      66.204      12.941      1.268       2.378       502.246     115.487     1.36        526.928     347.498     275.745     25.66       
81.4        52.119      131.045     2.247       5.299       60.28       69.487      53.984      64.32       83.86       104.145     13.034      1.266       2.368       501.248     119.372     1.36        822.304     543.276     391.192     26.947      
81.6        51.761      126.752     2.211       5.753       88.456      103.614     82.465      92.568      98.918      148.144     13.171      1.269       2.36        499.328     125.263     1.36        675.957     359.16      235.699     27.558      
81.8        46.989      130.156     2.25        5.537       151.187     129.955     101.056     112.479     114.533     153.87      13.3        1.293       2.422       496.486     142.308     1.36        999.271     304.365     132.423     29.456      
82.0        52.36       133.652     2.339       4.173       168.838     124.31      103.645     115.176     133.535     126.268     13.465      1.377       2.644       493.606     194.071     1.36        889.95      433.883     307.882     25.043      
82.2        246.604     134.745     2.346       3.359       179.306     134.596     109.339     112.511     146.539     104.709     13.686      1.455       2.826       490.803     221.895     1.36        653.082     395.492     295.113     25.258      
82.4        465.586     130.344     2.303       3.244       201.668     188.959     130.265     118.9       145.542     100.838     13.918      1.514       2.868       489.084     180.66      1.36        720.52      452.749     341.591     25.793      
82.6        282.488     127.977     2.291       2.769       227.394     286.235     149.51      131.995     131.71      101.491     13.902      1.518       2.862       488.72      152.084     1.362       951.901     839.894     800.394     24.35       
82.8        234.423     127.861     2.273       3.161       225.275     304.25      129.01      124.563     113.111     87.712      13.724      1.481       2.843       491.206     136.292     1.375       1016.144    1015.755    1089.067    25.183      
83.0        303.389     126.626     2.355       4.013       131.526     139.485     81.293      91.763      91.458      57.535      13.51       1.549       2.88        494.643     126.14      1.393       987.838     1008.851    1125.032    22.542      
