~Version Information Section
VERS.                                         2.0:CWLS log ASCII Standart – VERSION 2.0
WRAP.                                          NO:One line per depth step
~Well Information Section
STRT.M                                        0.4:Начальная глубина
STOP.M                                      170.2:Конечная глубина
STEP.M                                          0:Шаг квантования по глубине
NULL.                                    -9999.25:Признак "Нет данных"
WELL.                                       121Мх:Скважина
~Parameter Information Section
~Curve Information Section
DEPTH.M                                          :Глубина
BK.Ohm*M                                         :BK     (БК)
DS.mm                                            :DS  (ДС)
GGK.g/cm3                                        :GGKp
ГК.mcr/h                                         :GK          (ГК)
GZ1.Ohm*M                                        :GZ1   ГЗ1(A0.4M0.1N)
GZ2.Ohm*M                                        :GZ2   ГЗ2(A1.0M0.1N)
GZ3.Ohm*M                                        :GZ3   ГЗ3(A2.0M0.5N)
GZ4.Ohm*M                                        :GZ4   ГЗ4(A4.0M0.5N)
GZ5.Ohm*M                                        :GZ5   ГЗ5(A8.0M0.5N)
GZR.Ohm*M                                        :GZK   ГЗK(N0.5M2.0A)
ИК.Ohm*M                                         :IK
НГК.u.e.                                         :NGK
NNKM.                                            :NNKm  (ННКм)
PS.mv                                            :PS       (ПС)
PZ.Ohm*M                                         :PZ    (КС)
RS.Ohm*M                                         :RS (Резистивиметр)
U1.mV                                            :U1
U2.mV                                            :U2
U3.mV                                            :U3
КП.%                                             :Кп
~ASCII LOG DATA
# ...
51.6        19.588      141.063     2.431       5.906       31.754      13.332      14.08       42.534      37.779      21.017      7.988       1.051       1.856       470.416     33.429      1.06        179.409     170.642     174.463     44.628      
51.8        23.335      140.883     2.472       5.914       30.729      11.858      13.825      43.036      37.292      20.339      8.128       0.975       1.936       475.552     34.125      1.06        184.808     164.256     178.346     41.459      
52.0        20.559      141.149     2.471       6.082       29.268      10.319      13.131      43.832      36.351      19.991      7.814       0.985       1.908       480.864     34.782      1.06        176.293     164.07      170.998     42.767      
52.2        17.378      141.122     2.391       6.01        27.788      9.833       12.177      43.842      35.546      20.402      7.739       0.975       1.825       485.52      35.33       1.06        167.793     168.283     151.59      43.232      
52.4        12.972      139.768     2.368       5.712       26.973      10.492      11.712      42.363      34.772      21.044      7.685       0.977       1.789       489.472     35.739      1.06        175.941     185.617     159.919     46.319      
52.6        14.689      140.193     2.428       5.802       27.095      11.504      11.404      40.402      33.761      21.707      7.678       0.931       1.768       493.184     36.04       1.06        188.406     200.373     167.838     43.524      
52.8        13.614      140.4       2.474       6.357       28.165      12.0        10.697      38.312      32.996      21.742      7.745       0.96        1.736       496.8       36.326      1.06        190.864     194.143     176.345     46.243      
53.0        12.589      140.724     2.514       5.812       29.622      12.297      9.975       36.944      32.183      21.703      7.74        1.033       1.713       500.176     36.653      1.06        176.233     179.472     206.351     41.768      
53.2        13.552      140.111     2.576       5.501       30.601      11.589      9.006       37.51       32.007      21.604      7.946       1.042       1.883       503.312     36.949      1.06        151.605     167.749     213.897     38.134      
53.4        25.061      140.686     2.587       5.08        30.819      9.914       8.615       39.445      32.42       21.596      8.118       1.014       2.024       506.032     37.128      1.06        140.003     166.005     201.633     38.864      
53.6        22.961      141.021     2.528       5.174       30.535      9.064       9.124       40.867      33.068      22.178      8.207       0.978       2.088       508.288     37.19       1.06        146.235     175.438     201.569     40.072      
53.8        21.184      141.333     2.475       5.491       30.232      10.207      10.368      42.027      33.404      23.874      8.201       0.979       2.007       510.304     37.2        1.06        169.021     194.101     201.298     39.807      
54.0        17.824      142.219     2.447       5.577       30.038      12.323      11.462      42.382      33.704      25.191      8.145       0.885       1.877       512.512     37.2        1.06        200.224     209.709     198.049     41.881      
54.2        16.106      142.143     2.443       5.717       30.169      14.062      12.186      41.902      33.315      25.759      8.107       0.96        1.731       514.944     37.192      1.06        220.8       222.07      205.103     46.649      
54.4        16.788      142.102     2.428       5.932       30.587      15.108      11.814      41.546      31.905      26.281      8.154       0.983       1.778       517.264     37.15       1.06        233.836     237.963     209.585     48.081      
54.6        18.707      140.211     2.434       5.899       31.103      15.152      10.301      41.22       30.567      26.044      8.295       1.002       1.878       518.96      37.036      1.06        247.621     261.53      210.052     43.155      
54.8        29.717      139.465     2.493       5.702       31.161      14.439      8.894       40.69       30.236      25.208      8.379       1.112       2.028       519.936     36.853      1.06        268.691     287.88      227.438     41.098      
55.0        18.45       139.86      2.506       6.066       31.069      13.525      8.671       40.214      30.877      24.771      8.393       1.1         1.949       520.704     36.645      1.06        296.789     299.326     250.541     44.301      
55.2        19.409      139.862     2.505       6.069       31.223      13.69       9.787       39.617      31.962      24.928      8.444       1.093       1.831       521.712     36.45       1.06        292.277     270.206     286.213     43.122      
55.4        18.923      139.18      2.523       5.783       31.813      14.401      11.571      38.629      33.179      25.033      8.512       1.076       1.822       522.816     36.222      1.06        236.229     211.706     302.016     39.274      
55.6        21.677      139.856     2.479       5.956       32.295      14.776      13.172      38.212      33.958      25.345      8.573       1.037       1.876       523.36      35.888      1.06        172.097     167.87      295.718     40.087      
55.8        22.803      139.548     2.452       5.812       32.581      14.351      13.829      37.76       34.336      25.11       8.67        1.08        1.925       523.36      35.443      1.06        139.019     153.436     250.091     39.673      
56.0        20.845      139.018     2.428       5.994       32.587      13.583      13.939      37.453      33.953      24.807      8.733       1.066       1.901       523.136     34.956      1.06        126.624     144.081     211.549     43.067      
56.2        25.468      138.96      2.382       6.271       32.206      12.693      13.503      36.584      33.551      24.275      8.758       1.03        1.951       522.496     34.506      1.06        131.41      149.899     186.564     43.574      
56.4        25.119      139.067     2.376       5.994       31.651      12.749      13.349      35.882      33.12       24.255      8.784       1.07        1.98        521.84      34.144      1.06        139.198     157.216     173.026     44.088      
56.6        20.091      138.913     2.435       5.608       31.784      14.118      13.502      35.883      32.692      24.816      8.778       1.049       1.887       521.04      33.848      1.06        144.671     155.594     163.711     42.846      
56.8        19.588      138.717     2.493       5.972       32.77       15.857      13.806      36.854      32.045      25.691      8.749       0.944       1.926       519.92      33.531      1.06        143.343     149.064     167.503     39.429      
57.0        21.281      138.939     2.485       6.384       34.085      17.464      13.63       38.179      31.509      26.373      8.703       0.933       1.934       518.4       33.137      1.06        145.725     141.036     174.395     48.735      
57.2        19.275      138.481     2.504       5.808       35.293      18.517      13.102      39.359      31.162      26.743      8.782       1.049       1.895       516.752     32.709      1.06        135.448     129.487     161.432     43.342      
57.4        34.594      136.892     2.511       5.05        35.777      18.639      12.423      40.042      31.537      26.674      8.976       1.146       2.111       515.152     32.344      1.06        110.191     122.116     145.301     33.463      
57.6        49.659      137.066     2.494       5.167       35.257      18.246      12.295      39.827      32.455      26.132      9.088       1.139       2.265       513.744     32.118      1.06        99.311      132.045     136.516     29.702      
57.8        31.769      137.592     2.505       5.5         34.12       18.148      12.812      39.383      33.414      25.85       9.0         1.097       2.092       512.72      32.024      1.06        107.86      132.552     153.914     36.959      
