~Version Information Section
VERS.                                         2.0:CWLS log ASCII Standart – VERSION 2.0
WRAP.                                          NO:One line per depth step
~Well Information Section
STRT.M                                        2.1:Начальная глубина
STOP.M                                      196.8:Конечная глубина
STEP.M                                          0:Шаг квантования по глубине
NULL.                                    -9999.25:Признак "Нет данных"
WELL.                                       154Мх:Скважина
~Parameter Information Section
~Curve Information Section
DEPTH.M                                          :Глубина
BK.lgОмм                                         :BK     (БК)
DСР.мм                                           :DS  (ДС)
ГГКП.g/cm3                                       :GGKp
ГК.мкР/час                                       :GK          (ГК)
ГЗ1.Омм                                          :GZ1   ГЗ1(A0.4M0.1N)
ГЗ2.Омм                                          :GZ2   ГЗ2(A1.0M0.1N)
ГЗ3.Омм                                          :GZ3   ГЗ3(A2.0M0.5N)
ГЗ4.Oмм                                          :GZ4   ГЗ4(A4.0M0.5N)
ГЗ5.Oмм                                          :GZ5   ГЗ5(A8.0M0.5N)
ГЗК.Омм                                          :GZR   ГЗK(N0.5M2.0A)
ИК.мСм/м                                         :IK
НГК.усл.ед.                                      :NGK     (НГК)
РЕЗ.Омм                                          :RS (Резистивиметр)
W.                                               :W
ННКМ.усл.ед                                      :NNKm  (ННКм)
PS.мB                                            :PS       (ПС)
~ASCII LOG DATA
# ...
38.1        16.346      154.567     -9999.25    1.863       -9999.25    -9999.25    -9999.25    -9999.25    -9999.25    -9999.25    4467.897    1.44        0.923       7.068       2.427       -9999.25    
38.2        35.054      154.554     -9999.25    2.172       -9999.25    -9999.25    -9999.25    -9999.25    -9999.25    -9999.25    6509.945    1.264       0.923       6.947       2.438       -9999.25    
38.3        44.178      154.949     -9999.25    2.72        -9999.25    -9999.25    -9999.25    -9999.25    -9999.25    -9999.25    18804.217   1.24        0.923       7.068       2.427       -9999.25    
38.4        36.597      155.006     -9999.25    3.317       -9999.25    -9999.25    -9999.25    -9999.25    -9999.25    -9999.25    116679.414  1.24        0.923       7.076       2.408       -9999.25    
38.5        24.275      155.145     -9999.25    3.824       -9999.25    -9999.25    -9999.25    -9999.25    -9999.25    -9999.25    116679.414  1.23        0.923       7.082       2.404       -9999.25    
38.6        20.699      156.009     -9999.25    4.177       -9999.25    -9999.25    -9999.25    -9999.25    -9999.25    -9999.25    -9999.25    1.203       0.923       7.228       2.395       -9999.25    
38.7        19.353      156.458     -9999.25    4.211       -9999.25    -9999.25    -9999.25    25.463      -0.483      -9999.25    -9999.25    1.215       0.924       7.343       2.372       -9999.25    
38.8        19.338      156.767     -9999.25    3.78        131.43      9.954       16.646      25.463      -0.668      9.536       -9999.25    1.202       0.926       7.215       2.359       -9999.25    
38.9        25.568      158.766     -9999.25    3.228       131.43      9.973       26.062      25.463      -1.244      9.536       -9999.25    1.177       0.928       7.266       2.357       -9999.25    
39.0        52.003      158.35      -9999.25    2.762       131.43      9.899       30.022      25.463      -1.856      116.231     176.187     1.138       0.93        7.17        2.359       -9999.25    
39.1        81.42       156.439     -9999.25    2.398       131.85      10.029      31.782      25.463      -1.968      167.88      64.015      1.145       0.931       7.052       2.374       -9999.25    
39.2        91.375      156.459     -9999.25    2.346       131.85      10.066      41.022      25.583      -2.283      167.88      41.534      1.118       0.931       6.918       2.395       -9999.25    
39.3        77.837      159.716     -9999.25    2.472       131.85      10.196      77.542      25.703      3.13        166.84      35.991      1.097       0.931       6.83        2.405       -9999.25    
39.4        56.63       170.695     -9999.25    2.597       131.85      10.14       85.462      25.703      6.35        163.72      33.983      1.083       0.931       6.679       2.425       -9999.25    
39.5        47.402      167.278     -9999.25    2.818       132.69      10.084      89.422      25.943      7.05        162.68      31.441      1.096       0.931       6.821       2.444       -9999.25    
39.6        43.16       159.708     2.244       2.844       132.69      10.066      91.622      26.063      8.03        162.68      30.408      1.086       0.931       9.869       2.453       -9999.25    
39.7        41.234      157.411     2.277       2.699       133.11      10.084      92.502      26.063      8.31        161.64      29.876      1.079       0.931       14.408      2.217       -9999.25    
39.8        41.839      157.709     2.288       2.605       133.53      10.288      92.502      26.063      28.75       160.6       29.744      1.091       0.932       18.76       1.987       53.981      
39.9        44.254      159.171     2.295       2.533       133.95      10.344      92.502      26.183      28.89       159.56      29.522      1.108       0.933       27.137      1.748       53.432      
40.0        52.729      158.287     2.297       2.29        133.53      10.566      92.942      26.183      29.03       157.48      29.506      1.111       0.934       48.01       1.509       52.922      
40.1        59.113      157.512     2.29        2.134       133.53      11.105      92.942      26.303      29.17       156.44      29.522      1.109       0.937       40.212      1.273       52.452      
40.2        60.637      157.028     2.259       1.958       133.95      20.867      92.942      26.423      29.31       155.4       29.636      1.091       0.938       32.28       1.282       52.021      
40.3        58.302      156.69      2.255       1.828       134.37      43.461      92.942      26.543      29.45       155.4       29.653      1.065       0.939       32.037      1.289       51.619      
40.4        57.289      156.659     2.262       1.813       134.37      50.907      92.942      26.663      29.45       155.4       29.596      1.061       0.94        31.952      1.298       51.246      
40.5        57.989      156.853     2.267       1.891       134.37      58.247      92.942      26.783      29.45       155.4       29.596      1.06        0.94        32.188      1.309       50.903      
40.6        58.255      156.898     2.284       1.948       134.37      47.394      93.382      26.783      29.45       155.4       29.377      1.044       0.94        32.312      1.319       50.629      
40.7        56.746      156.816     2.3         2.047       134.37      47.394      93.382      26.663      29.45       155.4       29.416      1.054       0.94        32.146      1.325       50.354      
40.8        54.209      157.109     2.28        2.27        134.37      49.994      93.382      26.903      29.45       155.4       29.271      1.064       0.94        32.262      1.327       50.08       
40.9        51.094      157.647     2.25        2.523       134.37      50.514      93.382      26.903      29.45       156.44      29.144      1.047       0.94        32.383      1.323       49.806      
41.0        48.738      158.017     2.248       2.678       134.79      52.594      92.942      26.903      29.31       157.48      29.017      1.032       0.94        32.177      1.317       49.531      
41.1        44.357      158.194     2.244       2.849       134.79      55.194      92.502      26.783      29.31       158.52      28.844      1.049       0.94        32.12       1.31        49.257      
41.2        38.732      158.196     2.243       2.991       135.63      57.274      92.502      26.663      29.31       159.56      28.719      1.046       0.94        32.655      1.306       48.982      
41.3        35.124      158.19      2.254       2.844       135.63      58.314      92.502      26.543      29.17       161.64      28.625      1.057       0.94        33.589      1.307       48.708      
41.4        38.821      158.235     2.277       2.609       135.63      59.354      92.502      26.543      29.03       162.68      28.388      1.068       0.94        34.428      1.309       48.433      
41.5        42.911      158.222     2.291       2.523       136.05      60.394      92.502      26.423      28.89       161.64      28.36       1.073       0.94        34.727      1.31        48.159      
41.6        44.224      158.417     2.27        2.415       136.05      62.474      92.942      26.183      28.75       159.56      28.428      1.058       0.94        34.668      1.306       47.885      
41.7        39.803      158.478     2.262       2.227       136.47      62.994      93.382      25.943      28.75       157.48      28.306      1.049       0.94        34.226      1.292       47.61       
41.8        36.371      158.458     2.278       2.293       136.89      63.514      93.382      25.823      28.47       155.4       28.103      1.059       0.94        32.981      1.275       47.336      
41.9        39.403      158.549     2.287       2.291       136.89      65.594      93.822      25.823      28.47       152.28      28.036      1.028       0.94        31.81       1.265       47.061      
42.0        50.799      158.647     2.299       2.12        136.89      66.634      94.262      25.703      28.47       148.12      27.903      1.028       0.94        31.76       1.26        46.826      
