~Version Information Section
VERS.                                         2.0:CWLS log ASCII Standart – VERSION 2.0
WRAP.                                          NO:One line per depth step
~Well Information Section
STRT.M                                       1.07:Начальная глубина
STOP.M                                     192.17:Конечная глубина
STEP.M                                          0:Шаг квантования по глубине
NULL.                                    -9999.25:Признак "Нет данных"
WELL.                                        151К:Скважина
~Parameter Information Section
~Curve Information Section
DEPTH.M                                          :Глубина
BK.Ohm*M                                         :BK     (БК)
DS.mm                                            :DS  (ДС)
GGK.g/cm3                                        :GGKp
ГК.mcr/h                                         :GK          (ГК)
GZ1.Ohm*M                                        :GZ1   ГЗ1(A0.4M0.1N)
GZ2.Ohm*M                                        :GZ2   ГЗ2(A1.0M0.1N)
GZ3.Ohm*M                                        :GZ3   ГЗ3(A2.0M0.5N)
GZ4.Ohm*M                                        :GZ4   ГЗ4(A4.0M0.5N)
GZ5.Ohm*M                                        :GZ5   ГЗ5(A8.0M0.5N)
GZR.                                             :GZR   ГЗK(N0.5M2.0A)
ИК.Ohm*M                                         :IK
НГК.ue                                           :NGK     (НГК)
NNKM.                                            :NNKm  (ННКм)
PS.mv                                            :PS       (ПС)
PZ.Ohm*M                                         :PZ    (КС)
RS.Ohm*M                                         :RS (Резистивиметр)
W.%                                              :W
~ASCII LOG DATA
# ...
38.77       0.93        217.067     1.838       3.346       -9999.25    -9999.25    -9999.25    -9999.25    -9999.25    -9999.25    -87.648     0.578       0.795       525.658     0.05        1.16        43.843      
38.8        -9999.25    -9999.25    -9999.25    -9999.25    0.425       0.067       0.217       -0.226      0.511       -0.109      -9999.25    -9999.25    -9999.25    -9999.25    -9999.25    -9999.25    -9999.25    
38.87       0.947       222.391     1.817       3.843       -9999.25    -9999.25    -9999.25    -9999.25    -9999.25    -9999.25    -88.637     0.582       0.771       527.986     0.05        1.16        43.901      
38.9        -9999.25    -9999.25    -9999.25    -9999.25    0.419       0.056       0.233       -0.218      0.567       -0.092      -9999.25    -9999.25    -9999.25    -9999.25    -9999.25    -9999.25    -9999.25    
38.97       0.969       225.474     1.8         4.34        -9999.25    -9999.25    -9999.25    -9999.25    -9999.25    -9999.25    -89.435     0.623       0.755       531.01      0.052       1.16        43.786      
39.0        -9999.25    -9999.25    -9999.25    -9999.25    0.413       0.056       0.239       -0.226      0.533       -0.073      -9999.25    -9999.25    -9999.25    -9999.25    -9999.25    -9999.25    -9999.25    
39.07       0.984       225.883     1.789       4.671       -9999.25    -9999.25    -9999.25    -9999.25    -9999.25    -9999.25    -89.741     0.663       0.756       532.372     0.051       1.159       43.171      
39.1        -9999.25    -9999.25    -9999.25    -9999.25    0.406       0.067       0.244       -0.229      0.544       -0.067      -9999.25    -9999.25    -9999.25    -9999.25    -9999.25    -9999.25    -9999.25    
39.17       0.991       225.863     1.784       4.904       -9999.25    -9999.25    -9999.25    -9999.25    -9999.25    -9999.25    -89.518     0.691       0.763       531.301     0.051       1.158       42.182      
39.2        -9999.25    -9999.25    -9999.25    -9999.25    0.403       0.067       0.239       -0.218      0.622       -0.039      -9999.25    -9999.25    -9999.25    -9999.25    -9999.25    -9999.25    -9999.25    
39.27       1.001       225.81      1.787       5.137       -9999.25    -9999.25    -9999.25    -9999.25    -9999.25    -9999.25    -88.612     0.694       0.763       529.155     0.052       1.159       41.598      
39.3        -9999.25    -9999.25    -9999.25    -9999.25    0.401       0.056       0.239       -0.218      0.711       -0.017      -9999.25    -9999.25    -9999.25    -9999.25    -9999.25    -9999.25    -9999.25    
39.37       1.02        225.738     1.795       5.016       -9999.25    -9999.25    -9999.25    -9999.25    -9999.25    -9999.25    -86.155     0.696       0.751       527.398     0.051       1.16        41.672      
39.4        -9999.25    -9999.25    -9999.25    -9999.25    0.396       0.047       0.233       -0.22       0.7         0.036       -9999.25    -9999.25    -9999.25    -9999.25    -9999.25    -9999.25    -9999.25    
39.47       1.044       225.569     1.81        4.844       -9999.25    -9999.25    -9999.25    -9999.25    -9999.25    -9999.25    -82.378     0.698       0.737       526.078     0.048       1.161       42.527      
39.5        -9999.25    -9999.25    -9999.25    -9999.25    0.391       0.047       0.228       -0.204      0.766       0.153       -9999.25    -9999.25    -9999.25    -9999.25    -9999.25    -9999.25    -9999.25    
39.57       1.055       225.113     1.831       4.671       -9999.25    -9999.25    -9999.25    -9999.25    -9999.25    -9999.25    -78.918     0.697       0.727       524.379     0.047       1.162       44.686      
39.6        -9999.25    -9999.25    -9999.25    -9999.25    0.386       0.05        0.233       -0.184      0.833       0.334       -9999.25    -9999.25    -9999.25    -9999.25    -9999.25    -9999.25    -9999.25    
39.67       1.066       224.406     1.861       4.669       -9999.25    -9999.25    -9999.25    -9999.25    -9999.25    -9999.25    -77.001     0.698       0.724       522.135     0.047       1.163       47.526      
39.7        -9999.25    -9999.25    -9999.25    -9999.25    0.378       0.061       0.239       -0.162      0.783       0.691       -9999.25    -9999.25    -9999.25    -9999.25    -9999.25    -9999.25    -9999.25    
39.77       1.096       224.072     1.899       4.679       -9999.25    -9999.25    -9999.25    -9999.25    -9999.25    -9999.25    -76.429     0.708       0.722       519.486     0.047       1.164       49.255      
39.8        -9999.25    -9999.25    -9999.25    -9999.25    0.369       0.067       0.25        -0.148      0.8         1.22        -9999.25    -9999.25    -9999.25    -9999.25    -9999.25    -9999.25    -9999.25    
39.87       1.122       224.158     1.947       4.723       -9999.25    -9999.25    -9999.25    -9999.25    -9999.25    -9999.25    -77.389     0.723       0.738       516.625     0.047       1.164       49.013      
39.9        -9999.25    -9999.25    -9999.25    -9999.25    0.361       0.067       0.261       -0.142      0.878       2.474       -9999.25    -9999.25    -9999.25    -9999.25    -9999.25    -9999.25    -9999.25    
39.97       1.135       224.187     2.0         4.825       -9999.25    -9999.25    -9999.25    -9999.25    -9999.25    -9999.25    -80.538     0.733       0.761       513.626     0.047       1.164       47.861      
40.0        -9999.25    -9999.25    -9999.25    -9999.25    0.353       0.067       0.267       -0.111      0.911       12.14       -9999.25    -9999.25    -9999.25    -9999.25    -9999.25    -9999.25    -9999.25    
40.07       1.143       223.782     2.054       4.926       -9999.25    -9999.25    -9999.25    -9999.25    -9999.25    -9999.25    -85.594     0.726       0.787       510.415     0.049       1.165       46.552      
40.1        -9999.25    -9999.25    -9999.25    -9999.25    0.338       0.061       0.261       -0.045      0.966       38.732      -9999.25    -9999.25    -9999.25    -9999.25    -9999.25    -9999.25    -9999.25    
40.17       1.126       215.732     2.102       4.756       -9999.25    -9999.25    -9999.25    -9999.25    -9999.25    -9999.25    -89.407     0.71        0.8         507.7       0.071       1.148       45.702      
40.2        -9999.25    -9999.25    -9999.25    -9999.25    0.305       0.05        0.267       0.067       0.95        72.329      -9999.25    -9999.25    -9999.25    -9999.25    -9999.25    -9999.25    -9999.25    
40.27       1.122       200.626     2.138       4.34        -9999.25    -9999.25    -9999.25    -9999.25    -9999.25    -9999.25    -94.749     0.724       0.809       505.381     0.14        1.133       45.649      
40.3        -9999.25    -9999.25    -9999.25    -9999.25    0.359       0.056       0.289       0.613       1.011       103.364     -9999.25    -9999.25    -9999.25    -9999.25    -9999.25    -9999.25    -9999.25    
40.37       1.142       192.996     2.158       3.923       -9999.25    -9999.25    -9999.25    -9999.25    -9999.25    -9999.25    -110.297    0.814       0.849       503.289     0.381       1.125       44.862      
40.4        -9999.25    -9999.25    -9999.25    -9999.25    0.558       0.061       0.3         1.524       1.033       128.489     -9999.25    -9999.25    -9999.25    -9999.25    -9999.25    -9999.25    -9999.25    
40.47       1.308       191.161     2.162       4.117       -9999.25    -9999.25    -9999.25    -9999.25    -9999.25    -9999.25    -138.514    0.92        0.932       499.953     1.655       1.12        42.585      
40.5        -9999.25    -9999.25    -9999.25    -9999.25    1.013       0.061       0.289       2.076       1.022       142.001     -9999.25    -9999.25    -9999.25    -9999.25    -9999.25    -9999.25    -9999.25    
40.57       2.643       189.741     2.153       4.564       -9999.25    -9999.25    -9999.25    -9999.25    -9999.25    -9999.25    -166.778    0.995       1.027       495.091     7.457       1.118       39.098      
