~Version Information Section
VERS.                                         2.0:CWLS log ASCII Standart – VERSION 2.0
WRAP.                                          NO:One line per depth step
~Well Information Section
STRT.M                                        1.6:Начальная глубина
STOP.M                                      209.3:Конечная глубина
STEP.M                                          0:Шаг квантования по глубине
NULL.                                    -9999.25:Признак "Нет данных"
WELL.                                       132Мх:Скважина
~Parameter Information Section
~Curve Information Section
DEPTH.M                                          :Глубина
BК.                                              :BК (Омм)
DS.mm                                            :DS
GGK.g/cm3                                        :GGKp
IК.                                              :IК (Омм)
NGК.                                             :NGК (усл.ед.)
PS.mV                                            :PS
PZ.                                              :PZ (Омм)
REZ.                                             :REZ (Омм)
U1.                                              :U1 (ue)
U2.                                              :U2 (ue)
U3.                                              :U3 (ue)
ГК.mcr/h                                         :ГКканаломНГК
~ASCII LOG DATA
# ...
83.2        24.096      134.876     2.3         16.271      1.133       236.8       23.169      2.424       2101.103    2145.856    2182.248    9.122       
83.3        26.85       136.255     2.299       16.169      1.108       237.481     22.408      2.44        2092.825    2145.369    2189.677    9.521       
83.4        29.063      139.046     2.29        15.979      1.085       238.374     21.582      2.47        2086.491    2145.078    2195.48     9.627       
83.5        24.929      141.248     2.305       15.728      1.055       239.491     20.968      2.508       2085.795    2144.977    2195.977    9.873       
83.6        19.995      142.737     2.334       15.455      1.037       240.834     20.967      2.545       2085.186    2146.781    2200.202    10.192      
83.7        17.006      143.976     2.354       15.167      1.028       242.444     21.034      2.577       2082.241    2146.756    2203.096    10.289      
83.8        15.192      144.334     2.369       14.795      1.03        244.325     20.769      2.602       2084.295    2147.42     2202.312    10.017      
83.9        14.722      144.037     2.378       14.477      1.026       246.481     20.036      2.625       2091.824    2149.58     2198.986    9.551       
84.0        15.052      143.917     2.394       14.309      1.016       248.87      19.146      2.648       2095.315    2151.448    2199.182    9.158       
84.1        15.481      145.37      2.363       14.217      1.02        251.52      18.421      2.665       2088.077    2135.614    2175.283    8.606       
84.2        15.655      148.877     2.319       14.202      1.038       254.304     17.954      2.678       2072.21     2099.44     2119.847    8.115       
84.3        15.231      159.713     2.299       14.268      1.06        257.197     17.754      2.686       2032.838    2042.082    2045.37     7.993       
84.4        14.88       161.864     2.314       14.438      1.067       260.115     17.825      2.686       2010.968    2002.103    1988.123    8.263       
84.5        15.004      142.117     2.357       14.642      1.102       262.945     18.069      2.689       2005.893    1978.615    1947.027    8.588       
84.6        15.164      139.104     2.324       14.97       1.146       265.607     18.464      2.688       2004.977    1966.479    1924.07     8.634       
84.7        15.418      139.316     2.284       15.392      1.189       267.992     18.915      2.687       2014.685    1982.667    1946.233    8.483       
84.8        16.644      136.323     2.218       15.86       1.198       270.006     19.647      2.691       2029.52     2016.311    1997.662    8.256       
84.9        16.859      134.817     2.233       16.353      1.187       271.629     20.53       2.689       2066.906    2071.973    2070.748    7.913       
85.0        15.216      134.655     2.314       16.762      1.177       272.906     21.558      2.693       2087.916    2110.749    2126.462    7.509       
85.1        13.663      134.796     2.424       17.363      1.221       273.865     22.245      2.691       2092.364    2132.73     2165.185    7.095       
85.2        14.167      134.402     2.519       18.052      1.296       274.578     23.225      2.675       2088.492    2143.095    2189.457    6.729       
85.3        19.204      133.81      2.488       18.97       1.379       274.959     24.446      2.427       2081.623    2141.95     2194.07     6.371       
85.4        25.739      132.934     2.432       20.125      1.409       275.043     26.652      2.275       2077.183    2140.314    2195.254    6.078       
85.5        35.824      132.954     2.363       21.235      1.408       274.783     29.384      2.185       2074.464    2139.464    2196.307    5.973       
85.6        47.879      133.877     2.376       22.947      1.406       274.193     32.73       2.313       2071.314    2139.532    2199.646    6.018       
85.7        60.671      135.394     2.382       24.815      1.434       273.283     36.132      2.477       2067.652    2139.124    2202.535    6.068       
85.8        80.552      136.942     2.435       26.485      1.484       272.081     39.152      2.486       2068.124    2138.361    2200.514    6.043       
85.9        104.496     136.887     2.441       27.905      1.522       270.622     41.79       2.466       2069.115    2138.578    2199.946    6.04        
86.0        148.058     136.289     2.451       29.0        1.525       269.009     44.046      2.451       2070.885    2139.994    2201.011    6.108       
86.1        191.188     135.861     2.448       29.587      1.51        267.287     46.302      2.436       2074.032    2141.336    2200.529    6.191       
86.2        203.16      135.503     2.437       29.814      1.493       265.365     47.974      2.424       2078.725    2142.726    2198.578    6.263       
86.3        133.569     136.182     2.408       29.551      1.461       263.176     49.062      2.42        2085.089    2145.449    2197.625    6.351       
86.4        102.303     136.218     2.323       28.924      1.429       260.728     50.232      2.419       2091.36     2148.915    2198.256    6.384       
86.5        97.039      136.754     2.268       27.956      1.421       258.095     51.402      2.419       2096.012    2151.369    2198.5      6.232       
86.6        89.733      138.071     2.274       27.061      1.434       255.261     52.406      2.419       2098.797    2150.723    2194.42     6.074       
86.7        87.722      139.014     2.349       26.205      1.441       252.218     52.576      2.417       2100.027    2150.338    2192.421    6.221       
86.8        81.553      139.493     2.43        25.126      1.416       249.047     51.913      2.417       2099.991    2149.939    2191.665    6.659       
86.9        82.941      139.316     2.47        24.182      1.359       245.824     51.082      2.415       2100.241    2148.547    2188.649    7.156       
87.0        75.588      138.894     2.435       22.953      1.294       242.621     50.085      2.416       2101.698    2146.772    2183.663    7.466       
87.1        61.229      140.234     2.383       21.92       1.243       239.58      49.587      2.417       2102.774    2145.861    2180.775    7.719       
87.2        47.649      142.594     2.335       20.721      1.214       236.798     49.089      2.417       2102.324    2147.119    2183.762    7.965       
87.3        27.694      143.737     2.334       19.729      1.192       234.282     48.091      2.419       2097.022    2146.171    2187.264    8.291       
87.4        26.673      141.5       2.323       18.907      1.175       232.102     46.98       2.415       2090.457    2143.766    2189.123    8.547       
87.5        22.173      139.393     2.338       17.931      1.181       230.382     45.555      2.416       2087.925    2141.639    2187.397    8.592       
87.6        16.564      139.578     2.347       17.292      1.198       229.054     39.464      2.416       2084.536    2139.072    2185.649    8.625       
87.7        15.845      141.276     2.402       16.611      1.2         228.04      32.471      2.416       2081.714    2136.421    2183.18     9.125       
87.8        23.98       143.357     2.428       16.257      1.179       227.342     24.588      2.417       2080.254    2135.786    2183.377    9.807       
87.9        26.226      147.297     2.444       15.994      1.15        226.989     21.819      2.417       2084.075    2137.671    2183.26     10.281      
88.0        16.904      150.26      2.427       15.684      1.117       226.945     20.686      2.417       2090.869    2140.722    2182.484    10.214      
88.1        14.296      153.574     2.378       15.518      1.062       227.222     21.248      2.417       2090.958    2143.42     2187.82     9.919       
88.2        14.367      158.007     2.336       15.297      1.006       227.763     22.177      2.416       2087.946    2145.783    2195.607    9.669       
