~Version Information Section
VERS.                                         2.0:CWLS log ASCII Standart – VERSION 2.0
WRAP.                                          NO:One line per depth step
~Well Information Section
STRT.M                                        1.6:Начальная глубина
STOP.M                                      209.3:Конечная глубина
STEP.M                                          0:Шаг квантования по глубине
NULL.                                    -9999.25:Признак "Нет данных"
WELL.                                       132Мх:Скважина
~Parameter Information Section
~Curve Information Section
DEPTH.M                                          :Глубина
BК.                                              :BК (Омм)
DS.mm                                            :DS
GGK.g/cm3                                        :GGKp
IК.                                              :IК (Омм)
NGК.                                             :NGК (усл.ед.)
PS.mV                                            :PS
PZ.                                              :PZ (Омм)
REZ.                                             :REZ (Омм)
U1.                                              :U1 (ue)
U2.                                              :U2 (ue)
U3.                                              :U3 (ue)
ГК.mcr/h                                         :ГКканаломНГК
~ASCII LOG DATA
# ...
32.2        33.365      127.208     2.361       17.907      1.278       120.352     30.354      2.453       2010.057    2100.645    2179.808    7.632       
32.3        29.372      127.147     2.33        17.871      1.187       122.124     30.964      2.465       2018.776    2102.298    2174.365    7.929       
32.4        26.062      127.137     2.327       17.79       1.191       124.031     31.177      2.474       2029.808    2107.052    2172.843    7.897       
32.5        22.889      126.876     2.322       17.69       1.215       126.109     30.673      2.481       2045.749    2114.483    2171.705    7.593       
32.6        22.151      127.491     2.403       17.529      1.233       128.364     29.754      2.489       2059.167    2120.553    2170.33     7.269       
32.7        22.685      127.112     2.415       17.432      1.217       130.783     28.783      2.502       2063.493    2122.581    2170.047    7.186       
32.8        20.738      126.577     2.441       17.412      1.205       133.309     28.041      2.514       2067.132    2124.411    2170.07     7.108       
32.9        21.645      126.582     2.423       17.482      1.207       135.833     27.879      2.522       2066.803    2126.82     2175.213    7.153       
33.0        23.119      126.906     2.35        17.622      1.212       138.362     28.107      2.525       2063.394    2127.927    2180.825    7.382       
33.1        19.332      126.964     2.264       17.819      1.22        140.882     28.157      2.526       2061.307    2127.111    2181.292    7.621       
33.2        20.109      126.912     2.218       18.072      1.24        143.311     27.99       2.526       2064.407    2127.224    2178.466    7.821       
33.3        25.618      126.457     2.221       18.416      1.25        145.624     27.999      2.527       2064.15     2127.415    2179.169    7.828       
33.4        32.125      126.474     2.291       18.976      1.222       147.82      28.701      2.527       2056.427    2126.62     2185.349    7.688       
33.5        22.812      126.281     2.317       19.428      1.187       149.861     30.377      2.527       2050.089    2124.023    2186.524    7.534       
33.6        17.521      126.297     2.341       19.779      1.197       151.704     32.648      2.528       2044.887    2119.973    2183.641    7.073       
33.7        18.313      126.417     2.365       20.335      1.247       153.365     34.407      2.529       2040.794    2117.8      2183.375    6.757       
33.8        19.983      126.595     2.375       20.922      1.3         154.74      35.578      2.529       2038.79     2117.44     2184.627    6.475       
33.9        28.708      127.16      2.412       22.021      1.32        155.834     36.76       2.527       2046.51     2116.789    2175.733    6.433       
34.0        31.214      126.315     2.414       23.173      1.353       156.701     39.056      2.518       2051.049    2117.281    2172.326    5.958       
34.1        31.22       126.065     2.441       24.176      1.411       157.42      42.969      2.505       2047.175    2118.479    2178.781    5.437       
34.2        36.045      125.81      2.523       25.765      1.574       158.033     48.456      2.492       2046.32     2117.855    2178.498    4.933       
34.3        39.205      125.903     2.575       26.924      1.732       158.479     54.439      2.478       2045.176    2113.355    2170.661    4.867       
34.4        50.999      126.308     2.607       28.088      1.923       158.709     60.407      2.47        2040.587    2110.094    2168.729    4.888       
34.5        79.478      126.21      2.599       29.464      2.009       158.71      64.992      2.463       2032.503    2110.849    2178.153    4.948       
34.6        100.295     126.751     2.527       30.564      2.109       158.409     68.28       2.454       2036.07     2113.802    2180.3      4.732       
34.7        112.796     127.309     2.456       31.457      2.141       157.836     69.996      2.446       2051.003    2118.7      2174.963    4.455       
34.8        110.015     128.358     2.369       32.377      2.167       156.989     71.163      2.43        2064.201    2120.762    2165.966    4.369       
34.9        102.312     127.527     2.378       32.551      2.156       155.82      72.33       2.422       2069.914    2125.928    2170.657    4.559       
35.0        89.018      127.394     2.444       32.676      2.097       154.386     72.948      2.421       2071.491    2129.249    2175.713    4.781       
35.1        80.794      127.054     2.491       32.546      2.05        152.709     73.181      2.418       2071.986    2130.918    2178.582    4.858       
35.2        82.724      127.104     2.499       32.266      2.069       150.789     73.029      2.42        2068.842    2131.089    2182.106    5.05        
35.3        99.551      126.7       2.396       31.986      2.137       148.64      73.038      2.419       2064.563    2128.06     2180.354    5.203       
35.4        115.117     126.314     2.302       31.33       2.066       146.241     72.297      2.42        2059.977    2128.98     2186.619    5.436       
35.5        96.045      125.984     2.189       30.613      1.938       143.682     70.806      2.421       2056.001    2127.89     2188.34     5.545       
35.6        52.225      125.065     2.142       29.037      1.799       141.103     68.564      2.421       2053.255    2125.044    2185.4      5.555       
35.7        30.958      124.491     2.153       28.083      1.787       138.577     66.323      2.419       2053.309    2121.858    2178.974    5.464       
35.8        32.223      124.459     2.179       27.186      1.767       136.201     63.006      2.418       2048.996    2117.101    2173.809    5.491       
35.9        44.884      124.889     2.195       25.925      1.754       133.984     59.546      2.42        2039.448    2113.15     2175.532    5.602       
36.0        55.823      126.021     2.186       25.36       1.927       131.941     56.145      2.419       2033.73     2112.019    2179.02     5.639       
36.1        55.209      125.825     2.25        24.656      1.904       130.066     54.086      2.416       2035.494    2113.343    2179.902    5.557       
36.2        46.315      126.86      2.343       24.109      1.858       128.414     50.896      2.417       2038.426    2115.066    2180.419    5.655       
36.3        40.912      129.234     2.433       23.472      1.624       127.002     45.099      2.417       2037.882    2115.947    2182.725    5.827       
36.4        47.63       128.136     2.397       22.526      1.551       125.8       38.375      2.418       2040.909    2118.909    2185.604    6.458       
36.5        46.199      126.019     2.317       21.687      1.498       124.837     33.705      2.418       2046.621    2122.652    2187.333    6.958       
36.6        25.146      125.183     2.228       20.713      1.375       124.151     32.379      2.417       2048.357    2122.631    2185.516    7.266       
36.7        16.731      125.153     2.188       19.563      1.292       123.736     32.994      2.418       2044.914    2121.986    2187.685    7.08        
36.8        17.323      125.448     2.191       18.72       1.191       123.526     33.448      2.418       2041.152    2121.982    2191.479    6.845       
36.9        22.813      125.579     2.189       17.998      1.172       123.431     32.89       2.419       2035.2      2120.663    2194.88     6.801       
37.0        24.955      125.359     2.248       17.358      1.202       123.421     31.27       2.417       2028.738    2117.444    2194.983    6.624       
37.1        25.569      125.144     2.281       17.016      1.251       123.514     29.826      2.417       2026.024    2115.76     2194.354    6.441       
37.2        23.092      126.164     2.362       16.692      1.247       123.701     28.523      2.419       2025.007    2117.191    2198.277    6.743       
