~Version Information Section
VERS.                                         2.0:CWLS log ASCII Standart – VERSION 2.0
WRAP.                                          NO:One line per depth step
~Well Information Section
STRT.M                                        0.6:Начальная глубина
STOP.M                                      202.6:Конечная глубина
STEP.M                                          0:Шаг квантования по глубине
NULL.                                    -9999.25:Признак "Нет данных"
WELL.                                       130Мх:Скважина
~Parameter Information Section
~Curve Information Section
DEPTH.M                                          :Глубина
БК.Омм                                           :BK     (БК)
DСР.мм                                           :DS  (ДС)
W.g/cm3                                          :GGKp
ГК.гамма                                         :GK          (ГК)
А0.4М0.1N.Омм.ohmm                               :GZ1   ГЗ1(A0.4M0.1N)
А1.0М0.1N.Омм.ohmm                               :GZ2   ГЗ2(A1.0M0.1N)
А2.0М0.5N.Омм.ohmm                               :GZ3   ГЗ3(A2.0M0.5N)
А4.0М0.5N.Oмм.ohmm                               :GZ4   ГЗ4(A4.0M0.5N)
А8.0М1.0N.Омм.ohmm                               :GZ5   ГЗ5(A8.0M0.5N)
N0.5M2.0A.Омм.ohmm                               :GZK   ГЗK(N0.5M2.0A)
ИК.мСм/м                                         :IK
НГК.усл.ед                                       :NNKb  (ННКб)
ННКМ.усл.ед                                      :NNKm  (ННКм)
ПС.мВ                                            :PS       (ПС)
КС.Омм                                           :PZ    (КС)
R.Омм                                            :RS (Резистивиметр)
U1.мВ                                            :U1
U2.mV                                            :U2
U3.мВ                                            :U3
КП.%                                             :Кп
~ASCII LOG DATA
# ...
183.0       74.767      127.912     2.204       3.407       136.24      105.348     106.345     60.982      59.851      94.985      51.167      3.083       1.959       149.418     187.536     1.1         1839.637    1883.637    1727.637    28.243      
183.1       76.717      128.215     2.199       3.526       134.586     105.091     106.345     60.982      59.851      100.427     51.467      3.116       1.955       150.186     187.536     1.1         1843.638    1943.641    1755.64     28.195      
183.2       76.741      127.267     2.188       3.617       134.586     105.091     106.71      61.183      59.851      107.424     52.108      3.15        1.949       150.917     188.176     1.1         1839.64     2003.632    1783.634    27.867      
183.3       79.82       126.982     2.181       3.648       134.586     105.091     108.782     62.511      61.294      115.594     52.854      3.069       1.94        151.638     189.896     1.1         1811.638    2063.638    1819.638    27.165      
183.4       81.046      127.019     2.177       3.616       135.48      106.154     113.369     65.523      63.276      124.028     53.53       2.982       1.93        152.373     193.096     1.1         1811.638    2115.638    1871.638    26.87       
183.5       87.0        127.169     2.173       3.456       139.172     109.378     119.257     69.796      65.93       130.945     54.345      2.985       1.922       153.13      198.12      1.1         1811.638    2119.639    1867.638    27.231      
183.6       121.745     127.067     2.173       3.265       146.789     114.337     125.256     74.757      68.895      135.266     55.368      3.011       1.928       153.905     204.528     1.1         1807.638    2095.637    1863.638    28.531      
183.7       185.704     126.982     2.171       3.209       157.974     120.064     130.971     79.736      72.305      137.443     56.332      3.087       1.956       154.689     211.784     1.1         1803.639    2079.639    1863.638    29.813      
183.8       190.963     126.926     2.16        3.16        171.759     125.462     135.825     84.242      75.96       138.16      56.961      3.124       1.988       155.462     219.288     1.1         1795.638    2067.638    1863.638    30.17       
183.9       185.132     126.985     2.148       3.271       185.305     129.783     139.45      87.955      79.455      138.254     57.078      3.079       2.019       156.201     226.304     1.1         1767.636    2055.638    1839.637    29.819      
184.0       179.249     127.381     2.139       3.391       195.97      133.213     142.017     90.782      82.5        138.067     57.225      3.06        2.024       156.888     232.056     1.1         1775.638    2031.639    1819.638    26.59       
184.1       163.118     127.239     2.135       3.364       203.56      136.137     143.795     92.848      84.628      137.06      57.074      3.058       2.006       157.511     236.696     1.1         1791.639    2003.637    1807.638    23.903      
184.2       127.573     127.199     2.138       3.302       208.264     139.005     144.517     94.111      85.628      135.637     57.045      3.047       1.971       158.067     240.36      1.1         1807.636    1975.641    1827.637    20.385      
184.3       128.863     127.016     2.152       3.162       210.601     141.572     144.533     94.521      85.827      134.283     56.825      3.021       1.933       158.542     243.16      1.1         1815.638    1935.638    1831.638    19.336      
184.4       128.72      127.145     2.171       3.371       211.611     142.617     144.533     94.521      85.827      132.349     56.715      2.977       1.931       158.842     245.24      1.1         1815.636    1903.637    1835.639    18.317      
184.5       130.775     126.879     2.196       3.633       211.939     142.617     144.053     94.283      85.827      129.606     56.5        2.886       1.948       158.862     246.608     1.1         1787.639    1911.638    1839.638    17.638      
184.6       133.794     126.795     2.224       3.607       211.939     142.585     142.81      93.285      85.7        126.585     56.016      2.989       1.954       158.862     247.104     1.1         1783.638    1923.639    1855.637    16.296      
184.7       130.115     127.133     2.251       3.298       211.024     141.483     141.081     91.744      85.168      124.112     55.571      3.32        1.955       158.862     247.104     1.1         1787.636    1931.636    1835.638    15.304      
184.8       127.1       127.191     2.276       3.004       208.618     139.975     139.399     90.416      84.609      122.267     54.777      3.463       2.075       158.492     246.704     1.1         1811.638    1939.638    1819.638    14.997      
184.9       118.757     127.341     2.295       2.944       207.372     139.39      138.297     89.664      83.774      120.857     53.605      3.815       2.196       157.614     245.544     1.1         1843.64     1943.636    1795.636    14.749      
185.0       106.021     127.413     2.307       3.044       207.721     138.747     137.579     89.258      82.525      120.013     53.022      3.952       2.188       156.154     243.832     1.1         1879.637    1915.639    1771.639    13.743      
185.1       96.726      127.382     2.313       3.142       207.741     137.454     136.883     88.464      80.748      119.446     52.598      4.191       2.185       154.167     242.008     1.1         1879.638    1891.637    1731.637    12.138      
185.2       98.743      127.486     2.32        3.189       206.748     135.509     136.186     87.295      78.355      118.816     52.438      4.343       2.219       151.766     240.448     1.1         1863.64     1875.639    1695.64     10.914      
185.3       130.477     127.672     2.327       3.244       203.645     133.184     135.239     86.08       75.033      118.483     52.222      4.62        2.264       149.087     239.32      1.1         1835.638    1863.638    1667.638    10.228      
185.4       169.86      127.527     2.341       3.091       199.143     131.048     133.202     84.526      71.093      118.503     52.1        4.755       2.36        146.302     238.92      1.1         1807.635    1855.638    1651.637    9.943       
185.5       121.307     127.693     2.362       3.029       194.928     128.781     128.907     82.237      66.825      118.258     51.867      4.892       2.432       143.551     238.92      1.1         1795.638    1887.637    1635.638    9.332       
185.6       101.527     127.424     2.38        2.933       191.577     125.49      122.081     78.65       62.613      117.48      51.356      4.943       2.409       140.911     238.92      1.1         1787.638    1895.639    1647.638    8.639       
185.7       93.485      127.392     2.391       3.14        187.047     119.997     113.316     73.378      58.972      116.372     51.01       5.078       2.424       138.4       238.92      1.1         1787.637    1899.637    1659.636    6.644       
185.8       86.057      127.298     2.395       3.369       179.105     111.582     103.594     67.196      56.382      115.244     50.723      5.412       2.482       136.009     238.92      1.1         1791.638    1927.638    1671.638    5.231       
185.9       80.484      126.966     2.391       3.471       169.052     102.778     94.914      62.004      54.959      114.223     50.452      5.701       2.537       133.682     239.616     1.1         1779.636    1947.638    1687.639    3.292       
186.0       75.347      126.929     2.381       3.5         160.429     96.423      89.424      59.036      54.701      113.422     50.282      5.868       2.587       131.37      241.72      1.1         1743.639    1927.638    1695.638    2.882       
186.1       72.633      127.026     2.378       3.504       156.185     93.43       87.706      58.142      54.701      112.644     50.418      6.051       2.614       129.054     245.456     1.1         1711.637    1931.638    1679.637    2.941       
