~Version Information Section
VERS.                                         2.0:CWLS log ASCII Standart – VERSION 2.0
WRAP.                                          NO:One line per depth step
~Well Information Section
STRT.M                                        0.4:Начальная глубина
STOP.M                                      170.2:Конечная глубина
STEP.M                                          0:Шаг квантования по глубине
NULL.                                    -9999.25:Признак "Нет данных"
WELL.                                       121Мх:Скважина
~Parameter Information Section
~Curve Information Section
DEPTH.M                                          :Глубина
BK.Ohm*M                                         :BK     (БК)
DS.mm                                            :DS  (ДС)
GGK.g/cm3                                        :GGKp
ГК.mcr/h                                         :GK          (ГК)
GZ1.Ohm*M                                        :GZ1   ГЗ1(A0.4M0.1N)
GZ2.Ohm*M                                        :GZ2   ГЗ2(A1.0M0.1N)
GZ3.Ohm*M                                        :GZ3   ГЗ3(A2.0M0.5N)
GZ4.Ohm*M                                        :GZ4   ГЗ4(A4.0M0.5N)
GZ5.Ohm*M                                        :GZ5   ГЗ5(A8.0M0.5N)
GZR.Ohm*M                                        :GZK   ГЗK(N0.5M2.0A)
ИК.Ohm*M                                         :IK
НГК.u.e.                                         :NGK
NNKM.                                            :NNKm  (ННКм)
PS.mv                                            :PS       (ПС)
PZ.Ohm*M                                         :PZ    (КС)
RS.Ohm*M                                         :RS (Резистивиметр)
U1.mV                                            :U1
U2.mV                                            :U2
U3.mV                                            :U3
КП.%                                             :Кп
~ASCII LOG DATA
# ...
32.4        63.096      137.803     2.227       6.367       -9999.25    -9999.25    -9999.25    -9999.25    -9999.25    -9999.25    9.492       5.142       4.775       431.915     45.438      1.06        -9999.25    -9999.25    -9999.25    -3.784      
32.6        91.201      138.707     2.263       6.411       -9999.25    -9999.25    -9999.25    -9999.25    -9999.25    -9999.25    9.382       5.232       4.741       433.723     46.246      1.06        -9999.25    -9999.25    -9999.25    -3.561      
32.8        109.648     139.384     2.298       6.267       -9999.25    -9999.25    -9999.25    -9999.25    -9999.25    -9999.25    9.28        5.396       4.635       436.054     47.048      1.06        -9999.25    -9999.25    -9999.25    -3.397      
33.0        83.176      140.851     2.292       6.16        -9999.25    -9999.25    -9999.25    -9999.25    -9999.25    -9999.25    9.254       5.604       4.72        439.114     47.718      1.06        -9999.25    -9999.25    -9999.25    -4.132      
33.2        63.096      139.004     2.273       5.064       -9999.25    -9999.25    -9999.25    -9999.25    -9999.25    -9999.25    9.276       5.747       4.854       442.869     48.173      1.06        -9999.25    -9999.25    -9999.25    -4.151      
33.4        63.096      138.735     2.287       4.551       -9999.25    -9999.25    -9999.25    -9999.25    -9999.25    -9999.25    9.315       5.857       4.921       447.112     48.4        1.06        -9999.25    -9999.25    -9999.25    -3.952      
33.6        158.489     137.648     2.214       4.119       -9999.25    -9999.25    -9999.25    -9999.25    -9999.25    -9999.25    9.367       5.913       5.008       451.602     48.471      1.06        -9999.25    154.564     -9999.25    -4.446      
33.8        751.623     137.174     2.181       4.164       32.8        10.4        12.8        32.0        45.6        35.2        9.425       5.794       5.212       456.047     48.481      1.06        170.894     145.857     -9999.25    -4.794      
34.0        49.659      136.684     2.352       4.04        33.6        10.4        12.8        32.0        46.4        36.0        9.546       5.951       5.053       460.167     48.513      1.06        174.061     140.445     -9999.25    -5.27       
34.2        417.83      137.703     2.393       4.645       33.6        11.2        12.8        32.0        46.4        37.6        9.589       3.305       4.942       463.735     48.661      1.06        169.221     135.5       132.371     -3.579      
34.4        727.78      141.232     2.377       5.32        34.4        11.2        12.8        32.0        46.4        37.6        9.279       1.328       4.673       466.691     49.016      1.06        157.166     133.383     117.1       18.352      
34.6        43.551      137.487     2.351       5.53        35.2        12.8        12.0        32.0        46.4        38.4        9.13        1.039       3.203       469.059     49.592      1.06        150.386     127.178     111.829     40.48       
34.8        18.75       137.966     2.322       4.956       36.0        13.6        11.2        29.831      46.4        38.4        9.237       1.028       1.978       470.915     50.286      1.06        153.213     125.512     116.454     40.515      
35.0        14.894      140.847     2.31        5.037       36.8        15.149      9.6         29.469      46.4        39.2        9.394       1.046       1.967       472.462     50.986      1.06        140.362     125.55      118.476     43.112      
35.2        15.417      139.314     2.321       4.48        38.4        16.6        12.897      30.627      46.757      40.0        9.649       1.188       1.937       474.077     51.779      1.06        113.19      127.903     110.271     40.602      
35.4        40.551      136.42      2.363       3.835       41.135      16.437      15.787      32.209      48.511      42.4        10.096      1.299       2.154       475.991     52.953      1.06        110.777     131.129     123.626     35.011      
35.6        356.451     136.288     2.419       4.064       41.754      16.098      18.171      32.951      49.271      41.798      10.603      1.239       2.276       478.377     54.633      1.06        130.42      136.97      157.398     35.568      
35.8        304.089     136.565     2.426       4.273       41.315      16.925      19.641      32.524      50.15       42.65       10.875      1.266       2.262       481.216     56.514      1.06        143.881     143.687     157.876     35.056      
36.0        48.529      136.76      2.413       4.227       40.764      19.336      21.156      31.807      50.234      44.502      10.918      1.228       2.308       484.288     58.106      1.06        149.447     151.708     138.607     31.319      
36.2        35.156      138.51      2.372       4.392       41.709      22.844      22.864      30.978      44.8        46.741      10.899      1.099       2.267       487.488     59.168      1.06        154.747     162.174     136.286     33.574      
36.4        29.174      137.18      2.351       4.178       45.08       26.611      23.962      30.253      45.6        49.16       10.925      1.12        2.08        490.96      59.728      1.06        156.433     172.02      145.976     38.234      
36.6        28.054      136.743     2.38        4.0         49.818      29.84       25.029      30.376      45.6        50.287      11.287      1.065       2.025       494.592     59.953      1.06        149.504     174.825     158.745     40.674      
36.8        50.582      134.776     2.333       4.461       54.7        32.29       26.423      31.654      47.2        49.734      11.764      1.112       2.098       497.888     60.045      1.06        146.155     171.438     179.512     41.233      
37.0        296.483     134.294     2.353       4.151       58.583      33.485      27.462      33.718      48.8        47.972      12.073      1.137       2.169       500.496     60.174      1.06        154.021     164.126     207.931     41.484      
37.2        373.25      134.399     2.335       3.777       59.697      33.988      27.799      36.107      48.8        45.756      12.228      1.131       2.139       502.72      60.492      1.06        167.199     153.892     208.864     40.84       
37.4        363.915     134.859     2.326       4.247       57.594      33.809      27.332      38.352      49.6        44.611      12.328      1.171       2.139       505.232     61.121      1.06        184.749     150.294     189.439     40.539      
37.6        359.749     135.057     2.335       4.274       54.459      33.11       26.33       40.754      50.4        45.56       12.308      1.177       2.126       508.224     61.989      1.06        202.506     154.635     152.493     38.093      
37.8        53.827      135.158     2.313       4.127       53.6        33.359      26.016      43.674      50.4        49.195      12.315      1.171       2.082       511.472     62.773      1.06        185.471     151.831     125.599     38.951      
38.0        42.462      135.249     2.273       4.606       53.6        35.186      27.308      46.888      50.4        54.46       12.308      1.154       2.055       514.832     63.13       1.06        153.055     146.22      115.472     38.942      
38.2        37.411      135.899     2.258       4.394       53.6        38.831      29.714      50.057      50.4        59.024      12.398      1.105       2.063       518.368     63.155      1.06        145.204     151.495     138.912     38.35       
38.4        44.978      135.837     2.366       3.871       53.6        43.177      32.785      52.838      50.4        60.953      12.714      1.155       2.051       522.064     63.009      1.06        151.34      145.36      157.657     42.282      
38.6        54.45       136.11      2.404       3.718       53.6        47.595      35.566      54.712      49.6        59.89       13.124      1.254       2.03        525.68      62.55       1.06        147.003     139.864     155.934     41.225      
