~Version Information Section
VERS.                                         2.0:CWLS log ASCII Standart – VERSION 2.0
WRAP.                                          NO:One line per depth step
~Well Information Section
STRT.M                                        0.0:Начальная глубина
STOP.M                                      208.6:Конечная глубина
STEP.M                                          0:Шаг квантования по глубине
NULL.                                    -9999.25:Признак "Нет данных"
WELL.                                       140Мх:Скважина
~Parameter Information Section
~Curve Information Section
DEPTH.M                                          :Глубина
GZ1.ohmm                                         :Подошвенный градиент-зонд А0.4М0.1N
GZ2.ohmm                                         :Подошвенный градиент-зонд А1.0М0.1N
GZ3.ohmm                                         :Подошвенный градиент-зонд А2.0М0.5N
GZ5.ohmm                                         :Подошвенный градиент-зонд А8.0М1.0N
GZ3R.GZ3R                                        :GZ3R
GZ4.ohmm                                         :Подошвенный градиент-зонд А4.0М0.5N
GGK.g/cc                                         :Плотностной гамма-гамма каротаж
ГК.ur/h                                          :Гамма каротаж
ИК.ohmm                                          :Индукционный каротаж (сопротивление),
BK.ohmm                                          :Боковой каротаж
NKTS.ue                                          :Нейтронный каротаж по тепловым нейтронам (малый зонд)
WNK.De                                           :Водородосодержание по НК
НГК.ue                                           :Нейтронный каротаж по тепловым нейтронам (большой зонд)
PZ.ohmm                                          :Потенциал-зонд ИММ 0,5А; В4 0,25М
-.                                               :-      SP mv)
DS1.m                                            :Профиль 1 сечения ствола скважины по профилеметрии
DS.m                                             :Кавернометрия
DS2.m                                            :Профиль 2 сечения ствола скважины по профилеметрии
~ASCII LOG DATA
# ...
121.0       -9999.25    -9999.25    -9999.25    -9999.25    -9999.25    -9999.25    2.259       9.104       12.372      20.038      1.332       38.753      1.8         43.998      3725.941    0.156       0.153       0.15        
121.1       67.79       89.918      44.385      14.441      28.627      17.563      -9999.25    -9999.25    -9999.25    -9999.25    -9999.25    -9999.25    -9999.25    -9999.25    -9999.25    -9999.25    -9999.25    -9999.25    
121.2       -9999.25    -9999.25    -9999.25    -9999.25    -9999.25    -9999.25    2.329       9.809       12.213      20.322      1.431       39.556      2.014       41.56       3701.252    0.155       0.152       0.148       
121.3       67.386      72.872      45.916      12.415      27.681      15.315      -9999.25    -9999.25    -9999.25    -9999.25    -9999.25    -9999.25    -9999.25    -9999.25    -9999.25    -9999.25    -9999.25    -9999.25    
121.4       -9999.25    -9999.25    -9999.25    -9999.25    -9999.25    -9999.25    2.407       9.674       12.535      15.625      1.478       36.583      2.239       39.548      3651.918    0.155       0.151       0.148       
121.5       38.942      38.837      32.96       11.564      29.908      10.6        -9999.25    -9999.25    -9999.25    -9999.25    -9999.25    -9999.25    -9999.25    -9999.25    -9999.25    -9999.25    -9999.25    -9999.25    
121.6       -9999.25    -9999.25    -9999.25    -9999.25    -9999.25    -9999.25    2.461       8.489       13.384      29.914      1.669       38.524      2.556       42.185      3624.856    0.156       0.153       0.15        
121.7       38.809      35.774      27.898      11.522      47.02       7.994       -9999.25    -9999.25    -9999.25    -9999.25    -9999.25    -9999.25    -9999.25    -9999.25    -9999.25    -9999.25    -9999.25    -9999.25    
121.8       -9999.25    -9999.25    -9999.25    -9999.25    -9999.25    -9999.25    2.531       6.273       14.824      33.862      1.921       36.04       3.234       48.769      3598.296    0.156       0.153       0.15        
121.9       21.34       19.808      27.888      21.983      89.797      6.534       -9999.25    -9999.25    -9999.25    -9999.25    -9999.25    -9999.25    -9999.25    -9999.25    -9999.25    -9999.25    -9999.25    -9999.25    
122.0       -9999.25    -9999.25    -9999.25    -9999.25    -9999.25    -9999.25    2.565       4.377       16.332      103.221     2.276       31.219      4.05        69.977      3613.989    0.154       0.151       0.148       
122.1       25.921      21.743      32.471      33.4        215.247     8.246       -9999.25    -9999.25    -9999.25    -9999.25    -9999.25    -9999.25    -9999.25    -9999.25    -9999.25    -9999.25    -9999.25    -9999.25    
122.2       -9999.25    -9999.25    -9999.25    -9999.25    -9999.25    -9999.25    2.523       3.775       17.755      347.134     2.269       24.036      4.073       105.719     3637.72     0.153       0.15        0.147       
122.3       25.339      24.9        57.875      41.669      381.323     16.022      -9999.25    -9999.25    -9999.25    -9999.25    -9999.25    -9999.25    -9999.25    -9999.25    -9999.25    -9999.25    -9999.25    -9999.25    
122.4       -9999.25    -9999.25    -9999.25    -9999.25    -9999.25    -9999.25    2.502       3.405       18.73       282.495     2.224       26.825      3.799       157.479     3664.626    0.153       0.15        0.148       
122.5       47.341      40.52       78.911      47.134      399.494     20.431      -9999.25    -9999.25    -9999.25    -9999.25    -9999.25    -9999.25    -9999.25    -9999.25    -9999.25    -9999.25    -9999.25    -9999.25    
122.6       -9999.25    -9999.25    -9999.25    -9999.25    -9999.25    -9999.25    2.506       2.915       19.157      264.029     2.174       25.794      4.034       187.204     3676.285    0.153       0.15        0.147       
122.7       73.415      40.188      83.538      48.407      307.246     25.976      -9999.25    -9999.25    -9999.25    -9999.25    -9999.25    -9999.25    -9999.25    -9999.25    -9999.25    -9999.25    -9999.25    -9999.25    
122.8       -9999.25    -9999.25    -9999.25    -9999.25    -9999.25    -9999.25    2.5         3.51        19.558      260.703     2.166       24.021      3.946       193.494     3679.323    0.153       0.151       0.148       
122.9       112.422     43.645      71.399      43.156      208.594     26.897      -9999.25    -9999.25    -9999.25    -9999.25    -9999.25    -9999.25    -9999.25    -9999.25    -9999.25    -9999.25    -9999.25    -9999.25    
123.0       -9999.25    -9999.25    -9999.25    -9999.25    -9999.25    -9999.25    2.471       3.616       19.843      239.255     2.147       26.817      3.587       197.718     3682.671    0.154       0.151       0.148       
123.1       123.059     67.701      62.585      37.003      145.708     29.1        -9999.25    -9999.25    -9999.25    -9999.25    -9999.25    -9999.25    -9999.25    -9999.25    -9999.25    -9999.25    -9999.25    -9999.25    
123.2       -9999.25    -9999.25    -9999.25    -9999.25    -9999.25    -9999.25    2.437       3.231       19.821      240.563     2.135       28.364      3.731       200.733     3682.864    0.153       0.151       0.148       
123.3       125.06      110.905     58.524      35.997      110.139     30.833      -9999.25    -9999.25    -9999.25    -9999.25    -9999.25    -9999.25    -9999.25    -9999.25    -9999.25    -9999.25    -9999.25    -9999.25    
123.4       -9999.25    -9999.25    -9999.25    -9999.25    -9999.25    -9999.25    2.448       4.046       19.865      219.303     2.153       24.256      4.2         228.364     3679.281    0.153       0.15        0.147       
123.5       125.213     185.866     58.375      36.358      95.628      36.637      -9999.25    -9999.25    -9999.25    -9999.25    -9999.25    -9999.25    -9999.25    -9999.25    -9999.25    -9999.25    -9999.25    -9999.25    
123.6       -9999.25    -9999.25    -9999.25    -9999.25    -9999.25    -9999.25    2.467       4.499       19.843      223.053     2.142       22.381      4.034       224.555     3671.743    0.153       0.15        0.147       
123.7       127.46      223.55      57.252      39.358      94.609      47.467      -9999.25    -9999.25    -9999.25    -9999.25    -9999.25    -9999.25    -9999.25    -9999.25    -9999.25    -9999.25    -9999.25    -9999.25    
123.8       -9999.25    -9999.25    -9999.25    -9999.25    -9999.25    -9999.25    2.468       5.275       19.623      195.637     2.126       24.798      3.93        211.19      3660.625    0.154       0.151       0.147       
123.9       150.392     239.572     59.753      46.643      101.734     64.919      -9999.25    -9999.25    -9999.25    -9999.25    -9999.25    -9999.25    -9999.25    -9999.25    -9999.25    -9999.25    -9999.25    -9999.25    
124.0       -9999.25    -9999.25    -9999.25    -9999.25    -9999.25    -9999.25    2.465       5.014       19.323      117.093     2.167       23.693      4.247       217.733     3649.275    0.154       0.151       0.147       
124.1       144.528     233.508     66.914      63.623      117.523     83.286      -9999.25    -9999.25    -9999.25    -9999.25    -9999.25    -9999.25    -9999.25    -9999.25    -9999.25    -9999.25    -9999.25    -9999.25    
124.2       -9999.25    -9999.25    -9999.25    -9999.25    -9999.25    -9999.25    2.472       3.344       19.218      494.177     2.219       22.325      4.549       221.853     3641.066    0.155       0.152       0.15        
124.3       134.245     229.611     99.216      92.356      173.931     123.644     -9999.25    -9999.25    -9999.25    -9999.25    -9999.25    -9999.25    -9999.25    -9999.25    -9999.25    -9999.25    -9999.25    -9999.25    
124.4       -9999.25    -9999.25    -9999.25    -9999.25    -9999.25    -9999.25    2.566       3.012       19.198      831.195     2.395       22.574      4.762       206.242     3637.366    0.155       0.152       0.149       
