~Version Information Section
VERS.                                         2.0:CWLS log ASCII Standart – VERSION 2.0
WRAP.                                          NO:One line per depth step
~Well Information Section
STRT.M                                        1.0:Начальная глубина
STOP.M                                      208.3:Конечная глубина
STEP.M                                          0:Шаг квантования по глубине
NULL.                                    -9999.25:Признак "Нет данных"
WELL.                                       131Мх:Скважина
~Parameter Information Section
~Curve Information Section
DEPTH.M                                          :Глубина
БК.Омм                                           :BK     (БК)
DСР.мм                                           :DS  (ДС)
ГК.гамма                                         :GK          (ГК)
А0.4М0.1N.Омм.ohmm                               :GZ1   ГЗ1(A0.4M0.1N)
А1.0М0.1N.Омм.ohmm                               :GZ2   ГЗ2(A1.0M0.1N)
А2.0М0.5N.Омм.ohmm                               :GZ3   ГЗ3(A2.0M0.5N)
А4.0М0.5N.Oмм.ohmm                               :GZ4   ГЗ4(A4.0M0.5N)
А8.0М1.0N.Омм.ohmm                               :GZ5   ГЗ5(A8.0M0.5N)
N0.5M2.0A.Омм.ohmm                               :GZK   ГЗK(N0.5M2.0A)
ИК.мСм/м                                         :IK
НГК.усл.ед                                       :NGK     (НГК)
ПС.mv                                            :PS       (ПС)
П.%                                              :п
PZ.Омм                                           :PZ    (КС)
R.Омм                                            :RS (Резистивиметр)
U1.мВ                                            :U1
U2.mV                                            :U2
U3.мВ                                            :U3
W.г/см3                                          :ГГКп
~ASCII LOG DATA
# ...
38.8        30.883      137.391     4.781       -9999.25    -9999.25    -9999.25    -9999.25    -9999.25    -9999.25    15.286      1.143       176.007     27.515      41.007      1.12        1791.762    1673.248    1574.218    2.376       
38.85       -9999.25    -9999.25    -9999.25    28.462      39.004      49.988      59.873      103.78      87.468      -9999.25    -9999.25    -9999.25    -9999.25    -9999.25    -9999.25    -9999.25    -9999.25    -9999.25    -9999.25    
38.9        33.803      137.121     4.593       -9999.25    -9999.25    -9999.25    -9999.25    -9999.25    -9999.25    15.379      1.2         170.762     23.51       41.172      1.12        1917.791    1724.546    1574.218    2.354       
38.95       -9999.25    -9999.25    -9999.25    35.223      40.014      58.003      65.189      126.402     89.743      -9999.25    -9999.25    -9999.25    -9999.25    -9999.25    -9999.25    -9999.25    -9999.25    -9999.25    -9999.25    
39.0        46.198      137.013     4.421       -9999.25    -9999.25    -9999.25    -9999.25    -9999.25    -9999.25    15.53       1.302       164.304     19.429      41.31       1.12        1833.428    1702.898    1580.555    2.356       
39.05       -9999.25    -9999.25    -9999.25    41.862      40.014      59.828      65.189      139.155     89.743      -9999.25    -9999.25    -9999.25    -9999.25    -9999.25    -9999.25    -9999.25    -9999.25    -9999.25    -9999.25    
39.1        90.139      136.947     4.092       -9999.25    -9999.25    -9999.25    -9999.25    -9999.25    -9999.25    15.833      1.489       156.644     15.226      41.485      1.12        1780.651    1692.09     1605.31     2.363       
39.15       -9999.25    -9999.25    -9999.25    46.888      40.014      59.828      65.189      142.361     89.743      -9999.25    -9999.25    -9999.25    -9999.25    -9999.25    -9999.25    -9999.25    -9999.25    -9999.25    -9999.25    
39.2        126.477     136.878     3.559       -9999.25    -9999.25    -9999.25    -9999.25    -9999.25    -9999.25    16.376      1.723       147.873     11.766      41.692      1.12        1735.27     1685.917    1630.585    2.404       
39.25       -9999.25    -9999.25    -9999.25    47.258      37.545      59.828      63.166      142.361     82.812      -9999.25    -9999.25    -9999.25    -9999.25    -9999.25    -9999.25    -9999.25    -9999.25    -9999.25    -9999.25    
39.3        241.075     135.827     2.882       -9999.25    -9999.25    -9999.25    -9999.25    -9999.25    -9999.25    17.095      2.013       138.297     8.309       41.976      1.12        1651.812    1663.657    1662.597    2.467       
39.35       -9999.25    -9999.25    -9999.25    47.258      31.623      54.588      53.962      138.234     69.404      -9999.25    -9999.25    -9999.25    -9999.25    -9999.25    -9999.25    -9999.25    -9999.25    -9999.25    -9999.25    
39.4        1103.271    135.577     2.335       -9999.25    -9999.25    -9999.25    -9999.25    -9999.25    -9999.25    17.951      2.329       128.23      7.453       42.357      1.12        1651.812    1663.657    1691.336    2.524       
39.45       -9999.25    -9999.25    -9999.25    47.258      25.337      43.612      40.166      124.106     53.382      -9999.25    -9999.25    -9999.25    -9999.25    -9999.25    -9999.25    -9999.25    -9999.25    -9999.25    -9999.25    
39.5        1870.13     135.475     1.775       -9999.25    -9999.25    -9999.25    -9999.25    -9999.25    -9999.25    18.848      2.555       117.84      7.699       42.809      1.12        1673.042    1668.632    1634.132    2.603       
39.55       -9999.25    -9999.25    -9999.25    43.368      20.933      30.388      26.534      100.377     40.124      -9999.25    -9999.25    -9999.25    -9999.25    -9999.25    -9999.25    -9999.25    -9999.25    -9999.25    -9999.25    
39.6        1296.154    134.989     1.525       -9999.25    -9999.25    -9999.25    -9999.25    -9999.25    -9999.25    19.542      2.721       107.281     9.284       43.487      1.12        1798.959    1686.486    1587.739    2.647       
39.65       -9999.25    -9999.25    -9999.25    38.051      18.363      19.124      15.732      73.003      31.478      -9999.25    -9999.25    -9999.25    -9999.25    -9999.25    -9999.25    -9999.25    -9999.25    -9999.25    -9999.25    
39.7        422.208     134.956     1.509       -9999.25    -9999.25    -9999.25    -9999.25    -9999.25    -9999.25    19.918      2.712       96.669      11.243      44.51       1.12        1772.46     1663.866    1583.969    2.686       
39.75       -9999.25    -9999.25    -9999.25    32.451      18.054      11.181      9.031       48.602      26.454      -9999.25    -9999.25    -9999.25    -9999.25    -9999.25    -9999.25    -9999.25    -9999.25    -9999.25    -9999.25    
39.8        95.276      134.941     1.771       -9999.25    -9999.25    -9999.25    -9999.25    -9999.25    -9999.25    19.911      2.545       85.969      14.886      45.773      1.12        1772.46     1663.866    1583.969    2.726       
39.85       -9999.25    -9999.25    -9999.25    27.918      18.054      6.828       5.603       30.54       23.85       -9999.25    -9999.25    -9999.25    -9999.25    -9999.25    -9999.25    -9999.25    -9999.25    -9999.25    -9999.25    
39.9        47.581      135.111     2.163       -9999.25    -9999.25    -9999.25    -9999.25    -9999.25    -9999.25    19.469      2.241       75.2        18.839      47.268      1.12        1774.615    1661.804    1577.798    2.682       
39.95       -9999.25    -9999.25    -9999.25    26.886      18.054      4.884       4.133       18.706      22.711      -9999.25    -9999.25    -9999.25    -9999.25    -9999.25    -9999.25    -9999.25    -9999.25    -9999.25    -9999.25    
40.0        41.408      135.652     2.648       -9999.25    -9999.25    -9999.25    -9999.25    -9999.25    -9999.25    18.781      1.927       64.656      24.179      48.955      1.12        1776.204    1610.626    1481.328    2.628       
40.05       -9999.25    -9999.25    -9999.25    26.886      18.054      4.109       3.51        11.732      22.058      -9999.25    -9999.25    -9999.25    -9999.25    -9999.25    -9999.25    -9999.25    -9999.25    -9999.25    -9999.25    
40.1        38.133      136.403     3.035       -9999.25    -9999.25    -9999.25    -9999.25    -9999.25    -9999.25    18.132      1.625       54.804      28.229      50.63       1.12        1777.229    1603.021    1457.614    2.571       
40.15       -9999.25    -9999.25    -9999.25    26.886      19.302      3.737       3.109       8.23        21.653      -9999.25    -9999.25    -9999.25    -9999.25    -9999.25    -9999.25    -9999.25    -9999.25    -9999.25    -9999.25    
40.2        33.681      136.319     3.388       -9999.25    -9999.25    -9999.25    -9999.25    -9999.25    -9999.25    17.646      1.422       46.188      30.691      52.089      1.12        1787.887    1603.021    1457.614    2.513       
40.25       -9999.25    -9999.25    -9999.25    26.886      20.563      3.515       2.795       6.739       21.498      -9999.25    -9999.25    -9999.25    -9999.25    -9999.25    -9999.25    -9999.25    -9999.25    -9999.25    -9999.25    
40.3        26.563      136.731     3.663       -9999.25    -9999.25    -9999.25    -9999.25    -9999.25    -9999.25    17.328      1.262       39.356      31.983      53.318      1.12        1808.177    1638.99     1506.656    2.485       
40.35       -9999.25    -9999.25    -9999.25    27.495      21.668      3.515       2.597       6.069       21.443      -9999.25    -9999.25    -9999.25    -9999.25    -9999.25    -9999.25    -9999.25    -9999.25    -9999.25    -9999.25    
40.4        21.78       136.383     3.792       -9999.25    -9999.25    -9999.25    -9999.25    -9999.25    -9999.25    17.201      1.187       34.661      32.517      54.29       1.12        1907.177    1758.925    1645.221    2.477       
40.45       -9999.25    -9999.25    -9999.25    28.972      22.668      3.515       2.479       5.698       21.383      -9999.25    -9999.25    -9999.25    -9999.25    -9999.25    -9999.25    -9999.25    -9999.25    -9999.25    -9999.25    
