~Version Information Section
VERS.                                         2.0:CWLS log ASCII Standart – VERSION 2.0
WRAP.                                          NO:One line per depth step
~Well Information Section
STRT.M                                        0.4:Начальная глубина
STOP.M                                      203.0:Конечная глубина
STEP.M                                          0:Шаг квантования по глубине
NULL.                                    -9999.25:Признак "Нет данных"
WELL.                                       128Мх:Скважина
~Parameter Information Section
~Curve Information Section
DEPTH.M                                          :Глубина
BK.Ohm*M                                         :BK     (БК)
DS.mm                                            :DS  (ДС)
GGK.g/cm3                                        :GGKp
ГК.mcr/h                                         :GK          (ГК)
ИК.Ohm*M                                         :IK
НГК.mcR/H                                        :NGK
NNKM.                                            :NNKm  (ННКм)
PS.mv                                            :PS       (ПС)
PZ.Ohm*M                                         :PZ    (КС)
RS.Ohm*M                                         :RS (Резистивиметр)
U1.mV                                            :U1
U2.mV                                            :U2
U3.mV                                            :U3
W.%                                              :W
~ASCII LOG DATA
# ...
153.4       55.081      131.804     2.231       6.667       20.835      1.184       2.118       433.023     71.837      1.1         264.0       328.0       166.313     36.425      
153.6       58.076      132.123     2.209       6.937       20.65       1.095       2.103       429.648     71.523      1.1         264.0       336.0       200.987     35.245      
153.8       57.148      132.16      2.192       6.803       20.535      1.073       2.099       426.223     71.499      1.1         266.667     344.0       206.131     34.358      
154.0       52.845      131.903     2.173       7.119       20.376      1.044       2.075       422.822     71.499      1.1         277.334     352.0       185.811     39.99       
154.2       50.466      131.98      2.173       6.927       20.153      1.033       2.024       419.816     71.826      1.1         290.667     365.333     215.472     39.89       
154.4       48.529      132.13      2.18        7.127       19.978      0.989       1.972       417.402     72.779      1.1         306.666     362.667     140.349     37.748      
154.6       51.168      131.733     2.188       6.627       19.617      1.048       1.979       415.529     74.135      1.1         306.667     362.667     64.4        40.19       
154.8       48.978      131.96      2.244       6.164       19.411      0.942       1.987       414.124     74.529      1.1         312.0       378.667     96.577      32.792      
155.0       47.424      131.529     2.231       5.859       19.129      1.09        2.139       413.213     74.47       1.1         273.531     381.333     152.032     31.067      
155.2       73.114      131.946     2.216       5.634       18.99       1.081       2.239       412.819     72.622      1.1         194.321     381.333     109.156     31.958      
155.4       40.179      131.813     2.209       6.527       18.894      1.094       2.12        412.72      69.01       1.1         327.085     399.999     156.43      35.484      
155.6       43.451      132.304     2.208       7.227       18.932      1.012       2.044       412.72      65.332      1.1         444.575     406.371     166.184     35.282      
155.8       43.152      132.312     2.192       6.879       18.873      1.085       2.001       412.72      62.648      1.1         382.403     397.338     167.829     35.273      
156.0       43.652      132.211     2.206       6.631       18.589      0.975       2.026       412.72      61.089      1.1         379.153     394.231     167.736     37.183      
156.2       43.351      132.159     2.226       7.057       18.258      1.025       2.015       412.745     60.218      1.1         260.889     367.109     232.096     34.054      
156.4       44.157      131.976     2.211       6.781       18.274      0.996       2.028       412.991     59.606      1.1         113.376     296.206     191.156     35.76       
156.6       49.204      131.971     2.221       6.295       18.347      1.12        2.09        413.829     59.003      1.1         118.687     274.349     130.389     36.502      
156.8       46.452      131.846     2.232       6.55        18.42       1.11        2.1         415.381     58.354      1.1         106.056     308.889     265.877     34.991      
157.0       45.499      132.283     2.218       6.31        18.423      1.094       2.078       416.909     57.719      1.1         92.448      286.736     230.769     34.717      
157.2       47.534      132.153     2.232       6.373       18.514      0.991       2.056       416.958     57.142      1.1         281.912     302.888     102.832     37.647      
157.4       51.404      131.835     2.241       6.4         18.586      0.941       2.098       416.194     56.593      1.1         279.149     318.313     120.601     34.715      
157.6       52.845      131.588     2.223       5.84        18.494      1.052       2.057       411.784     55.97       1.1         92.831      264.094     150.945     33.347      
157.8       50.816      131.166     2.249       5.858       18.551      1.15        2.085       404.934     55.159      1.1         166.383     295.842     148.272     34.846      
158.0       49.545      131.015     2.255       6.019       18.514      1.07        2.16        398.207     54.122      1.1         335.538     392.962     173.195     36.85       
158.2       55.976      131.416     2.235       5.944       18.477      1.133       2.234       393.008     52.931      1.1         249.96      342.93      148.522     38.638      
158.4       45.29       131.587     2.234       6.171       18.423      1.018       2.12        389.066     51.7        1.1         113.04      275.398     139.357     36.018      
158.6       44.771      132.385     2.221       6.645       18.403      0.963       2.056       385.567     50.514      1.1         213.33      308.355     136.368     36.495      
158.8       43.954      130.777     2.223       6.803       18.403      1.08        2.056       382.092     49.383      1.1         153.048     280.659     136.706     37.823      
159.0       43.752      130.339     2.22        6.514       18.185      0.975       2.094       378.865     48.271      1.1         105.224     268.889     135.593     33.89       
159.2       51.404      130.277     2.194       6.782       17.973      1.056       2.119       376.228     47.173      1.1         118.58      286.714     169.526     34.631      
159.4       51.286      130.438     2.216       6.769       17.799      1.206       2.108       373.887     46.134      1.1         146.137     362.943     355.074     37.121      
159.6       50.582      130.298     2.237       6.683       17.714      1.047       2.114       371.103     45.229      1.1         229.622     363.197     233.691     36.161      
159.8       48.306      130.359     2.235       7.267       17.682      1.121       2.082       367.727     44.472      1.1         112.343     288.808     197.144     35.308      
160.0       50.699      130.502     2.226       7.125       17.615      0.994       2.097       364.155     43.845      1.1         114.796     269.946     139.974     36.811      
160.2       50.933      130.305     2.203       6.971       17.382      0.966       2.041       360.951     43.308      1.1         227.428     309.013     121.856     31.645      
160.4       47.753      130.532     2.198       6.659       17.106      1.159       2.077       358.463     42.83       1.1         159.528     302.19      164.471     35.997      
160.6       46.774      130.119     2.244       6.661       16.98       1.062       2.125       356.492     42.396      1.1         187.968     320.786     175.139     33.497      
160.8       57.943      129.989     2.248       6.743       16.673      1.171       2.271       354.299     42.007      1.1         177.283     361.771     301.305     34.694      
161.0       54.576      130.367     2.219       6.116       16.482      1.094       2.265       351.292     41.648      1.1         247.66      317.395     152.56      36.155      
161.2       42.267      130.863     2.196       6.127       16.406      1.024       2.128       347.498     41.305      1.1         286.771     276.442     55.608      40.097      
161.4       31.696      130.481     2.189       6.553       16.673      1.103       2.085       343.506     40.982      1.1         245.737     278.373     71.436      38.611      
161.6       27.542      130.35      2.218       6.492       17.024      1.102       2.05        339.712     40.701      1.1         155.071     269.392     105.24      34.079      
161.8       23.933      127.665     2.221       4.955       17.266      1.258       2.089       336.016     40.478      1.1         263.198     317.882     114.771     30.9        
162.0       50.816      126.756     2.207       3.624       17.476      1.329       2.403       332.024     40.332      1.1         318.859     370.402     157.693     30.631      
162.2       127.35      126.271     2.267       3.91        18.149      1.365       2.703       327.86      40.283      1.1         307.111     314.048     97.314      29.198      
