~Version Information Section
VERS.                                         2.0:CWLS log ASCII Standart – VERSION 2.0
WRAP.                                          NO:One line per depth step
~Well Information Section
STRT.M                                        2.0:Начальная глубина
STOP.M                                      201.2:Конечная глубина
STEP.M                                          0:Шаг квантования по глубине
NULL.                                    -9999.25:Признак "Нет данных"
WELL.                                       126Мх:Скважина
~Parameter Information Section
~Curve Information Section
DEPTH.M                                          :Глубина
BK.ohmm                                          :BK
ПРОФ_СР.мм                                       :DS  (ДС)
W.g/cm3                                          :GGKp
ГК.мкР/час                                       :GK          (ГК)
ГЗ1.Омм                                          :GZ1   ГЗ1(A0.4M0.1N)
ГЗ2.Омм                                          :GZ2   ГЗ2(A1.0M0.1N)
ГЗ3.Омм                                          :GZ3   ГЗ3(A2.0M0.5N)
ГЗ4.Oмм                                          :GZ4   ГЗ4(A4.0M0.5N)
ГЗ5.Oмм                                          :GZ5   ГЗ5(A8.0M0.5N)
ГЗК.Омм                                          :GZK   ГЗK(N0.5M2.0A)
ИК.ohmm                                          :IK
НГК.усл.ед.                                      :NGK
ННКМ.усл.ед                                      :NNKm  (ННКм)
PS.мВ                                            :PS       (ПС)
PZ.Омм                                           :PZ    (КС)
RIS.Омм                                          :RS (Резистивиметр)
U1.мВ                                            :U1
U2.мВ                                            :U2
U3.mv                                            :U3
~ASCII LOG DATA
# ...
144.8       26.853      131.0       2.307       6.5         49.68       24.82       39.2        38.336      19.134      20.786      11.052      1.087       1.974       235.27      19.243      1.441       351.943     268.248     359.572     
144.9       29.58       130.821     2.33        6.437       49.68       24.82       40.801      37.536      18.134      20.786      11.038      1.114       1.97        234.742     19.348      1.441       505.159     338.873     345.864     
145.0       30.832      130.938     2.339       6.248       49.68       24.616      40.801      37.536      17.334      20.786      11.031      1.11        1.977       234.214     19.595      1.441       740.421     416.983     294.404     
145.1       29.309      130.86      2.364       6.011       49.68       23.8        40.801      37.536      17.534      20.586      10.995      1.119       1.972       233.158     19.707      1.441       861.156     414.876     224.966     
145.2       31.333      131.284     2.39        6.023       49.68       23.596      40.801      37.536      18.334      19.786      10.968      1.083       1.982       232.102     19.545      1.441       1019.763    368.367     157.825     
145.3       35.156      130.677     2.396       6.382       49.68       22.78       40.801      37.536      18.334      19.786      10.975      1.116       2.066       230.518     19.267      1.441       1330.851    357.667     110.923     
145.4       36.813      130.306     2.406       6.815       49.68       22.78       40.401      37.736      18.534      19.786      11.007      1.113       2.108       228.406     18.794      1.441       1393.973    350.556     117.25      
145.5       37.497      131.276     2.386       7.041       49.68       22.78       38.801      38.536      19.334      19.786      11.014      1.081       2.05        225.766     18.131      1.441       1056.743    311.224     156.545     
145.6       38.194      130.932     2.363       7.152       49.68       22.78       38.801      38.536      19.334      19.786      10.996      1.029       2.029       223.654     17.289      1.441       587.171     294.226     244.628     
145.7       38.019      131.628     2.336       6.977       50.76       22.78       38.801      38.536      19.334      19.786      11.035      1.037       2.044       221.542     16.599      1.441       385.827     331.793     348.491     
145.8       34.119      130.622     2.309       6.854       50.76       22.78       38.801      38.336      19.334      19.586      11.025      1.106       2.035       219.958     15.941      1.441       452.633     423.94      468.171     
145.9       27.164      131.159     2.279       6.587       50.76       22.78       38.801      37.336      19.334      18.586      11.033      1.166       2.016       218.902     15.442      1.441       465.826     435.69      480.048     
146.0       23.067      130.054     2.273       6.449       51.84       22.78       38.801      36.336      19.334      17.786      10.993      1.158       2.026       218.374     15.063      1.441       425.415     367.06      384.143     
146.1       20.184      131.288     2.265       6.211       52.92       22.78       38.801      35.336      19.334      17.586      10.923      1.118       2.042       217.318     14.844      1.441       498.362     348.829     294.624     
146.2       21.979      130.217     2.262       6.528       52.92       22.78       39.2        34.536      19.334      16.786      10.782      1.024       2.094       216.262     14.723      1.441       738.243     461.392     319.318     
146.3       23.55       131.557     2.273       6.791       52.92       22.984      40.801      34.536      19.334      16.786      10.633      1.043       2.118       215.206     14.606      1.441       904.564     550.532     361.825     
146.4       24.21       131.108     2.288       6.974       54.0        23.8        40.801      34.536      19.334      16.786      10.502      1.039       2.039       213.622     14.593      1.441       830.27      485.395     307.909     
146.5       24.946      131.138     2.289       6.939       54.0        23.8        40.801      34.536      19.534      16.786      10.432      1.048       1.99        212.038     14.656      1.441       719.546     444.763     310.048     
146.6       28.119      130.29      2.305       6.791       54.0        23.8        40.801      34.536      20.334      16.786      10.41       1.058       1.998       210.454     14.778      1.44        812.935     582.881     464.653     
146.7       29.854      130.203     2.304       7.108       54.0        23.8        40.801      34.136      20.334      16.786      10.425      1.066       2.004       208.87      14.815      1.439       888.307     694.774     591.118     
146.8       29.785      130.276     2.313       6.923       54.0        23.8        40.801      32.336      20.334      16.786      10.441      1.089       2.004       207.286     14.888      1.436       741.585     601.754     537.05      
146.9       27.861      130.818     2.305       6.942       54.0        23.596      40.801      31.336      20.334      16.786      10.457      1.096       2.017       206.23      15.015      1.433       579.732     459.776     415.932     
147.0       27.606      130.682     2.302       6.71        54.0        22.78       40.801      30.536      20.334      16.786      10.483      1.091       2.03        205.174     15.174      1.431       624.846     473.771     408.324     
147.1       29.648      131.13      2.299       6.833       54.0        22.576      40.801      30.536      20.334      16.586      10.537      1.088       2.029       204.646     15.316      1.429       876.969     643.766     514.236     
147.2       28.907      130.671     2.313       7.016       54.0        21.556      40.801      30.536      20.334      15.786      10.55       1.045       2.028       204.646     15.445      1.429       1014.968    754.734     601.779     
147.3       25.003      130.019     2.32        7.124       52.92       20.74       40.801      30.536      20.334      15.786      10.54       1.056       2.041       204.646     15.629      1.429       1038.905    806.723     670.987     
147.4       25.235      131.084     2.324       7.302       52.92       20.536      40.801      30.536      20.134      15.786      10.498      1.067       2.046       204.646     15.574      1.429       857.265     709.304     650.033     
147.5       27.542      130.92      2.316       7.503       52.92       19.72       40.801      30.536      19.134      15.786      10.473      1.059       2.02        204.118     15.482      1.429       584.186     521.515     557.285     
147.6       26.669      131.095     2.334       7.525       52.92       19.72       40.801      30.936      18.334      15.786      10.417      1.032       1.984       203.59      15.349      1.429       342.082     330.17      428.216     
147.7       25.823      130.871     2.333       7.622       52.92       19.516      40.801      32.736      18.334      15.786      10.379      1.033       1.954       203.062     15.302      1.429       222.53      225.742     334.679     
147.8       26.853      130.216     2.335       7.828       52.92       18.7        41.2        33.736      18.134      15.786      10.317      1.061       1.944       202.534     15.232      1.43        274.687     236.788     296.196     
147.9       27.227      130.389     2.325       7.572       52.92       18.7        42.801      34.336      17.134      15.586      10.255      1.03        1.947       202.006     15.319      1.434       376.055     276.436     277.271     
148.0       26.977      129.896     2.308       7.302       52.92       18.7        42.801      33.336      16.134      14.786      10.204      0.977       1.898       202.006     15.369      1.441       526.605     344.672     277.902     
148.1       25.41       130.049     2.293       6.808       52.92       18.7        42.801      32.136      15.134      14.586      10.179      0.945       1.837       201.478     15.418      1.451       605.908     382.897     278.802     
