~Version Information Section
VERS.                                         2.0:CWLS log ASCII Standart – VERSION 2.0
WRAP.                                          NO:One line per depth step
~Well Information Section
STRT.M                                        0.1:Начальная глубина
STOP.M                                      153.3:Конечная глубина
STEP.M                                          0:Шаг квантования по глубине
NULL.                                    -9999.25:Признак "Нет данных"
WELL.                                        144К:Скважина
~Parameter Information Section
~Curve Information Section
DEPTH.M                                          :Глубина
БК.Омм                                           :BK     (БК)
DСР.мм                                           :DS  (ДС)
ПЛОТНОСТЬ.г/см^3                                 :GGKp
ГК.мкР/ч                                         :GK          (ГК)
А0.4М0.1N.Омм                                    :GZ1   ГЗ1(A0.4M0.1N)
А1.0М0.1N.Омм                                    :GZ2   ГЗ2(A1.0M0.1N)
А2.0М0.5N.Омм                                    :GZ3   ГЗ3(A2.0M0.5N)
А4.0М0.5N.Oмм                                    :GZ4   ГЗ4(A4.0M0.5N)
А8.0М1.0N.Омм                                    :GZ5   ГЗ5(A8.0M0.5N)
N0.5M2.0A.Омм                                    :GZR   ГЗK(N0.5M2.0A)
ИК.мСм/м                                         :IK
БЗ.ue                                            :NNKb  (ННКб)
МЗ.ue                                            :NNKm  (ННКм)
ПС.mv                                            :PS       (ПС)
N11.0M0.5A.Омм                                   :PZ    (КС)
R.Омм                                            :RS (Резистивиметр)
ПОРИСТОСТЬ.                                      :W
~ASCII LOG DATA
# ...
100.0       19.097      211.301     2.326       5.863       14.916      14.319      13.28       15.662      12.51       25.868      17.624      2.297       1.552       83.509      37.615      1.106       38.573      
100.1       20.482      210.954     2.329       5.505       14.453      14.812      13.623      18.039      13.052      21.254      18.165      2.34        1.578       83.914      39.19       1.106       38.535      
100.2       30.573      210.828     2.324       5.08        15.977      16.51       14.648      20.226      13.854      18.881      18.793      2.393       1.645       84.316      41.83       1.104       38.206      
100.3       54.123      207.226     2.318       4.622       20.825      19.488      16.158      21.706      14.888      18.028      21.179      2.505       1.713       84.707      46.23       1.104       37.583      
100.4       75.543      195.725     2.314       4.236       27.476      23.999      17.849      22.628      16.374      17.871      23.457      2.71        1.78        85.073      51.081      1.107       36.618      
100.5       81.526      184.42      2.316       3.983       38.992      29.222      19.38       23.423      18.629      18.028      24.6        2.935       1.837       85.404      57.411      1.11        35.443      
100.6       105.683     185.487     2.328       3.937       54.965      33.666      20.717      24.319      21.755      18.461      25.576      3.106       1.894       85.692      65.959      1.114       34.005      
100.7       105.708     185.487     2.349       4.081       70.89       36.295      21.877      25.38       26.935      19.465      26.237      3.197       1.982       85.923      74.056      1.12        32.549      
100.8       100.902     151.001     2.376       4.362       79.034      38.281      23.122      27.319      33.797      21.448      26.616      3.294       2.068       86.095      80.248      1.122       31.111      
100.9       92.147      150.941     2.406       4.684       77.99       40.459      25.277      29.956      42.361      23.831      26.724      3.458       2.117       86.209      85.981      1.125       29.652      
101.0       74.891      150.977     2.436       4.967       74.548      42.357      28.951      36.516      52.403      28.893      26.37       3.691       2.132       86.276      91.032      1.123       28.152      
101.1       55.181      151.067     2.464       5.204       70.872      48.429      34.404      48.367      63.848      37.343      25.822      3.961       2.141       86.306      95.133      1.122       26.764      
101.2       50.387      151.301     2.483       5.384       69.595      61.815      41.804      63.445      78.324      47.414      25.291      4.227       2.15        86.31       99.748      1.118       25.441      
101.3       70.59       151.375     2.497       5.52        72.497      81.21       51.287      77.929      96.349      56.432      24.977      4.445       2.182       86.291      105.798     1.118       24.304      
101.4       114.135     151.331     2.509       5.628       80.19       100.669     62.641      89.979      118.128     63.778      24.403      4.608       2.25        86.254      113.303     1.101       23.272      
101.5       154.439     151.205     2.517       5.813       91.098      117.058     75.753      100.19      140.308     70.502      22.821      4.745       2.28        86.199      121.214     1.101       22.252      
101.6       178.946     151.119     2.516       6.049       106.353     137.027     90.782      110.946     160.362     77.514      22.063      4.909       2.307       86.14       128.881     1.101       21.193      
101.7       200.555     151.083     2.504       6.196       127.244     166.078     107.408     123.724     172.572     85.308      21.406      5.152       2.332       86.1        135.551     1.101       20.12       
101.8       228.145     151.042     2.489       6.142       154.199     203.463     123.488     134.207     174.849     90.426      19.662      5.502       2.351       86.11       138.484     1.101       19.081      
101.9       285.285     151.063     2.475       5.885       182.097     245.815     131.925     138.529     174.849     91.92       18.565      5.938       2.4         86.208      133.356     1.101       18.266      
102.0       406.14      151.088     2.46        5.55        194.795     267.84      132.888     134.889     171.457     87.145      17.867      6.231       2.462       86.428      119.67      1.101       17.876      
102.1       399.751     151.1       2.445       5.277       187.014     259.1       127.938     121.36      159.604     73.457      17.022      6.272       2.538       86.792      100.848     1.101       17.92       
102.2       89.119      151.126     2.428       5.26        156.767     222.057     116.302     97.193      143.819     54.87       15.102      5.954       2.558       87.309      79.911      1.101       18.508      
102.3       31.182      150.904     2.412       5.537       106.369     152.382     97.09       68.139      118.455     37.195      14.294      5.417       2.481       87.979      60.292      1.101       19.71       
102.4       28.901      151.24      2.4         6.045       64.876      90.254      71.834      41.173      94.349      23.662      13.362      4.798       2.321       88.786      46.865      1.101       21.299      
102.5       19.691      151.25      2.393       6.523       44.379      59.35       44.86       22.196      68.991      15.292      12.58       4.234       2.138       89.69       40.259      1.101       22.993      
102.6       19.26       151.291     2.39        6.807       33.245      43.125      24.935      12.252      44.983      11.632      12.05       3.819       1.99        90.644      37.089      1.101       24.526      
102.7       18.757      151.32      2.39        6.825       26.135      33.282      16.568      7.505       25.56       10.599      11.658      3.521       1.893       91.595      35.478      1.101       25.737      
102.8       18.352      151.211     2.391       6.687       22.039      28.362      12.438      5.016       13.483      10.39       11.368      3.324       1.85        92.504      34.491      1.1         26.727      
102.9       18.874      151.269     2.39        6.493       20.26       26.564      10.234      3.659       8.818       10.422      11.166      3.248       1.826       93.347      33.299      1.101       27.525      
103.0       20.167      151.282     2.387       6.36        19.174      25.577      9.033       2.914       6.331       10.583      11.004      3.24        1.829       94.122      31.934      1.101       28.156      
103.1       20.253      151.275     2.383       6.378       18.154      24.613      8.385       2.444       4.844       10.848      10.888      3.246       1.832       94.839      30.809      1.1         28.693      
103.2       18.869      151.349     2.379       6.505       17.283      23.291      8.156       2.161       4.033       11.079      10.795      3.209       1.814       95.515      29.977      1.101       29.182      
103.3       18.734      151.488     2.377       6.661       16.803      21.737      8.137       1.979       3.536       11.355      10.731      3.095       1.789       96.161      29.418      1.101       29.663      
103.4       19.636      151.488     2.376       6.802       16.629      20.116      8.305       1.826       3.21        11.748      10.725      2.989       1.763       96.794      29.092      1.101       30.134      
103.5       20.58       151.453     2.376       6.943       16.556      18.778      8.785       1.668       2.937       12.205      10.757      2.885       1.748       97.407      28.878      1.101       30.568      
103.6       21.373      151.535     2.376       7.031       16.515      17.826      9.501       1.524       2.779       12.593      10.797      2.886       1.754       97.974      28.734      1.101       30.892      
