~Version Information Section
VERS.                                         2.0:CWLS log ASCII Standart – VERSION 2.0
WRAP.                                          NO:One line per depth step
~Well Information Section
STRT.M                                       -2.2:Начальная глубина
STOP.M                                      205.6:Конечная глубина
STEP.M                                          0:Шаг квантования по глубине
NULL.                                    -9999.25:Признак "Нет данных"
WELL.                                       108Мх:Скважина
~Parameter Information Section
~Curve Information Section
DEPTH.M                                          :Глубина
BK.Ohm*M                                         :BK     (БК)
DS.mm                                            :DS  (ДС)
GGK.g/cm3                                        :GGKp
ГК.mcr/h                                         :GK          (ГК)
GZ1.Ohm*M                                        :GZ1   ГЗ1(A0.4M0.1N)
GZ2.Ohm*M                                        :GZ2   ГЗ2(A1.0M0.1N)
GZ3.Ohm*M                                        :GZ3   ГЗ3(A2.0M0.5N)
GZ4.Ohm*M                                        :GZ4   ГЗ4(A4.0M0.5N)
GZ5.Ohm*M                                        :GZ5   ГЗ5(A8.0M0.5N)
GZR.Ohm*M                                        :GZK   ГЗK(N0.5M2.0A)
ИК.Ohm*M                                         :IK
НГК.ue                                           :NGK     (НГК)
NNKM.                                            :NNKm  (ННКм)
PS.mv                                            :PS       (ПС)
PZ.Ohm*M                                         :PZ    (КС)
RS.Ohm*M                                         :RS (Резистивиметр)
U1.mV                                            :U1
U2.mV                                            :U2
U3.mV                                            :U3
КП.%                                             :Кп
~ASCII LOG DATA
# ...
178.2       -9999.25    123.151     -9999.25    -9999.25    145.741     91.302      153.081     71.43       65.545      151.262     -9999.25    -9999.25    -9999.25    619.39      126.36      3.518       2522.476    3625.325    2234.392    -9999.25    
178.23      149.896     -9999.25    1.999       3.802       -9999.25    -9999.25    -9999.25    -9999.25    -9999.25    -9999.25    59.857      1.529       1.998       -9999.25    -9999.25    -9999.25    -9999.25    -9999.25    -9999.25    32.986      
178.3       -9999.25    123.105     -9999.25    -9999.25    146.227     88.264      151.646     72.908      65.845      147.294     -9999.25    -9999.25    -9999.25    619.451     127.144     3.497       2759.655    3625.325    2177.509    -9999.25    
178.33      159.089     -9999.25    2.019       3.612       -9999.25    -9999.25    -9999.25    -9999.25    -9999.25    -9999.25    59.893      1.55        2.023       -9999.25    -9999.25    -9999.25    -9999.25    -9999.25    -9999.25    32.728      
178.4       -9999.25    123.224     -9999.25    -9999.25    145.666     86.334      150.33      73.713      64.95       143.672     -9999.25    -9999.25    -9999.25    619.645     127.965     3.473       2985.52     3660.688    2196.469    -9999.25    
178.43      182.118     -9999.25    2.045       3.473       -9999.25    -9999.25    -9999.25    -9999.25    -9999.25    -9999.25    59.992      1.541       2.031       -9999.25    -9999.25    -9999.25    -9999.25    -9999.25    -9999.25    31.853      
178.5       -9999.25    123.136     -9999.25    -9999.25    144.051     85.557      149.779     74.043      62.772      140.753     -9999.25    -9999.25    -9999.25    619.712     128.757     3.445       2962.937    3696.043    2183.829    -9999.25    
178.53      183.96      -9999.25    2.068       3.394       -9999.25    -9999.25    -9999.25    -9999.25    -9999.25    -9999.25    59.64       1.485       2.007       -9999.25    -9999.25    -9999.25    -9999.25    -9999.25    -9999.25    31.138      
178.6       -9999.25    123.131     -9999.25    -9999.25    141.68      85.931      150.257     74.206      59.529      138.694     -9999.25    -9999.25    -9999.25    619.468     129.452     3.425       2951.642    3793.29     2253.353    -9999.25    
178.63      176.443     -9999.25    2.075       3.343       -9999.25    -9999.25    -9999.25    -9999.25    -9999.25    -9999.25    59.393      1.399       1.972       -9999.25    -9999.25    -9999.25    -9999.25    -9999.25    -9999.25    31.059      
178.7       -9999.25    123.186     -9999.25    -9999.25    138.566     87.683      151.768     74.513      55.481      137.454     -9999.25    -9999.25    -9999.25    618.906     129.997     3.42        2900.826    3749.089    2310.224    -9999.25    
178.73      171.076     -9999.25    2.076       3.387       -9999.25    -9999.25    -9999.25    -9999.25    -9999.25    -9999.25    59.268      1.353       1.902       -9999.25    -9999.25    -9999.25    -9999.25    -9999.25    -9999.25    32.046      
178.8       -9999.25    123.346     -9999.25    -9999.25    135.323     90.795      153.977     75.231      50.949      136.996     -9999.25    -9999.25    -9999.25    618.393     130.346     3.424       2855.649    3793.285    2373.429    -9999.25    
178.83      161.157     -9999.25    2.073       3.537       -9999.25    -9999.25    -9999.25    -9999.25    -9999.25    -9999.25    59.091      1.353       1.855       -9999.25    -9999.25    -9999.25    -9999.25    -9999.25    -9999.25    33.119      
178.9       -9999.25    123.362     -9999.25    -9999.25    132.589     94.572      156.283     76.598      46.363      137.137     -9999.25    -9999.25    -9999.25    618.162     130.479     3.382       2737.064    3846.337    2386.07     -9999.25    
178.93      151.776     -9999.25    2.07        3.517       -9999.25    -9999.25    -9999.25    -9999.25    -9999.25    -9999.25    59.224      1.399       1.864       -9999.25    -9999.25    -9999.25    -9999.25    -9999.25    -9999.25    33.046      
179.0       -9999.25    123.339     -9999.25    -9999.25    130.391     98.599      158.961     78.787      42.239      137.545     -9999.25    -9999.25    -9999.25    618.161     130.388     3.343       2635.437    4023.119    2392.388    -9999.25    
179.03      150.183     -9999.25    2.059       3.481       -9999.25    -9999.25    -9999.25    -9999.25    -9999.25    -9999.25    59.435      1.424       1.876       -9999.25    -9999.25    -9999.25    -9999.25    -9999.25    -9999.25    32.291      
179.1       -9999.25    123.348     -9999.25    -9999.25    128.966     102.86      161.826     83.055      38.073      134.397     -9999.25    -9999.25    -9999.25    618.323     130.09      3.308       2516.845    4111.527    2398.708    -9999.25    
179.13      151.424     -9999.25    2.047       3.479       -9999.25    -9999.25    -9999.25    -9999.25    -9999.25    -9999.25    59.464      1.423       1.889       -9999.25    -9999.25    -9999.25    -9999.25    -9999.25    -9999.25    30.484      
179.2       -9999.25    123.501     -9999.25    -9999.25    128.551     106.833     164.93      89.152      33.951      127.666     -9999.25    -9999.25    -9999.25    618.438     129.609     3.277       2460.383    4129.206    2379.75     -9999.25    
179.23      153.586     -9999.25    2.049       3.694       -9999.25    -9999.25    -9999.25    -9999.25    -9999.25    -9999.25    59.078      1.432       1.908       -9999.25    -9999.25    -9999.25    -9999.25    -9999.25    -9999.25    28.98       
179.3       -9999.25    123.489     -9999.25    -9999.25    129.158     109.987     168.126     96.775      29.834      117.33      -9999.25    -9999.25    -9999.25    618.324     128.98      3.232       2437.795    4129.206    2367.109    -9999.25    
179.33      154.942     -9999.25    2.057       3.77        -9999.25    -9999.25    -9999.25    -9999.25    -9999.25    -9999.25    59.119      1.466       1.922       -9999.25    -9999.25    -9999.25    -9999.25    -9999.25    -9999.25    28.923      
179.4       -9999.25    123.589     -9999.25    -9999.25    130.197     112.303     171.691     105.556     25.597      103.302     -9999.25    -9999.25    -9999.25    618.235     128.239     3.183       2460.384    4093.843    2335.508    -9999.25    
179.43      156.122     -9999.25    2.062       3.656       -9999.25    -9999.25    -9999.25    -9999.25    -9999.25    -9999.25    58.603      1.489       1.933       -9999.25    -9999.25    -9999.25    -9999.25    -9999.25    -9999.25    30.811      
179.5       -9999.25    123.709     -9999.25    -9999.25    131.707     114.15      175.129     115.105     21.0        85.633      -9999.25    -9999.25    -9999.25    617.882     127.426     3.183       2494.26     3766.791    2322.87     -9999.25    
179.53      158.607     -9999.25    2.071       3.605       -9999.25    -9999.25    -9999.25    -9999.25    -9999.25    -9999.25    58.373      1.471       1.938       -9999.25    -9999.25    -9999.25    -9999.25    -9999.25    -9999.25    32.941      
179.6       -9999.25    123.034     -9999.25    -9999.25    133.596     115.657     177.935     123.869     16.622      67.955      -9999.25    -9999.25    -9999.25    617.407     126.573     3.183       2573.32     3386.619    2354.473    -9999.25    
179.63      164.955     -9999.25    2.084       3.81        -9999.25    -9999.25    -9999.25    -9999.25    -9999.25    -9999.25    58.444      1.444       1.929       -9999.25    -9999.25    -9999.25    -9999.25    -9999.25    -9999.25    33.269      
179.7       -9999.25    122.89      -9999.25    -9999.25    135.701     116.845     180.07      130.555     13.181      53.817      -9999.25    -9999.25    -9999.25    616.535     125.711     3.183       2714.472    3103.765    2442.943    -9999.25    
179.73      175.327     -9999.25    2.096       3.997       -9999.25    -9999.25    -9999.25    -9999.25    -9999.25    -9999.25    58.839      1.45        1.922       -9999.25    -9999.25    -9999.25    -9999.25    -9999.25    -9999.25    32.635      
