~Version Information Section
VERS.                                         2.0:CWLS log ASCII Standart – VERSION 2.0
WRAP.                                          NO:One line per depth step
~Well Information Section
STRT.M                                        0.4:Начальная глубина
STOP.M                                      191.4:Конечная глубина
STEP.M                                          0:Шаг квантования по глубине
NULL.                                    -9999.25:Признак "Нет данных"
WELL.                                       113Мх:Скважина
~Parameter Information Section
~Curve Information Section
DEPTH.M                                          :Глубина
БК.Омм                                           :BK     (БК)
DСР.мм                                           :DS  (ДС)
GGKP.g/cm3                                       :GGKp
ГК.гамма                                         :GK          (ГК)
А0.4М0.1N.Омм                                    :GZ1   ГЗ1(A0.4M0.1N)
А1.0М0.1N.Омм                                    :GZ2   ГЗ2(A1.0M0.1N)
А2.0М0.5N.Омм                                    :GZ3   ГЗ3(A2.0M0.5N)
А4.0М0.5N.Oмм                                    :GZ4   ГЗ4(A4.0M0.5N)
А8.0М1.0N.Омм                                    :GZ5   ГЗ5(A8.0M0.5N)
N0.5M2.0A.Омм                                    :GZK   ГЗK(N0.5M2.0A)
ИК.мСм/м                                         :IK
НГК.усл.ед                                       :NNKb  (ННКб)
ННКМ.усл.ед                                      :NNKm  (ННКм)
ПС.мВ                                            :PS       (ПС)
PZ.Омм                                           :PZ    (КС)
R.Омм                                            :RS (Резистивиметр)
U1.мВ                                            :U1
U2.mV                                            :U2
U3.мВ                                            :U3
КП.%                                             :Кп
~ASCII LOG DATA
# ...
51.6        827.83      139.871     2.092       4.207       50.091      23.146      27.369      21.0        9.75        36.09       44.113      18.675      4.027       80.858      26.281      1.1         -9999.25    -9999.25    -9999.25    0.529       
51.8        459.128     140.607     2.099       4.101       50.371      30.745      24.875      17.847      10.138      32.926      43.323      18.628      4.008       84.078      28.325      1.1         -9999.25    -9999.25    -9999.25    0.496       
52.0        133.892     141.669     2.088       4.043       48.633      38.305      21.312      17.603      10.593      31.451      42.667      19.024      4.033       87.754      30.521      1.1         -9999.25    -9999.25    -9999.25    0.59        
52.2        83.075      141.182     2.052       4.236       44.838      42.411      19.122      17.603      10.666      30.701      41.383      18.564      4.07        91.723      32.48       1.1         -9999.25    -9999.25    -9999.25    0.673       
52.4        79.133      135.957     2.022       4.113       41.476      43.076      19.122      18.201      10.812      29.69       40.556      17.83       4.007       95.765      33.965      1.1         -9999.25    -9999.25    -9999.25    0.989       
52.6        80.827      135.038     2.033       4.028       39.879      42.293      20.283      19.719      11.052      28.086      39.94       17.235      3.92        99.268      34.99       1.1         -9999.25    -9999.25    -9999.25    1.198       
52.8        81.29       134.401     2.088       4.032       39.379      40.646      28.068      21.038      11.5        26.444      39.564      16.822      3.864       101.985     35.671      1.1         -9999.25    -9999.25    -9999.25    1.574       
53.0        85.381      135.595     2.132       4.041       39.548      38.981      39.959      21.563      12.005      25.41       38.651      16.855      3.84        104.319     36.075      1.1         -9999.25    -9999.25    -9999.25    1.639       
53.2        93.951      135.827     2.117       3.724       39.641      37.353      48.272      21.54       12.602      24.999      37.303      16.927      3.94        106.352     36.262      1.1         -9999.25    -9999.25    -9999.25    1.918       
53.4        92.847      136.143     2.084       3.8         39.836      35.788      50.839      21.335      12.577      24.71       36.55       16.58       3.957       109.048     36.203      1.1         -9999.25    -9999.25    -9999.25    2.112       
53.6        83.208      136.425     2.071       3.98        39.928      34.106      50.412      21.245      11.855      23.334      35.407      16.089      3.892       111.745     35.971      1.1         -9999.25    -9999.25    -9999.25    2.475       
53.8        75.424      137.353     2.093       3.987       39.632      32.624      47.129      21.296      10.437      20.232      34.222      15.839      3.898       114.441     35.675      1.1         -9999.25    -9999.25    -9999.25    2.696       
54.0        74.925      137.12      2.12        4.457       37.695      31.167      42.189      21.345      9.015       16.11       33.516      15.825      3.928       117.138     35.43       1.1         -9999.25    -9999.25    -9999.25    2.886       
54.2        80.846      137.839     2.136       5.031       35.448      30.015      37.419      21.701      8.355       12.788      32.783      15.923      3.95        119.257     35.309      1.1         -9999.25    -9999.25    -9999.25    2.963       
54.4        97.874      137.158     2.127       4.957       34.137      29.503      34.564      22.418      7.89        11.052      31.729      15.553      3.961       120.605     35.358      1.1         165.538     239.029     487.48      3.056       
54.6        118.891     136.608     2.113       4.331       33.856      29.347      32.721      23.384      7.802       10.55       30.312      15.334      3.913       121.183     35.636      1.1         145.64      228.782     539.907     4.187       
54.8        130.748     137.329     2.129       3.878       33.672      29.092      31.582      23.854      7.821       10.496      28.703      13.963      3.899       121.183     36.266      1.1         151.361     231.003     511.672     7.956       
55.0        118.988     138.326     2.139       3.825       32.653      28.146      29.658      24.042      8.023       10.501      27.085      9.188       3.643       121.183     37.414      1.1         175.809     256.64      503.859     12.818      
55.2        93.033      138.757     2.13        3.841       28.857      25.465      27.701      24.234      8.613       10.622      26.54       6.35        3.103       121.183     39.192      1.1         202.849     314.987     512.935     17.146      
55.4        61.136      139.228     2.158       4.179       23.052      22.501      27.362      24.254      10.151      10.991      26.319      5.854       2.971       121.199     41.615      1.1         351.932     311.594     375.559     19.684      
55.6        38.694      140.938     2.207       4.666       19.353      21.74       27.531      25.769      13.236      12.941      24.922      5.718       2.885       121.37      44.328      1.1         449.466     299.729     208.143     19.77       
55.8        27.643      144.468     2.211       5.048       19.064      21.74       31.499      32.368      17.048      21.782      23.352      5.601       2.771       121.788     46.494      1.1         448.874     299.221     265.253     20.68       
56.0        84.579      141.252     2.225       5.025       19.865      23.559      38.574      41.953      19.603      38.953      22.741      5.784       2.792       122.638     47.648      1.1         315.592     306.886     399.383     21.582      
56.2        1192.824    137.418     2.274       4.237       26.795      25.029      40.075      44.879      20.18       51.426      24.123      6.027       3.042       124.111     46.946      1.1         199.687     267.797     462.838     22.099      
56.4        3940.816    137.303     2.315       3.081       34.436      24.884      38.723      43.659      19.508      52.585      27.061      5.246       3.221       126.32      44.58       1.1         167.423     210.316     377.469     23.455      
56.6        5459.754    137.429     2.307       2.724       35.706      22.441      28.706      33.265      16.652      47.617      28.869      3.762       2.68        129.235     41.339      1.1         248.177     227.727     274.142     26.075      
56.8        3735.208    139.939     2.281       3.364       34.149      18.859      17.198      20.311      12.357      33.889      28.078      2.827       2.013       132.544     38.23       1.1         301.032     250.307     287.946     30.007      
57.0        1285.245    139.587     2.263       3.763       28.203      18.42       11.347      13.348      8.813       24.345      26.183      2.559       1.752       135.811     36.215      1.1         275.542     252.851     342.6       33.089      
57.2        659.95      138.253     2.26        3.764       24.375      18.527      9.597       11.147      6.99        20.856      25.258      2.526       1.776       138.693     35.298      1.1         216.094     232.768     381.523     33.211      
57.4        672.321     138.182     2.285       3.735       23.711      19.959      9.132       10.576      6.413       20.073      25.315      2.75        1.832       141.061     35.009      1.1         298.292     282.68      402.273     31.709      
57.6        346.077     138.078     2.298       3.631       23.601      21.716      9.089       10.347      6.245       19.847      25.241      2.964       1.869       142.961     34.972      1.1         392.463     251.343     268.282     29.513      
57.8        91.635      138.638     2.306       3.545       23.601      22.1        9.111       10.281      6.229       19.743      24.977      2.984       1.862       144.495     35.053      1.1         402.779     229.853     196.704     28.833      
