~Version Information Section
VERS.                                         2.0:CWLS log ASCII Standart – VERSION 2.0
WRAP.                                          NO:One line per depth step
~Well Information Section
STRT.M                                        0.6:Начальная глубина
STOP.M                                      191.4:Конечная глубина
STEP.M                                          0:Шаг квантования по глубине
NULL.                                    -9999.25:Признак "Нет данных"
WELL.                                       129Мх:Скважина
~Parameter Information Section
~Curve Information Section
DEPTH.M                                          :Глубина
BK.lgОмм                                         :BK     (БК)
ПРОФ_СР.мм                                       :DS  (ДС)
ГК.имп/мин                                       :GK          (ГК)
ГЗ1.Омм                                          :GZ1   ГЗ1(A0.4M0.1N)
ГЗ2.Омм                                          :GZ2   ГЗ2(A1.0M0.1N)
ГЗ3.Омм                                          :GZ3   ГЗ3(A2.0M0.5N)
ГЗ4.Oмм                                          :GZ4   ГЗ4(A4.0M0.5N)
ГЗ5.Oмм                                          :GZ5   ГЗ5(A8.0M0.5N)
ГЗК.Омм                                          :GZK   ГЗK(N0.5M2.0A)
ИК.мСм/м                                         :IK
НГК.усл.ед                                       :NNKb  (ННКб)
ННКМ.усл.ед                                      :NNKm  (ННКм)
PZ.Омм                                           :PZ    (КС)
РЕЗ.Омм                                          :RS (Резистивиметр)
U1.мВ                                            :U1
U2.mV                                            :U2
U3.мВ                                            :U3
КП.%                                             :Кп
ПС.                                              :ПС
~ASCII LOG DATA
# ...
170.6       177.862     124.363     3.411       137.85      175.443     98.386      151.714     127.222     96.246      43.405      4.933       3.004       126.267     1.14        1450.669    1685.333    1002.668    25.647      -151.96     
170.7       178.949     124.37      3.091       139.174     177.326     99.71       151.807     127.222     93.225      43.51       4.839       2.888       133.154     1.14        1482.665    1677.335    1013.333    24.853      -152.0      
170.8       179.354     124.45      3.162       139.385     178.537     101.026     151.87      128.556     89.831      42.166      4.913       2.815       140.115     1.14        1522.667    1656.0      1013.333    24.03       -152.0      
170.9       177.285     124.247     3.302       139.385     179.091     102.293     151.893     132.2       86.063      41.838      5.071       2.822       146.507     1.14        1544.001    1656.0      1008.0      23.536      -152.0      
171.0       182.73      123.871     3.11        138.498     179.207     103.492     151.893     138.822     82.063      41.838      5.412       2.888       151.837     1.14        1544.001    1656.0      1008.0      23.514      -152.0      
171.1       178.172     124.157     3.014       136.924     179.233     104.639     151.864     147.444     78.023      41.939      5.42        2.965       155.877     1.14        1530.665    1645.333    1010.667    23.268      -152.0      
171.2       173.615     123.793     2.95        135.156     179.252     105.8       151.77      157.0       74.129      42.267      5.395       2.967       158.673     1.14        1512.0      1637.334    1026.665    23.889      -152.0      
171.3       171.843     123.853     2.938       133.618     179.62      107.091     151.608     165.756     70.441      42.604      5.25        2.943       160.486     1.14        1512.0      1626.667    1040.0      24.481      -152.0      
171.4       181.933     123.703     3.091       132.456     180.723     108.671     151.387     172.822     66.895      41.939      5.17        2.903       161.663     1.14        1512.0      1632.0      1031.998    23.911      -152.0      
171.5       161.344     122.397     3.152       131.749     182.73      110.704     151.128     177.267     63.474      41.939      5.423       2.88        162.522     1.14        1506.667    1637.333    1005.335    23.503      -152.0      
171.6       164.934     121.572     3.456       131.563     185.522     113.326     150.856     179.844     60.287      41.939      5.594       2.891       163.272     1.14        1501.333    1645.333    967.999     22.653      -152.0      
171.7       167.348     121.372     3.274       131.563     188.912     116.597     150.582     181.267     57.566      41.818      5.576       2.906       164.015     1.14        1496.0      1632.001    952.001     21.055      -151.96     
171.8       203.115     121.788     3.091       132.079     192.932     120.502     150.307     182.467     55.352      41.717      5.877       2.922       164.8       1.14        1493.333    1618.667    944.0       19.247      -151.88     
171.9       197.657     122.255     3.072       133.433     197.72      124.983     150.02      183.578     53.494      41.616      6.633       3.068       165.702     1.14        1488.0      1621.334    952.0       18.121      -151.76     
172.0       192.202     122.574     3.053       135.677     203.454     129.979     149.72      184.867     51.569      41.616      6.973       3.233       166.861     1.14        1474.667    1621.333    962.666     17.112      -151.6      
172.1       189.381     122.219     3.36        138.636     210.22      135.466     149.413     186.422     49.191      41.939      7.506       3.369       168.458     1.14        1450.665    1629.333    976.001     17.138      -151.4      
172.2       188.678     121.918     3.514       142.049     218.065     141.423     149.112     188.333     46.008      41.3        7.475       3.476       170.652     1.14        1437.334    1618.667    976.0       17.256      -151.24     
172.3       199.909     121.873     3.418       145.54      226.914     147.797     148.831     190.511     41.973      41.3        7.531       3.473       173.5       1.14        1426.667    1624.0      973.333     17.024      -151.08     
172.4       205.838     121.837     3.395       148.93      236.627     154.453     148.577     192.867     37.233      40.891      7.782       3.456       176.942     1.14        1429.333    1626.667    965.334     16.723      -150.84     
172.5       216.61      121.868     3.379       152.181     247.051     161.228     148.351     195.222     32.129      39.711      7.838       3.413       180.84      1.14        1416.001    1637.333    968.0       16.19       -150.48     
172.6       218.301     121.999     3.2         155.489     258.042     167.98      148.14      197.533     26.895      40.098      7.72        3.42        185.085     1.14        1407.999    1642.667    968.0       15.22       -149.96     
172.7       219.992     122.037     2.842       159.058     269.128     174.632     147.939     199.756     21.648      39.144      7.926       3.474       189.644     1.14        1402.667    1640.0      952.001     14.053      -149.16     
172.8       236.036     122.016     2.938       163.152     279.41      181.166     147.751     202.022     16.509      39.144      8.541       3.539       194.561     1.14        1413.333    1632.0      938.667     13.288      -148.12     
172.9       268.88      122.093     3.13        167.938     287.505     187.598     147.591     204.333     11.712      38.241      8.906       3.594       199.855     1.14        1389.331    1629.333    925.334     12.688      -146.96     
173.0       241.252     122.197     3.04        173.458     291.933     193.937     147.156     206.556     7.644       37.981      9.372       3.654       205.483     1.14        1357.336    1618.667    925.334     12.474      -145.72     
173.1       200.423     122.248     2.995       179.618     291.933     200.103     145.827     207.533     4.732       37.981      9.616       3.709       211.338     1.14        1301.332    1621.333    925.333     12.455      -144.44     
173.2       216.576     122.02      3.027       186.16      291.495     205.884     142.664     207.533     3.259       36.875      9.817       3.737       217.299     1.14        1269.335    1621.333    930.666     12.242      -143.04     
173.3       290.122     121.945     3.034       192.762     285.673     210.937     137.042     205.756     3.239       36.316      9.914       3.76        223.184     1.14        1242.667    1642.667    938.667     12.026      -141.48     
173.4       363.662     121.909     2.918       198.923     274.807     214.569     128.647     199.978     3.239       35.47       9.981       3.759       227.77      1.14        1240.001    1613.331    938.666     11.737      -139.64     
173.5       333.902     121.826     2.954       204.245     259.439     215.998     117.802     190.289     4.26        35.47       9.976       3.771       228.825     1.14        1261.332    1581.337    933.334     11.3        -137.52     
173.6       307.651     121.854     3.168       208.211     240.222     215.998     105.139     177.8       5.839       34.583      10.14       3.798       228.825     1.14        1282.668    1536.0      930.667     10.712      -135.08     
173.7       281.623     121.826     3.091       210.282     218.052     214.547     91.6        164.511     7.549       33.04       10.536      3.846       228.825     1.14        1296.0      1536.0      949.332     10.376      -132.6      
173.8       282.271     121.724     2.976       210.282     194.447     210.238     77.801      152.689     9.215       33.04       10.601      3.898       225.047     1.14        1298.667    1552.0      968.0       10.011      -130.08     
173.9       269.398     121.698     2.765       209.856     171.153     203.419     64.042      144.111     10.762      32.344      10.68       3.898       215.488     1.14        1301.333    1554.667    986.667     10.303      -127.72     
