~Version Information Section
VERS.                                         2.0:CWLS log ASCII Standart – VERSION 2.0
WRAP.                                          NO:One line per depth step
~Well Information Section
STRT.M                                        2.0:Начальная глубина
STOP.M                                      201.2:Конечная глубина
STEP.M                                          0:Шаг квантования по глубине
NULL.                                    -9999.25:Признак "Нет данных"
WELL.                                       126Мх:Скважина
~Parameter Information Section
~Curve Information Section
DEPTH.M                                          :Глубина
BK.ohmm                                          :BK
ПРОФ_СР.мм                                       :DS  (ДС)
W.g/cm3                                          :GGKp
ГК.мкР/час                                       :GK          (ГК)
ГЗ1.Омм                                          :GZ1   ГЗ1(A0.4M0.1N)
ГЗ2.Омм                                          :GZ2   ГЗ2(A1.0M0.1N)
ГЗ3.Омм                                          :GZ3   ГЗ3(A2.0M0.5N)
ГЗ4.Oмм                                          :GZ4   ГЗ4(A4.0M0.5N)
ГЗ5.Oмм                                          :GZ5   ГЗ5(A8.0M0.5N)
ГЗК.Омм                                          :GZK   ГЗK(N0.5M2.0A)
ИК.ohmm                                          :IK
НГК.усл.ед.                                      :NGK
ННКМ.усл.ед                                      :NNKm  (ННКм)
PS.мВ                                            :PS       (ПС)
PZ.Омм                                           :PZ    (КС)
RIS.Омм                                          :RS (Резистивиметр)
U1.мВ                                            :U1
U2.мВ                                            :U2
U3.mv                                            :U3
~ASCII LOG DATA
# ...
148.2       24.66       130.334     2.276       6.934       52.92       18.7        42.801      30.536      14.334      13.786      10.123      0.964       1.828       200.95      15.29       1.462       613.931     391.097     279.97      
148.3       24.604      130.691     2.258       6.794       52.92       18.7        42.801      30.536      14.334      13.786      10.079      1.009       1.838       199.894     15.213      1.471       567.443     402.484     334.181     
148.4       24.66       130.006     2.24        6.645       52.92       18.7        42.801      30.536      14.334      13.786      10.035      1.025       1.897       198.838     14.926      1.477       537.726     447.084     441.175     
148.5       24.099      131.164     2.212       6.638       52.92       18.904      42.801      30.536      14.334      13.786      9.977       1.004       1.952       197.782     14.758      1.479       606.337     532.594     542.602     
148.6       23.281      132.096     2.204       6.782       52.92       19.72       42.801      30.536      14.334      13.786      9.871       1.03        1.97        197.254     14.539      1.48        756.537     625.835     585.722     
148.7       22.856      131.259     2.205       7.038       52.92       19.72       42.801      30.536      14.334      13.786      9.807       1.037       2.0         196.726     14.389      1.48        768.311     596.567     538.549     
148.8       22.542      131.968     2.238       7.062       52.92       19.924      43.2        30.536      14.334      13.786      9.765       1.099       2.037       196.726     14.204      1.48        560.118     437.083     459.395     
148.9       22.961      130.6       2.25        7.343       52.92       20.944      43.6        30.736      14.334      13.786      9.719       1.056       2.042       196.726     14.061      1.48        330.273     295.152     419.109     
149.0       22.336      130.89      2.262       7.341       52.92       21.556      38.801      31.736      14.534      13.786      9.648       1.009       2.02        196.726     13.838      1.48        298.75      300.983     449.657     
149.1       21.232      130.27      2.281       7.572       52.92       20.74       38.001      32.536      15.334      13.786      9.574       0.918       1.996       196.726     13.705      1.48        465.564     454.598     551.058     
149.2       20.893      131.191     2.313       7.335       51.84       20.74       34.801      32.536      15.334      13.786      9.523       0.908       1.973       196.726     13.615      1.48        567.777     519.386     557.491     
149.3       21.086      130.79      2.322       7.344       51.84       20.332      34.401      32.536      15.534      13.786      9.487       0.938       1.967       196.726     13.533      1.48        605.432     495.38      468.971     
149.4       22.751      130.098     2.332       7.381       51.84       18.496      32.801      32.536      16.534      13.786      9.449       0.998       1.968       196.726     13.53       1.48        649.644     517.45      474.157     
149.5       23.988      130.937     2.307       7.471       50.76       17.476      32.801      32.536      17.334      13.786      9.373       1.018       2.001       196.726     13.58       1.48        764.967     674.371     667.968     
149.6       23.659      130.319     2.313       7.455       50.76       16.66       32.801      32.536      17.134      13.786      9.353       1.064       2.029       196.726     13.598      1.48        775.89      745.52      789.814     
149.7       21.777      130.404     2.309       7.388       50.76       16.456      32.801      32.336      16.334      13.786      9.315       1.119       2.016       196.726     13.609      1.48        611.282     595.997     650.999     
149.8       20.324      131.125     2.293       7.112       50.76       15.436      32.801      31.336      16.334      13.786      9.319       1.123       1.992       196.726     13.598      1.48        404.2       365.431     396.861     
149.9       19.77       130.522     2.293       6.788       50.76       14.62       32.801      30.336      16.134      13.586      9.298       1.106       1.949       197.254     13.535      1.48        330.251     274.563     288.125     
150.0       19.409      130.434     2.28        6.504       50.76       14.62       32.801      29.336      15.334      12.786      9.272       1.039       1.929       197.782     13.441      1.48        407.316     345.079     350.574     
150.1       19.454      131.127     2.269       6.632       50.76       14.62       32.801      28.536      15.334      12.786      9.198       1.058       1.942       197.254     13.447      1.48        502.311     437.329     438.851     
150.2       20.417      130.482     2.26        6.975       50.76       14.62       33.2        28.336      15.134      12.786      9.182       1.016       1.948       197.254     13.458      1.48        615.196     551.276     552.919     
150.3       21.38       130.565     2.254       7.47        50.76       14.62       34.801      27.536      14.334      12.586      9.158       1.021       1.95        197.254     13.627      1.48        678.449     624.014     635.468     
150.4       22.387      130.598     2.251       7.803       50.76       14.62       34.801      27.336      14.134      11.586      9.17        0.965       1.955       197.254     14.163      1.48        692.043     655.518     686.475     
150.5       21.827      130.614     2.266       7.837       50.76       14.824      34.801      26.536      13.134      10.586      9.147       0.975       1.959       198.31      14.905      1.48        683.347     637.735     663.248     
150.6       19.815      130.279     2.258       7.41        50.76       15.844      34.801      26.536      12.334      9.786       9.18        0.973       1.954       200.422     15.855      1.48        702.007     611.885     597.315     
150.7       19.32       130.681     2.278       7.038       50.76       17.068      34.801      26.136      12.334      9.586       9.186       1.019       1.953       202.006     16.878      1.48        721.364     548.571     473.633     
150.8       19.999      130.484     2.299       6.905       50.76       18.7        34.801      24.536      12.334      8.786       9.178       1.025       1.964       203.59      17.102      1.48        714.068     455.836     334.863     
150.9       20.797      131.15      2.308       6.919       50.76       18.088      34.801      24.536      12.334      8.786       9.193       1.063       1.961       204.646     16.638      1.48        660.948     398.945     291.642     
151.0       21.086      130.137     2.293       7.013       50.76       15.64       34.801      24.536      12.334      8.786       9.207       1.084       1.937       205.174     15.203      1.48        588.673     407.305     359.021     
151.1       21.478      130.825     2.306       6.768       50.76       15.64       34.801      24.536      12.334      8.786       9.174       1.131       1.918       205.702     13.486      1.48        559.49      405.27      396.312     
151.2       21.135      130.66      2.307       6.88        50.76       15.64       34.801      24.736      12.334      8.786       9.17        1.085       1.91        206.23      11.335      1.48        592.577     327.59      292.894     
151.3       20.797      130.798     2.305       6.758       50.76       15.64       34.801      25.536      12.334      8.786       9.186       1.05        1.901       206.758     9.831       1.48        698.498     255.409     145.827     
151.4       20.654      130.273     2.31        7.007       50.76       15.64       34.801      25.536      12.534      8.986       9.179       1.036       1.893       207.286     8.703       1.48        814.972     264.41      95.869      
151.5       20.893      130.47      2.291       7.053       50.76       15.64       34.801      25.536      13.334      9.786       9.192       1.075       1.981       207.286     8.327       1.48        820.125     316.921     169.206     
