~Version Information Section
VERS.                                         2.0:CWLS log ASCII Standart – VERSION 2.0
WRAP.                                          NO:One line per depth step
~Well Information Section
STRT.M                                        0.1:Начальная глубина
STOP.M                                      167.0:Конечная глубина
STEP.M                                          0:Шаг квантования по глубине
NULL.                                    -9999.25:Признак "Нет данных"
WELL.                                        143К:Скважина
~Parameter Information Section
~Curve Information Section
DEPTH.M                                          :Глубина
БК.Омм                                           :BK     (БК)
DСР.мм                                           :DS  (ДС)
ПЛОТНОСТЬ.г/см^3                                 :GGKp
ГК.гамма                                         :GK          (ГК)
ИК.мСм/м                                         :IK
НГК.усл.ед                                       :NGK     (НГК)
ННКМ.усл.ед                                      :NNKm  (ННКм)
ПС.mv                                            :PS       (ПС)
N11.0M0.5A.Омм                                   :PZ    (КС)
R.Омм                                            :RS (Резистивиметр)
КП.%                                             :W
А0.4М0.1N.Омм                                    :GZ1   ГЗ1(A0.4M0.1N)
А1.0М0.1N.Омм                                    :GZ2   ГЗ2(A1.0M0.1N)
А2.0М0.5N.Омм                                    :GZ3   ГЗ3(A2.0M0.5N)
А4.0М0.5N.Oмм                                    :GZ4   ГЗ4(A4.0M0.5N)
А8.0М1.0N.Омм                                    :GZ5   ГЗ5(A8.0M0.5N)
N0.5M2.0A.Омм                                    :GZR   ГЗK(N0.5M2.0A)
~ASCII LOG DATA
# ...
51.9        -9999.25    231.095     2.062       15.828      -9999.25    13.551      4.979       -9999.25    -9999.25    39.182      -3.765      -9999.25    -9999.25    -9999.25    -9999.25    -9999.25    -9999.25    
52.0        -9999.25    226.924     2.093       16.037      -9999.25    13.375      5.0         -9999.25    -9999.25    38.305      -3.827      -9999.25    -9999.25    -9999.25    -9999.25    -9999.25    -9999.25    
52.1        -9999.25    226.266     2.124       16.141      -9999.25    13.256      4.961       -9999.25    -9999.25    37.751      -3.887      -9999.25    -9999.25    -9999.25    -9999.25    -9999.25    -9999.25    
52.2        -9999.25    225.39      2.142       16.219      -9999.25    13.179      4.861       -9999.25    -9999.25    37.495      -3.939      -9999.25    -9999.25    -9999.25    -9999.25    -9999.25    -9999.25    
52.3        -9999.25    225.052     2.151       16.273      -9999.25    13.117      4.722       -9999.25    -9999.25    37.495      -3.975      -9999.25    -9999.25    -9999.25    -9999.25    -9999.25    -9999.25    
52.4        -9999.25    224.336     2.156       16.33       -9999.25    13.142      4.587       -9999.25    -9999.25    37.495      -3.99       -9999.25    -9999.25    -9999.25    273.839     -9999.25    11545.561   
52.5        -9999.25    224.07      2.16        16.412      -9999.25    13.204      4.494       -9999.25    -9999.25    37.495      -3.987      -9999.25    -9999.25    -9999.25    148.553     -9999.25    9720.868    
52.6        -9999.25    223.473     2.164       16.513      -9999.25    13.187      4.43        -9999.25    -9999.25    37.5        -3.973      -9999.25    -9999.25    -9999.25    53.452      -9999.25    8269.713    
52.7        -9999.25    224.08      2.168       16.279      -9999.25    13.168      4.399       -9999.25    -9999.25    37.574      -3.957      -9999.25    -9999.25    -9999.25    13.732      -9999.25    8180.899    
52.8        -9999.25    223.87      2.171       16.185      -9999.25    13.199      4.396       -9999.25    -9999.25    37.647      -3.943      -9999.25    -9999.25    -9999.25    88.354      -9999.25    8197.136    
52.9        -9999.25    224.733     2.173       16.253      -9999.25    13.267      4.398       -9999.25    -9999.25    37.659      -3.94       -9999.25    -9999.25    -9999.25    178.077     -9999.25    8447.256    
53.0        -9999.25    225.869     2.173       16.505      -9999.25    13.331      4.423       -9999.25    -9999.25    37.743      -3.947      -9999.25    -9999.25    -9999.25    183.45      -9999.25    8447.256    
53.1        -9999.25    226.443     2.171       16.852      -9999.25    13.38       4.445       -9999.25    -9999.25    37.743      -3.962      -9999.25    -9999.25    -9999.25    206.794     -9999.25    8560.323    
53.2        -9999.25    227.517     2.168       17.548      -9999.25    13.423      4.454       -9999.25    -9999.25    37.743      -3.983      -9999.25    -9999.25    -9999.25    231.29      -9999.25    8811.93     
53.3        -9999.25    228.876     2.163       18.144      -9999.25    13.442      4.449       -9999.25    -9999.25    37.732      -4.01       -9999.25    -9999.25    -9999.25    248.742     -9999.25    9356.234    
53.4        -9999.25    231.368     2.157       18.612      -9999.25    13.368      4.433       -9999.25    -9999.25    37.652      -4.04       -9999.25    -9999.25    -9999.25    266.306     -9999.25    9884.036    
53.5        -9999.25    232.486     2.153       18.816      -9999.25    13.294      4.39        -9999.25    -9999.25    37.49       -4.067      -9999.25    -9999.25    -9999.25    282.852     -9999.25    10379.059   
53.6        -9999.25    230.524     2.15        18.984      -9999.25    13.312      4.351       -9999.25    -9999.25    37.293      -4.091      -9999.25    -9999.25    -9999.25    302.816     -9999.25    10946.45    
53.7        -9999.25    230.63      2.15        19.099      -9999.25    13.313      4.312       -9999.25    -9999.25    37.037      -4.111      -9999.25    -9999.25    -9999.25    311.74      -9999.25    11325.85    
53.8        -9999.25    230.875     2.152       19.158      -9999.25    13.277      4.281       -9999.25    -9999.25    36.723      -4.127      -9999.25    -9999.25    -9999.25    319.616     -9999.25    11510.908   
53.9        -9999.25    231.314     2.154       19.173      -9999.25    13.251      4.255       -9999.25    -9999.25    36.408      -4.139      -9999.25    -9999.25    -9999.25    337.475     -9999.25    11590.086   
54.0        -9999.25    231.72      2.154       19.148      -9999.25    13.255      4.263       -9999.25    -9999.25    36.216      -4.151      -9999.25    -9999.25    -9999.25    346.325     -9999.25    11364.209   
54.1        -9999.25    231.917     2.153       19.255      -9999.25    13.275      4.272       -9999.25    -9999.25    36.177      -4.16       -9999.25    -9999.25    -9999.25    353.948     -9999.25    10889.754   
54.2        -9999.25    232.67      2.148       19.514      -9999.25    13.307      4.289       -9999.25    -9999.25    36.177      -4.175      -9999.25    -9999.25    -9999.25    361.571     -9999.25    10720.362   
54.3        -9999.25    233.309     2.139       19.832      -9999.25    13.371      4.299       -9999.25    -9999.25    36.177      -4.195      -9999.25    -9999.25    -9999.25    366.553     -9999.25    10508.419   
54.4        -9999.25    233.823     2.129       20.179      -9999.25    13.481      4.31        -9999.25    -9999.25    36.177      -4.221      -9999.25    -9999.25    -9999.25    3378.812    -9999.25    10415.906   
54.5        -9999.25    234.632     2.119       20.708      -9999.25    13.558      4.295       -9999.25    -9999.25    36.291      -4.247      -9999.25    -9999.25    -9999.25    9466.108    -9999.25    10363.517   
54.6        -9999.25    235.282     2.11        20.992      -9999.25    13.576      4.29        -9999.25    -9999.25    36.607      -4.275      -9999.25    -9999.25    -9999.25    16974.346   -9999.25    9958.354    
54.7        -9999.25    235.693     2.109       20.929      -9999.25    13.551      4.267       -9999.25    -9999.25    37.107      -4.296      -9999.25    -9999.25    -9999.25    25379.078   -9999.25    9466.373    
54.8        -9999.25    236.339     2.113       20.566      -9999.25    13.522      4.242       -9999.25    -9999.25    37.615      -4.313      -9999.25    -9999.25    -9999.25    30908.719   -9999.25    9113.784    
54.9        -9999.25    236.69      2.12        20.133      -9999.25    13.507      4.208       -9999.25    -9999.25    38.025      -4.322      -9999.25    -9999.25    -9999.25    37219.047   -9999.25    8832.963    
55.0        -9999.25    237.086     2.131       19.645      -9999.25    13.577      4.18        47.731      -9999.25    38.358      -4.325      -9999.25    -9999.25    -9999.25    44045.008   -9999.25    8689.047    
55.1        -9999.25    237.601     2.141       19.126      -9999.25    13.719      4.151       47.467      -9999.25    38.603      -4.317      60.076      -9999.25    -9999.25    45033.785   -9999.25    8575.035    
55.2        -9999.25    238.266     2.147       18.628      -9999.25    13.912      4.15        47.186      -9999.25    38.663      -4.305      60.513      -9999.25    -9999.25    43953.375   -9999.25    8349.918    
55.3        -9999.25    238.753     2.153       18.097      -9999.25    14.1        4.161       46.886      35.483      38.663      -4.291      57.186      -9999.25    -9999.25    42940.902   -9999.25    8214.934    
55.4        -9999.25    240.638     2.16        17.656      -9999.25    14.239      4.195       46.563      32.537      38.663      -4.279      51.391      -9999.25    -9999.25    41928.273   -9999.25    7995.25     
55.5        -9999.25    246.375     2.168       17.303      -9999.25    14.253      4.236       46.212      28.491      38.606      -4.273      51.453      -9999.25    -9999.25    40489.934   -9999.25    7842.47     
