~Version Information Section
VERS.                                         2.0:CWLS log ASCII Standart – VERSION 2.0
WRAP.                                          NO:One line per depth step
~Well Information Section
STRT.M                                        0.0:Начальная глубина
STOP.M                                      166.2:Конечная глубина
STEP.M                                          0:Шаг квантования по глубине
NULL.                                    -9999.25:Признак "Нет данных"
WELL.                                         1Мх:Скважина
~Parameter Information Section
~Curve Information Section
DEPTH.M                                          :Глубина
BK.lgОмм                                         :BK
ПРОФ_СР.мм                                       :ПРОФ_СР
GGKP.имп/мин                                     :GGKp
ГК.мкР/час                                       :GK
ИК.мСм/м                                         :IK
PS.мВ                                            :PS
PZ.Омм                                           :PZ
RIS.Омм                                          :RIS
U1.мВ                                            :U1
U2.мВ                                            :U2
U3.mv                                            :U3
WS.%                                             :WS
ГЗ1.Омм                                          :ГЗ1
ГЗ2.Омм                                          :ГЗ2
ГЗ3.Омм                                          :ГЗ3
ГЗ4.Oмм                                          :ГЗ4
ГЗК.Омм                                          :ГЗК
НГК.усл.ед                                       :ННКб
ННКМ.усл.ед                                      :ННКм
ГЗ5.Oмм                                          :ГЗ5
ПЛ1.имп/мин                                      :ПЛ1
ПЛ2.имп/мин                                      :ПЛ2
ПЛ3.имп/мин                                      :ПЛ3
ПЛ4.имп/мин                                      :ПЛ4
~ASCII LOG DATA
# ...
89.1        61.925      149.127     2.275       4.641       30.973      139.1       43.379      1.035       1128.521    841.488     709.986     31.219      10.469      15.103      11.277      9.925       10.719      3.529       2.349       8.571       14640.0     23860.0     15480.0     3600.0      
89.2        47.83       149.585     2.258       5.032       30.428      141.714     41.743      1.035       1126.52     906.124     797.784     32.026      7.969       12.469      10.677      9.825       10.319      3.315       2.299       8.371       15360.0     23300.0     15500.001   3760.0      
89.3        38.422      150.372     2.254       5.28        29.871      143.115     39.804      1.035       1131.739    943.554     848.012     32.735      6.333       10.633      10.277      9.725       9.819       3.129       2.237       7.971       15960.0     23600.0     15459.999   3640.0      
89.4        35.379      150.901     2.245       5.653       29.521      143.387     38.127      1.035       1125.754    944.118     848.434     33.141      5.54        9.595       10.077      9.425       9.619       3.041       2.166       7.971       15120.0     23080.0     15639.999   3720.0      
89.5        38.249      152.765     2.235       5.79        29.585      142.899     36.806      1.045       1099.996    903.596     792.702     33.101      5.821       9.593       10.077      9.325       9.419       3.045       2.101       7.771       14760.0     22480.0     15500.001   3560.0      
89.6        46.445      151.442     2.241       5.681       29.521      142.021     35.859      1.045       1038.696    832.264     711.822     32.907      6.742       9.908       9.977       9.225       9.019       3.076       2.066       7.671       16320.0     21940.0     15160.0     3380.0      
89.7        54.418      150.796     2.227       5.404       29.711      141.059     35.438      1.045       933.454     745.603     640.385     32.641      7.016       9.933       9.877       9.125       9.019       3.12        2.072       7.571       15480.0     21480.0     14140.0     3460.0      
89.8        56.429      150.02      2.219       5.254       29.903      140.134     35.89       1.045       820.503     670.907     599.103     32.421      7.018       9.764       9.577       9.125       8.819       3.148       2.103       7.471       15720.0     20680.0     14080.0     3460.0      
89.9        52.49       150.044     2.224       5.209       29.968      139.351     36.76       1.045       750.884     644.177     612.423     32.437      7.015       9.739       8.977       9.025       8.719       3.166       2.127       7.371       13320.0     20420.0     13760.0     3400.0      
90.0        46.627      150.301     2.225       5.215       30.0        138.891     37.994      1.045       712.951     648.293     657.146     32.355      6.401       9.376       8.877       8.925       8.619       3.173       2.133       7.371       12480.0     20040.0     13600.0     3400.0      
90.1        42.998      150.206     2.217       5.267       30.098      138.665     39.172      1.045       687.075     650.692     686.625     32.009      5.978       9.111       8.777       8.825       8.519       3.176       2.12        7.271       12960.0     20200.0     13720.0     3360.0      
90.2        42.889      150.907     2.219       5.439       30.0        138.454     40.178      1.045       707.176     677.906     721.348     31.765      5.993       9.184       8.777       8.725       8.519       3.158       2.105       7.171       12000.0     20260.0     14060.0     3240.0      
90.3        45.953      150.635     2.215       5.432       30.295      138.153     41.217      1.045       827.58      766.529     784.741     31.514      6.346       9.329       8.477       8.725       8.519       3.136       2.098       7.071       12360.0     20740.0     13880.0     3180.0      
90.4        49.085      149.942     2.239       5.274       30.495      137.778     42.369      1.045       963.41      839.193     803.307     31.635      6.285       9.158       8.277       8.725       8.419       3.159       2.1         6.971       12120.0     21440.0     14280.0     3460.0      
90.5        48.624      150.237     2.25        5.14        30.596      137.198     43.654      1.045       1030.594    848.275     759.903     31.823      6.12        8.845       7.977       8.725       8.319       3.233       2.112       6.871       13200.0     22000.0     14400.0     3640.0      
90.6        45.21       150.184     2.26        5.069       30.87       136.323     45.362      1.045       1067.973    843.704     717.472     31.628      5.7         8.385       7.877       8.525       8.319       3.323       2.122       6.871       15600.0     22400.0     14500.0     4000.0      
90.7        42.018      150.265     2.266       4.968       30.903      135.162     47.036      1.045       1094.484    842.02      690.902     31.743      5.44        8.29        7.777       8.525       8.219       3.362       2.126       6.771       14400.0     23300.0     14860.0     4080.0      
90.8        41.235      150.277     2.284       5.034       31.077      133.718     48.518      1.055       1062.778    808.253     653.914     31.84       4.681       8.022       7.777       8.525       8.219       3.327       2.127       6.771       14280.0     23240.0     14900.0     4080.0      
90.9        44.807      150.216     2.286       5.042       31.502      132.101     49.977      1.055       1000.089    759.536     615.707     31.878      4.605       8.143       7.777       8.525       8.219       3.281       2.133       6.771       15240.0     23040.0     14500.0     3760.0      
91.0        50.043      150.601     2.288       5.031       31.752      130.351     51.167      1.055       1035.457    782.131     629.704     31.794      4.757       8.24        7.777       8.525       8.219       3.286       2.151       6.871       14760.0     22780.0     14420.0     3420.0      
91.1        54.36       150.953     2.268       5.161       32.308      128.563     52.081      1.055       1193.957    894.935     709.954     31.402      5.133       8.337       7.777       8.425       8.219       3.34        2.175       7.071       15240.0     22880.0     14540.0     3120.0      
91.2        56.021      150.953     2.264       5.304       32.535      127.029     52.725      1.055       1349.686    1019.523    814.247     30.957      5.564       8.168       7.777       8.325       8.519       3.423       2.206       7.171       14640.0     22460.0     14020.0     2800.0      
91.3        56.669      150.699     2.245       5.326       33.118      125.929     53.007      1.055       1419.605    1099.599    906.743     30.525      5.629       8.047       7.777       8.325       8.619       3.487       2.24        7.371       15000.0     22480.0     13660.0     2700.0      
91.4        57.596      150.261     2.247       5.345       33.165      125.317     53.111      1.065       1448.94     1148.522    976.541     29.99       5.74        8.144       7.877       8.325       8.819       3.567       2.26        7.471       13560.0     22160.0     13880.0     2700.0      
91.5        58.899      150.18      2.257       5.186       33.478      125.28      53.445      1.065       1454.977    1158.901    997.113     29.592      5.782       8.338       7.977       8.325       8.919       3.611       2.261       7.771       13680.0     22040.0     13860.0     2860.0      
91.6        60.887      150.203     2.26        4.884       33.81       125.759     53.893      1.065       1380.292    1093.433    945.634     29.218      5.853       8.53        8.077       8.425       9.219       3.633       2.258       7.871       13680.0     21280.0     13800.0     3060.0      
91.7        64.857      150.319     2.27        4.676       33.81       126.699     54.802      1.065       1260.007    986.853     855.607     29.172      6.217       9.062       8.177       8.525       9.119       3.655       2.269       8.071       14400.0     21360.0     13740.0     3200.0      
