~Version Information Section
VERS.                                         2.0:CWLS log ASCII Standart – VERSION 2.0
WRAP.                                          NO:One line per depth step
~Well Information Section
STRT.M                                        2.1:Начальная глубина
STOP.M                                      196.8:Конечная глубина
STEP.M                                          0:Шаг квантования по глубине
NULL.                                    -9999.25:Признак "Нет данных"
WELL.                                       154Мх:Скважина
~Parameter Information Section
~Curve Information Section
DEPTH.M                                          :Глубина
BK.lgОмм                                         :BK     (БК)
DСР.мм                                           :DS  (ДС)
ГГКП.g/cm3                                       :GGKp
ГК.мкР/час                                       :GK          (ГК)
ГЗ1.Омм                                          :GZ1   ГЗ1(A0.4M0.1N)
ГЗ2.Омм                                          :GZ2   ГЗ2(A1.0M0.1N)
ГЗ3.Омм                                          :GZ3   ГЗ3(A2.0M0.5N)
ГЗ4.Oмм                                          :GZ4   ГЗ4(A4.0M0.5N)
ГЗ5.Oмм                                          :GZ5   ГЗ5(A8.0M0.5N)
ГЗК.Омм                                          :GZR   ГЗK(N0.5M2.0A)
ИК.мСм/м                                         :IK
НГК.усл.ед.                                      :NGK     (НГК)
РЕЗ.Омм                                          :RS (Резистивиметр)
W.                                               :W
ННКМ.усл.ед                                      :NNKm  (ННКм)
PS.мB                                            :PS       (ПС)
~ASCII LOG DATA
# ...
158.1       18.368      179.371     2.252       6.695       89.85       29.714      46.742      13.343      13.35       38.92       18.111      1.038       1.026       35.872      1.093       68.733      
158.2       17.584      178.374     2.259       6.548       90.27       29.194      46.742      13.223      13.35       38.92       18.111      1.037       1.026       35.435      1.081       68.521      
158.3       17.424      180.961     2.266       6.679       90.27       28.674      46.742      13.223      13.35       38.92       17.896      1.043       1.026       34.502      1.087       68.237      
158.4       17.314      179.14      2.288       6.599       90.69       28.154      46.742      13.103      13.21       38.92       17.563      1.079       1.026       33.894      1.099       67.966      
158.5       17.46       179.626     2.317       6.477       90.69       27.634      46.742      13.103      13.07       38.92       17.363      1.087       1.026       33.05       1.111       67.641      
158.6       17.369      181.47      2.318       6.448       90.69       27.114      46.742      13.103      13.07       38.92       17.107      1.098       1.026       32.137      1.119       67.295      
158.7       17.763      181.971     2.337       6.386       90.69       27.114      46.742      13.103      12.93       38.92       16.963      1.11        1.026       31.544      1.12        66.956      
158.8       18.431      184.413     2.326       6.429       90.27       27.114      46.742      13.103      12.79       38.92       16.776      1.127       1.026       31.263      1.119       66.563      
158.9       19.337      184.544     2.308       6.588       89.85       27.114      46.742      13.103      12.79       38.92       16.636      1.111       1.026       30.994      1.117       66.125      
159.0       19.293      185.263     2.309       6.758       89.85       27.114      46.742      13.103      12.79       38.92       16.636      1.11        1.026       30.954      1.118       65.692      
159.1       18.558      184.817     2.314       6.769       89.43       27.114      46.742      13.103      12.79       38.92       16.45       1.097       1.026       30.968      1.121       65.237      
159.2       17.614      184.344     2.287       6.946       89.01       27.114      46.742      13.103      12.79       38.92       16.325      1.077       1.026       31.048      1.124       64.839      
159.3       16.984      185.275     2.303       7.075       89.01       27.634      47.182      13.103      12.79       38.92       16.171      1.052       1.026       31.079      1.127       64.437      
159.4       16.853      185.437     2.312       7.121       88.59       27.634      47.182      13.103      12.79       38.92       16.02       1.012       1.026       31.089      1.128       63.973      
159.5       16.789      185.646     2.31        7.16        88.59       28.154      47.182      13.223      12.79       38.92       15.871      0.995       1.026       31.363      1.125       63.491      
159.6       16.661      184.041     2.315       7.171       88.59       28.154      47.182      13.343      12.93       38.92       15.694      0.978       1.026       31.927      1.119       63.03       
159.7       16.419      183.301     2.311       7.107       88.59       28.154      47.182      13.343      12.93       38.92       15.58       0.971       1.026       32.442      1.113       62.637      
159.8       16.196      182.693     2.296       6.895       88.59       28.154      47.182      13.463      12.93       38.92       15.58       0.97        1.026       33.119      1.109       62.241      
159.9       15.816      178.965     2.269       6.734       89.01       28.154      47.182      13.463      12.93       38.92       15.456      1.002       1.026       33.78       1.103       61.828      
160.0       15.537      177.898     2.232       6.695       89.85       28.154      47.182      14.063      12.93       38.92       15.339      1.025       1.026       33.905      1.096       61.395      
160.1       15.335      177.666     2.217       6.801       90.27       28.674      47.182      14.183      12.93       39.96       15.247      1.041       1.026       33.39       1.094       61.008      
160.2       15.418      177.521     2.214       6.871       91.95       29.194      47.182      14.423      13.07       41.0        15.201      1.053       1.026       32.652      1.095       60.717      
160.3       15.672      177.273     2.207       7.07        92.79       30.234      47.182      14.423      13.21       41.0        15.133      1.078       1.026       31.895      1.097       60.41       
160.4       15.936      177.934     2.234       7.106       93.63       30.234      47.182      14.663      13.35       42.04       15.133      1.068       1.026       31.128      1.102       60.088      
160.5       15.984      181.277     2.271       6.995       94.05       31.274      47.182      14.783      13.35       43.08       15.11       1.058       1.026       30.537      1.112       59.818      
160.6       15.862      183.785     2.303       6.929       94.47       31.274      47.182      15.263      13.63       43.08       15.139      1.06        1.026       30.195      1.125       59.56       
160.7       16.377      184.224     2.319       6.937       95.31       31.794      47.622      15.503      13.77       43.08       15.253      1.07        1.026       30.188      1.134       59.348      
160.8       17.325      183.976     2.328       6.908       95.31       32.314      48.062      15.743      13.91       43.08       15.392      1.053       1.026       30.427      1.14        59.146      
160.9       17.754      182.122     2.303       7.195       98.25       32.314      48.942      16.463      14.05       43.08       15.58       1.055       1.026       31.04       1.143       58.939      
161.0       17.226      179.933     2.294       7.199       98.67       32.834      49.382      16.943      14.19       45.16       15.792      1.054       1.026       31.865      1.135       58.756      
161.1       16.351      177.51      2.29        6.918       99.09       33.354      50.262      17.063      14.33       46.2        15.792      1.057       1.026       32.799      1.115       58.563      
161.2       15.286      172.587     2.303       6.297       99.51       33.874      52.022      17.423      14.75       46.2        16.02       1.063       1.026       33.194      1.1         58.322      
161.3       14.199      165.454     2.344       5.72        99.51       35.954      53.342      18.863      15.03       47.24       16.222      1.081       1.026       32.855      1.096       58.09       
161.4       13.262      164.43      2.396       4.947       99.51       36.474      54.662      19.343      15.17       48.28       16.456      1.087       1.026       32.095      1.113       57.806      
161.5       15.668      163.523     2.424       4.471       99.51       37.514      56.862      19.583      15.31       49.32       16.456      1.141       1.026       30.93       1.153       57.544      
161.6       24.877      162.67      2.449       4.159       99.93       40.634      58.182      20.303      15.45       53.48       16.88       1.16        1.026       29.801      1.208       57.243      
161.7       39.403      161.559     2.456       4.146       100.35      42.194      59.942      20.663      16.15       56.6        17.45       1.162       1.026       28.835      1.27        56.945      
161.8       51.291      160.765     2.473       4.097       100.35      45.834      62.142      21.023      16.99       60.76       18.108      1.155       1.026       28.236      1.331       56.66       
161.9       63.652      160.485     2.466       4.235       100.77      48.954      65.222      21.983      17.27       68.04       19.021      1.181       1.026       27.476      1.38        56.396      
162.0       74.035      159.894     2.47        4.296       101.19      53.634      68.302      22.223      18.11       74.28       19.717      1.17        1.026       26.912      1.418       56.112      
