~Version Information Section
VERS.                                         2.0:CWLS log ASCII Standart – VERSION 2.0
WRAP.                                          NO:One line per depth step
~Well Information Section
STRT.M                                        0.6:Начальная глубина
STOP.M                                      208.2:Конечная глубина
STEP.M                                          0:Шаг квантования по глубине
NULL.                                    -9999.25:Признак "Нет данных"
WELL.                                       156Мх:Скважина
~Parameter Information Section
~Curve Information Section
DEPTH.M                                          :Глубина
БК.Ом                                            :BK     (БК)
DСР.мм                                           :DS  (ДС)
ПЛОТНОСТЬ.г/см^3                                 :GGKp
ГК.мкР/час                                       :GK          (ГК)
А0.4М0.1N.Ом                                     :GZ1   ГЗ1(A0.4M0.1N)
А1.0М0.1N.Ом                                     :GZ2   ГЗ2(A1.0M0.1N)
А2.0М0.5N.Ом                                     :GZ3   ГЗ3(A2.0M0.5N)
А4.0М0.5N.Oм                                     :GZ4   ГЗ4(A4.0M0.5N)
А8.0М1.0N.Ом                                     :GZ5   ГЗ5(A8.0M0.5N)
N0.5M2.0A.Ом                                     :GZR   ГЗK(N0.5M2.0A)
ИК.мСм/м                                         :IK
НГК.усл.ед                                       :NGK     (НГК)
ННКМ.усл.ед                                      :NNKm  (ННКм)
ПС.mv                                            :PS       (ПС)
N11.0M0.5A.Ом                                    :PZ    (КС)
РЕЗИСТИВИМЕТР.Ом                                 :RS (Резистивиметр)
КПSIO.%                                          :W
~ASCII LOG DATA
# ...
148.6       23.834      164.306     2.215       8.103       34.792      30.869      27.495      30.331      29.508      26.569      22.474      1.014       1.11        80.725      31.419      1.31        31.277      
148.7       24.78       164.817     2.22        8.006       34.956      32.259      28.267      30.864      30.085      26.988      22.522      1.019       1.112       80.642      31.667      1.31        31.273      
148.8       24.77       165.756     2.219       8.109       34.231      32.319      28.754      30.945      30.579      27.699      22.573      1.021       1.113       80.514      31.845      1.31        31.213      
148.9       24.831      166.086     2.218       8.247       33.244      31.45       28.951      30.603      30.831      28.513      22.593      1.018       1.111       80.383      31.804      1.31        30.988      
149.0       24.93       167.14      2.217       8.464       32.835      30.686      28.955      30.015      30.745      29.15       22.551      1.014       1.093       80.291      31.443      1.31        30.674      
149.1       24.536      167.866     2.218       8.632       33.195      30.391      28.899      29.411      30.443      29.375      22.449      1.014       1.082       80.247      30.87       1.31        30.413      
149.2       23.442      167.489     2.219       8.64        33.908      30.204      28.869      28.924      30.024      29.169      22.326      1.017       1.088       80.247      30.292      1.31        30.094      
149.3       23.143      167.771     2.22        8.509       34.106      29.632      28.861      28.454      29.545      28.672      22.21       1.024       1.095       80.3        29.867      1.31        29.675      
149.4       24.706      167.675     2.217       8.42        33.386      28.692      28.784      27.838      29.109      28.06       22.113      1.034       1.1         80.418      29.635      1.31        29.356      
149.5       25.207      166.78      2.212       8.432       32.079      27.726      28.591      27.067      28.734      27.476      22.027      1.039       1.106       80.583      29.545      1.31        29.223      
149.6       24.733      166.185     2.21        8.522       30.669      26.872      28.359      26.287      28.421      27.012      21.927      1.032       1.11        80.757      29.446      1.31        29.239      
149.7       23.918      165.488     2.211       8.833       29.36       26.11       28.162      25.591      28.031      26.642      21.794      1.017       1.112       80.925      29.187      1.31        29.414      
149.8       22.674      165.538     2.216       9.233       28.429      25.589      27.94       25.017      27.638      26.211      21.62       1.001       1.096       81.097      28.731      1.31        29.747      
149.9       20.876      165.605     2.223       9.516       28.017      25.298      27.614      24.621      27.302      25.684      21.417      0.985       1.081       81.275      28.166      1.31        30.224      
150.0       19.635      165.471     2.231       9.571       28.015      25.127      27.264      24.494      27.054      25.187      21.201      0.972       1.062       81.431      27.63       1.31        30.786      
150.1       19.758      165.347     2.237       9.69        28.065      24.934      27.009      24.608      26.864      24.85       20.985      0.965       1.038       81.552      27.204      1.31        31.334      
150.2       20.425      165.572     2.238       9.721       28.032      24.764      26.878      24.812      26.93       24.733      20.827      0.967       1.023       81.664      26.906      1.31        31.766      
150.3       20.595      165.841     2.237       9.686       28.006      24.644      26.787      24.978      27.319      24.808      20.741      0.977       1.033       81.787      26.761      1.31        32.085      
150.4       20.846      165.397     2.235       9.57        28.028      24.479      26.729      25.126      27.968      25.078      20.732      0.991       1.042       81.9        26.751      1.31        32.212      
150.5       20.326      165.348     2.232       9.511       28.215      24.392      26.77       25.345      28.659      25.458      20.735      1.007       1.052       81.985      26.801      1.31        32.097      
150.6       19.68       165.589     2.229       9.414       28.623      24.59       26.95       25.692      29.385      25.813      20.739      1.022       1.063       82.046      26.823      1.31        31.832      
150.7       20.77       165.563     2.225       9.417       29.199      25.083      27.288      26.148      30.064      26.077      20.762      1.021       1.068       82.08       26.786      1.31        31.6        
150.8       21.388      165.194     2.217       9.531       29.726      25.609      27.762      26.647      30.503      26.366      20.822      1.001       1.068       82.083      26.762      1.31        31.382      
150.9       21.246      164.99      2.207       9.763       30.121      25.968      28.281      27.099      30.698      26.864      20.924      0.983       1.061       82.061      26.834      1.31        31.218      
151.0       21.765      163.929     2.196       9.975       29.917      25.848      28.639      27.344      30.856      27.601      21.015      0.98        1.056       82.044      26.968      1.31        31.178      
151.1       21.63       162.745     2.186       10.123      29.33       25.423      28.684      27.371      31.186      28.466      21.091      0.988       1.062       82.049      27.062      1.31        31.244      
151.2       21.252      162.468     2.177       10.067      28.692      24.718      28.464      27.304      31.696      29.291      21.142      1.007       1.066       82.078      27.004      1.31        31.328      
151.3       21.489      162.379     2.176       9.706       28.253      24.032      28.196      27.338      32.094      29.947      21.189      1.04        1.079       82.121      26.75       1.31        31.412      
151.4       21.654      162.491     2.183       9.349       28.443      23.964      28.075      27.587      32.182      30.329      21.227      1.067       1.105       82.188      26.43       1.31        31.476      
151.5       21.34       162.161     2.194       9.083       29.261      24.452      28.159      28.058      31.905      30.557      21.257      1.08        1.123       82.351      26.204      1.31        31.466      
151.6       19.649      161.466     2.207       9.014       30.592      25.257      28.338      28.623      31.397      30.873      21.284      1.078       1.119       82.639      26.23       1.31        31.377      
151.7       20.216      161.166     2.222       8.966       31.374      25.642      28.373      28.984      30.832      31.353      21.327      1.066       1.119       83.181      26.511      1.31        31.112      
151.8       21.999      161.092     2.234       8.966       31.152      25.33       28.093      28.878      30.321      31.951      21.388      1.05        1.11        83.868      26.918      1.31        30.724      
151.9       20.809      160.965     2.239       8.964       30.588      24.699      27.45       28.248      29.847      32.581      21.474      1.027       1.096       84.466      27.314      1.31        30.366      
152.0       21.644      161.064     2.238       8.869       30.303      24.167      26.578      27.332      29.333      33.082      21.576      1.001       1.095       84.869      27.497      1.31        30.032      
152.1       23.428      161.588     2.233       8.566       30.35       23.969      25.725      26.484      28.73       33.155      21.684      0.989       1.103       85.079      27.407      1.31        29.652      
152.2       23.188      161.812     2.22        8.318       30.395      23.928      25.102      25.907      28.054      32.537      21.777      0.996       1.113       85.185      27.248      1.31        29.384      
