~Version Information Section
VERS.                                         2.0:CWLS log ASCII Standart – VERSION 2.0
WRAP.                                          NO:One line per depth step
~Well Information Section
STRT.M                                       -0.1:Начальная глубина
STOP.M                                      197.8:Конечная глубина
STEP.M                                          0:Шаг квантования по глубине
NULL.                                    -9999.25:Признак "Нет данных"
WELL.                                       134Мх:Скважина
~Parameter Information Section
~Curve Information Section
DEPTH.M                                          :Глубина
BK.Ohm*M                                         :BK     (БК)
DS.mm                                            :DS  (ДС)
GGK.g/cm3                                        :GGKp
ГК.mcr/h                                         :GK          (ГК)
GZ1.Ohm*M                                        :GZ1   ГЗ1(A0.4M0.1N)
GZ2.Ohm*M                                        :GZ2   ГЗ2(A1.0M0.1N)
GZ3.Ohm*M                                        :GZ3   ГЗ3(A2.0M0.5N)
GZ4.Ohm*M                                        :GZ4   ГЗ4(A4.0M0.5N)
GZ5.Ohm*M                                        :GZ5   ГЗ5(A8.0M0.5N)
GZR.Ohm*M                                        :GZK   ГЗK(N0.5M2.0A)
ИК.Ohm*M                                         :IK
КП.%                                             :Кп
НГК.ue                                           :NGK     (НГК)
NNKM.                                            :NNKm  (ННКм)
PS.mv                                            :PS       (ПС)
PZ.Ohm*M                                         :PZ    (КС)
RS.Ohm*M                                         :RS (Резистивиметр)
U1.mV                                            :U1
U2.mV                                            :U2
U3.mV                                            :U3
~ASCII LOG DATA
# ...
166.3       274.246     128.189     2.405       4.37        163.363     97.434      67.486      59.327      58.549      44.571      25.979      22.024      1.369       2.754       334.2       80.4        1.06        395.212     278.787     160.923     
166.4       279.503     128.344     2.422       4.59        169.921     103.174     73.37       68.235      62.047      45.488      24.504      20.552      1.445       2.848       334.4       80.4        1.06        487.876     349.083     207.948     
166.5       240.107     128.508     2.445       5.238       170.072     104.542     75.3        71.442      63.01       45.488      23.214      19.993      1.569       2.908       334.6       80.4        1.06        510.374     396.367     314.407     
166.6       194.36      128.662     2.461       5.673       170.072     104.542     75.3        71.442      63.027      45.085      21.865      19.255      1.69        2.931       334.8       79.8        1.06        530.6       439.06      417.629     
166.7       180.838     128.865     2.466       5.264       164.46      102.483     74.342      71.167      62.076      42.665      20.608      18.665      1.769       2.973       335.0       77.8        1.06        588.947     503.51      458.126     
166.8       365.105     129.413     2.453       4.735       147.897     94.419      69.33       66.776      58.344      37.253      19.403      18.267      1.812       3.037       335.0       75.4        1.06        589.063     530.624     464.142     
166.9       476.737     130.043     2.443       4.309       120.8       78.862      58.839      55.713      51.336      29.968      18.184      17.403      1.819       3.097       335.0       68.8        1.06        544.321     512.956     498.388     
167.0       292.616     129.932     2.431       4.809       89.955      59.759      45.198      41.412      42.212      22.562      16.908      16.774      1.717       3.1         335.0       63.4        1.06        507.936     506.971     515.378     
167.1       123.041     128.808     2.415       5.204       63.858      42.547      31.555      27.687      32.522      16.409      15.615      17.851      1.562       3.026       335.0       57.6        1.06        479.915     512.67      575.265     
167.2       55.663      127.946     2.401       5.44        44.157      29.395      20.41       16.745      23.547      12.26       14.443      20.794      1.371       2.841       335.0       52.8        1.06        419.883     503.728     678.03      
167.3       28.667      127.787     2.375       5.596       30.701      21.232      12.816      9.7         16.092      10.086      13.544      24.986      1.256       2.562       335.0       48.2        1.06        388.136     478.972     869.187     
167.4       20.256      127.778     2.357       5.773       23.474      17.914      8.435       6.033       10.535      9.274       12.851      28.749      1.173       2.341       335.0       47.4        1.06        395.31      462.217     803.341     
167.5       18.609      127.807     2.338       6.154       20.281      17.248      6.323       4.313       6.839       9.125       12.267      32.032      1.15        2.214       335.2       46.4        1.06        486.762     460.642     639.448     
167.6       18.021      127.839     2.33        6.229       18.389      17.226      5.51        3.55        4.67        9.125       11.849      33.683      1.094       2.155       335.4       46.0        1.06        535.909     428.084     377.422     
167.7       17.741      127.867     2.331       6.141       17.0        17.226      5.274       3.181       3.55        9.125       11.598      34.325      1.065       2.134       335.6       45.4        1.06        542.793     364.537     275.824     
167.8       17.791      127.918     2.334       5.951       15.882      17.186      5.23        2.941       3.038       9.218       11.413      35.167      1.051       2.11        335.8       44.8        1.06        556.526     325.138     175.707     
167.9       18.115      128.025     2.338       6.102       15.042      17.145      5.23        2.735       2.819       9.472       11.224      34.436      1.084       2.084       336.0       44.4        1.06        553.157     293.546     121.228     
168.0       18.132      128.142     2.336       6.311       14.487      17.129      5.23        2.541       2.712       9.836       11.059      31.918      1.07        2.055       336.2       44.2        1.06        481.84      254.297     110.889     
168.1       17.554      128.229     2.339       6.738       14.167      17.032      5.254       2.374       2.638       10.228      10.914      30.28       1.055       2.035       336.4       43.8        1.06        469.141     253.567     141.461     
168.2       17.208      128.301     2.345       6.631       14.06       16.818      5.365       2.254       2.576       10.606      10.771      31.82       1.006       2.014       336.6       43.6        1.06        495.696     279.484     168.796     
168.3       17.294      128.418     2.353       6.658       14.06       16.491      5.608       2.179       2.518       10.967      10.692      34.257      1.03        1.986       337.0       43.4        1.06        452.042     278.074     188.144     
168.4       17.685      128.589     2.355       6.471       14.06       16.041      6.008       2.146       2.464       11.3        10.677      34.617      1.039       1.972       337.4       43.2        1.06        378.79      271.612     202.731     
168.5       18.662      128.605     2.349       6.338       14.094      15.524      6.588       2.141       2.414       11.588      10.717      34.19       1.101       1.987       337.8       43.0        1.06        326.733     275.536     231.961     
168.6       19.885      128.504     2.347       6.083       14.271      15.071      7.361       2.141       2.371       11.814      10.79       34.286      1.102       2.024       338.4       43.0        1.06        303.298     281.368     280.603     
168.7       21.423      128.411     2.343       5.929       14.544      14.739      8.362       2.141       2.335       11.976      10.869      33.942      1.087       2.074       339.4       43.0        1.06        327.858     300.993     312.654     
168.8       23.512      128.292     2.353       5.907       14.777      14.49       9.648       2.155       2.306       12.087      10.946      32.796      1.084       2.142       340.2       43.0        1.06        424.581     345.65      308.721     
168.9       24.431      128.173     2.374       5.789       14.928      14.285      11.215      2.194       2.285       12.176      11.019      31.323      1.126       2.217       341.0       43.0        1.06        552.86      393.064     284.643     
169.0       25.943      128.038     2.405       5.486       14.976      14.123      12.983      2.253       2.269       12.266      11.056      31.216      1.147       2.258       341.8       43.0        1.06        595.899     399.657     276.408     
169.1       27.095      128.15      2.43        5.215       14.976      14.007      14.822      2.333       2.26        12.38       11.047      31.3        1.159       2.262       342.6       43.0        1.06        589.727     399.214     269.474     
169.2       23.591      128.456     2.435       5.209       14.945      13.92       16.472      2.424       2.257       12.53       11.0        31.972      1.134       2.228       343.0       43.0        1.06        534.35      391.737     303.565     
169.3       19.521      128.613     2.42        5.629       14.832      13.845      17.634      2.504       2.257       12.705      10.958      32.05       1.152       2.157       343.6       43.4        1.06        443.58      366.902     378.688     
169.4       18.491      128.65      2.389       5.949       14.681      13.772      18.221      2.57        2.257       12.88       10.945      30.722      1.086       2.076       344.4       43.792      1.06        317.447     324.717     434.971     
