~Version Information Section
VERS.                                         2.0:CWLS log ASCII Standart – VERSION 2.0
WRAP.                                          NO:One line per depth step
~Well Information Section
STRT.M                                        0.5:Начальная глубина
STOP.M                                      158.2:Конечная глубина
STEP.M                                          0:Шаг квантования по глубине
NULL.                                    -9999.25:Признак "Нет данных"
WELL.                                       136Мх:Скважина
~Parameter Information Section
~Curve Information Section
DEPTH.M                                          :Глубина
BK.Ohm*M                                         :BK     (БК)
DS.mm                                            :DS  (ДС)
GGK.g/cm3                                        :GGKp
ГК.mcr/h                                         :GK          (ГК)
GZ1.Ohm*M                                        :GZ1   ГЗ1(A0.4M0.1N)
GZ2.Ohm*M                                        :GZ2   ГЗ2(A1.0M0.1N)
GZ3.Ohm*M                                        :GZ3   ГЗ3(A2.0M0.5N)
GZ4.Ohm*M                                        :GZ4   ГЗ4(A4.0M0.5N)
GZ5.Ohm*M                                        :GZ5   ГЗ5(A8.0M0.5N)
GZR.Ohm*M                                        :GZK   ГЗK(N0.5M2.0A)
ИК.Ohm*M                                         :IK
НГК.ue                                           :NGK     (НГК)
NNKM.                                            :NNKm  (ННКм)
PS.mv                                            :PS       (ПС)
PZ.Ohm*M                                         :PZ    (КС)
RS.Ohm*M                                         :RS (Резистивиметр)
U1.mV                                            :U1
U2.mV                                            :U2
U3.mV                                            :U3
КП.%                                             :Кп
~ASCII LOG DATA
# ...
144.5       154.109     127.525     2.257       4.263       78.841      40.162      22.72       6.314       8.008       58.04       32.187      1.444       2.633       124.35      50.338      1.087       -1952.0     433.333     -1715.0     30.803      
144.6       129.453     127.545     2.256       4.218       91.536      44.255      25.769      9.317       8.422       59.73       32.651      1.485       2.646       124.076     50.742      1.087       -1964.0     436.667     -1710.0     31.463      
144.7       55.978      127.586     2.235       4.243       102.824     47.469      28.725      12.575      8.706       60.298      32.95       1.516       2.648       123.844     50.966      1.087       -1975.99    449.999     -1705.0     30.961      
144.8       57.417      127.667     2.207       4.333       110.739     49.151      32.473      15.135      8.885       60.298      33.048      1.544       2.613       123.659     51.061      1.087       -1984.0     466.668     -1700.0     30.245      
144.9       72.369      127.69      2.192       4.365       110.912     49.812      35.876      15.836      8.973       60.223      32.786      1.534       2.602       123.529     51.078      1.087       -1928.0     493.332     -1685.0     30.231      
145.0       72.469      127.716     2.183       4.207       112.088     50.254      38.401      16.187      8.999       59.726      32.6        1.513       2.63        123.45      51.078      1.087       -1872.0     506.667     -1670.0     30.816      
145.1       61.317      127.733     2.199       3.913       112.088     50.45       40.105      16.473      8.999       58.835      32.353      1.48        2.617       123.408     51.078      1.087       -1803.99    509.999     -1665.0     31.523      
145.2       64.017      127.76      2.199       3.794       109.945     50.784      41.375      16.432      8.999       58.213      31.951      1.446       2.575       123.39      51.044      1.087       -1792.0     503.334     -1670.0     31.462      
145.3       68.49       127.785     2.183       3.83        108.242     50.862      41.375      16.432      8.943       57.275      31.721      1.428       2.541       123.385     50.982      1.087       -1780.0     500.0       -1654.99    31.343      
145.4       61.672      127.795     2.18        3.952       106.668     51.336      41.375      16.432      8.836       55.386      31.348      1.414       2.517       123.385     50.882      1.087       -1780.0     506.666     -1625.0     31.648      
145.5       62.123      127.753     2.171       3.975       105.712     52.103      40.995      16.432      8.719       53.706      30.888      1.453       2.531       123.385     50.742      1.087       -1780.0     506.667     -1600.0     32.416      
145.6       63.156      127.747     2.173       4.145       104.577     52.688      39.984      16.49       8.543       51.513      30.503      1.5         2.545       123.385     50.562      1.087       -1780.0     499.999     -1600.0     33.541      
145.7       66.287      127.763     2.174       4.378       103.852     52.531      39.053      16.49       8.352       48.542      30.058      1.522       2.518       123.385     50.344      1.087       -1787.99    483.334     -1614.99    34.42       
145.8       66.771      127.769     2.165       4.442       103.315     52.531      38.04       16.486      8.158       45.651      29.631      1.502       2.502       123.385     50.109      1.087       -1796.0     463.332     -1630.0     33.991      
145.9       56.584      127.79      2.144       4.273       98.77       52.022      36.705      16.298      7.977       43.352      29.098      1.501       2.523       123.385     49.89       1.087       -1804.0     443.335     -1640.0     32.859      
146.0       50.166      127.821     2.152       4.098       93.157      50.661      34.803      15.705      7.781       41.974      28.43       1.478       2.518       123.385     49.717      1.087       -1804.0     426.667     -1640.0     33.387      
146.1       48.797      127.793     2.163       4.189       86.921      49.194      33.013      15.535      7.586       41.974      27.854      1.447       2.479       123.385     49.599      1.087       -1804.0     420.0       -1650.0     34.79       
146.2       48.564      127.752     2.2         4.334       80.933      48.218      31.544      15.783      7.365       41.6        27.56       1.369       2.453       123.39      49.577      1.087       -1811.99    439.998     -1659.99    35.429      
146.3       53.987      127.737     2.245       4.475       77.315      48.003      30.447      16.004      7.137       40.156      27.154      1.346       2.442       123.403     49.577      1.087       -1820.0     453.334     -1675.0     33.812      
146.4       55.44       127.722     2.24        4.531       74.246      46.468      29.862      16.056      6.912       39.093      27.161      1.37        2.435       123.431     49.577      1.087       -1828.0     466.667     -1655.0     31.331      
146.5       63.281      127.685     2.244       4.473       71.583      45.347      29.656      16.056      6.643       37.796      27.284      1.411       2.429       123.478     49.577      1.087       -1820.0     466.667     -1635.0     30.537      
146.6       56.962      127.712     2.262       4.416       69.74       44.315      29.385      15.556      6.385       36.216      27.308      1.455       2.509       123.552     49.678      1.087       -1816.0     473.334     -1604.99    30.764      
146.7       32.204      127.771     2.246       4.531       67.23       43.084      29.062      14.918      6.162       34.013      27.381      1.452       2.591       123.659     49.913      1.087       -1812.0     480.0       -1605.0     31.289      
146.8       32.399      127.843     2.245       4.753       64.383      41.154      28.451      14.653      5.971       32.543      27.339      1.465       2.593       123.807     50.266      1.087       -1820.0     483.334     -1610.0     31.155      
146.9       37.363      127.937     2.237       5.169       58.889      37.465      27.479      14.353      5.843       31.539      27.238      1.451       2.574       124.011     50.747      1.087       -1824.0     483.333     -1625.0     33.663      
147.0       26.958      128.286     2.199       5.305       52.253      33.266      25.837      13.607      5.843       31.539      27.099      1.454       2.51        124.29      51.341      1.087       -1828.0     480.0       -1630.0     36.882      
147.1       22.157      128.283     2.18        5.179       45.676      29.557      24.107      11.968      5.843       31.539      27.267      1.473       2.437       124.647     52.03       1.087       -1828.0     473.333     -1630.0     38.14       
147.2       24.202      128.212     2.188       4.76        39.797      25.897      22.69       9.35        5.843       31.539      27.607      1.528       2.374       125.074     52.83       1.087       -1828.0     476.666     -1635.0     35.568      
147.3       36.516      128.261     2.194       4.38        34.326      23.274      22.127      7.173       5.892       31.713      28.271      1.564       2.288       125.556     53.844      1.087       -1836.0     486.667     -1640.0     31.882      
147.4       38.597      128.2       2.22        4.214       34.326      23.274      22.127      5.942       6.143       33.274      29.457      1.538       2.219       126.076     55.468      1.087       -1851.99    490.0       -1650.0     28.388      
147.5       37.954      128.096     2.281       4.147       34.326      23.274      22.127      5.077       6.629       33.274      31.045      1.483       2.355       126.6       58.094      1.087       -1868.0     483.333     -1655.0     24.505      
147.6       48.438      128.032     2.334       3.872       34.326      23.274      22.127      4.415       7.365       33.274      33.304      1.382       2.56        127.111     62.093      1.087       -1876.0     466.666     -1644.99    20.32       
