~Version Information Section
VERS.                                         2.0:CWLS log ASCII Standart – VERSION 2.0
WRAP.                                          NO:One line per depth step
~Well Information Section
STRT.M                                        0.0:Начальная глубина
STOP.M                                      208.6:Конечная глубина
STEP.M                                          0:Шаг квантования по глубине
NULL.                                    -9999.25:Признак "Нет данных"
WELL.                                       140Мх:Скважина
~Parameter Information Section
~Curve Information Section
DEPTH.M                                          :Глубина
GZ1.ohmm                                         :Подошвенный градиент-зонд А0.4М0.1N
GZ2.ohmm                                         :Подошвенный градиент-зонд А1.0М0.1N
GZ3.ohmm                                         :Подошвенный градиент-зонд А2.0М0.5N
GZ5.ohmm                                         :Подошвенный градиент-зонд А8.0М1.0N
GZ3R.GZ3R                                        :GZ3R
GZ4.ohmm                                         :Подошвенный градиент-зонд А4.0М0.5N
GGK.g/cc                                         :Плотностной гамма-гамма каротаж
ГК.ur/h                                          :Гамма каротаж
ИК.ohmm                                          :Индукционный каротаж (сопротивление),
BK.ohmm                                          :Боковой каротаж
NKTS.ue                                          :Нейтронный каротаж по тепловым нейтронам (малый зонд)
WNK.De                                           :Водородосодержание по НК
НГК.ue                                           :Нейтронный каротаж по тепловым нейтронам (большой зонд)
PZ.ohmm                                          :Потенциал-зонд ИММ 0,5А; В4 0,25М
-.                                               :-      SP mv)
DS1.m                                            :Профиль 1 сечения ствола скважины по профилеметрии
DS.m                                             :Кавернометрия
DS2.m                                            :Профиль 2 сечения ствола скважины по профилеметрии
~ASCII LOG DATA
# ...
128.0       -9999.25    -9999.25    -9999.25    -9999.25    -9999.25    -9999.25    2.383       6.062       19.365      127.632     1.861       27.568      3.161       123.505     3636.448    0.152       0.149       0.146       
128.1       83.672      124.269     183.511     40.325      156.091     58.79       -9999.25    -9999.25    -9999.25    -9999.25    -9999.25    -9999.25    -9999.25    -9999.25    -9999.25    -9999.25    -9999.25    -9999.25    
128.2       -9999.25    -9999.25    -9999.25    -9999.25    -9999.25    -9999.25    2.385       5.41        19.343      137.877     1.829       26.646      3.024       122.481     3631.461    0.151       0.148       0.145       
128.3       119.941     193.12      214.695     50.925      156.904     73.531      -9999.25    -9999.25    -9999.25    -9999.25    -9999.25    -9999.25    -9999.25    -9999.25    -9999.25    -9999.25    -9999.25    -9999.25    
128.4       -9999.25    -9999.25    -9999.25    -9999.25    -9999.25    -9999.25    2.355       5.612       19.217      120.889     1.721       28.804      2.72        127.077     3622.032    0.151       0.147       0.144       
128.5       103.809     151.953     213.079     57.355      146.748     81.085      -9999.25    -9999.25    -9999.25    -9999.25    -9999.25    -9999.25    -9999.25    -9999.25    -9999.25    -9999.25    -9999.25    -9999.25    
128.6       -9999.25    -9999.25    -9999.25    -9999.25    -9999.25    -9999.25    2.334       6.06        19.054      89.032      1.717       31.663      2.788       124.932     3614.994    0.15        0.147       0.143       
128.7       117.595     164.951     175.085     56.772      123.407     77.773      -9999.25    -9999.25    -9999.25    -9999.25    -9999.25    -9999.25    -9999.25    -9999.25    -9999.25    -9999.25    -9999.25    -9999.25    
128.8       -9999.25    -9999.25    -9999.25    -9999.25    -9999.25    -9999.25    2.373       6.215       18.991      114.916     1.774       30.224      2.781       139.991     3612.119    0.151       0.147       0.143       
128.9       111.597     139.972     154.961     53.89       112.602     72.814      -9999.25    -9999.25    -9999.25    -9999.25    -9999.25    -9999.25    -9999.25    -9999.25    -9999.25    -9999.25    -9999.25    -9999.25    
129.0       -9999.25    -9999.25    -9999.25    -9999.25    -9999.25    -9999.25    2.364       6.263       18.97       116.181     1.714       30.462      2.595       190.469     3611.499    0.151       0.148       0.144       
129.1       102.942     134.146     140.533     51.57       115.208     78.271      -9999.25    -9999.25    -9999.25    -9999.25    -9999.25    -9999.25    -9999.25    -9999.25    -9999.25    -9999.25    -9999.25    -9999.25    
129.2       -9999.25    -9999.25    -9999.25    -9999.25    -9999.25    -9999.25    2.287       6.425       18.79       84.471      1.618       30.12       2.467       188.405     3611.312    0.151       0.148       0.145       
129.3       120.534     142.162     142.001     47.002      118.125     100.266     -9999.25    -9999.25    -9999.25    -9999.25    -9999.25    -9999.25    -9999.25    -9999.25    -9999.25    -9999.25    -9999.25    -9999.25    
129.4       -9999.25    -9999.25    -9999.25    -9999.25    -9999.25    -9999.25    2.259       5.94        18.65       70.153      1.573       34.771      2.185       193.922     3615.792    0.151       0.148       0.144       
129.5       171.195     152.209     137.543     45.924      115.612     156.803     -9999.25    -9999.25    -9999.25    -9999.25    -9999.25    -9999.25    -9999.25    -9999.25    -9999.25    -9999.25    -9999.25    -9999.25    
129.6       -9999.25    -9999.25    -9999.25    -9999.25    -9999.25    -9999.25    2.301       6.472       18.553      76.364      1.663       38.13       2.444       195.648     3621.192    0.151       0.148       0.144       
129.7       194.16      145.095     122.783     45.344      113.993     145.419     -9999.25    -9999.25    -9999.25    -9999.25    -9999.25    -9999.25    -9999.25    -9999.25    -9999.25    -9999.25    -9999.25    -9999.25    
129.8       -9999.25    -9999.25    -9999.25    -9999.25    -9999.25    -9999.25    2.327       6.934       18.458      58.149      1.679       31.256      2.597       194.114     3626.21     0.151       0.148       0.145       
129.9       157.017     121.193     111.575     42.611      115.77      124.184     -9999.25    -9999.25    -9999.25    -9999.25    -9999.25    -9999.25    -9999.25    -9999.25    -9999.25    -9999.25    -9999.25    -9999.25    
130.0       -9999.25    -9999.25    -9999.25    -9999.25    -9999.25    -9999.25    2.302       6.418       18.495      82.621      1.688       32.378      2.493       190.73      3632.579    0.152       0.148       0.144       
130.1       175.603     130.216     107.31      39.789      119.672     125.419     -9999.25    -9999.25    -9999.25    -9999.25    -9999.25    -9999.25    -9999.25    -9999.25    -9999.25    -9999.25    -9999.25    -9999.25    
130.2       -9999.25    -9999.25    -9999.25    -9999.25    -9999.25    -9999.25    2.288       5.46        18.593      79.331      1.634       32.125      2.4         190.996     3630.949    0.151       0.148       0.144       
130.3       80.292      107.57      107.299     37.718      118.114     125.348     -9999.25    -9999.25    -9999.25    -9999.25    -9999.25    -9999.25    -9999.25    -9999.25    -9999.25    -9999.25    -9999.25    -9999.25    
130.4       -9999.25    -9999.25    -9999.25    -9999.25    -9999.25    -9999.25    2.302       5.443       18.534      72.647      1.663       36.211      2.385       189.785     3632.059    0.148       0.146       0.143       
130.5       153.007     120.323     100.857     35.492      110.293     115.64      -9999.25    -9999.25    -9999.25    -9999.25    -9999.25    -9999.25    -9999.25    -9999.25    -9999.25    -9999.25    -9999.25    -9999.25    
130.6       -9999.25    -9999.25    -9999.25    -9999.25    -9999.25    -9999.25    2.313       5.932       18.495      88.318      1.722       34.417      2.664       195.273     3634.415    0.147       0.145       0.144       
130.7       151.198     113.228     106.272     33.453      102.89      101.407     -9999.25    -9999.25    -9999.25    -9999.25    -9999.25    -9999.25    -9999.25    -9999.25    -9999.25    -9999.25    -9999.25    -9999.25    
130.8       -9999.25    -9999.25    -9999.25    -9999.25    -9999.25    -9999.25    2.289       6.163       18.495      83.299      1.699       30.52       2.607       187.5       3635.734    0.15        0.147       0.144       
130.9       81.512      102.749     97.273      27.053      96.028      87.209      -9999.25    -9999.25    -9999.25    -9999.25    -9999.25    -9999.25    -9999.25    -9999.25    -9999.25    -9999.25    -9999.25    -9999.25    
131.0       -9999.25    -9999.25    -9999.25    -9999.25    -9999.25    -9999.25    2.265       5.871       18.571      85.28       1.697       34.347      2.457       210.293     3631.104    0.152       0.148       0.144       
131.1       157.156     112.564     101.148     25.322      88.794      81.434      -9999.25    -9999.25    -9999.25    -9999.25    -9999.25    -9999.25    -9999.25    -9999.25    -9999.25    -9999.25    -9999.25    -9999.25    
131.2       -9999.25    -9999.25    -9999.25    -9999.25    -9999.25    -9999.25    2.293       6.347       18.495      115.481     1.682       32.502      2.555       231.129     3619.973    0.15        0.147       0.144       
131.3       147.892     113.753     102.346     26.333      86.688      80.063      -9999.25    -9999.25    -9999.25    -9999.25    -9999.25    -9999.25    -9999.25    -9999.25    -9999.25    -9999.25    -9999.25    -9999.25    
131.4       -9999.25    -9999.25    -9999.25    -9999.25    -9999.25    -9999.25    2.334       6.76        18.405      86.277      1.627       30.861      2.507       217.007     3609.86     0.151       0.147       0.144       
