~Version Information Section
VERS.                                         2.0:CWLS log ASCII Standart – VERSION 2.0
WRAP.                                          NO:One line per depth step
~Well Information Section
STRT.M                                        1.0:Начальная глубина
STOP.M                                      203.4:Конечная глубина
STEP.M                                          0:Шаг квантования по глубине
NULL.                                    -9999.25:Признак "Нет данных"
WELL.                                         3Мх:Скважина
~Parameter Information Section
~Curve Information Section
DEPTH.M                                          :Глубина
BK.Ohm*M                                         :BK
DS.mm                                            :DS  (ДС)
ГК.mcr/h                                         :GK          (ГК)
GZ1.Ohm*M                                        :GZ1   ГЗ1(A0.4M0.1N)
GZ2.Ohm*M                                        :GZ2   ГЗ2(A1.0M0.1N)
GZ3.Ohm*M                                        :GZ3   ГЗ3(A2.0M0.5N)
GZ4.Ohm*M                                        :GZ4   ГЗ4(A4.0M0.5N)
GZ5.Ohm*M                                        :GZ5   ГЗ5(A8.0M0.5N)
U2.mV                                            :U2
U3.mV                                            :U3
W.                                               :W
КП.%                                             :Кп
НГК.усл.ед                                       :ННКб
ННКМ.усл.ед                                      :ННКм
GZR.Ohm*M                                        :GZK   ГЗK(N0.5M2.0A)
ИК.Ohm*M                                         :IK
PS.mv                                            :PS       (ПС)
PZ.Ohm*M                                         :PZ    (КС)
RS.Ohm*M                                         :RS (Резистивиметр)
U1.mV                                            :U1
~ASCII LOG DATA
# ...
119.4       159.221     150.717     3.682       27.882      45.396      28.977      41.725      39.871      1962.418    1671.31     2.556       25.626      6.35        3.181       38.019      34.607      107.037     161.8       0.999       2291.311    
119.5       281.838     151.328     3.354       28.293      49.82       33.777      42.725      36.671      1913.228    1625.988    2.565       23.432      6.362       3.2         38.219      35.306      108.23      156.787     0.999       2238.881    
119.6       326.588     151.676     3.225       23.444      43.583      35.677      46.525      12.671      1829.811    1526.274    2.566       23.075      6.41        3.176       38.419      36.093      110.765     151.147     0.999       2184.468    
119.7       339.625     151.66      3.368       17.933      34.18       41.377      46.325      11.071      1734.978    1410.327    2.571       22.047      6.41        3.157       38.719      36.378      115.614     146.133     0.999       2129.088    
119.8       334.195     151.711     3.648       10.507      21.3        13.177      46.025      10.271      1633.6      1312.191    2.595       21.042      7.261       3.273       38.919      36.812      123.061     141.12      0.999       2035.277    
119.9       315.501     152.395     4.032       6.616       16.431      9.577       44.625      10.171      1516.183    1242.058    2.635       18.843      7.375       3.382       39.319      36.812      131.547     136.942     0.999       1864.764    
120.0       285.102     153.374     4.244       6.187       15.64       9.777       28.525      9.871       1381.544    1196.036    2.644       17.386      7.945       3.342       18.719      36.482      139.816     132.555     0.999       1620.376    
120.1       313.329     152.778     4.257       6.076       14.746      9.777       16.825      9.471       1263.694    1174.898    2.662       16.18       7.945       3.308       11.219      34.44       146.982     127.542     0.999       1381.99     
120.2       257.632     152.283     4.062       6.219       13.415      9.577       11.825      9.371       1199.902    1180.109    2.68        16.754      6.996       3.109       9.619       33.478      154.272     121.484     0.999       1234.576    
120.3       137.404     152.087     3.887       4.305       10.372      9.477       11.225      9.271       1209.364    1207.48     2.657       19.522      6.671       2.91        9.219       32.249      161.728     114.8       0.999       1231.967    
120.4       126.183     151.978     3.88        3.609       9.767       9.377       10.925      9.171       1253.114    1231.689    2.621       22.302      5.373       2.831       8.919       30.895      169.413     104.773     0.999       1329.804    
120.5       137.404     152.071     4.189       4.039       10.226      9.177       9.925       8.971       1294.557    1235.793    2.627       24.965      5.373       2.752       8.219       29.375      176.944     91.404      1.003       1466.03     
120.6       103.276     152.288     4.704       4.502       10.831      8.477       9.725       8.871       1311.45     1215.038    2.632       25.434      4.545       2.576       7.519       28.495      184.656     73.649      1.003       1577.865    
120.7       70.958      153.143     5.264       5.474       11.17       7.777       9.725       8.671       1312.308    1174.976    2.598       27.332      4.545       2.401       7.419       27.265      192.515     58.609      1.008       1637.413    
120.8       54.828      155.044     5.817       4.787       10.323      7.777       9.325       8.571       1269.668    1094.443    2.562       28.761      3.847       2.312       7.119       26.015      200.803     46.493      1.008       1612.654    
120.9       32.961      154.145     6.179       4.228       9.742       7.777       9.225       7.971       1142.625    943.822     2.524       31.875      3.847       2.223       7.019       24.787      210.56      39.809      1.008       1471.124    
121.0       25.177      154.682     6.461       3.29        8.751       7.777       9.025       7.971       930.849     730.31      2.483       33.561      3.368       2.183       6.719       23.874      221.304     36.466      1.008       1244.098    
121.1       23.823      154.503     6.398       2.892       8.195       7.777       8.725       7.871       704.435     518.24      2.436       36.174      3.368       2.142       6.519       22.571      231.417     36.467      1.008       999.185     
121.2       24.547      155.938     6.386       2.584       7.784       7.677       8.325       6.871       552.774     385.888     2.405       36.926      3.093       2.105       6.519       21.379      238.337     37.929      1.012       824.214     
121.3       23.605      158.381     6.336       2.617       7.977       7.377       8.225       6.371       512.567     369.68      2.404       37.075      3.093       2.058       6.419       20.652      242.411     39.6        1.012       739.166     
121.4       20.37       156.403     6.612       3.183       8.05        7.177       8.025       6.271       564.042     447.761     2.406       36.185      3.349       2.098       6.319       19.728      244.327     41.271      1.012       736.484     
121.5       20.37       156.168     6.898       2.583       7.349       6.877       7.625       5.771       656.619     561.67      2.402       36.514      3.4         2.158       5.919       19.297      245.716     43.151      1.016       785.644     
121.6       22.131      157.588     7.175       2.72        7.18        6.677       7.525       5.671       744.815     651.134     2.424       37.826      3.188       2.157       5.719       18.875      246.442     45.031      1.016       865.394     
121.7       22.284      157.073     7.132       3.106       7.373       6.377       7.325       5.371       811.102     696.674     2.44        37.656      3.117       2.143       5.519       18.64       246.829     46.911      1.016       957.04      
121.8       22.336      157.477     6.928       2.342       7.035       5.477       7.125       5.171       861.015     718.415     2.45        35.97       3.403       2.144       5.319       18.532      246.706     48.791      1.016       1041.834    
121.9       21.727      157.231     6.724       2.584       6.793       4.777       6.625       5.071       895.471     736.348     2.456       34.945      3.498       2.151       4.919       18.486      246.463     50.671      1.021       1094.021    
122.0       21.577      156.711     6.669       2.757       6.769       4.477       6.325       4.971       879.084     722.321     2.465       36.299      3.244       2.132       4.819       18.678      246.268     52.551      1.021       1072.595    
122.1       22.491      157.207     6.705       2.657       6.358       4.077       5.625       4.871       784.842     642.347     2.446       39.286      3.075       2.099       4.119       18.909      245.833     55.058      1.021       963.16      
122.2       19.409      157.972     6.591       2.71        5.633       3.877       5.425       4.871       626.645     501.388     2.436       41.839      2.994       2.119       3.919       19.142      245.082     58.4        1.021       790.326     
122.3       15.885      157.709     6.364       2.7         4.521       5.155       5.425       4.871       472.63      365.654     2.428       42.366      2.954       2.168       7.519       19.462      244.047     62.786      1.021       619.364     
122.4       15.996      155.224     6.158       3.337       4.11        5.277       5.625       6.371       371.377     288.559     2.438       41.034      3.275       2.233       8.519       19.681      243.063     67.591      1.021       490.27      
122.5       21.478      154.512     6.098       4.409       4.642       5.177       5.025       6.671       354.832     303.433     2.463       38.505      3.489       2.314       11.819      20.019      242.382     72.395      1.021       434.086     
