~Version Information Section
VERS.                                         2.0:CWLS log ASCII Standart – VERSION 2.0
WRAP.                                          NO:One line per depth step
~Well Information Section
STRT.M                                       -0.1:Начальная глубина
STOP.M                                      197.8:Конечная глубина
STEP.M                                          0:Шаг квантования по глубине
NULL.                                    -9999.25:Признак "Нет данных"
WELL.                                       134Мх:Скважина
~Parameter Information Section
~Curve Information Section
DEPTH.M                                          :Глубина
BK.Ohm*M                                         :BK     (БК)
DS.mm                                            :DS  (ДС)
GGK.g/cm3                                        :GGKp
ГК.mcr/h                                         :GK          (ГК)
GZ1.Ohm*M                                        :GZ1   ГЗ1(A0.4M0.1N)
GZ2.Ohm*M                                        :GZ2   ГЗ2(A1.0M0.1N)
GZ3.Ohm*M                                        :GZ3   ГЗ3(A2.0M0.5N)
GZ4.Ohm*M                                        :GZ4   ГЗ4(A4.0M0.5N)
GZ5.Ohm*M                                        :GZ5   ГЗ5(A8.0M0.5N)
GZR.Ohm*M                                        :GZK   ГЗK(N0.5M2.0A)
ИК.Ohm*M                                         :IK
КП.%                                             :Кп
НГК.ue                                           :NGK     (НГК)
NNKM.                                            :NNKm  (ННКм)
PS.mv                                            :PS       (ПС)
PZ.Ohm*M                                         :PZ    (КС)
RS.Ohm*M                                         :RS (Резистивиметр)
U1.mV                                            :U1
U2.mV                                            :U2
U3.mV                                            :U3
~ASCII LOG DATA
# ...
191.9       33.674      125.196     2.475       3.042       -9999.25    -9999.25    21.299      -9999.25    10.169      -9999.25    17.553      16.204      1.779       3.044       380.0       50.0        -9999.25    1120.342    1066.1      1001.041    
192.0       47.241      125.23      2.457       3.036       -9999.25    -9999.25    21.299      -9999.25    10.163      -9999.25    17.691      15.252      1.814       3.058       378.8       50.0        -9999.25    1137.971    1079.674    982.816     
192.1       57.813      125.425     2.432       3.227       -9999.25    -9999.25    21.299      -9999.25    10.158      -9999.25    18.005      14.774      1.802       3.037       377.6       51.0        -9999.25    1310.471    1129.735    1052.966    
192.2       59.209      125.702     2.402       3.284       -9999.25    -9999.25    21.3        -9999.25    -9999.25    -9999.25    18.308      15.305      1.721       2.987       376.6       51.0        -9999.25    1337.5      1132.005    1040.143    
192.3       54.748      126.016     2.377       3.329       -9999.25    -9999.25    21.301      -9999.25    -9999.25    -9999.25    18.478      16.601      1.624       2.906       375.8       51.0        -9999.25    1219.037    1086.472    994.763     
192.4       48.813      126.368     2.363       3.427       -9999.25    -9999.25    21.302      -9999.25    -9999.25    -9999.25    18.382      18.04       1.565       2.795       375.4       51.0        -9999.25    1226.093    1086.655    916.793     
192.5       38.911      127.636     2.355       3.863       -9999.25    -9999.25    -9999.25    -9999.25    -9999.25    -9999.25    18.03       20.434      1.48        2.696       375.2       51.0        -9999.25    1358.651    1132.541    975.31      
192.6       26.028      128.642     2.356       4.22        -9999.25    -9999.25    -9999.25    -9999.25    -9999.25    -9999.25    17.59       23.067      1.406       2.576       375.0       51.0        -9999.25    1336.589    1175.218    1031.554    
192.7       19.154      128.339     2.361       4.444       -9999.25    -9999.25    -9999.25    -9999.25    -9999.25    -9999.25    17.084      26.313      1.327       2.399       375.0       47.0        -9999.25    1358.52     1252.843    1139.546    
192.8       18.219      127.008     2.368       4.873       -9999.25    -9999.25    -9999.25    -9999.25    -9999.25    -9999.25    16.729      27.444      1.306       2.258       375.0       43.0        -9999.25    1427.475    1315.079    1301.536    
192.9       19.464      125.659     2.364       5.276       -9999.25    -9999.25    -9999.25    -9999.25    -9999.25    -9999.25    16.467      27.367      1.293       2.233       375.0       41.0        -9999.25    1366.068    1284.028    1356.722    
193.0       21.049      125.355     2.356       5.636       -9999.25    -9999.25    -9999.25    -9999.25    -9999.25    -9999.25    16.291      26.363      1.28        2.285       375.0       38.0        -9999.25    1154.296    1156.824    1251.059    
193.1       22.201      125.025     2.346       5.562       -9999.25    -9999.25    -9999.25    -9999.25    -9999.25    -9999.25    16.176      25.569      1.282       2.357       375.0       38.0        -9999.25    925.655     976.478     1012.428    
193.2       23.468      124.671     2.351       5.849       -9999.25    -9999.25    -9999.25    -9999.25    -9999.25    -9999.25    16.104      27.19       1.28        2.417       375.0       36.0        -9999.25    753.019     793.126     801.719     
193.3       23.902      124.546     2.368       5.733       -9999.25    -9999.25    -9999.25    -9999.25    -9999.25    -9999.25    16.13       29.175      1.31        2.461       375.0       38.0        -9999.25    633.363     657.125     658.44      
193.4       24.974      124.511     2.389       5.31        -9999.25    -9999.25    -9999.25    -9999.25    -9999.25    -9999.25    16.234      28.716      1.34        2.483       375.0       40.0        -9999.25    543.484     573.932     554.627     
193.5       32.684      124.57      2.407       4.526       -9999.25    -9999.25    -9999.25    -9999.25    -9999.25    -9999.25    16.36       26.315      1.426       2.5         375.0       42.0        -9999.25    503.33      546.379     553.441     
193.6       40.253      124.646     2.413       4.269       -9999.25    -9999.25    -9999.25    -9999.25    -9999.25    -9999.25    16.464      21.912      1.429       2.531       375.0       40.0        -9999.25    506.356     565.968     615.381     
193.7       39.417      124.682     2.409       4.705       -9999.25    -9999.25    -9999.25    -9999.25    -9999.25    -9999.25    16.395      21.186      1.384       2.532       375.0       39.0        -9999.25    479.62      582.507     742.528     
193.8       31.684      124.557     2.391       5.417       -9999.25    -9999.25    -9999.25    -9999.25    -9999.25    -9999.25    16.095      22.365      1.251       2.479       375.0       34.0        -9999.25    455.589     578.164     871.731     
193.9       22.111      125.049     2.363       6.097       -9999.25    -9999.25    -9999.25    -9999.25    -9999.25    -9999.25    15.69       26.536      1.175       2.336       375.0       32.0        -9999.25    457.477     547.494     844.872     
194.0       17.319      125.523     2.334       6.31        -9999.25    -9999.25    -9999.25    -9999.25    -9999.25    -9999.25    15.296      30.162      1.134       2.121       375.0       29.0        -9999.25    482.875     536.001     659.881     
194.1       16.499      125.088     2.317       6.318       -9999.25    -9999.25    -9999.25    -9999.25    -9999.25    -9999.25    14.998      32.588      1.116       1.97        375.0       27.0        -9999.25    538.326     552.195     489.075     
194.2       16.514      125.133     2.316       6.131       -9999.25    -9999.25    -9999.25    -9999.25    -9999.25    -9999.25    14.946      33.416      1.082       1.935       375.0       27.0        -9999.25    623.775     567.089     490.671     
194.3       16.535      124.329     2.33        6.291       -9999.25    -9999.25    -9999.25    -9999.25    -9999.25    -9999.25    15.06       32.129      1.106       1.987       375.0       28.0        -9999.25    706.743     598.512     580.918     
194.4       16.541      123.184     2.346       6.467       -9999.25    -9999.25    -9999.25    -9999.25    -9999.25    -9999.25    15.254      29.885      1.119       2.086       375.0       28.0        -9999.25    773.212     633.602     587.469     
194.5       16.541      123.223     2.354       6.754       -9999.25    -9999.25    -9999.25    -9999.25    -9999.25    -9999.25    15.483      27.951      1.254       2.191       375.0       26.0        -9999.25    825.608     626.86      501.116     
194.6       16.539      123.173     2.353       6.616       -9999.25    -9999.25    -9999.25    -9999.25    -9999.25    -9999.25    15.697      29.094      1.293       2.251       375.0       25.0        -9999.25    835.082     662.649     405.542     
194.7       16.54       122.746     2.348       6.488       -9999.25    -9999.25    -9999.25    -9999.25    -9999.25    -9999.25    15.842      29.022      1.386       2.276       375.0       25.0        -9999.25    834.072     656.406     565.632     
194.8       16.542      121.968     2.346       6.227       -9999.25    -9999.25    -9999.25    -9999.25    -9999.25    -9999.25    15.926      27.757      1.369       2.311       375.2       25.0        -9999.25    822.574     608.126     632.507     
194.9       16.542      121.281     2.357       6.026       -9999.25    -9999.25    -9999.25    -9999.25    -9999.25    -9999.25    15.932      25.079      1.393       2.381       375.4       25.0        -9999.25    783.777     595.207     606.215     
195.0       16.538      120.766     2.379       5.949       -9999.25    -9999.25    -9999.25    -9999.25    -9999.25    -9999.25    15.863      23.911      1.395       2.455       375.6       25.0        -9999.25    717.671     617.638     431.291     
