~Version Information Section
VERS.                                         2.0:CWLS log ASCII Standart – VERSION 2.0
WRAP.                                          NO:One line per depth step
~Well Information Section
STRT.M                                        0.6:Начальная глубина
STOP.M                                      208.2:Конечная глубина
STEP.M                                          0:Шаг квантования по глубине
NULL.                                    -9999.25:Признак "Нет данных"
WELL.                                       156Мх:Скважина
~Parameter Information Section
~Curve Information Section
DEPTH.M                                          :Глубина
БК.Ом                                            :BK     (БК)
DСР.мм                                           :DS  (ДС)
ПЛОТНОСТЬ.г/см^3                                 :GGKp
ГК.мкР/час                                       :GK          (ГК)
А0.4М0.1N.Ом                                     :GZ1   ГЗ1(A0.4M0.1N)
А1.0М0.1N.Ом                                     :GZ2   ГЗ2(A1.0M0.1N)
А2.0М0.5N.Ом                                     :GZ3   ГЗ3(A2.0M0.5N)
А4.0М0.5N.Oм                                     :GZ4   ГЗ4(A4.0M0.5N)
А8.0М1.0N.Ом                                     :GZ5   ГЗ5(A8.0M0.5N)
N0.5M2.0A.Ом                                     :GZR   ГЗK(N0.5M2.0A)
ИК.мСм/м                                         :IK
НГК.усл.ед                                       :NGK     (НГК)
ННКМ.усл.ед                                      :NNKm  (ННКм)
ПС.mv                                            :PS       (ПС)
N11.0M0.5A.Ом                                    :PZ    (КС)
РЕЗИСТИВИМЕТР.Ом                                 :RS (Резистивиметр)
КПSIO.%                                          :W
~ASCII LOG DATA
# ...
74.6        13.925      168.879     2.149       8.425       17.667      15.125      16.653      21.991      6.701       19.065      15.347      0.875       0.946       48.144      18.135      1.31        36.746      
74.7        13.868      167.933     2.139       8.576       17.668      14.618      16.547      21.075      6.674       19.355      15.293      0.896       0.944       48.49       17.8        1.31        37.176      
74.8        13.747      166.379     2.137       8.719       17.786      14.205      16.485      20.217      6.678       19.407      15.283      0.92        0.948       48.829      17.608      1.31        37.418      
74.9        13.735      166.476     2.139       8.856       17.88       13.843      16.351      19.481      6.746       19.256      15.302      0.946       0.952       49.139      17.564      1.31        37.538      
75.0        13.967      166.584     2.145       8.951       17.773      13.468      16.138      18.932      6.885       19.001      15.348      0.966       0.956       49.403      17.615      1.31        37.571      
75.1        14.114      166.328     2.153       8.927       17.386      13.076      15.997      18.627      7.089       18.776      15.427      0.969       0.963       49.602      17.694      1.31        37.706      
75.2        14.022      166.28      2.163       8.796       17.0        12.933      16.092      18.586      7.344       18.675      15.526      0.956       0.965       49.782      17.766      1.31        38.107      
75.3        13.95       166.125     2.171       8.748       16.943      13.201      16.429      18.855      7.635       18.754      15.627      0.939       0.963       49.944      17.826      1.31        38.528      
75.4        13.984      165.978     2.178       8.89        17.178      13.715      16.967      19.456      7.91        19.113      15.71       0.916       0.956       50.092      17.879      1.31        38.896      
75.5        13.682      165.824     2.187       9.016       17.552      14.321      17.677      20.25       8.151       19.788      15.785      0.895       0.954       50.247      17.957      1.31        39.202      
75.6        13.198      165.629     2.193       9.153       18.174      15.054      18.451      20.933      8.362       20.658      15.846      0.894       0.957       50.413      18.098      1.31        39.203      
75.7        13.057      165.159     2.191       9.319       19.489      16.059      19.072      21.267      8.559       21.635      15.922      0.908       0.958       50.609      18.29       1.31        38.802      
75.8        13.277      164.764     2.185       9.401       21.127      16.816      19.349      21.229      8.701       22.681      16.039      0.921       0.981       50.806      18.499      1.31        37.98       
75.9        14.447      164.145     2.177       9.194       22.061      16.659      19.244      20.891      8.787       23.679      16.232      0.933       1.012       50.981      18.723      1.31        36.92       
76.0        15.795      163.506     2.165       8.772       22.117      15.833      18.757      20.314      8.828       24.326      16.496      0.944       1.03        51.082      18.975      1.31        35.865      
76.1        16.149      163.07      2.154       8.424       21.901      15.047      18.045      19.697      8.882       24.479      16.83       0.953       1.037       51.124      19.242      1.31        34.904      
76.2        17.844      162.683     2.148       8.252       21.926      14.752      17.431      19.329      8.968       24.304      17.199      0.959       1.055       51.124      19.451      1.31        34.357      
76.3        20.055      161.69      2.146       8.046       21.798      14.792      17.212      19.414      9.101       23.994      17.564      0.965       1.056       50.772      19.618      1.31        34.509      
76.4        19.649      161.218     2.143       7.853       21.243      14.997      17.487      20.034      9.27        23.633      17.869      0.97        1.047       49.868      19.863      1.31        35.004      
76.5        17.029      158.404     2.14        7.857       20.869      15.612      18.172      21.053      9.436       23.353      18.086      0.973       1.03        48.648      20.268      1.31        35.716      
76.6        15.555      154.452     2.14        7.776       21.362      17.028      19.069      22.158      9.552       23.433      18.204      0.975       1.014       47.348      20.774      1.31        36.354      
76.7        15.749      154.152     2.14        7.598       22.961      19.184      19.901      23.017      9.626       24.113      18.261      0.982       0.986       46.403      21.197      1.31        36.668      
76.8        15.961      154.562     2.142       7.435       24.539      20.732      20.399      23.386      9.675       25.48       18.305      0.994       0.957       46.002      21.503      1.31        36.617      
76.9        15.938      156.482     2.149       7.303       25.181      20.625      20.354      23.065      9.806       27.115      18.394      0.999       0.957       45.841      21.795      1.31        36.141      
77.0        15.85       157.228     2.161       7.206       25.162      19.293      19.695      22.124      10.005      28.233      18.553      0.995       0.975       46.092      22.09       1.31        35.12       
77.1        16.946      157.197     2.172       7.213       25.067      17.86       18.758      21.228      10.207      28.334      18.797      0.989       1.01        46.941      22.229      1.31        34.139      
77.2        19.588      156.452     2.181       7.271       24.886      16.978      18.14       21.107      10.296      27.547      19.12       0.975       1.044       48.044      22.156      1.31        33.208      
77.3        22.053      156.268     2.187       7.35        24.325      16.863      18.193      21.859      10.307      26.294      19.479      0.955       1.077       48.973      22.096      1.31        32.544      
77.4        22.047      155.786     2.185       7.482       24.067      17.894      18.855      23.053      10.331      24.94       19.783      0.946       1.093       49.255      22.319      1.31        32.423      
77.5        19.235      153.846     2.174       7.616       24.491      19.693      19.909      24.297      10.398      24.009      19.973      0.95        1.101       48.838      22.896      1.31        32.69       
77.6        18.102      152.583     2.157       7.735       25.288      21.535      21.099      25.271      10.514      23.904      20.022      0.959       1.089       48.193      23.684      1.31        33.022      
77.7        17.256      152.426     2.136       7.824       26.088      22.986      22.007      25.576      10.685      24.454      19.983      0.974       1.075       47.538      24.419      1.31        33.444      
77.8        16.287      152.74      2.113       7.96        26.916      23.853      22.331      25.06       11.012      25.113      19.926      0.994       1.058       46.856      24.841      1.31        33.711      
77.9        16.935      152.974     2.095       8.091       27.444      23.661      22.131      23.99       11.793      25.528      19.92       1.004       1.042       46.373      24.874      1.31        33.728      
78.0        19.799      151.949     2.085       8.201       27.094      22.336      21.707      22.796      13.617      25.569      19.998      1.003       1.048       46.41       24.629      1.31        33.56       
78.1        22.634      153.799     2.086       8.258       26.11       20.811      21.259      21.789      16.248      25.09       20.122      1.004       1.061       46.879      24.298      1.31        33.274      
78.2        22.67       155.55      2.096       8.287       25.195      20.0        20.9        21.147      19.331      24.091      20.265      1.004       1.07        47.063      24.063      1.31        33.148      
