~Version Information Section
VERS.                                         2.0:CWLS log ASCII Standart – VERSION 2.0
WRAP.                                          NO:One line per depth step
~Well Information Section
STRT.M                                       -0.3:Начальная глубина
STOP.M                                      200.8:Конечная глубина
STEP.M                                          0:Шаг квантования по глубине
NULL.                                    -9999.25:Признак "Нет данных"
WELL.                                       124Мх:Скважина
~Parameter Information Section
~Curve Information Section
DEPTH.M                                          :Глубина
U1.мВ                                            :U1
U2.                                              :U2
U3.мВ                                            :U3
БЗ.имп/мин                                       :БЗ
ГГКП.имп/мин                                     :ГГКп
ГЗ1.Омм                                          :ГЗ1
ГЗ2.Омм                                          :ГЗ2
ГЗ3.Омм                                          :ГЗ3
ГЗ4.Oмм                                          :ГЗ4
ГЗ5.Oмм                                          :ГЗ5
ГЗК.Омм                                          :ГЗК
КП.%                                             :Кп
МЗ.                                              :МЗ жесткий
НГК.усл.ед                                       :ННКб
ННКМ.усл.ед                                      :ННКм
ПРОФ_СР.мм                                       :ПРОФ_СР
ПС.мВ                                            :ПС
BK.lgОмм                                         :BK
ГК.имп/мин                                       :GK
ИК.мСм/м                                         :IK
PZ.Омм                                           :PZ
RIS.Омм                                          :RIS
~ASCII LOG DATA
# ...
72.2        1246.438843 3355.5354   1418.117065 18387.1425782.230679    12.128      14.944      27.98       27.976      32.312      28.030001   24.423294   24312.8574222.990185    2.118157    149.802994  421.343994  52.360043   3.456       33.015285   90.080002   1.06        
72.3        1285.648315 3373.583984 1409.917358 19560.0     2.24154     12.089      14.911      28.18       27.992001   32.264      27.854      24.050179   25467.1425783.172071    2.11142     149.783005  424.424011  51.522865   3.593       33.120258   87.519997   1.06        
72.4        1337.540283 3386.082275 1370.175659 21390.6660162.251476    12.065      14.891      28.379999   28.0        32.192001   27.73       24.077721   26357.3339843.291627    2.101896    149.658997  427.503998  52.601723   3.648       33.080818   86.080002   1.06        
72.5        1360.006958 3389.693604 1346.01062  22480.0     2.254353    12.035      14.869      28.620001   28.0        32.119999   27.653999   24.539307   26365.3339843.363925    2.181333    149.843002  431.200012  58.884361   3.782       33.070969   84.639999   1.06        
72.6        1353.046997 3384.418457 1337.422974 22555.7148442.249427    11.992      14.851      28.74       28.0        32.032001   27.632      25.578388   25958.5722663.20975     2.300475    150.048004  434.279999  69.984207   3.648       33.200531   83.599998   1.06        
72.7        1351.361938 3380.23877  1333.305908 22480.0     2.23694     11.956      14.846      28.879999   28.0        31.944      27.632      26.571255   25372.8574222.998558    2.287877    150.229004  436.743988  81.846474   2.976       33.332222   83.040001   1.06        
72.8        1384.381714 3386.041992 1318.080078 21888.5722662.233161    11.922      14.844      29.02       28.0        31.856001   27.632      26.343809   25522.8574222.914825    2.202881    150.889999  438.59201   77.268059   3.04        33.287838   82.639999   1.06        
72.9        1412.628296 3405.27002  1341.287354 21878.5722662.234908    11.89       14.826      29.18       28.0        31.768      27.632      25.520025   25630.0     2.88971     2.114664    151.429993  440.440002  60.673634   3.168       33.370041   82.239998   1.06        
73.0        1401.168335 3439.922607 1414.032715 21994.2851562.24392     11.868      14.808      29.34       28.0        31.68       27.667      24.797396   25491.4277342.992976    2.091985    151.692993  442.287994  55.080776   3.309       33.480648   81.760002   1.06        
73.1        1367.13501  3472.646973 1536.317383 22094.2851562.257455    11.833      14.789      29.5        28.0        31.608      27.76       24.089947   25557.1425783.145788    2.157679    151.738007  443.519989  57.41164    3.379       33.6689     81.519997   1.06        
73.2        1353.333252 3503.333008 1572.025513 22348.5722662.265725    11.762      14.759      29.620001   28.0        31.535999   27.907      23.264999   25612.8574223.384426    2.22651     151.608994  444.752014  67.608307   4.301       33.569439   81.279999   1.06        
73.3        1356.666748 3520.000488 1521.153198 22515.7148442.259975    11.663      14.712      29.74       28.0        31.464001   28.096001   23.466129   25835.7148443.334889    2.289486    151.087997  445.984009  76.736145   4.262       33.535664   81.040001   1.06        
73.4        1363.333374 3533.333252 1436.546997 22255.7148442.245191    11.535      14.662      29.799999   28.0        31.4        28.278      23.80896    25968.5722663.121133    2.265938    150.311996  447.216003  70.145523   4.07        33.534542   80.800003   1.06        
73.5        1370.0      3540.0      1419.494629 22274.2851562.230384    11.386      14.601      29.799999   28.0        31.336      28.388      24.067696   26110.0     3.153542    2.205298    150.406006  447.832001  60.813507   4.102       33.420223   80.639999   1.06        
73.6        1380.0      3543.333252 1448.25769  21852.8574222.217351    11.238      14.523      29.799999   28.0        31.264      28.392      24.550247   25735.7148443.194632    2.180031    150.462997  448.447998  54.575783   4.166       33.509819   80.480003   1.06        
73.7        1386.666504 3546.666504 1470.0      21328.5722662.211817    11.102      14.452      29.799999   28.0        31.191999   28.392      24.797623   24842.8574223.159743    2.165162    150.490997  449.063995  52.360043   4.115       33.597633   80.239998   1.06        
73.8        1393.333496 3570.000732 1470.0      21627.1425782.216192    10.968      14.382      29.76       27.992001   31.112      28.392      25.068674   24625.7148443.101428    2.166912    150.505997  449.679993  52.119473   4.09        33.438107   80.080002   1.06        
73.9        1403.333374 3590.0      1473.333374 21740.0     2.220777    10.832      14.303      29.66       27.976      31.007999   28.281      25.581541   25107.6914063.008792    2.159492    150.725006  449.679993  52.119473   4.202       33.161995   79.839996   1.06        
74.0        1420.0      3603.333252 1476.666626 22255.7148442.22332     10.694      14.215      29.52       27.952      30.896      28.077999   25.839472   25630.0     2.995302    2.132863    150.891998  449.679993  54.82769    4.224       33.187309   79.519997   1.06        
74.1        1433.333374 3596.666748 1480.0      23188.5722662.228445    10.556      14.121      29.360001   27.912001   30.775999   27.837999   25.894751   26812.8574223.042517    2.14635     150.990005  449.679993  60.953686   3.648       33.261265   79.120003   1.06        
74.2        1449.999634 3586.666748 1486.666382 24045.7148442.234962    10.454      14.031      29.200001   27.848      30.648001   27.639      25.338339   27724.2851563.078336    2.190082    151.139999  449.679993  72.110756   3.734       33.05785    78.559998   1.06        
74.3        1460.000366 3593.333496 1493.333618 24393.8457032.246346    10.402      13.954      29.0        27.775999   30.528      27.504999   24.300722   27246.1542973.162302    2.166428    151.75      449.679993  74.47319    3.821       32.991322   78.0        1.06        
74.4        1470.0      3600.0      1503.333374 24682.8574222.267918    10.399      13.901      28.84       27.68       30.424      27.474001   23.860455   26644.2851563.279225    2.142422    152.164001  449.679993  71.944893   3.807       32.971745   77.279999   1.06        
74.5        1466.666626 3610.0      1510.0      24642.6660162.288751    10.399      13.865      28.700001   27.544001   30.327999   27.474001   23.214535   25944.0     3.497228    2.215314    151.559998  449.679993  75.1623     3.802       32.968483   76.639999   1.06        
74.6        1463.333374 3610.0      1516.666626 24223.0761722.304445    10.399      13.843      28.58       27.384001   30.24       27.474001   22.567427   25343.0761723.758199    2.341551    151.151993  449.679993  78.704582   3.648       32.89257    76.080002   1.06        
74.7        1460.0      3610.0      1523.333252 24364.0     2.307046    10.399      13.833      28.459999   27.191999   30.16       27.474001   23.472157   25692.0     3.694009    2.47255     150.776993  450.29599   108.143372  3.648       32.675468   75.839996   1.06        
74.8        1466.66687  3610.0      1530.000244 24478.5722662.295555    10.427      13.824      28.379999   26.959999   30.08       27.569      25.464521   26000.0     3.28511     2.467313    151.104996  450.911987  126.473633  3.84        32.621105   75.599998   1.06        
74.9        1473.333374 3610.0      1543.333374 24223.0761722.274477    10.469      13.81       28.32       26.712      29.983999   27.804001   26.240946   26130.7695313.223701    2.36118     151.251999  452.144012  122.743919  3.75        32.518208   75.360001   1.06        
75.0        1486.666626 3610.0      1556.666626 23841.3339842.251325    10.486      13.791      28.24       26.48       29.872      28.174      26.827879   26009.3339843.058334    2.285764    151.445999  453.992004  113.762726  3.571       32.347805   75.120003   1.06        
