~Version Information Section
VERS.                                         2.0:CWLS log ASCII Standart – VERSION 2.0
WRAP.                                          NO:One line per depth step
~Well Information Section
STRT.M                                       -2.2:Начальная глубина
STOP.M                                      205.6:Конечная глубина
STEP.M                                          0:Шаг квантования по глубине
NULL.                                    -9999.25:Признак "Нет данных"
WELL.                                       108Мх:Скважина
~Parameter Information Section
~Curve Information Section
DEPTH.M                                          :Глубина
BK.Ohm*M                                         :BK     (БК)
DS.mm                                            :DS  (ДС)
GGK.g/cm3                                        :GGKp
ГК.mcr/h                                         :GK          (ГК)
GZ1.Ohm*M                                        :GZ1   ГЗ1(A0.4M0.1N)
GZ2.Ohm*M                                        :GZ2   ГЗ2(A1.0M0.1N)
GZ3.Ohm*M                                        :GZ3   ГЗ3(A2.0M0.5N)
GZ4.Ohm*M                                        :GZ4   ГЗ4(A4.0M0.5N)
GZ5.Ohm*M                                        :GZ5   ГЗ5(A8.0M0.5N)
GZR.Ohm*M                                        :GZK   ГЗK(N0.5M2.0A)
ИК.Ohm*M                                         :IK
НГК.ue                                           :NGK     (НГК)
NNKM.                                            :NNKm  (ННКм)
PS.mv                                            :PS       (ПС)
PZ.Ohm*M                                         :PZ    (КС)
RS.Ohm*M                                         :RS (Резистивиметр)
U1.mV                                            :U1
U2.mV                                            :U2
U3.mV                                            :U3
КП.%                                             :Кп
~ASCII LOG DATA
# ...
111.0       -9999.25    129.18      -9999.25    -9999.25    148.193     169.648     22.998      6.947       19.809      30.081      -9999.25    -9999.25    -9999.25    756.561     40.336      3.61        1140.725    1015.048    924.103     -9999.25    
111.03      66.446      -9999.25    2.251       4.952       -9999.25    -9999.25    -9999.25    -9999.25    -9999.25    -9999.25    15.146      1.49        1.85        -9999.25    -9999.25    -9999.25    -9999.25    -9999.25    -9999.25    32.075      
111.1       -9999.25    128.217     -9999.25    -9999.25    148.193     169.648     22.998      6.947       19.809      30.081      -9999.25    -9999.25    -9999.25    749.161     39.277      3.667       1229.447    1088.331    993.503     -9999.25    
111.13      78.826      -9999.25    2.255       4.672       -9999.25    -9999.25    -9999.25    -9999.25    -9999.25    -9999.25    15.045      1.479       1.882       -9999.25    -9999.25    -9999.25    -9999.25    -9999.25    -9999.25    31.664      
111.2       -9999.25    127.797     -9999.25    -9999.25    148.193     169.648     22.998      6.947       19.809      30.081      -9999.25    -9999.25    -9999.25    740.889     38.221      3.666       1274.005    1164.243    1073.21     -9999.25    
111.23      72.733      -9999.25    2.265       4.306       -9999.25    -9999.25    -9999.25    -9999.25    -9999.25    -9999.25    14.945      1.493       1.913       -9999.25    -9999.25    -9999.25    -9999.25    -9999.25    -9999.25    30.935      
111.3       -9999.25    127.855     -9999.25    -9999.25    148.193     169.648     22.998      6.947       19.809      30.081      -9999.25    -9999.25    -9999.25    733.402     37.222      3.683       1209.76     1180.924    1141.471    -9999.25    
111.33      102.568     -9999.25    2.253       4.103       -9999.25    -9999.25    -9999.25    -9999.25    -9999.25    -9999.25    14.846      1.536       1.951       -9999.25    -9999.25    -9999.25    -9999.25    -9999.25    -9999.25    30.146      
111.4       -9999.25    127.957     -9999.25    -9999.25    148.193     169.648     22.998      6.947       19.809      30.081      -9999.25    -9999.25    -9999.25    728.347     36.295      3.709       1081.079    1133.364    1167.517    -9999.25    
111.43      163.264     -9999.25    2.24        4.222       -9999.25    -9999.25    -9999.25    -9999.25    -9999.25    -9999.25    14.749      1.641       1.997       -9999.25    -9999.25    -9999.25    -9999.25    -9999.25    -9999.25    29.533      
111.5       -9999.25    127.865     -9999.25    -9999.25    148.193     169.648     22.998      6.947       19.809      30.081      -9999.25    -9999.25    -9999.25    725.926     35.441      3.706       931.97      1054.848    1119.726    -9999.25    
111.53      206.793     -9999.25    2.226       4.359       -9999.25    -9999.25    -9999.25    -9999.25    -9999.25    -9999.25    14.653      1.689       2.04        -9999.25    -9999.25    -9999.25    -9999.25    -9999.25    -9999.25    28.921      
111.6       -9999.25    127.906     -9999.25    -9999.25    148.193     169.648     22.998      6.947       19.809      30.081      -9999.25    -9999.25    -9999.25    727.687     34.657      3.675       822.77      943.694     991.263     -9999.25    
111.63      286.911     -9999.25    2.21        4.482       -9999.25    -9999.25    -9999.25    -9999.25    -9999.25    -9999.25    14.558      1.691       2.096       -9999.25    -9999.25    -9999.25    -9999.25    -9999.25    -9999.25    28.573      
111.7       -9999.25    128.094     -9999.25    -9999.25    148.193     169.648     22.998      6.947       19.809      30.081      -9999.25    -9999.25    -9999.25    733.404     33.934      3.679       752.148     829.084     817.087     -9999.25    
111.73      309.149     -9999.25    2.205       4.482       -9999.25    -9999.25    -9999.25    -9999.25    -9999.25    -9999.25    14.464      1.623       2.119       -9999.25    -9999.25    -9999.25    -9999.25    -9999.25    -9999.25    28.289      
111.8       -9999.25    128.507     -9999.25    -9999.25    148.193     169.648     22.998      6.947       19.809      30.081      -9999.25    -9999.25    -9999.25    743.231     33.264      3.686       746.542     734.087     686.941     -9999.25    
111.83      159.734     -9999.25    2.212       4.675       -9999.25    -9999.25    -9999.25    -9999.25    -9999.25    -9999.25    14.372      1.543       2.087       -9999.25    -9999.25    -9999.25    -9999.25    -9999.25    -9999.25    28.166      
111.9       -9999.25    129.478     -9999.25    -9999.25    148.193     169.648     22.998      6.947       19.809      30.081      -9999.25    -9999.25    -9999.25    756.934     32.643      3.639       771.678     711.631     658.605     -9999.25    
111.93      212.268     -9999.25    2.225       5.019       -9999.25    -9999.25    -9999.25    -9999.25    -9999.25    -9999.25    14.281      1.466       2.039       -9999.25    -9999.25    -9999.25    -9999.25    -9999.25    -9999.25    28.304      
112.0       -9999.25    129.61      -9999.25    -9999.25    148.193     169.648     22.998      6.947       19.809      30.081      -9999.25    -9999.25    -9999.25    772.336     32.076      3.595       803.704     763.388     767.028     -9999.25    
112.03      133.507     -9999.25    2.231       5.268       -9999.25    -9999.25    -9999.25    -9999.25    -9999.25    -9999.25    14.19       1.451       1.962       -9999.25    -9999.25    -9999.25    -9999.25    -9999.25    -9999.25    28.985      
112.1       -9999.25    128.318     -9999.25    -9999.25    148.193     169.648     22.998      6.947       19.809      30.081      -9999.25    -9999.25    -9999.25    788.658     31.563      3.481       791.375     843.447     959.306     -9999.25    
112.13      85.41       -9999.25    2.25        5.208       -9999.25    -9999.25    -9999.25    -9999.25    -9999.25    -9999.25    14.101      1.425       1.901       -9999.25    -9999.25    -9999.25    -9999.25    -9999.25    -9999.25    29.792      
112.2       -9999.25    127.494     -9999.25    -9999.25    148.193     169.648     22.998      6.947       19.809      30.081      -9999.25    -9999.25    -9999.25    804.184     31.11       3.388       829.392     903.055     1130.462    -9999.25    
112.23      101.262     -9999.25    2.282       4.891       -9999.25    -9999.25    -9999.25    -9999.25    -9999.25    -9999.25    14.014      1.448       1.917       -9999.25    -9999.25    -9999.25    -9999.25    -9999.25    -9999.25    29.863      
112.3       -9999.25    127.66      -9999.25    -9999.25    148.193     169.648     22.998      6.947       19.809      30.081      -9999.25    -9999.25    -9999.25    818.261     30.72       3.285       932.527     937.904     1195.349    -9999.25    
112.33      85.198      -9999.25    2.326       4.463       -9999.25    -9999.25    -9999.25    -9999.25    -9999.25    -9999.25    13.927      1.389       1.977       -9999.25    -9999.25    -9999.25    -9999.25    -9999.25    -9999.25    29.131      
112.4       -9999.25    128.201     -9999.25    -9999.25    148.193     169.648     22.998      6.947       19.809      30.081      -9999.25    -9999.25    -9999.25    830.761     30.399      3.204       1115.558    949.845     1126.771    -9999.25    
112.43      97.088      -9999.25    2.37        4.164       -9999.25    -9999.25    -9999.25    -9999.25    -9999.25    -9999.25    13.841      1.377       2.008       -9999.25    -9999.25    -9999.25    -9999.25    -9999.25    -9999.25    28.0        
112.5       -9999.25    127.927     -9999.25    -9999.25    148.193     169.648     22.998      6.947       19.809      30.081      -9999.25    -9999.25    -9999.25    841.317     30.152      3.157       1252.062    950.725     1002.701    -9999.25    
112.53      122.401     -9999.25    2.4         4.039       -9999.25    -9999.25    -9999.25    -9999.25    -9999.25    -9999.25    13.756      1.347       1.997       -9999.25    -9999.25    -9999.25    -9999.25    -9999.25    -9999.25    27.295      
