~Version Information Section
VERS.                                         2.0:CWLS log ASCII Standart – VERSION 2.0
WRAP.                                          NO:One line per depth step
~Well Information Section
STRT.M                                        1.6:Начальная глубина
STOP.M                                      209.3:Конечная глубина
STEP.M                                          0:Шаг квантования по глубине
NULL.                                    -9999.25:Признак "Нет данных"
WELL.                                       132Мх:Скважина
~Parameter Information Section
~Curve Information Section
DEPTH.M                                          :Глубина
BК.                                              :BК (Омм)
DS.mm                                            :DS
GGK.g/cm3                                        :GGKp
IК.                                              :IК (Омм)
NGК.                                             :NGК (усл.ед.)
PS.mV                                            :PS
PZ.                                              :PZ (Омм)
REZ.                                             :REZ (Омм)
U1.                                              :U1 (ue)
U2.                                              :U2 (ue)
U3.                                              :U3 (ue)
ГК.mcr/h                                         :ГКканаломНГК
~ASCII LOG DATA
# ...
175.0       212.035     125.925     2.082       65.32       2.53        180.82      180.765     2.838       547.945     500.632     448.616     6.38        
175.1       215.135     126.647     2.062       67.562      2.51        179.711     180.602     2.858       524.471     482.304     434.787     6.312       
175.2       217.893     127.35      2.07        66.98       2.432       178.804     181.737     2.877       514.765     475.526     430.566     6.277       
175.3       221.41      127.314     2.091       66.95       2.383       178.088     182.466     2.887       501.896     460.693     414.126     6.166       
175.4       271.673     126.185     2.093       67.012      2.409       177.521     182.925     2.889       483.334     437.268     386.543     6.071       
175.5       273.429     126.793     2.083       68.186      2.438       177.058     182.418     2.93        449.975     400.369     346.572     5.989       
175.6       222.409     127.253     2.08        68.155      2.401       176.668     181.717     3.002       428.606     381.154     329.307     5.991       
175.7       223.358     126.604     2.097       68.726      2.338       176.367     181.024     3.086       389.988     345.456     296.354     6.101       
175.8       217.265     126.549     2.119       68.722      2.309       176.139     180.162     3.085       340.328     297.83      250.731     6.21        
175.9       205.497     126.605     2.1         68.722      2.293       175.974     179.402     2.986       296.509     257.894     214.326     6.437       
176.0       200.296     126.898     2.09        69.335      2.276       175.854     178.397     2.901       259.846     226.487     187.569     6.564       
176.1       205.865     126.401     2.077       69.958      2.187       175.749     176.816     2.851       241.187     210.534     174.014     6.573       
176.2       213.192     126.688     2.088       69.334      2.074       175.648     174.787     2.957       243.014     214.358     179.677     6.455       
176.3       199.801     125.877     2.106       69.958      1.907       175.561     173.33      2.948       250.681     223.108     189.428     6.228       
176.4       168.024     125.929     2.156       69.299      1.798       175.485     173.743     2.938       249.431     221.351     187.167     6.123       
176.5       144.612     125.963     2.21        69.267      1.703       175.431     176.252     2.928       245.958     217.693     183.309     6.167       
176.6       146.556     125.965     2.232       68.623      1.661       175.379     180.155     2.919       242.218     213.878     179.408     6.304       
176.7       178.532     125.62      2.232       68.591      1.662       175.338     183.215     2.91        244.87      215.844     180.759     6.227       
176.8       195.297     125.298     2.241       68.529      1.687       175.31      185.229     2.9         246.863     214.539     176.583     6.001       
176.9       198.645     125.617     2.218       69.075      1.739       175.279     185.559     2.891       242.433     204.214     161.566     5.747       
177.0       215.879     125.812     2.202       69.57       1.767       175.251     185.945     2.882       240.016     197.615     152.048     5.72        
177.1       231.998     125.9       2.147       69.477      1.891       175.241     186.743     2.873       233.378     190.503     144.682     6.037       
177.2       235.693     125.498     2.111       69.32       2.003       175.224     188.086     2.864       234.374     192.76      148.193     6.381       
177.3       232.597     125.476     2.084       71.094      2.082       175.258     190.191     2.855       230.976     192.474     150.774     6.581       
177.4       233.628     125.354     2.085       70.254      2.061       175.365     193.279     2.846       213.29      178.556     140.139     6.467       
177.5       229.317     125.488     2.098       70.226      2.034       175.533     198.158     2.837       195.843     165.76      130.921     6.45        
177.6       212.108     125.649     2.122       70.769      2.037       175.732     203.784     2.828       192.996     165.61      132.601     6.539       
177.7       239.797     125.967     2.119       70.034      2.0         175.948     208.056     2.819       208.25      179.092     144.601     6.57        
177.8       290.209     126.113     2.126       70.507      1.965       176.188     209.816     2.81        235.634     205.161     169.469     6.512       
177.9       291.386     126.046     2.101       70.411      1.984       176.451     209.265     2.801       269.506     238.197     201.677     6.432       
178.0       279.425     125.872     2.101       70.282      2.038       176.747     207.968     2.793       305.218     273.78      237.12      6.356       
178.1       258.855     126.131     2.101       70.826      2.05        177.097     208.006     2.784       341.344     310.725     274.748     6.187       
178.2       230.85      126.845     2.118       70.695      2.008       177.507     210.574     2.944       363.066     335.283     301.642     6.053       
178.3       185.735     127.306     2.121       69.342      1.967       177.984     216.066     2.944       362.896     338.509     307.652     5.957       
178.4       187.378     127.361     2.148       69.838      1.964       178.526     223.538     2.944       340.999     318.313     288.933     6.069       
178.5       199.81      127.034     2.135       69.779      1.957       179.096     232.027     2.944       320.116     298.741     270.701     6.32        
178.6       204.195     126.318     2.153       69.098      1.947       179.681     240.403     2.944       314.133     291.343     262.198     6.547       
178.7       178.084     126.332     2.153       69.654      1.911       180.308     248.144     2.937       312.358     284.182     250.31      6.645       
178.8       162.852     126.139     2.18        69.625      1.869       181.007     254.882     2.94        315.0       281.761     243.455     6.473       
178.9       171.761     126.292     2.168       70.19       1.775       181.804     260.604     2.939       325.924     288.191     245.939     6.174       
179.0       194.71      126.163     2.151       69.528      1.714       182.73      264.694     2.937       337.547     295.598     249.561     6.03        
179.1       210.045     126.402     2.14        70.123      1.691       183.773     265.835     2.935       338.47      291.749     241.274     6.183       
179.2       212.822     127.162     2.158       69.464      1.729       184.912     263.79      2.934       332.573     283.941     231.555     6.406       
179.3       217.694     128.03      2.143       69.43       1.781       186.145     260.963     2.932       328.259     283.392     234.257     6.423       
179.4       216.535     126.931     2.14        68.782      1.786       187.484     259.843     2.93        328.744     288.528     243.444     6.268       
179.5       194.624     128.157     2.124       68.055      1.73        188.916     261.19      2.929       332.751     296.073     254.029     6.191       
179.6       173.273     125.407     2.144       68.024      1.652       190.437     264.305     2.927       341.033     307.158     267.534     6.09        
179.7       185.11      126.577     2.17        67.406      1.581       192.05      269.412     2.926       354.313     323.152     285.919     5.927       
179.8       209.172     125.997     2.181       66.828      1.55        193.794     275.383     2.924       362.885     334.287     299.347     5.886       
179.9       228.326     125.395     2.212       66.77       1.489       195.666     280.373     2.922       356.808     329.174     295.095     6.023       
180.0       226.215     124.99      2.221       66.741      1.434       197.641     282.413     2.921       342.262     313.687     278.787     6.19        
