~Version Information Section
VERS.                                         2.0:CWLS log ASCII Standart – VERSION 2.0
WRAP.                                          NO:One line per depth step
~Well Information Section
STRT.M                                        1.2:Начальная глубина
STOP.M                                      169.4:Конечная глубина
STEP.M                                          0:Шаг квантования по глубине
NULL.                                    -9999.25:Признак "Нет данных"
WELL.                                       114Мх:Скважина
~Parameter Information Section
~Curve Information Section
DEPTH.M                                          :Глубина
BK.Ohm*M                                         :BK     (БК)
DS.mm                                            :DS  (ДС)
GGK.g/cm3                                        :GGKp
ГК.mcr/h                                         :GK          (ГК)
GZ1.Ohm*M                                        :GZ1   ГЗ1(A0.4M0.1N)
GZ2.Ohm*M                                        :GZ2   ГЗ2(A1.0M0.1N)
GZ3.Ohm*M                                        :GZ3   ГЗ3(A2.0M0.5N)
GZ4.Ohm*M                                        :GZ4   ГЗ4(A4.0M0.5N)
GZ5.Ohm*M                                        :GZ5   ГЗ5(A8.0M0.5N)
GZR.Ohm*M                                        :GZK   ГЗK(N0.5M2.0A)
ИК.Ohm*M                                         :IK
НГК.ue                                           :NGK     (НГК)
NNKM.                                            :NNKm  (ННКм)
PS.mv                                            :PS       (ПС)
PZ.Ohm*M                                         :PZ    (КС)
U1.mV                                            :U1
U2.mV                                            :U2
U3.mV                                            :U3
КП.%                                             :Кп
~ASCII LOG DATA
# ...
154.2       133.66      123.876     2.394       3.756       30.435      37.652      28.177      37.825      35.471      25.319      44.254      2.678       2.3         1145.926    74.726      627.537     656.183     687.172     13.291      
154.3       78.343      124.474     2.438       3.596       30.067      37.845      26.477      38.025      24.571      24.419      44.332      2.802       2.41        1147.366    74.19       689.029     642.425     680.596     11.284      
154.4       67.608      124.892     2.478       3.263       29.937      38.378      25.077      38.325      23.371      23.819      43.952      2.852       2.467       1148.806    73.763      782.79      678.796     729.348     9.053       
154.5       83.753      124.98      2.497       2.999       27.575      36.073      22.477      38.425      22.771      23.119      43.908      2.84        2.515       1150.246    73.41       888.627     739.48      788.314     7.848       
154.6       100.693     124.929     2.491       2.928       24.59       33.347      22.277      30.925      21.971      22.819      43.638      2.759       2.535       1151.686    73.205      942.385     783.902     791.018     6.967       
154.7       115.878     124.775     2.475       3.043       21.351      28.298      20.977      29.525      21.671      22.119      43.303      2.669       2.461       1153.126    73.369      914.103     789.264     718.836     6.354       
154.8       144.877     124.733     2.461       3.158       18.343      23.964      20.277      29.025      20.971      21.419      43.103      2.499       2.338       1154.326    73.958      802.762     747.664     605.662     6.82        
154.9       88.308      124.699     2.459       3.145       16.872      21.57       19.877      28.925      20.271      19.519      42.963      2.246       2.267       1155.286    74.543      705.489     686.595     517.845     7.691       
155.0       79.983      124.647     2.481       3.247       16.505      20.143      19.677      27.525      19.771      19.019      43.197      1.931       2.23        1156.006    75.624      673.738     619.482     478.239     10.194      
155.1       107.399     124.638     2.511       3.759       18.212      20.319      19.577      27.325      19.371      18.919      43.288      1.677       2.112       1156.966    76.975      711.042     558.121     442.963     11.731      
155.2       75.683      124.88      2.512       4.673       19.722      20.306      19.377      20.425      19.071      18.919      42.891      1.53        1.956       1157.686    78.519      777.884     508.987     389.327     12.437      
155.3       56.885      124.84      2.46        5.836       19.746      19.608      19.277      20.425      18.871      18.919      42.499      1.433       1.694       1158.406    80.003      838.801     493.202     345.759     12.229      
155.4       70.469      124.647     2.388       6.799       20.341      19.442      19.077      20.425      18.871      18.919      42.07       1.362       1.469       1158.886    81.438      882.372     516.134     341.649     15.114      
155.5       82.414      125.002     2.331       7.183       20.07       19.227      19.077      20.425      18.671      18.919      41.164      1.289       1.437       1159.366    82.297      893.227     547.826     356.762     19.507      
155.6       103.276     125.49      2.315       7.147       20.331      19.563      18.877      20.425      18.571      18.919      40.601      1.244       1.426       1160.086    82.593      873.372     549.894     344.468     24.872      
155.7       155.955     125.452     2.339       6.817       20.631      19.901      18.677      20.525      18.471      18.919      40.301      1.238       1.465       1160.806    82.214      830.696     533.495     325.372     25.928      
155.8       199.526     125.102     2.373       6.693       20.965      20.602      18.677      20.625      17.871      18.919      39.372      1.253       1.463       1161.766    81.251      734.794     541.996     354.496     24.924      
155.9       27.99       124.664     2.39        6.831       21.545      21.304      18.677      20.725      18.071      19.119      38.64       1.253       1.412       1162.726    79.645      559.064     592.657     450.042     22.735      
156.0       24.378      124.673     2.371       7.298       21.544      21.694      18.677      21.225      18.271      19.219      37.955      1.226       1.373       1164.166    78.054      370.387     612.804     541.137     22.024      
156.1       20.941      124.851     2.335       7.725       21.443      22.005      18.977      21.725      18.771      19.419      36.578      1.217       1.353       1165.606    75.984      272.53      544.359     572.592     23.986      
156.2       19.011      125.055     2.305       7.939       21.753      22.654      19.277      21.825      20.171      19.519      35.637      1.219       1.339       1166.806    73.786      282.988     413.736     519.026     25.99       
156.3       18.75       124.902     2.292       7.924       21.318      22.92       19.577      22.025      21.371      19.719      33.887      1.182       1.329       1168.006    71.279      316.56      293.056     390.118     28.061      
156.4       17.742      124.639     2.289       7.967       20.708      22.682      20.777      22.325      21.471      19.819      32.773      1.142       1.295       1168.966    68.71       326.0       242.939     270.62      28.474      
156.5       17.258      125.182     2.285       8.045       20.553      22.686      20.977      22.425      21.071      20.119      30.862      1.155       1.262       1169.926    66.097      343.879     256.911     242.306     27.775      
156.6       17.022      125.193     2.284       8.131       20.568      22.505      21.177      22.525      20.771      20.719      29.501      1.231       1.258       1170.886    63.853      358.407     314.589     328.459     27.174      
156.7       15.453      124.774     2.296       8.287       20.568      22.078      21.377      22.625      20.471      20.819      28.253      1.275       1.263       1171.606    62.026      321.873     399.199     471.813     28.485      
156.8       15.031      124.917     2.33        8.284       20.906      22.005      21.377      22.725      20.271      20.719      27.094      1.249       1.308       1172.326    60.521      309.555     458.086     589.986     29.825      
156.9       14.622      125.159     2.375       8.196       21.932      21.936      21.377      22.825      19.771      20.719      26.188      1.192       1.344       1172.806    58.904      462.744     450.147     652.606     29.84       
157.0       16.106      125.623     2.382       7.766       22.575      21.985      21.477      22.825      19.671      20.619      25.115      1.159       1.338       1173.286    57.503      816.064     438.917     686.174     28.09       
157.1       15.453      125.318     2.349       7.454       23.209      22.098      21.577      22.825      19.571      20.519      24.574      1.159       1.33        1173.286    55.988      1154.739    540.929     750.331     27.056      
157.2       13.274      125.489     2.318       7.45        23.814      22.465      21.577      22.825      19.171      20.419      23.105      1.141       1.32        1173.286    55.242      1189.833    793.811     874.991     27.238      
157.3       13.274      125.453     2.335       7.67        23.19       22.126      21.377      22.825      19.171      20.319      22.26       1.092       1.294       1173.286    54.856      962.752     1013.721    943.782     27.594      
157.4       13.274      125.508     2.379       7.629       22.314      21.566      20.677      22.825      19.171      20.219      21.467      1.08        1.259       1173.286    55.27       662.715     951.872     796.684     28.624      
157.5       13.092      126.638     2.382       7.253       22.024      22.078      20.377      22.925      19.271      20.019      20.674      1.11        1.256       1173.046    55.876      480.006     689.583     534.748     29.773      
