~Version Information Section
VERS.                                         2.0:CWLS log ASCII Standart – VERSION 2.0
WRAP.                                          NO:One line per depth step
~Well Information Section
STRT.M                                        1.2:Начальная глубина
STOP.M                                      208.4:Конечная глубина
STEP.M                                          0:Шаг квантования по глубине
NULL.                                    -9999.25:Признак "Нет данных"
WELL.                                       109Мх:Скважина
~Parameter Information Section
~Curve Information Section
DEPTH.M                                          :Глубина
BK.Ohm*M                                         :BK     (БК)
DS.mm                                            :DS  (ДС)
GGK.g/cm3                                        :GGKp
ГК.mcr/h                                         :GK          (ГК)
GZ1.Ohm*M                                        :GZ1   ГЗ1(A0.4M0.1N)
GZ2.Ohm*M                                        :GZ2   ГЗ2(A1.0M0.1N)
GZ3.Ohm*M                                        :GZ3   ГЗ3(A2.0M0.5N)
GZ4.Ohm*M                                        :GZ4   ГЗ4(A4.0M0.5N)
GZ5.Ohm*M                                        :GZ5   ГЗ5(A8.0M0.5N)
GZR.Ohm*M                                        :GZK   ГЗK(N0.5M2.0A)
ИК.Ohm*M                                         :IK
НГК.u.e.                                         :NGK
NNKM.                                            :NNKm  (ННКм)
U1.mV                                            :U1
U2.mV                                            :U2
U3.mV                                            :U3
КП.%                                             :Кп
PS.mv                                            :PS       (ПС)
PZ.Ohm*M                                         :PZ    (КС)
RS.Ohm*M                                         :RS (Резистивиметр)
~ASCII LOG DATA
# ...
190.0       68.865      125.747     2.441       4.422       149.49      162.834     164.662     46.823      47.23       335.32      5.671       2.056       3.599       1467.975    1114.057    981.596     13.548      1077.701    243.743     -9999.25    
190.1       48.417      125.787     2.392       4.509       150.33      160.754     161.142     46.463      46.67       327.0       5.671       2.029       3.38        1438.492    1092.269    958.915     15.122      1079.855    242.085     -9999.25    
190.2       59.841      125.754     2.343       4.488       151.59      159.714     158.942     46.343      46.11       320.76      5.647       2.063       3.205       1453.635    1099.762    960.529     15.986      1081.992    239.489     -9999.25    
190.3       63.241      125.702     2.403       4.266       153.27      159.194     157.622     45.983      45.69       314.52      5.624       2.069       3.265       1526.775    1174.678    1034.326    15.275      1084.104    235.956     -9999.25    
190.4       75.858      125.79      2.44        4.431       155.37      158.154     157.182     45.503      45.55       312.44      5.577       2.156       3.326       1615.162    1282.862    1153.849    14.395      1086.191    232.351     -9999.25    
190.5       74.302      125.911     2.501       4.462       158.31      155.554     156.742     44.303      45.27       308.28      5.554       2.343       3.424       1613.563    1335.532    1248.773    14.19       1088.245    228.242     -9999.25    
190.6       70.469      125.875     2.479       4.096       158.31      155.034     156.742     43.463      45.13       304.12      5.624       2.629       3.523       1466.712    1269.272    1251.911    12.932      1090.281    224.131     -9999.25    
190.7       82.604      125.584     2.484       3.682       159.99      154.514     156.742     43.103      44.99       299.96      5.743       2.863       3.743       1184.922    1053.774    1096.758    11.305      1092.292    220.454     -9999.25    
190.8       112.72      125.721     2.467       3.616       160.83      153.474     156.742     42.983      44.85       295.8       5.894       3.083       4.019       878.131     768.649     832.904     9.091       1094.254    216.849     -9999.25    
190.9       123.027     125.68      2.451       3.381       162.51      153.474     156.742     42.383      44.85       294.76      6.079       3.216       4.129       671.795     554.306     612.922     7.777       1096.156    213.821     -9999.25    
191.0       199.067     125.858     2.456       3.476       164.19      152.954     156.302     42.143      44.71       291.64      6.396       3.363       4.22        611.991     498.282     561.59      6.975       1098.008    210.937     -9999.25    
191.1       259.418     125.791     2.473       3.21        164.61      151.914     154.542     42.023      44.57       288.52      6.815       3.436       4.272       677.656     589.942     677.531     6.756       1099.81     208.774     -9999.25    
191.2       276.058     125.868     2.501       3.36        166.29      151.394     153.662     42.023      44.43       287.48      6.991       3.496       4.305       748.959     682.71      789.313     6.711       1101.57     206.899     -9999.25    
191.3       237.137     126.052     2.517       3.119       165.87      151.394     153.662     41.903      44.43       286.44      7.373       3.503       4.332       768.846     707.089     816.21      6.757       1103.271    205.745     -9999.25    
191.4       214.289     126.399     2.513       3.069       159.99      150.874     153.662     41.903      44.43       284.36      7.622       3.423       4.361       749.587     685.159     791.088     6.814       1104.914    205.313     -9999.25    
191.5       205.116     126.573     2.511       3.064       158.31      150.874     153.662     41.903      44.29       283.32      7.843       3.316       4.385       735.771     676.243     788.004     6.698       1106.498    204.88      -9999.25    
191.6       207.491     126.227     2.479       3.133       157.89      150.874     153.662     41.903      44.15       283.32      8.03        3.216       4.412       759.541     708.488     829.542     6.569       1108.015    204.448     -9999.25    
191.7       234.423     128.186     2.536       3.248       156.63      150.354     153.662     41.903      44.01       282.28      8.431       3.189       4.432       820.374     762.68      877.873     6.334       1109.457    203.871     -9999.25    
191.8       346.737     126.698     2.587       3.444       155.37      149.834     154.102     41.903      44.01       282.28      8.702       3.003       4.403       910.903     803.452     877.595     6.252       1110.823    203.15      -9999.25    
191.9       416.869     126.409     2.667       3.496       154.95      149.834     154.102     41.783      44.01       282.28      8.932       2.769       4.374       1006.485    807.549     810.827     6.686       1112.113    202.212     -9999.25    
192.0       387.258     127.493     2.657       3.544       154.53      149.314     154.102     41.783      44.01       282.28      9.365       2.483       4.239       1055.443    770.352     708.281     7.254       1113.337    201.203     -9999.25    
192.1       347.536     131.379     2.626       3.637       154.11      149.314     152.782     41.783      43.73       282.28      9.632       2.309       4.105       1026.99     711.428     624.121     8.267       1114.477    200.194     -9999.25    
192.2       308.319     130.811     2.548       3.781       153.69      149.314     152.342     41.783      43.73       281.24      9.702       2.143       3.986       931.19      646.201     577.492     8.713       1115.525    199.256     -9999.25    
192.3       295.121     134.053     2.429       4.38        153.27      148.274     151.902     41.783      43.59       280.2       9.702       2.009       3.868       842.153     585.877     538.585     11.025      1116.488    198.463     -9999.25    
192.4       155.239     145.685     2.339       4.752       152.85      148.274     151.902     41.783      43.59       279.16      9.843       1.829       3.448       810.968     540.119     489.491     12.891      1117.377    197.814     -9999.25    
192.5       76.208      161.621     2.319       5.49        152.85      148.274     151.462     41.783      43.59       278.12      9.843       1.689       3.028       841.945     525.195     450.631     17.054      1118.19     197.165     -9999.25    
192.6       34.995      149.078     2.38        5.489       152.85      148.274     150.582     41.783      43.59       273.96      9.915       1.576       2.814       903.116     543.336     443.285     20.01       1118.927    196.661     -9999.25    
192.7       19.364      125.177     2.397       5.346       152.01      148.274     150.142     41.663      43.59       272.92      9.988       1.669       2.599       962.207     568.887     450.937     21.424      1119.581    196.228     -9999.25    
192.8       16.218      125.14      2.39        4.739       152.01      147.234     149.702     41.543      43.59       272.92      9.988       1.776       2.789       1003.318    572.74      441.94      19.777      1120.159    195.867     -9999.25    
192.9       43.652      125.143     2.347       4.342       152.01      146.714     149.262     41.303      43.45       269.8       10.063      1.876       3.028       1014.494    563.276     431.644     16.891      1120.67     195.651     -9999.25    
193.0       70.307      125.181     2.367       4.254       153.27      146.714     149.262     41.183      43.31       269.8       10.138      1.883       3.134       995.903     574.537     463.676     15.208      1121.123    195.507     -9999.25    
193.1       70.795      125.155     2.374       4.51        150.33      146.194     148.822     40.943      43.31       268.76      10.215      1.929       3.232       948.357     613.571     547.888     14.541      1121.517    195.291     -9999.25    
