~Version Information Section
VERS.                                         2.0:CWLS log ASCII Standart – VERSION 2.0
WRAP.                                          NO:One line per depth step
~Well Information Section
STRT.M                                        0.6:Начальная глубина
STOP.M                                      205.9:Конечная глубина
STEP.M                                          0:Шаг квантования по глубине
NULL.                                    -9999.25:Признак "Нет данных"
WELL.                                       106Мх:Скважина
~Parameter Information Section
~Curve Information Section
DEPTH.M                                          :Глубина
BK.Ohm*M                                         :BK     (БК)
DS.mm                                            :DS  (ДС)
GGK.g/cm3                                        :GGKp
ГК.mcr/h                                         :GK          (ГК)
GZ1.Ohm*M                                        :GZ1   ГЗ1(A0.4M0.1N)
GZ2.Ohm*M                                        :GZ2   ГЗ2(A1.0M0.1N)
GZ3.Ohm*M                                        :GZ3   ГЗ3(A2.0M0.5N)
U2.mV                                            :U2
U3.mV                                            :U3
КП.%                                             :Кп
GZ4.Ohm*M                                        :GZ4   ГЗ4(A4.0M0.5N)
GZ5.Ohm*M                                        :GZ5   ГЗ5(A8.0M0.5N)
GZR.Ohm*M                                        :GZK   ГЗK(N0.5M2.0A)
ИК.Ohm*M                                         :IK
НГК.u.e.                                         :NGK
NNKM.                                            :NNKm  (ННКм)
PS.mv                                            :PS       (ПС)
PZ.Ohm*M                                         :PZ    (КС)
RS.Ohm*M                                         :RS (Резистивиметр)
U1.mV                                            :U1
~ASCII LOG DATA
# ...
106.2       90.573      128.413     2.425       5.992       41.698      22.065      14.915      313.037     368.04      24.823      32.415      20.491      9.936       19.529      1.434       2.857       679.996     26.0        1.1         526.956     
106.3       85.507      128.845     2.418       6.463       41.698      23.344      14.97       313.037     361.355     27.043      35.129      21.374      9.309       20.82       1.441       2.728       681.364     27.659      1.1         500.844     
106.4       61.518      128.774     2.414       6.624       40.299      23.987      14.842      323.955     388.941     28.809      36.907      22.715      8.96        21.983      1.386       2.612       682.733     29.333      1.1         464.403     
106.5       37.325      129.046     2.416       6.664       38.098      24.769      14.516      334.873     439.565     29.354      36.945      24.571      8.757       22.457      1.312       2.539       683.76      30.933      1.1         442.762     
106.6       40.644      129.463     2.425       6.495       35.92       25.152      14.208      361.696     506.368     27.806      34.556      26.822      8.519       22.754      1.29        2.668       684.787     32.326      1.1         440.807     
106.7       49.091      130.003     2.443       6.414       33.945      25.8        13.881      411.952     577.508     24.606      30.045      29.161      8.346       22.878      1.359       2.795       685.813     33.348      1.1         444.931     
106.8       65.163      130.688     2.454       6.601       32.216      26.292      13.496      444.315     637.2       22.449      25.365      31.177      8.322       23.05       1.457       2.919       686.498     34.133      1.1         446.332     
106.9       57.28       131.115     2.453       6.803       32.144      26.08       13.323      448.05      664.236     21.392      22.346      32.564      8.215       23.177      1.515       2.999       686.84      34.785      1.1         434.721     
107.0       52.602      131.37      2.444       6.66        32.144      25.349      13.266      428.581     648.143     23.124      21.844      33.275      7.91        23.147      1.509       2.859       686.84      35.393      1.1         405.924     
107.1       48.084      130.201     2.422       6.38        33.604      27.334      13.206      356.437     582.693     26.465      24.231      33.524      7.446       22.945      1.461       2.702       686.84      35.911      1.1         379.849     
107.2       26.853      127.894     2.39        6.362       35.962      28.86       13.388      301.805     489.106     29.427      28.532      33.631      7.333       22.486      1.358       2.495       685.813     36.311      1.1         364.985     
107.3       21.878      127.917     2.363       6.538       37.068      29.11       13.947      281.888     394.341     32.024      32.738      33.929      7.848       21.386      1.282       2.328       683.76      36.504      1.1         412.842     
107.4       27.542      127.067     2.343       6.538       37.068      29.027      14.596      275.331     337.742     32.449      35.561      34.715      9.184       20.683      1.217       2.323       680.338     36.504      1.1         461.187     
107.5       31.769      127.1       2.329       6.176       36.611      29.073      15.603      275.331     332.376     32.193      36.458      36.136      11.339      19.899      1.246       2.382       677.258     36.385      1.1         483.524     
107.6       42.756      127.235     2.328       6.1         35.034      29.132      17.054      297.749     373.042     29.522      35.321      38.068      14.363      19.504      1.314       2.564       674.178     35.793      1.1         457.416     
107.7       72.611      126.716     2.338       6.354       32.499      28.767      18.86       320.167     431.257     26.441      33.305      40.161      17.688      19.504      1.355       2.73        671.782     34.8        1.1         430.818     
107.8       83.56       127.087     2.348       6.854       28.914      26.727      20.718      359.488     486.148     23.747      32.091      41.998      20.762      19.675      1.372       2.819       669.729     33.585      1.1         471.535     
107.9       76.033      127.829     2.356       7.125       25.564      24.271      22.283      441.008     528.229     22.919      32.112      43.261      23.353      19.899      1.331       2.746       668.36      32.519      1.1         539.923     
108.0       61.659      128.199     2.352       7.813       23.903      22.605      23.164      503.266     561.919     26.464      32.664      43.873      24.823      19.899      1.296       2.569       667.333     31.704      1.1         601.542     
108.1       30.903      128.461     2.341       8.917       23.903      21.443      23.161      512.449     567.759     31.983      32.982      43.911      25.061      19.504      1.25        2.304       665.964     31.111      1.1         618.773     
108.2       16.406      128.121     2.334       10.452      24.565      20.14       22.618      503.241     531.249     36.103      32.587      43.332      24.006      18.849      1.217       1.994       664.253     30.459      1.1         612.049     
108.3       11.117      128.549     2.335       10.824      26.775      18.088      21.355      395.927     450.865     36.164      31.257      41.993      21.84       17.748      1.226       2.123       661.858     29.57       1.1         634.107     
108.4       13.964      128.246     2.354       9.694       29.537      15.741      19.311      322.703     387.708     31.772      29.218      39.74       18.724      16.903      1.288       2.473       659.462     28.385      1.1         620.406     
108.5       26.424      128.262     2.385       7.635       31.491      13.335      16.761      322.703     380.655     28.348      27.017      36.678      15.782      16.362      1.37        2.727       657.409     27.096      1.1         574.405     
108.6       54.702      126.136     2.41        6.033       31.833      11.841      14.157      372.515     428.715     25.688      24.942      33.05       13.754      16.26       1.475       2.934       656.382     25.985      1.1         506.392     
108.7       31.915      126.44      2.423       5.378       31.833      10.778      12.012      413.569     479.467     25.551      22.933      29.242      12.843      16.695      1.511       2.907       656.04      25.259      1.1         487.853     
108.8       45.394      125.735     2.428       5.124       30.955      12.276      10.516      418.978     506.66      25.723      21.054      25.699      13.246      17.259      1.434       2.792       656.04      24.919      1.1         515.286     
108.9       110.662     127.539     2.416       4.884       29.466      15.376      9.892       424.386     557.785     25.658      19.523      22.788      15.912      17.765      1.271       2.729       656.04      24.859      1.1         538.079     
109.0       57.412      129.128     2.41        4.962       27.613      16.605      9.808       448.217     649.151     28.219      18.248      20.685      19.31       18.325      1.18        2.677       656.04      24.859      1.1         540.841     
109.1       36.224      127.494     2.406       4.871       24.76       19.302      9.886       563.505     753.487     30.604      17.16       19.359      23.074      18.498      1.157       2.612       656.04      25.037      1.1         529.887     
109.2       36.728      128.354     2.402       5.24        21.084      20.683      9.95        628.125     772.316     31.481      16.305      18.638      27.115      18.649      1.131       2.554       656.04      25.481      1.1         560.107     
109.3       54.828      128.607     2.398       5.232       17.911      20.567      10.038      594.354     691.005     29.907      15.008      18.301      30.875      18.629      1.048       2.532       656.04      26.163      1.1         632.59      
