~Version Information Section
VERS.                                         2.0:CWLS log ASCII Standart – VERSION 2.0
WRAP.                                          NO:One line per depth step
~Well Information Section
STRT.M                                        2.1:Начальная глубина
STOP.M                                      196.8:Конечная глубина
STEP.M                                          0:Шаг квантования по глубине
NULL.                                    -9999.25:Признак "Нет данных"
WELL.                                       154Мх:Скважина
~Parameter Information Section
~Curve Information Section
DEPTH.M                                          :Глубина
BK.lgОмм                                         :BK     (БК)
DСР.мм                                           :DS  (ДС)
ГГКП.g/cm3                                       :GGKp
ГК.мкР/час                                       :GK          (ГК)
ГЗ1.Омм                                          :GZ1   ГЗ1(A0.4M0.1N)
ГЗ2.Омм                                          :GZ2   ГЗ2(A1.0M0.1N)
ГЗ3.Омм                                          :GZ3   ГЗ3(A2.0M0.5N)
ГЗ4.Oмм                                          :GZ4   ГЗ4(A4.0M0.5N)
ГЗ5.Oмм                                          :GZ5   ГЗ5(A8.0M0.5N)
ГЗК.Омм                                          :GZR   ГЗK(N0.5M2.0A)
ИК.мСм/м                                         :IK
НГК.усл.ед.                                      :NGK     (НГК)
РЕЗ.Омм                                          :RS (Резистивиметр)
W.                                               :W
ННКМ.усл.ед                                      :NNKm  (ННКм)
PS.мB                                            :PS       (ПС)
~ASCII LOG DATA
# ...
70.1        16.84       155.794     2.241       5.674       88.17       35.954      49.822      14.183      15.45       51.4        17.508      1.003       0.966       36.772      0.989       98.991      
70.2        16.892      155.894     2.269       5.398       88.59       35.434      49.822      14.183      15.45       50.36       17.809      1.05        0.966       35.028      0.999       99.252      
70.3        16.956      155.674     2.27        4.87        88.17       34.914      49.822      14.183      15.31       49.32       17.809      1.107       0.966       32.989      1.026       99.51       
70.4        16.969      155.791     2.295       4.556       87.75       34.914      49.822      14.183      15.17       49.32       17.984      1.154       0.966       31.469      1.072       99.768      
70.5        18.699      155.919     2.325       4.392       87.75       34.394      49.382      14.183      15.17       49.32       18.205      1.156       0.966       30.957      1.122       99.923      
70.6        21.547      155.822     2.311       4.154       87.33       34.394      49.382      14.183      15.03       49.32       18.458      1.199       0.966       30.682      1.167       99.974      
70.7        24.983      156.016     2.288       4.225       86.91       33.874      49.382      14.183      15.03       50.36       18.458      1.206       0.966       30.805      1.204       100.0       
70.8        26.702      155.88      2.265       4.215       86.91       33.354      49.382      14.183      15.03       51.4        18.784      1.212       0.966       30.737      1.224       99.974      
70.9        26.644      155.663     2.218       4.059       86.91       33.354      49.382      14.183      14.89       51.4        18.784      1.255       0.966       30.481      1.23        99.871      
71.0        25.997      155.396     2.176       3.862       86.49       33.354      49.382      14.183      14.89       51.4        19.018      1.283       0.966       29.87       1.235       99.743      
71.1        25.41       155.064     2.165       3.836       86.49       32.834      49.382      14.183      14.75       51.4        19.395      1.283       0.966       29.401      1.242       99.614      
71.2        27.284      154.782     2.167       3.666       86.49       32.834      49.382      14.183      14.75       52.44       19.395      1.305       0.966       29.055      1.256       99.435      
71.3        29.159      154.231     2.173       3.673       86.49       32.834      49.382      14.183      14.61       53.48       19.719      1.278       0.966       28.88       1.276       99.255      
71.4        32.395      154.026     2.21        3.72        86.49       32.834      48.942      14.183      14.61       53.48       19.974      1.237       0.966       29.141      1.296       99.074      
71.5        33.816      153.979     2.236       3.828       86.49       32.834      48.502      14.183      14.47       54.52       19.974      1.216       0.966       29.787      1.314       98.894      
71.6        34.13       153.747     2.258       3.99        86.91       34.914      47.622      14.183      14.47       54.52       20.155      1.201       0.966       30.524      1.319       98.765      
71.7        33.023      153.187     2.282       4.081       87.75       35.954      47.622      14.183      14.47       54.52       20.155      1.152       0.966       31.1        1.31        98.66       
71.8        31.39       152.86      2.317       4.259       88.17       36.994      48.062      14.183      14.47       54.52       20.307      1.152       0.966       31.772      1.293       98.531      
71.9        30.06       151.881     2.328       4.434       88.59       37.514      48.062      14.183      14.47       53.48       20.307      1.141       0.966       32.877      1.27        98.502      
72.0        28.73       151.358     2.338       4.584       89.43       38.034      48.502      14.303      14.47       53.48       20.424      1.122       0.966       33.925      1.242       98.45       
72.1        25.678      150.999     2.308       4.766       89.85       37.514      48.942      14.423      14.47       53.48       20.348      1.111       0.966       35.261      1.211       98.424      
72.2        22.975      150.84      2.313       4.997       89.85       36.994      50.702      14.423      14.47       53.48       20.234      1.134       0.966       36.772      1.177       98.374      
72.3        20.271      150.651     2.291       5.005       90.69       36.994      50.702      14.423      14.89       53.48       20.234      1.135       0.966       37.955      1.139       98.348      
72.4        19.695      150.767     2.29        4.882       90.69       36.994      50.702      14.543      15.17       53.48       20.045      1.123       0.966       37.912      1.105       98.322      
72.5        19.574      151.727     2.28        4.813       90.69       36.994      50.702      14.543      15.31       54.52       20.045      1.122       0.966       37.299      1.082       98.245      
72.6        19.077      152.516     2.297       4.844       90.69       36.994      51.142      14.543      15.31       54.52       20.01       1.12        0.966       36.362      1.073       98.066      
72.7        19.382      152.649     2.275       4.804       90.69       36.994      51.582      14.543      15.31       55.56       19.826      1.099       0.966       35.871      1.073       97.911      
72.8        19.688      152.484     2.28        4.915       90.69       36.994      52.022      14.663      15.31       56.6        19.826      1.094       0.966       36.058      1.081       97.679      
72.9        21.217      152.554     2.263       5.273       90.69       38.034      52.022      14.663      15.31       58.68       19.789      1.083       0.966       36.355      1.085       97.396      
73.0        22.063      153.16      2.224       5.515       90.69       38.554      52.462      14.663      15.45       59.72       19.789      1.069       0.966       36.423      1.078       97.113      
73.1        21.862      153.398     2.211       5.442       90.69       38.554      52.462      14.663      15.59       59.72       19.899      1.075       0.966       36.433      1.067       96.726      
73.2        20.209      153.811     2.22        5.437       90.69       38.554      52.462      14.783      15.73       59.72       19.899      1.069       0.966       36.457      1.056       96.417      
73.3        18.555      154.176     2.217       5.339       90.69       38.554      52.462      14.783      16.01       59.72       19.862      1.067       0.966       35.914      1.052       96.159      
73.4        18.435      154.358     2.231       4.971       91.53       39.074      52.462      14.783      16.15       59.72       20.047      1.111       0.966       35.283      1.057       95.746      
73.5        18.922      153.963     2.284       4.781       92.37       39.074      52.462      14.783      16.71       59.72       20.047      1.17        0.966       34.914      1.071       95.307      
73.6        20.367      154.256     2.3         4.66        93.21       39.074      52.462      14.903      16.57       59.72       20.234      1.179       0.966       34.002      1.093       94.771      
73.7        22.525      153.623     2.304       4.413       93.63       39.074      52.462      14.903      16.29       59.72       20.424      1.187       0.966       32.713      1.116       94.228      
73.8        24.683      153.402     2.31        4.269       93.63       39.074      52.902      15.023      16.29       59.72       20.424      1.201       0.966       32.26       1.132       93.634      
73.9        27.747      153.128     2.271       4.169       94.89       39.074      52.902      15.023      16.29       59.72       20.695      1.193       0.966       32.659      1.14        92.868      
74.0        30.758      152.758     2.215       4.018       95.31       39.074      52.902      15.023      16.29       60.76       20.695      1.184       0.966       33.022      1.141       92.094      
