~Version Information Section
VERS.                                         2.0:CWLS log ASCII Standart – VERSION 2.0
WRAP.                                          NO:One line per depth step
~Well Information Section
STRT.M                                        0.0:Начальная глубина
STOP.M                                      166.2:Конечная глубина
STEP.M                                          0:Шаг квантования по глубине
NULL.                                    -9999.25:Признак "Нет данных"
WELL.                                         1Мх:Скважина
~Parameter Information Section
~Curve Information Section
DEPTH.M                                          :Глубина
BK.lgОмм                                         :BK
ПРОФ_СР.мм                                       :ПРОФ_СР
GGKP.имп/мин                                     :GGKp
ГК.мкР/час                                       :GK
ИК.мСм/м                                         :IK
PS.мВ                                            :PS
PZ.Омм                                           :PZ
RIS.Омм                                          :RIS
U1.мВ                                            :U1
U2.мВ                                            :U2
U3.mv                                            :U3
WS.%                                             :WS
ГЗ1.Омм                                          :ГЗ1
ГЗ2.Омм                                          :ГЗ2
ГЗ3.Омм                                          :ГЗ3
ГЗ4.Oмм                                          :ГЗ4
ГЗК.Омм                                          :ГЗК
НГК.усл.ед                                       :ННКб
ННКМ.усл.ед                                      :ННКм
ГЗ5.Oмм                                          :ГЗ5
ПЛ1.имп/мин                                      :ПЛ1
ПЛ2.имп/мин                                      :ПЛ2
ПЛ3.имп/мин                                      :ПЛ3
ПЛ4.имп/мин                                      :ПЛ4
~ASCII LOG DATA
# ...
151.2       65.909      148.724     2.203       4.154       21.896      165.942     29.605      0.902       1615.128    1300.495    1109.659    30.174      3.69        8.556       7.777       8.425       7.719       3.849       2.457       7.871       13320.0     19840.0     11880.0     2100.0      
151.3       56.3        149.189     2.189       4.106       21.121      165.719     28.767      0.902       1355.265    1096.483    963.074     30.543      3.333       8.29        7.677       8.325       7.619       3.769       2.475       7.771       13560.0     19260.0     11480.0     2120.0      
151.4       48.529      148.777     2.167       4.226       20.533      165.57      28.059      0.905       1109.642    876.65      782.593     30.651      2.922       8.0         7.577       8.125       7.519       3.604       2.449       7.671       12120.0     18620.0     11260.0     2160.0      
151.5       43.674      149.739     2.157       4.2         20.153      165.729     26.828      -9999.25    911.734     686.315     613.558     30.987      2.87        7.758       7.377       8.025       7.319       3.449       2.376       7.471       9600.0      19040.0     11820.0     2260.0      
151.6       39.847      148.383     2.132       4.285       19.534      166.172     25.392      -9999.25    788.875     563.426     494.919     31.44       2.608       7.564       7.177       8.025       7.219       3.347       2.291       7.171       10800.0     20120.0     12140.0     2220.0      
151.7       37.499      148.146     2.135       4.421       19.269      166.725     23.877      -9999.25    723.018     500.321     429.449     31.185      2.424       7.371       7.077       7.725       7.219       3.39        2.228       6.871       9240.0      20460.0     12380.0     2360.0      
151.8       36.712      147.879     2.112       4.558       19.07       167.338     22.26       -9999.25    684.482     487.192     425.372     30.873      2.603       7.443       6.977       7.625       7.119       3.475       2.215       6.671       9840.0      20600.0     12180.0     2480.0      
151.9       37.331      148.079     2.117       4.486       18.916      167.844     20.629      -9999.25    665.448     517.054     477.99      30.56       2.347       7.298       6.877       7.425       7.019       3.537       2.238       6.671       10680.0     20720.0     11840.0     2480.0      
152.0       37.898      148.841     2.127       4.442       18.76       168.271     18.989      -9999.25    647.81      562.786     559.377     30.337      2.245       7.177       6.777       7.325       6.719       3.546       2.278       6.471       12600.0     20600.0     11000.0     2400.0      
152.1       36.511      148.687     2.125       4.253       18.366      168.661     17.376      -9999.25    625.101     576.221     599.091     30.189      2.157       7.081       6.677       7.225       6.519       3.501       2.301       6.371       13800.0     20680.0     10900.0     2440.0      
152.2       34.507      146.694     2.11        4.298       18.261      168.853     16.25       -9999.25    619.159     577.666     608.216     30.297      2.085       7.008       6.577       7.125       6.419       3.479       2.293       6.271       11760.0     21960.0     11900.0     2280.0      
152.3       33.808      145.591     2.1         4.549       18.098      168.884     15.144      -9999.25    622.283     579.131     608.344     30.528      2.061       6.839       6.477       6.925       6.319       3.494       2.256       6.271       10440.0     22820.0     13020.0     2240.0      
152.4       35.05       146.451     2.098       4.708       17.029      168.89      14.157      -9999.25    631.989     580.011     600.636     30.226      2.124       6.694       6.477       6.925       6.319       3.534       2.21        6.071       10560.0     23000.0     13580.0     2380.0      
152.5       37.928      146.836     2.13        4.761       17.819      169.109     13.545      -9999.25    657.731     586.608     587.495     29.677      2.198       6.524       6.477       6.725       6.319       3.601       2.203       5.971       12000.0     23680.0     13780.0     2580.0      
152.6       39.426      146.991     2.152       5.093       17.731      170.075     13.656      -9999.25    690.745     601.864     584.994     28.613      2.08        6.234       6.477       6.625       6.319       3.692       2.236       5.971       13080.0     22720.0     12980.0     2560.0      
152.7       42.331      147.36      2.17        5.141       17.462      172.085     14.412      -9999.25    710.775     624.958     614.406     27.538      2.492       6.113       6.477       6.525       6.319       3.831       2.28        5.971       14520.0     21720.0     12640.0     2500.0      
152.8       47.923      147.138     2.182       4.861       17.701      174.936     15.211      -9999.25    732.309     661.55      672.945     26.462      2.846       6.403       6.377       6.525       6.319       4.039       2.33        5.871       15360.0     21520.0     12260.0     2380.0      
152.9       51.353      147.288     2.204       4.789       16.843      178.684     16.118      -9999.25    797.901     723.496     740.12      25.143      2.748       6.573       6.177       6.525       6.319       4.274       2.399       5.671       12600.0     20000.0     11360.0     2060.0      
153.0       51.678      148.676     2.253       4.837       16.577      183.285     17.117      -9999.25    913.318     809.691     805.664     23.6        2.855       6.597       6.177       6.725       6.319       4.539       2.482       5.671       11400.0     18880.0     11500.0     1960.0      
153.1       47.94       148.059     2.285       4.742       16.523      188.806     18.088      -9999.25    1029.081    896.234     867.946     22.597      3.024       6.573       6.177       6.825       6.319       4.754       2.534       5.571       11520.0     19580.0     11620.0     2100.0      
153.2       47.424      147.568     2.322       4.836       16.211      194.784     18.56       -9999.25    1117.301    961.248     908.507     21.786      3.358       6.669       6.177       6.825       6.319       4.974       2.55        5.571       8280.0      19580.0     11680.0     2160.0      
153.3       45.964      147.739     2.346       5.016       15.661      200.402     18.393      -9999.25    1190.459    999.218     905.558     21.896      3.42        6.742       6.077       6.825       6.319       5.124       2.569       5.571       8760.0      20960.0     12380.0     2300.0      
153.4       43.793      148.575     2.372       5.176       15.148      205.068     17.639      -9999.25    1220.26     1004.532    878.772     22.216      3.59        6.936       5.977       6.925       6.319       5.204       2.614       5.471       8880.0      21820.0     12820.0     2500.0      
153.5       37.539      149.473     2.383       5.357       14.326      208.845     16.689      -9999.25    1103.624    926.303     825.382     23.922      3.648       7.201       5.877       7.025       6.319       5.09        2.664       5.171       8880.0      21860.0     12520.0     2280.0      
153.6       28.329      150.037     2.376       5.453       13.455      211.676     15.473      -9999.25    985.848     819.506     734.398     25.562      2.075       6.936       5.877       7.125       6.319       4.786       2.691       5.171       13080.0     21760.0     12380.0     2340.0      
153.7       18.911      150.28      2.364       5.779       12.696      213.51      14.136      -9999.25    918.497     684.016     577.158     26.669      1.35        6.694       5.977       7.225       6.319       4.259       2.656       5.171       13560.0     21400.0     11880.0     2200.0      
153.8       14.664      150.194     2.377       5.902       12.081      214.148     12.693      -9999.25    853.675     525.735     391.845     28.003      1.238       6.669       6.177       7.225       6.519       3.762       2.539       5.171       13200.0     21180.0     12420.0     2100.0      
