~Version Information Section
VERS.                                         2.0:CWLS log ASCII Standart – VERSION 2.0
WRAP.                                          NO:One line per depth step
~Well Information Section
STRT.M                                        0.4:Начальная глубина
STOP.M                                      203.0:Конечная глубина
STEP.M                                          0:Шаг квантования по глубине
NULL.                                    -9999.25:Признак "Нет данных"
WELL.                                       128Мх:Скважина
~Parameter Information Section
~Curve Information Section
DEPTH.M                                          :Глубина
BK.Ohm*M                                         :BK     (БК)
DS.mm                                            :DS  (ДС)
GGK.g/cm3                                        :GGKp
ГК.mcr/h                                         :GK          (ГК)
ИК.Ohm*M                                         :IK
НГК.mcR/H                                        :NGK
NNKM.                                            :NNKm  (ННКм)
PS.mv                                            :PS       (ПС)
PZ.Ohm*M                                         :PZ    (КС)
RS.Ohm*M                                         :RS (Резистивиметр)
U1.mV                                            :U1
U2.mV                                            :U2
U3.mV                                            :U3
W.%                                              :W
~ASCII LOG DATA
# ...
117.4       3.006       97.203      2.254       2.729       55.689      1.102       2.412       142.37      0.0         1.06        -9999.25    -9999.25    -9999.25    35.201      
117.6       1.028       97.198      2.255       2.967       55.279      0.914       2.061       140.054     0.0         1.06        -9999.25    -9999.25    -9999.25    32.777      
117.8       1.652       97.206      2.19        3.62        55.689      1.224       1.923       138.945     0.0         1.06        -9999.25    -9999.25    -9999.25    31.102      
118.0       1.016       97.203      2.188       3.622       55.689      1.371       1.962       138.674     0.0         1.068       -9999.25    -9999.25    -9999.25    31.57       
118.2       1.035       97.222      2.236       3.305       56.164      1.144       1.874       138.674     0.0         1.076       -9999.25    -9999.25    -9999.25    27.935      
118.4       1.033       97.213      2.17        3.104       56.329      1.204       2.049       138.797     0.0         1.08        -9999.25    -9999.25    -9999.25    28.545      
118.6       1.069       97.226      2.119       2.901       55.466      1.078       2.07        139.733     0.0         1.08        -9999.25    -9999.25    -9999.25    31.376      
118.8       1.112       97.217      2.131       3.074       55.689      1.051       1.978       142.271     0.0         1.08        -9999.25    -9999.25    -9999.25    31.971      
119.0       1.169       97.207      2.156       3.889       56.101      1.049       1.898       146.904     0.0         1.08        -9999.25    -9999.25    -9999.25    32.829      
119.2       1.178       97.189      2.187       4.406       55.466      0.936       1.845       153.409     0.0         1.076       -9999.25    -9999.25    -9999.25    33.63       
119.4       1.222       97.104      2.193       4.694       56.392      1.021       1.786       160.924     0.0         1.068       -9999.25    -9999.25    -9999.25    30.162      
119.6       1.213       96.814      2.186       4.907       56.038      1.017       1.801       168.168     0.0         1.06        -9999.25    -9999.25    -9999.25    33.429      
119.8       1.239       96.382      2.197       5.385       55.813      0.915       1.788       173.737     0.0         1.06        -9999.25    -9999.25    -9999.25    36.533      
120.0       1.259       96.347      2.256       5.646       56.164      1.042       1.644       177.014     0.0         1.06        -9999.25    -9999.25    -9999.25    34.706      
120.2       1.259       96.557      2.34        4.418       56.164      1.046       1.525       177.999     0.0         1.06        385.682     337.122     87.382      30.947      
120.4       0.598       96.748      2.309       2.823       56.815      0.963       1.807       177.999     0.0         1.06        154.012     301.79      258.581     32.211      
120.6       1.213       96.82       2.244       2.872       56.815      0.908       1.947       177.186     0.0         1.06        258.436     311.646     163.881     37.133      
120.8       10.162      96.893      2.224       2.771       56.164      1.0         1.819       175.067     0.0         1.06        444.573     361.515     141.333     35.963      
121.0       1.186       96.916      2.212       2.034       56.815      0.906       1.816       172.529     0.0         1.06        200.517     376.0       146.667     33.799      
121.2       1.23        96.923      2.173       1.903       57.179      1.07        1.963       170.607     0.0         1.06        95.095      326.577     162.667     33.065      
121.4       1.236       96.94       2.124       1.815       56.88       1.012       2.04        169.671     0.0         1.06        137.225     341.642     170.667     37.965      
121.6       1.227       96.946      2.156       1.728       56.815      1.04        1.915       169.4       0.0         1.06        173.24      401.75      162.667     40.88       
121.8       1.432       97.02       2.229       1.84        57.244      1.013       1.883       169.154     0.0         1.06        112.235     337.487     165.333     32.663      
122.0       1.611       97.006      2.252       1.997       57.307      1.17        1.963       168.538     0.0         1.06        111.016     296.468     168.449     31.162      
122.2       1.589       96.996      2.209       2.269       57.372      1.063       2.121       167.626     0.0         1.06        146.533     290.223     135.448     31.216      
122.4       1.387       96.983      2.3         2.649       58.116      1.271       2.127       166.813     0.0         1.06        176.368     323.562     173.381     27.853      
122.6       1.496       96.914      2.42        2.184       58.692      1.287       2.244       166.419     0.0         1.06        266.83      367.317     182.053     27.638      
122.8       1.552       96.852      2.389       2.207       59.077      1.342       2.344       166.32      0.0         1.06        241.959     370.16      202.806     26.75       
123.0       1.549       96.845      2.305       2.419       59.866      1.127       2.457       166.32      0.0         1.06        210.001     352.003     192.31      28.81       
123.2       1.556       96.841      2.276       2.394       61.087      1.09        2.343       166.32      0.001       1.06        238.152     348.677     172.184     34.035      
123.4       1.596       96.823      2.25        2.563       70.706      1.025       2.035       166.32      0.007       1.06        154.286     322.325     222.068     33.977      
123.6       1.585       96.796      2.195       3.005       70.706      0.894       1.924       166.345     0.041       1.06        147.053     310.754     188.395     36.3        
123.8       1.603       96.75       2.126       3.297       59.726      0.874       1.83        166.591     0.159       1.06        252.915     345.664     168.134     37.001      
124.0       2.5         96.183      2.098       3.841       59.726      0.969       1.756       167.429     0.502       1.06        191.505     349.333     223.016     37.177      
124.2       1.368       95.698      2.121       3.966       55.423      1.069       1.778       169.055     1.526       1.06        201.402     360.0       304.585     35.938      
124.4       1.51        96.96       2.35        4.036       55.423      1.018       1.831       171.199     4.107       1.06        216.997     328.969     193.007     39.726      
124.6       1.641       97.703      2.316       4.025       45.573      0.929       1.77        173.466     8.941       1.06        196.496     312.354     132.835     38.131      
124.8       1.114       107.812     2.209       5.08        43.024      1.061       1.637       175.708     15.491      1.06        141.155     301.685     179.436     35.761      
125.0       13.092      119.895     2.165       6.162       45.6        1.129       1.748       178.049     21.912      1.06        137.604     301.912     222.316     28.513      
125.2       23.227      123.514     2.145       5.854       44.307      1.21        2.187       180.389     26.608      1.06        292.795     338.757     150.818     30.779      
125.4       26.242      126.933     2.101       6.155       44.429      1.217       2.282       182.533     29.277      1.06        269.057     323.995     140.409     37.328      
125.6       19.32       128.424     2.103       6.92        46.219      1.016       2.181       184.332     30.659      1.06        117.828     300.989     222.254     37.81       
125.8       19.143      127.498     2.155       7.016       21.796      0.973       2.087       185.367     31.497      1.06        147.286     333.115     236.808     34.783      
126.0       22.336      125.182     2.184       6.638       22.853      1.292       2.1         185.367     32.154      1.06        253.987     336.342     156.453     32.521      
126.2       37.068      124.459     2.163       5.658       23.083      1.041       2.163       184.504     32.734      1.06        279.582     346.984     149.067     33.519      
