~Version Information Section
VERS.                                         2.0:CWLS log ASCII Standart – VERSION 2.0
WRAP.                                          NO:One line per depth step
~Well Information Section
STRT.M                                        0.7:Начальная глубина
STOP.M                                      200.1:Конечная глубина
STEP.M                                          0:Шаг квантования по глубине
NULL.                                    -9999.25:Признак "Нет данных"
WELL.                                       111Мх:Скважина
~Parameter Information Section
~Curve Information Section
DEPTH.M                                          :Глубина
DСР.mm                                           :Dср
ГК.1/min                                         :GK
ИК.mSim/m                                        :IK
N0.5M2.0A.Омм                                    :N0
НГК.усл.ед                                       :NGK
PZ.Ohm*M                                         :PZ
R.Ohm*M                                          :R
PS.mV                                            :ПС
U1.mV                                            :U1
U2.                                              :U2
U3.mV                                            :U3
А0.4М0.1N.Омм                                    :А0
А1.0М0.1N.Омм                                    :А1
А2.0М0.5N.Омм                                    :А2
А4.0М0.5N.Oмм                                    :А4
А8.0М1.0N.Омм                                    :А8
BK.Ohm*M                                         :БК
ГГК.1/min                                        :ГГК
КП.%                                             :Кп
ННКМ.усл.ед                                      :ННКм
~ASCII LOG DATA
# ...
170.3       122.659     3.283       50.161      168.392     1.847       209.6       1.06        202.664     1744.401    1949.999    1778.0      150.666     150.43      135.709     9.84        9.63        132.897     2.129       31.651      2.351       
170.4       122.545     3.277       50.274      167.358     1.923       209.6       1.06        204.266     1746.799    1917.004    1786.4      151.279     151.699     145.905     10.027      10.105      140.984     2.128       31.13       2.393       
170.5       122.815     3.264       50.817      167.194     1.649       209.6       1.06        206.483     1756.4      1872.0      1789.2      153.479     154.905     156.546     10.532      10.659      146.059     2.132       30.566      2.425       
170.6       123.053     3.11        51.656      166.4       1.6         209.5       1.06        209.194     1756.399    1829.998    1792.0      156.691     157.298     166.648     11.186      11.245      145.89      2.136       30.26       2.438       
170.7       122.958     3.034       52.33       164.046     1.568       209.0       1.06        212.274     1734.801    1806.0      1797.6      159.69      157.754     174.733     11.765      11.812      144.981     2.127       30.139      2.423       
170.8       122.705     3.194       52.788      160.294     1.571       208.4       1.06        215.23      1701.199    1818.0      1803.2      161.066     157.754     179.91      12.234      12.312      147.651     2.112       29.952      2.373       
170.9       122.679     3.226       53.147      155.573     1.596       207.6       1.06        218.557     1677.202    1832.998    1808.799    161.066     157.385     182.568     12.753      12.706      148.958     2.093       30.261      2.35        
171.0       122.657     3.168       53.586      151.4       1.595       206.7       1.06        222.376     1653.2      1854.0      1811.6      161.006     155.137     183.759     13.416      12.951      143.139     2.078       30.467      2.385       
171.1       122.674     3.11        54.143      149.538     1.573       205.6       1.06        226.934     1638.799    1872.001    1814.4      159.572     150.756     184.671     14.33       13.046      133.082     2.066       30.798      2.389       
171.2       122.682     3.034       54.313      149.321     1.675       204.4       1.06        232.232     1634.0      1896.0      1803.2      156.112     146.138     186.048     16.051      13.062      123.631     2.058       30.934      2.352       
171.3       122.534     3.034       54.295      149.321     1.703       203.4       1.06        238.638     1638.8      1905.0      1786.399    152.013     143.029     187.29      19.078      13.042      117.163     2.053       30.657      2.338       
171.4       122.803     3.034       54.775      149.321     1.759       202.5       1.06        245.538     1648.399    1899.0      1766.801    148.633     141.862     187.811     23.509      12.951      115.178     2.053       30.382      2.345       
171.5       122.961     2.826       55.258      149.863     1.692       201.9       1.06        253.299     1665.2      1887.0      1738.8      146.43      141.417     187.901     29.433      12.752      117.44      2.069       29.882      2.37        
171.6       123.167     2.784       55.471      151.192     1.643       201.7       1.06        261.677     1686.801    1865.998    1719.199    145.594     141.148     188.418     36.77       12.473      121.292     2.092       29.443      2.397       
171.7       123.143     3.014       55.786      153.475     1.776       201.7       1.06        270.424     1705.999    1836.001    1710.8      145.594     141.148     190.719     45.002      12.216      126.602     2.109       29.015      2.427       
171.8       123.168     3.174       56.271      156.912     1.776       201.7       1.06        278.678     1722.801    1821.0      1727.601    145.594     141.699     195.095     53.618      12.046      132.283     2.113       28.61       2.459       
171.9       122.921     3.494       56.764      161.138     1.708       201.7       1.06        286.563     1737.199    1823.999    1758.397    145.884     143.255     200.743     62.566      11.965      133.81      2.106       28.399      2.48        
172.0       122.817     3.451       57.18       166.345     1.636       201.7       1.06        292.846     1737.2      1833.0      1811.6      147.177     145.584     207.211     71.876      11.946      134.362     2.097       27.78       2.484       
172.1       122.654     3.418       57.8        173.0       1.627       201.7       1.06        297.651     1725.199    1845.001    1859.203    149.533     149.136     214.374     81.965      11.923      138.974     2.09        27.381      2.463       
172.2       122.671     3.322       58.688      180.926     1.688       202.1       1.06        300.731     1713.201    1857.0      1903.999    153.169     154.637     221.973     93.417      11.851      150.313     2.088       26.925      2.481       
172.3       122.654     3.242       59.41       188.366     1.769       202.7       1.06        302.456     1703.6      1851.0      1929.2      158.754     161.835     229.76      106.435     11.768      177.943     2.087       26.425      2.522       
172.4       122.651     2.938       60.099      193.445     1.621       203.4       1.06        302.949     1705.999    1833.001    1943.2      166.09      169.994     237.66      121.136     11.687      206.135     2.088       25.87       2.587       
172.5       122.726     3.168       60.7        195.641     1.744       204.2       1.06        302.949     1725.2      1809.0      1946.0      175.25      178.591     245.173     137.046     11.554      214.633     2.093       25.022      2.648       
172.6       122.627     3.629       60.957      196.004     1.928       205.3       1.06        302.949     1744.402    1784.998    1943.2      186.628     185.932     250.674     152.402     11.363      220.924     2.099       24.056      2.641       
172.7       122.71      3.514       61.5        196.004     1.764       206.6       1.06        302.826     1754.0      1761.001    1934.8      198.077     190.793     252.997     165.021     11.114      234.246     2.093       23.572      2.627       
172.8       122.914     3.283       62.068      194.789     1.852       208.1       1.06        302.086     1751.599    1746.0      1923.599    207.333     193.738     253.372     173.561     10.773      222.328     2.078       23.175      2.633       
172.9       123.094     3.305       62.569      191.16      1.835       209.6       1.06        300.978     1734.802    1740.0      1901.202    213.979     194.84      253.372     177.648     10.368      187.747     2.056       23.539      2.645       
173.0       123.29      3.322       62.984      186.32      1.748       211.1       1.06        299.622     1710.8      1752.0      1864.8      218.056     195.251     252.448     178.606     9.945       171.273     2.037       23.786      2.661       
173.1       123.33      3.11        63.024      182.108     1.893       212.6       1.06        298.021     1693.999    1773.002    1839.598    220.352     196.012     249.372     178.706     9.495       172.513     2.025       23.792      2.664       
173.2       123.431     3.11        63.26       178.963     1.984       214.3       1.06        296.666     1682.0      1785.0      1822.801    221.873     196.402     244.063     178.646     9.018       171.964     2.023       23.83       2.658       
173.3       123.654     2.938       63.24       176.902     1.895       216.1       1.06        295.926     1677.2      1794.0      1808.8      223.061     196.402     237.906     177.705     8.541       167.09      2.028       23.877      2.686       
173.4       122.981     3.091       62.984      176.199     2.053       218.5       1.06        295.926     1674.8      1800.001    1805.999    223.535     196.402     232.099     176.111     8.05        171.5       2.038       23.753      2.706       
