~Version Information Section
VERS.                                         2.0:CWLS log ASCII Standart – VERSION 2.0
WRAP.                                          NO:One line per depth step
~Well Information Section
STRT.M                                        1.2:Начальная глубина
STOP.M                                      169.4:Конечная глубина
STEP.M                                          0:Шаг квантования по глубине
NULL.                                    -9999.25:Признак "Нет данных"
WELL.                                       114Мх:Скважина
~Parameter Information Section
~Curve Information Section
DEPTH.M                                          :Глубина
BK.Ohm*M                                         :BK     (БК)
DS.mm                                            :DS  (ДС)
GGK.g/cm3                                        :GGKp
ГК.mcr/h                                         :GK          (ГК)
GZ1.Ohm*M                                        :GZ1   ГЗ1(A0.4M0.1N)
GZ2.Ohm*M                                        :GZ2   ГЗ2(A1.0M0.1N)
GZ3.Ohm*M                                        :GZ3   ГЗ3(A2.0M0.5N)
GZ4.Ohm*M                                        :GZ4   ГЗ4(A4.0M0.5N)
GZ5.Ohm*M                                        :GZ5   ГЗ5(A8.0M0.5N)
GZR.Ohm*M                                        :GZK   ГЗK(N0.5M2.0A)
ИК.Ohm*M                                         :IK
НГК.ue                                           :NGK     (НГК)
NNKM.                                            :NNKm  (ННКм)
PS.mv                                            :PS       (ПС)
PZ.Ohm*M                                         :PZ    (КС)
U1.mV                                            :U1
U2.mV                                            :U2
U3.mV                                            :U3
КП.%                                             :Кп
~ASCII LOG DATA
# ...
110.0       21.038      134.608     2.258       6.962       10.793      10.927      8.777       11.825      11.671      9.619       24.973      1.101       1.204       1096.968    23.817      819.111     390.569     246.452     32.954      
110.1       27.733      134.104     2.27        7.266       11.339      11.337      8.977       12.025      12.071      10.219      24.252      1.098       1.206       1096.937    23.383      751.312     406.3       222.112     33.622      
110.2       71.779      135.021     2.272       7.31        11.932      11.894      9.177       12.325      12.871      10.819      23.546      1.083       1.184       1097.311    22.846      552.114     407.907     211.162     33.261      
110.3       69.024      134.124     2.263       6.524       12.144      12.377      9.377       12.525      12.971      10.919      22.928      1.108       1.176       1097.398    22.45       471.996     387.348     217.432     32.327      
110.4       51.761      134.729     2.265       6.195       12.267      12.716      9.777       13.025      13.871      11.819      22.647      1.123       1.204       1097.676    22.106      542.854     343.735     241.2       31.51       
110.5       40.926      134.193     2.263       6.224       12.367      13.299      10.677      13.225      14.071      11.919      22.537      1.145       1.222       1097.739    21.941      691.364     367.863     303.786     30.309      
110.6       30.974      134.458     2.259       6.212       12.671      13.904      12.177      13.325      14.871      12.119      22.457      1.097       1.217       1097.667    21.864      775.219     470.491     406.969     30.487      
110.7       25.177      134.702     2.267       6.113       12.686      14.287      13.377      13.925      15.071      12.619      22.537      1.098       1.22        1096.982    21.802      691.23      547.001     444.585     32.06       
110.8       28.973      134.282     2.27        5.939       12.444      14.53       13.777      14.025      15.571      12.919      22.319      1.116       1.234       1096.101    21.721      507.135     517.691     370.939     33.947      
110.9       25.177      134.688     2.29        6.079       12.357      14.675      13.977      14.225      15.671      13.219      21.793      1.174       1.244       1094.888    21.706      348.906     398.763     250.887     35.025      
111.0       21.727      134.051     2.307       6.493       12.101      14.722      15.377      14.825      16.271      14.619      21.488      1.167       1.249       1094.102    21.755      309.732     296.333     194.932     34.847      
111.1       19.275      134.718     2.306       6.886       11.793      14.579      15.377      14.825      16.871      14.819      21.048      1.168       1.267       1093.516    21.851      349.137     273.305     235.628     34.698      
111.2       20.091      134.258     2.278       6.949       11.455      14.289      15.377      15.425      14.671      15.019      20.555      1.178       1.288       1093.63     21.911      346.51      307.922     305.055     33.08       
111.3       23.55       134.614     2.244       6.665       11.699      14.603      15.377      15.825      14.571      15.519      20.087      1.198       1.268       1093.4      21.966      410.81      328.237     315.492     31.627      
111.4       23.442      134.511     2.229       6.42        11.255      14.458      15.477      16.325      13.071      15.219      19.764      1.175       1.261       1093.202    21.969      588.093     278.925     241.839     30.252      
111.5       25.645      133.956     2.215       6.174       10.756      14.675      16.077      14.825      11.971      14.819      19.494      1.171       1.291       1092.552    21.808      879.26      226.29      142.937     29.962      
111.6       36.058      134.93      2.22        6.001       11.249      16.078      13.177      13.325      11.471      12.319      19.292      1.158       1.298       1092.061    21.481      907.294     240.763     102.152     29.337      
111.7       27.733      133.721     2.245       5.973       12.243      17.792      12.277      12.325      10.371      11.619      19.269      1.155       1.292       1091.857    21.103      672.188     323.763     121.174     28.354      
111.8       22.233      133.684     2.273       5.842       13.058      18.879      11.977      11.925      10.071      11.519      19.35       1.123       1.301       1091.835    20.786      432.141     342.678     144.165     27.831      
111.9       20.989      134.492     2.267       6.112       12.854      18.423      11.477      11.525      9.571       11.219      19.412      1.131       1.312       1091.465    20.548      450.292     297.508     171.126     29.031      
112.0       20.749      134.236     2.25        6.28        12.702      17.698      11.277      11.025      9.071       10.919      19.412      1.168       1.3         1091.436    20.275      647.662     301.659     254.232     30.533      
112.1       21.528      133.783     2.252       6.71        10.829      15.203      11.077      10.525      8.771       10.719      19.229      1.196       1.288       1091.426    20.023      766.072     419.227     389.526     30.168      
112.2       22.439      134.428     2.266       6.774       8.329       12.569      10.477      10.425      8.571       10.519      19.07       1.186       1.243       1091.416    19.864      712.331     547.344     468.622     28.337      
112.3       22.856      134.661     2.272       6.743       6.693       10.733      10.077      10.325      8.171       10.319      18.837      1.116       1.198       1091.095    19.73       565.412     572.62      439.358     26.892      
112.4       24.155      134.793     2.262       6.661       5.9         9.695       9.877       10.025      8.171       9.919       18.857      1.043       1.201       1090.954    19.688      325.292     485.958     356.231     27.313      
112.5       23.878      134.673     2.257       6.371       6.181       9.693       9.877       9.925       7.971       9.419       18.816      1.029       1.203       1091.194    19.618      281.843     390.208     327.606     29.987      
112.6       20.701      134.34      2.274       6.178       7.102       10.008      9.777       9.825       7.871       9.219       18.837      1.103       1.233       1091.452    19.591      435.041     285.359     353.486     31.991      
112.7       19.588      134.965     2.304       5.949       7.376       10.033      9.677       9.725       7.771       9.019       18.953      1.16        1.267       1091.709    19.661      670.33      268.248     359.572     32.967      
112.8       19.364      135.068     2.327       6.065       7.378       9.864       9.377       9.725       7.671       8.619       18.914      1.172       1.284       1091.553    19.811      791.056     338.865     345.866     31.615      
112.9       19.999      133.793     2.331       6.369       7.375       9.839       8.777       9.625       7.571       8.619       18.894      1.13        1.291       1091.251    19.963      949.681     416.985     294.401     30.385      
113.0       22.699      133.511     2.326       6.656       6.761       9.476       8.677       9.525       7.571       8.419       18.798      1.101       1.26        1091.271    20.125      1260.751    414.882     224.972     30.29       
113.1       23.933      134.113     2.322       6.67        6.338       9.211       8.577       9.425       7.471       8.319       18.798      1.077       1.228       1091.156    20.35       1323.88     368.365     157.82      30.403      
113.2       24.044      133.96      2.297       6.593       6.353       9.284       8.577       9.325       7.371       8.219       18.801      1.074       1.212       1091.011    20.626      986.605     357.667     110.923     30.856      
113.3       23.768      133.763     2.265       6.407       6.706       9.429       8.277       9.325       7.271       8.119       19.01       1.075       1.2         1090.961    20.91       517.096     350.558     117.249     31.477      
