~Version Information Section
VERS.                                         2.0:CWLS log ASCII Standart – VERSION 2.0
WRAP.                                          NO:One line per depth step
~Well Information Section
STRT.M                                        0.4:Начальная глубина
STOP.M                                      206.4:Конечная глубина
STEP.M                                          0:Шаг квантования по глубине
NULL.                                    -9999.25:Признак "Нет данных"
WELL.                                       157Мх:Скважина
~Parameter Information Section
~Curve Information Section
DEPTH.M                                          :Глубина
BK.Ohm*M                                         :BK     (БК)
DS.mm                                            :DS  (ДС)
GGK.g/cm3                                        :GGKp
ГК.mcr/h                                         :GK          (ГК)
GZ1.Ohm*M                                        :GZ1   ГЗ1(A0.4M0.1N)
GZ2.Ohm*M                                        :GZ2   ГЗ2(A1.0M0.1N)
GZ3.Ohm*M                                        :GZ3   ГЗ3(A2.0M0.5N)
GZ4.Ohm*M                                        :GZ4   ГЗ4(A4.0M0.5N)
GZ5.Ohm*M                                        :GZ5   ГЗ5(A8.0M0.5N)
GZR.                                             :GZR   ГЗK(N0.5M2.0A)
ИК.Ohm*M                                         :IK
НГК.ue                                           :NGK     (НГК)
NNKM.                                            :NNKm  (ННКм)
PS.mv                                            :PS       (ПС)
PZ.Ohm*M                                         :PZ    (КС)
RS.Ohm*M                                         :RS (Резистивиметр)
W.%                                              :W
~ASCII LOG DATA
# ...
148.4       34.595      153.024     2.337       8.742       29.828      29.693      30.596      25.938      39.404      28.117      27.413      1.471       2.169       183.084     47.484      1.127       28.032      
148.5       34.613      153.237     2.347       8.158       30.51       31.079      31.621      26.982      39.784      28.866      27.339      1.547       2.206       180.759     47.3        1.128       26.622      
148.6       34.622      152.938     2.354       7.695       31.227      32.278      32.501      28.041      40.118      29.212      27.22       1.651       2.239       178.388     46.922      1.129       25.153      
148.7       37.293      152.515     2.356       7.448       31.618      32.758      32.826      28.935      40.424      29.155      27.056      1.705       2.257       176.435     46.376      1.129       24.102      
148.8       37.154      152.683     2.358       7.596       31.776      32.596      32.799      29.17       40.737      28.743      26.925      1.662       2.249       174.973     45.661      1.13        23.736      
148.9       33.215      152.899     2.36        8.036       31.512      31.634      32.522      29.065      41.023      27.783      26.698      1.632       2.232       174.32      44.835      1.129       24.814      
149.0       29.069      153.236     2.353       8.253       30.836      30.004      31.619      28.376      41.457      26.678      26.503      1.578       2.15        174.32      44.163      1.13        26.947      
149.1       28.117      152.907     2.348       8.24        29.67       28.228      30.463      27.014      42.298      25.659      26.318      1.521       2.064       174.32      43.79       1.129       28.418      
149.2       29.241      152.795     2.337       8.124       28.542      27.015      29.274      25.672      43.453      24.731      26.157      1.487       2.03        174.469     43.586      1.129       28.278      
149.3       29.457      152.741     2.331       8.228       27.661      26.167      28.385      24.597      44.578      24.011      26.03       1.499       2.068       175.605     43.411      1.13        27.683      
149.4       29.428      152.67      2.323       8.317       26.787      25.605      27.856      23.806      45.314      23.521      25.928      1.51        2.1         178.548     43.208      1.129       28.222      
149.5       28.729      152.617     2.326       8.185       26.17       25.477      27.578      23.306      45.681      23.387      25.922      1.493       2.082       182.686     43.027      1.13        29.89       
149.6       28.768      152.597     2.333       8.15        25.898      25.532      27.508      23.133      45.839      23.431      25.994      1.458       2.05        187.813     42.819      1.129       31.324      
149.7       29.921      152.564     2.345       8.34        25.838      25.836      27.537      23.165      45.951      23.695      26.008      1.457       2.043       193.531     42.525      1.13        31.614      
149.8       30.34       152.548     2.347       8.514       25.965      26.271      27.726      23.392      46.116      24.162      25.939      1.482       2.041       199.008     42.097      1.131       30.985      
149.9       30.303      152.539     2.35        8.435       26.3        26.833      28.136      23.9        46.305      24.744      25.612      1.501       2.044       203.793     41.473      1.131       29.791      
150.0       29.921      152.478     2.353       8.22        26.474      27.424      28.669      24.448      46.361      25.377      25.464      1.486       2.039       207.98      40.612      1.131       28.851      
150.1       28.272      152.436     2.36        8.026       26.857      27.932      29.164      24.837      46.326      26.029      25.436      1.452       2.037       211.559     39.525      1.13        28.039      
150.2       30.186      152.513     2.371       7.719       27.033      27.93       29.425      25.021      46.059      26.581      25.462      1.439       2.065       214.228     38.321      1.129       27.405      
150.3       32.149      152.497     2.375       7.608       26.864      27.812      29.423      25.012      45.567      27.082      25.399      1.431       2.096       216.11      37.262      1.13        27.808      
150.4       29.913      152.476     2.379       7.701       26.527      27.246      29.34       24.91       44.993      27.585      25.48       1.432       2.098       217.367     36.497      1.13        29.21       
150.5       27.743      152.443     2.377       8.12        26.177      26.619      28.935      24.54       44.445      28.096      25.595      1.481       2.077       218.193     36.173      1.128       30.867      
150.6       27.523      152.551     2.37        8.552       25.7        25.806      28.472      23.969      43.983      28.624      25.805      1.529       2.075       218.776     36.151      1.128       31.538      
150.7       29.13       152.433     2.364       8.679       25.508      25.13       28.156      23.496      43.556      29.142      25.895      1.552       2.091       219.398     36.178      1.13        30.964      
150.8       30.006      152.489     2.358       8.602       25.499      24.526      28.119      23.336      43.179      29.646      26.093      1.516       2.098       219.814     36.314      1.128       29.987      
150.9       30.456      152.452     2.354       8.346       25.499      24.254      28.167      23.397      42.855      30.205      26.219      1.48        2.104       219.847     36.449      1.129       29.361      
151.0       28.63       152.541     2.348       8.223       25.725      24.269      28.435      23.751      42.66       30.866      26.448      1.455       2.124       219.847     36.629      1.128       29.076      
151.1       27.614      152.466     2.344       7.99        26.266      24.458      28.834      24.322      42.525      31.598      26.662      1.44        2.171       219.674     36.808      1.127       28.568      
151.2       30.123      152.476     2.342       7.794       27.359      25.173      29.256      24.97       42.28       32.157      26.832      1.446       2.222       218.593     36.826      1.129       27.744      
151.3       31.474      152.504     2.344       7.488       28.376      26.001      29.462      25.42       41.828      32.301      26.857      1.461       2.26        216.329     36.769      1.129       27.068      
151.4       29.167      152.471     2.351       7.403       28.836      26.309      29.404      25.414      41.216      32.218      26.932      1.492       2.275       212.669     36.525      1.129       26.696      
151.5       28.8        152.493     2.353       7.479       28.79       26.234      29.01       25.272      40.554      31.678      27.018      1.51        2.266       208.146     36.459      1.13        26.401      
151.6       29.443      152.495     2.353       7.764       28.481      25.773      28.112      24.598      39.878      30.617      27.103      1.52        2.257       203.316     36.508      1.129       26.411      
151.7       28.225      152.443     2.346       8.014       27.879      25.01       26.895      23.618      39.21       29.525      27.142      1.509       2.216       198.809     36.812      1.131       26.784      
151.8       27.558      152.421     2.334       8.162       27.418      24.433      25.786      22.748      38.489      28.817      27.085      1.483       2.172       195.302     37.398      1.13        28.231      
151.9       27.072      152.469     2.318       8.244       27.09       24.224      25.024      22.256      37.619      28.563      27.035      1.465       2.124       193.164     38.062      1.129       30.331      
152.0       27.577      152.474     2.31        8.189       27.198      24.405      24.717      22.025      36.616      28.358      27.05       1.464       2.106       192.342     38.595      1.129       31.156      
