~Version Information Section
VERS.                                         2.0:CWLS log ASCII Standart – VERSION 2.0
WRAP.                                          NO:One line per depth step
~Well Information Section
STRT.M                                        1.2:Начальная глубина
STOP.M                                      169.4:Конечная глубина
STEP.M                                          0:Шаг квантования по глубине
NULL.                                    -9999.25:Признак "Нет данных"
WELL.                                       114Мх:Скважина
~Parameter Information Section
~Curve Information Section
DEPTH.M                                          :Глубина
BK.Ohm*M                                         :BK     (БК)
DS.mm                                            :DS  (ДС)
GGK.g/cm3                                        :GGKp
ГК.mcr/h                                         :GK          (ГК)
GZ1.Ohm*M                                        :GZ1   ГЗ1(A0.4M0.1N)
GZ2.Ohm*M                                        :GZ2   ГЗ2(A1.0M0.1N)
GZ3.Ohm*M                                        :GZ3   ГЗ3(A2.0M0.5N)
GZ4.Ohm*M                                        :GZ4   ГЗ4(A4.0M0.5N)
GZ5.Ohm*M                                        :GZ5   ГЗ5(A8.0M0.5N)
GZR.Ohm*M                                        :GZK   ГЗK(N0.5M2.0A)
ИК.Ohm*M                                         :IK
НГК.ue                                           :NGK     (НГК)
NNKM.                                            :NNKm  (ННКм)
PS.mv                                            :PS       (ПС)
PZ.Ohm*M                                         :PZ    (КС)
U1.mV                                            :U1
U2.mV                                            :U2
U3.mV                                            :U3
КП.%                                             :Кп
~ASCII LOG DATA
# ...
99.8        70.146      129.108     2.251       4.87        3.713       6.382       5.777       7.825       6.771       6.319       32.422      1.366       1.39        1010.252    49.344      811.514     552.432     494.376     30.227      
99.9        80.723      129.124     2.246       4.722       3.811       5.561       5.777       7.325       6.171       6.219       32.008      1.315       1.432       1010.963    47.445      1036.817    623.168     584.817     30.045      
100.0       83.753      128.835     2.223       4.519       4.154       5.029       5.577       7.325       5.871       6.119       31.72       1.188       1.418       1012.011    46.095      1217.27     769.943     727.805     29.474      
100.1       76.56       128.058     2.207       4.533       5.219       4.933       5.277       6.625       5.571       6.019       31.448      1.18        1.396       1013.526    45.264      1275.101    952.189     871.161     27.746      
100.2       58.749      128.227     2.214       4.797       6.168       6.31        4.977       6.525       5.371       5.919       30.972      1.221       1.399       1014.854    44.764      1232.407    1055.215    912.856     26.778      
100.3       42.462      128.182     2.229       5.217       6.903       6.673       4.577       6.425       5.271       5.819       30.6        1.312       1.404       1016.473    44.215      1196.342    1042.131    850.731     26.284      
100.4       39.994      128.326     2.222       5.378       7.355       7.059       4.477       6.425       4.971       5.419       30.085      1.272       1.412       1018.296    43.401      1164.737    984.082     787.124     26.851      
100.5       41.495      128.628     2.219       5.456       7.491       7.18        4.477       8.225       4.771       5.419       29.332      1.208       1.418       1020.51     42.449      1115.491    987.898     821.696     27.658      
100.6       38.815      127.618     2.219       5.32        8.026       6.576       4.477       8.325       4.871       5.419       28.505      1.185       1.376       1022.972    41.478      1057.246    1042.046    936.503     28.038      
100.7       33.884      127.387     2.24        5.158       7.808       6.407       4.677       8.525       5.771       5.819       27.656      1.196       1.336       1026.643    40.612      1125.295    1038.609    964.31      29.22       
100.8       35.075      127.209     2.236       5.095       9.485       6.842       5.077       8.625       5.971       5.919       26.87       1.282       1.346       1030.71     39.939      1331.186    984.567     910.845     29.949      
100.9       50.699      127.123     2.247       5.129       9.942       7.664       5.477       9.025       6.071       6.219       26.268      1.331       1.349       1035.295    39.234      1555.8      992.587     871.63      30.137      
101.0       56.364      128.554     2.263       5.148       9.785       8.195       6.377       9.025       6.171       6.619       25.679      1.342       1.322       1041.225    38.564      1663.048    1113.607    926.618     29.892      
101.1       41.591      129.062     2.291       4.922       10.063      8.655       6.377       9.025       6.471       6.919       25.269      1.321       1.335       1046.547    38.022      1551.742    1293.75     1070.151    29.806      
101.2       30.479      130.039     2.303       4.602       10.341      9.524       6.377       9.025       6.571       7.019       25.082      1.241       1.402       1050.694    37.545      1332.382    1422.559    1211.213    30.257      
101.3       25.468      129.624     2.306       4.425       9.654       9.645       6.377       9.125       6.771       7.219       24.876      1.255       1.443       1053.999    37.265      1118.591    1384.813    1228.482    29.833      
101.4       22.646      129.81      2.299       4.494       8.893       9.572       6.377       9.125       6.871       7.619       24.52       1.254       1.442       1056.631    37.321      1016.23     1227.434    1121.911    27.515      
101.5       23.659      130.226     2.255       4.365       8.264       9.428       6.577       9.125       7.071       7.719       24.02       1.31        1.387       1059.051    37.902      1024.883    1008.406    912.694     26.118      
101.6       28.054      131.307     2.245       4.255       7.974       9.187       6.777       9.125       7.171       7.819       23.58       1.301       1.354       1061.164    38.9        1018.768    844.892     722.091     26.901      
101.7       30.409      130.444     2.294       4.154       8.064       9.356       6.977       9.125       7.271       8.019       23.15       1.264       1.38        1063.144    40.196      1000.548    736.95      550.827     29.411      
101.8       29.377      129.985     2.344       4.534       8.029       9.137       7.277       9.325       7.371       8.119       22.896      1.236       1.403       1064.014    41.539      1022.842    630.195     403.686     30.482      
101.9       26.977      130.315     2.333       4.946       8.214       9.018       7.677       9.325       7.471       8.119       22.968      1.2         1.442       1064.665    42.99       1094.716    527.354     282.812     29.052      
102.0       25.586      129.836     2.279       5.261       8.83        9.258       7.677       9.525       7.571       8.119       23.128      1.156       1.449       1064.303    44.378      1141.48     481.072     228.289     26.579      
102.1       24.889      129.217     2.252       5.403       10.13       9.863       8.077       9.625       7.771       8.219       23.294      1.106       1.386       1062.051    45.645      1113.925    490.715     218.942     25.397      
102.2       24.889      129.542     2.256       5.565       11.158      10.758      8.377       9.725       7.871       8.419       23.51       1.083       1.335       1059.868    46.866      1048.109    561.1       284.208     26.565      
102.3       29.174      130.146     2.259       6.029       9.966       10.587      8.577       9.925       7.971       8.519       23.733      1.09        1.3         1058.47     48.068      1018.652    642.037     388.172     29.642      
102.4       40.644      129.706     2.269       6.387       9.681       10.514      9.077       10.025      8.171       8.719       23.875      1.122       1.272       1058.084    49.161      1044.098    758.639     578.767     32.443      
102.5       49.431      131.336     2.259       6.639       8.777       10.104      9.277       10.125      8.371       9.019       24.165      1.139       1.259       1058.077    50.164      1086.382    895.411     808.223     34.242      
102.6       53.951      130.035     2.246       6.543       8.6         10.008      9.377       10.225      8.471       9.219       24.631      1.151       1.251       1058.133    51.154      1093.191    984.024     937.604     35.673      
102.7       53.951      130.436     2.247       6.265       8.755       10.032      9.577       10.225      8.671       9.219       25.361      1.138       1.245       1057.971    51.947      1043.002    998.017     921.311     35.584      
102.8       35.4        130.616     2.259       5.738       8.603       10.082      9.677       10.225      8.671       9.319       26.373      1.133       1.239       1057.341    52.694      936.968     940.073     807.479     34.52       
102.9       27.416      130.815     2.266       5.631       8.55        10.081      9.577       10.325      8.771       9.419       27.283      1.177       1.234       1055.822    53.382      791.973     876.051     730.202     32.977      
103.0       29.107      131.128     2.27        5.572       8.673       10.226      9.677       10.425      8.771       9.519       28.065      1.224       1.249       1053.565    54.075      630.338     801.535     680.597     32.36       
103.1       44.463      129.451     2.277       5.613       9.023       10.685      9.777       10.525      8.771       9.619       28.373      1.317       1.274       1051.412    54.659      561.583     694.053     604.271     32.193      
