~Version Information Section
VERS.                                         2.0:CWLS log ASCII Standart – VERSION 2.0
WRAP.                                          NO:One line per depth step
~Well Information Section
STRT.M                                        0.6:Начальная глубина
STOP.M                                      143.2:Конечная глубина
STEP.M                                          0:Шаг квантования по глубине
NULL.                                    -9999.25:Признак "Нет данных"
WELL.                                       116Мх:Скважина
~Parameter Information Section
~Curve Information Section
DEPTH.M                                          :Глубина
BK.lgОмм                                         :BK     (БК)
ПРОФ_СР.мм                                       :DS  (ДС)
ГК.мкР/час                                       :GK          (ГК)
ГЗ1.Омм                                          :GZ1   ГЗ1(A0.4M0.1N)
ГЗ2.Омм                                          :GZ2   ГЗ2(A1.0M0.1N)
ГЗ3.Омм                                          :GZ3   ГЗ3(A2.0M0.5N)
ГЗ4.Oмм                                          :GZ4   ГЗ4(A4.0M0.5N)
ГЗ5.Oмм                                          :GZ5   ГЗ5(A8.0M0.5N)
ГЗК.Омм                                          :GZK   ГЗK(N0.5M2.0A)
ИК.мСм/м                                         :IK
НГК.усл.ед.                                      :NGK     (НГК)
ПС.мВ                                            :PS       (ПС)
PZ.Омм                                           :PZ    (КС)
RIS.Омм                                          :RS (Резистивиметр)
U1.мВ                                            :U1
U2.mV                                            :U2
U3.мВ                                            :U3
W.г/см3                                          :ГГКп
П.%                                              :п
ННКМ.усл.ед                                      :ННКм
~ASCII LOG DATA
# ...
42.2        16.255      176.707     5.782       15.659      31.499      31.547      23.971      19.7        73.659      11.457      0.944       452.737     89.348      1.125       828.164     889.528     829.564     2.316       40.418      1.764       
42.3        16.672      175.925     6.179       15.659      31.513      31.435      23.971      19.7        73.629      11.531      0.956       452.646     89.452      1.125       789.472     897.689     865.562     2.313       41.411      1.734       
42.4        17.418      175.23      6.441       15.659      31.542      31.355      23.965      19.701      73.587      11.629      0.956       452.418     89.541      1.125       681.222     899.569     934.536     2.321       41.546      1.732       
42.5        17.418      173.807     6.473       15.659      31.585      31.307      23.936      19.703      73.532      11.765      0.941       452.03      89.585      1.125       633.601     909.187     1000.767    2.325       40.018      1.743       
42.6        18.155      172.818     6.533       15.674      31.657      31.275      23.888      19.708      73.466      11.765      0.938       451.505     89.6        1.125       624.567     900.593     1000.767    2.325       38.507      1.747       
42.7        18.155      172.736     6.478       15.706      31.772      31.259      23.83       19.718      73.395      11.92       0.969       450.935     89.6        1.125       628.717     900.593     993.645     2.325       37.746      1.767       
42.8        21.135      172.468     6.21        15.763      31.916      31.259      23.77       19.734      73.324      12.172      1.012       450.41      89.6        1.125       637.751     921.356     992.39      2.325       37.699      1.797       
42.9        29.107      172.508     5.719       15.852      32.103      31.259      23.715      19.758      73.258      12.389      1.023       450.022     89.6        1.125       656.043     921.356     992.39      2.325       37.687      1.862       
43.0        22.542      173.207     5.525       15.976      32.363      31.259      23.674      19.791      73.203      12.62       1.001       449.794     89.6        1.125       685.945     945.932     1007.649    2.353       37.143      1.927       
43.1        19.011      172.152     5.812       16.14       32.708      31.259      23.651      19.835      73.161      12.764      0.985       449.703     89.585      1.125       695.563     961.895     1023.919    2.382       37.414      2.046       
43.2        16.52       172.085     6.268       16.342      33.126      31.259      23.651      19.889      73.132      12.962      0.994       449.68      89.541      1.125       695.563     961.895     1023.919    2.366       38.555      2.116       
43.3        16.069      172.491     6.413       16.578      33.615      31.259      23.651      19.959      73.114      13.223      1.035       449.68      89.452      1.125       670.651     924.815     973.039     2.358       38.545      2.006       
43.4        16.181      171.684     6.357       16.843      34.163      31.259      23.651      20.048      73.106      13.573      1.086       449.68      89.333      1.125       623.321     851.595     872.049     2.342       36.781      1.928       
43.5        17.989      167.203     6.13        17.13       34.71       31.259      23.661      20.165      73.106      13.966      1.127       449.68      89.2        1.125       594.326     804.662     817.078     2.351       35.471      1.915       
43.6        17.989      166.811     5.839       17.429      35.228      31.259      23.715      20.314      73.106      14.45       1.135       449.703     89.067      1.125       575.005     798.84      817.078     2.383       34.474      1.916       
43.7        28.314      167.691     5.402       17.733      35.718      31.259      23.824      20.497      73.106      14.992      1.127       449.794     88.933      1.125       567.032     798.84      841.01      2.395       33.131      1.932       
43.8        34.674      166.686     5.209       18.034      36.179      31.259      24.0        20.71       73.106      14.992      1.112       450.022     88.8        1.125       567.032     802.268     836.257     2.412       31.649      2.102       
43.9        27.29       162.101     5.32        18.326      36.596      31.259      24.256      20.941      73.113      15.559      1.115       450.41      88.667      1.125       605.978     813.9       836.257     2.385       30.816      2.267       
44.0        22.856      161.259     5.587       18.607      36.999      31.259      24.576      21.172      73.13       16.169      1.157       450.935     88.533      1.125       659.826     820.327     828.819     2.356       30.467      2.283       
44.1        30.974      160.847     5.778       18.874      37.345      31.275      24.938      21.385      73.156      16.801      1.228       451.528     88.4        1.125       696.557     826.554     793.813     2.339       30.851      2.263       
44.2        39.537      160.579     5.66        19.13       37.633      31.323      25.318      21.566      73.195      17.386      1.288       452.167     88.267      1.125       696.557     828.911     793.813     2.327       31.136      2.184       
44.3        52.36       160.09      5.226       19.376      37.849      31.403      25.686      21.707      73.246      17.984      1.314       452.874     88.148      1.125       680.283     836.377     814.12      2.345       31.18       2.173       
44.4        59.566      159.693     4.725       19.618      37.993      31.563      26.01       21.812      73.314      18.566      1.307       453.741     88.074      1.125       642.788     836.377     840.623     2.359       30.734      2.231       
44.5        59.566      159.296     4.351       19.86       38.065      31.803      26.278      21.888      73.4        19.067      1.267       454.859     88.074      1.125       629.865     835.351     840.623     2.385       30.563      2.348       
44.6        68.865      159.504     4.051       20.103      38.079      32.107      26.496      21.95       73.507      19.47       1.201       456.296     88.089      1.125       629.865     824.711     834.09      2.398       30.453      2.475       
44.7        69.502      159.572     3.736       20.35       38.079      32.459      26.672      22.007      73.64       19.827      1.135       458.007     88.222      1.125       645.165     821.661     824.901     2.405       30.608      2.526       
44.8        67.143      159.443     3.54        20.599      38.079      32.907      26.835      22.07       73.803      20.044      1.111       459.833     88.474      1.125       644.563     821.661     824.901     2.399       30.929      2.493       
44.9        67.764      159.443     3.526       20.847      38.036      33.387      27.027      22.142      73.996      20.044      1.121       461.566     88.815      1.125       653.687     750.0       937.606     2.38        31.065      2.433       
45.0        58.076      159.7       3.647       21.089      37.979      33.899      27.28       22.224      74.217      20.132      1.135       463.072     89.185      1.125       671.139     740.0       999.763     2.373       31.242      2.415       
45.1        50.699      160.056     3.755       21.324      37.921      34.459      27.613      22.315      74.461      20.066      1.132       464.327     89.541      1.125       759.5       740.0       999.763     2.364       31.566      2.404       
45.2        50.699      161.383     3.859       21.549      37.863      35.067      28.032      22.414      74.718      19.806      1.091       465.377     89.837      1.125       874.865     740.0       1013.424    2.359       31.978      2.388       
45.3        38.282      166.228     4.119       21.764      37.863      35.627      28.531      22.519      74.979      19.512      1.058       466.312     90.089      1.125       971.605     740.0       944.381     2.373       32.691      2.365       
