~Version Information Section
VERS.                                         2.0:CWLS log ASCII Standart – VERSION 2.0
WRAP.                                          NO:One line per depth step
~Well Information Section
STRT.M                                       -0.1:Начальная глубина
STOP.M                                      197.8:Конечная глубина
STEP.M                                          0:Шаг квантования по глубине
NULL.                                    -9999.25:Признак "Нет данных"
WELL.                                       134Мх:Скважина
~Parameter Information Section
~Curve Information Section
DEPTH.M                                          :Глубина
BK.Ohm*M                                         :BK     (БК)
DS.mm                                            :DS  (ДС)
GGK.g/cm3                                        :GGKp
ГК.mcr/h                                         :GK          (ГК)
GZ1.Ohm*M                                        :GZ1   ГЗ1(A0.4M0.1N)
GZ2.Ohm*M                                        :GZ2   ГЗ2(A1.0M0.1N)
GZ3.Ohm*M                                        :GZ3   ГЗ3(A2.0M0.5N)
GZ4.Ohm*M                                        :GZ4   ГЗ4(A4.0M0.5N)
GZ5.Ohm*M                                        :GZ5   ГЗ5(A8.0M0.5N)
GZR.Ohm*M                                        :GZK   ГЗK(N0.5M2.0A)
ИК.Ohm*M                                         :IK
КП.%                                             :Кп
НГК.ue                                           :NGK     (НГК)
NNKM.                                            :NNKm  (ННКм)
PS.mv                                            :PS       (ПС)
PZ.Ohm*M                                         :PZ    (КС)
RS.Ohm*M                                         :RS (Резистивиметр)
U1.mV                                            :U1
U2.mV                                            :U2
U3.mV                                            :U3
~ASCII LOG DATA
# ...
150.3       38.017      134.646     2.327       4.812       34.71       30.913      32.9        23.307      13.592      35.699      25.129      29.058      1.2         2.073       320.323     45.04       1.06        516.547     473.533     511.136     
150.4       41.542      134.572     2.325       4.876       34.539      29.167      30.973      22.451      13.517      35.496      25.224      29.072      1.215       2.098       320.624     44.552      1.06        584.617     508.567     534.888     
150.5       41.6        134.674     2.32        4.94        34.539      27.863      28.974      21.573      13.372      35.027      25.329      30.898      1.195       2.115       321.085     44.178      1.06        684.272     573.419     476.397     
150.6       38.12       134.902     2.306       5.166       34.539      27.387      27.481      20.962      13.224      34.56       25.379      33.638      1.142       2.07        322.245     43.908      1.06        724.977     625.668     463.879     
150.7       36.182      134.842     2.291       5.311       34.683      27.387      26.8        20.744      13.146      34.287      25.49       34.948      1.135       1.99        323.755     43.784      1.06        704.53      621.627     579.591     
150.8       37.206      134.872     2.282       5.399       35.277      27.387      26.697      20.744      13.128      34.214      25.656      34.503      1.137       1.966       325.179     43.784      1.06        663.772     611.978     694.337     
150.9       40.575      135.012     2.282       5.29        36.304      27.42       26.697      20.744      13.128      34.204      25.867      34.179      1.132       1.99        327.275     43.784      1.06        592.813     596.727     679.831     
151.0       44.9        135.194     2.289       5.332       37.648      27.994      26.697      20.753      13.139      34.16       26.051      31.977      1.125       2.02        329.4       43.784      1.06        509.733     537.786     554.233     
151.1       48.326      135.393     2.293       5.513       39.357      29.443      27.071      20.938      13.203      34.121      26.24       30.036      1.15        2.061       331.0       43.865      1.06        445.946     454.182     446.73      
151.2       49.807      135.565     2.295       5.275       41.11       31.424      28.088      21.368      13.371      34.116      26.363      28.35       1.264       2.11        332.4       44.21       1.06        381.491     379.001     368.218     
151.3       49.882      135.574     2.292       5.271       42.385      33.561      29.432      21.903      13.673      34.068      26.403      29.223      1.33        2.132       333.8       44.814      1.06        316.383     312.258     301.839     
151.4       49.698      135.441     2.285       5.153       42.991      35.462      30.72       22.406      14.084      33.922      26.331      31.334      1.343       2.124       334.4       45.611      1.06        291.778     277.84      247.607     
151.5       49.911      135.65      2.287       5.173       43.132      36.746      31.732      22.763      14.537      33.694      26.277      33.659      1.265       2.118       334.8       46.496      1.06        307.664     275.736     224.319     
151.6       50.368      136.057     2.291       5.048       43.132      37.328      32.392      22.95       14.973      33.398      26.046      35.843      1.198       2.124       335.0       47.351      1.06        313.734     284.651     230.674     
151.7       49.985      136.235     2.294       5.05        42.904      37.463      32.702      23.004      15.361      33.076      25.881      35.687      1.135       2.149       335.2       47.97       1.06        332.138     315.17      287.615     
151.8       48.128      136.336     2.293       5.275       42.19       37.463      32.797      23.004      15.661      32.8        25.57       34.603      1.108       2.171       335.4       48.265      1.06        368.05      342.2       365.514     
151.9       44.884      136.421     2.291       5.325       41.133      37.378      32.833      22.986      15.841      32.602      25.176      32.7        1.093       2.153       335.6       48.286      1.06        390.222     341.851     381.621     
152.0       40.891      136.542     2.287       5.414       39.968      37.049      32.859      22.884      15.917      32.476      24.856      31.779      1.088       2.114       335.8       48.286      1.06        404.513     332.746     315.001     
152.1       38.091      136.629     2.29        5.499       38.794      36.484      32.892      22.663      15.934      32.382      24.606      31.774      1.098       2.082       336.2       48.286      1.06        429.836     317.181     215.707     
152.2       37.86       136.683     2.293       5.493       37.721      35.832      32.938      22.301      15.927      32.271      24.396      32.122      1.079       2.062       336.6       48.082      1.06        440.962     283.179     166.512     
152.3       38.922      136.844     2.307       5.499       36.732      35.146      32.952      21.754      15.886      32.102      24.177      33.074      1.102       2.051       337.0       47.701      1.06        432.701     255.835     158.608     
152.4       38.286      137.055     2.31        5.441       35.792      34.396      32.944      21.069      15.777      31.859      24.002      33.073      1.134       2.042       337.4       47.266      1.06        456.814     306.511     141.915     
152.5       36.643      137.355     2.311       5.305       34.953      33.56       32.887      20.354      15.594      31.509      23.866      32.03       1.19        2.031       337.8       46.806      1.06        507.445     416.59      265.231     
152.6       36.708      137.581     2.306       5.348       34.252      32.66       32.688      19.676      15.37       31.053      23.721      31.109      1.183       2.029       338.2       46.338      1.06        546.765     510.611     537.393     
152.7       36.841      137.852     2.299       5.463       33.715      31.729      32.29       19.128      15.137      30.587      23.6        32.133      1.122       2.026       338.4       45.882      1.06        600.033     600.582     774.477     
152.8       35.794      137.854     2.302       5.826       33.347      30.801      31.669      18.828      14.922      30.196      23.539      33.783      1.053       1.992       338.8       45.458      1.06        711.697     698.337     827.772     
152.9       35.154      137.448     2.305       5.738       33.126      29.985      30.887      18.754      14.74       29.903      23.426      34.368      1.033       1.95        339.2       45.082      1.06        829.989     732.518     694.214     
153.0       35.887      137.303     2.306       5.631       33.035      29.379      30.126      18.754      14.6        29.748      23.409      34.986      1.035       1.954       339.6       44.766      1.06        876.063     704.383     557.661     
153.1       36.851      137.424     2.3         5.5         33.025      29.049      29.523      18.754      14.5        29.712      23.378      36.943      1.04        1.975       339.8       44.514      1.06        887.716     689.369     497.92      
153.2       36.67       137.792     2.288       5.537       33.025      28.96       29.149      18.802      14.437      29.712      23.381      36.072      1.029       1.967       340.0       44.324      1.06        906.87      697.677     518.033     
153.3       36.514      137.604     2.276       5.682       33.025      28.96       29.03       18.95       14.406      29.712      23.438      33.218      1.043       1.954       340.0       44.191      1.06        889.054     717.442     608.339     
153.4       36.969      137.145     2.269       5.777       33.09       28.96       29.03       19.169      14.399      29.757      23.471      30.953      1.053       1.966       340.0       44.104      1.06        811.833     685.61      688.98      
