~Version Information Section
VERS.                                         2.0:CWLS log ASCII Standart – VERSION 2.0
WRAP.                                          NO:One line per depth step
~Well Information Section
STRT.M                                        1.2:Начальная глубина
STOP.M                                      169.4:Конечная глубина
STEP.M                                          0:Шаг квантования по глубине
NULL.                                    -9999.25:Признак "Нет данных"
WELL.                                       114Мх:Скважина
~Parameter Information Section
~Curve Information Section
DEPTH.M                                          :Глубина
BK.Ohm*M                                         :BK     (БК)
DS.mm                                            :DS  (ДС)
GGK.g/cm3                                        :GGKp
ГК.mcr/h                                         :GK          (ГК)
GZ1.Ohm*M                                        :GZ1   ГЗ1(A0.4M0.1N)
GZ2.Ohm*M                                        :GZ2   ГЗ2(A1.0M0.1N)
GZ3.Ohm*M                                        :GZ3   ГЗ3(A2.0M0.5N)
GZ4.Ohm*M                                        :GZ4   ГЗ4(A4.0M0.5N)
GZ5.Ohm*M                                        :GZ5   ГЗ5(A8.0M0.5N)
GZR.Ohm*M                                        :GZK   ГЗK(N0.5M2.0A)
ИК.Ohm*M                                         :IK
НГК.ue                                           :NGK     (НГК)
NNKM.                                            :NNKm  (ННКм)
PS.mv                                            :PS       (ПС)
PZ.Ohm*M                                         :PZ    (КС)
U1.mV                                            :U1
U2.mV                                            :U2
U3.mV                                            :U3
КП.%                                             :Кп
~ASCII LOG DATA
# ...
86.2        137.404     133.519     2.263       6.927       7.953       9.235       6.577       6.325       2.871       3.319       33.478      1.415       1.263       1006.345    129.297     1279.381    828.341     792.392     33.414      
86.3        126.183     133.722     2.292       5.914       6.907       8.557       5.777       5.525       2.771       2.619       32.249      1.573       1.355       1014.155    124.169     1455.008    989.184     950.066     35.45       
86.4        137.404     133.259     2.342       4.45        6.098       7.639       4.577       4.625       2.471       1.719       30.895      1.721       1.553       1021.94     115.111     1597.402    1098.036    1050.639    34.526      
86.5        103.276     132.753     2.4         3.09        6.601       7.615       3.077       3.525       2.171       1.019       29.375      1.829       1.793       1029.692    106.907     1725.567    1184.447    1089.514    31.731      
86.6        70.958      132.252     2.472       2.272       6.268       7.228       1.977       2.825       2.071       0.819       28.495      1.868       2.027       1037.928    97.849      1654.368    1288.869    1174.951    25.337      
86.7        54.828      130.698     2.52        1.962       5.619       5.778       1.177       1.525       1.871       0.619       27.265      1.868       2.119       1046.409    88.108      1587.914    1537.734    1303.118    20.346      
86.8        32.961      129.689     2.495       1.821       5.161       2.83        0.877       1.025       1.471       0.519       26.015      1.858       2.115       1054.887    78.708      1721.561    1655.649    1421.781    16.211      
86.9        25.177      129.843     2.43        1.802       4.918       0.946       0.777       1.325       1.271       0.519       24.787      1.866       2.051       1063.21     70.162      1970.7      1738.389    1516.714    14.883      
87.0        23.823      130.456     2.374       1.828       6.039       0.895       17.277      2.525       1.271       0.519       23.874      1.871       1.957       1070.676    61.787      2232.556    1736.625    1571.277    15.693      
87.1        24.547      130.158     2.354       1.858       7.139       1.403       17.577      6.525       0.771       0.419       22.571      1.852       1.963       1077.451    54.096      2311.789    1813.033    1607.787    16.971      
87.2        23.605      129.96      2.362       1.914       10.23       3.216       18.777      6.725       0.471       0.319       21.379      1.831       2.009       1083.96     47.773      2338.497    1876.692    1568.689    18.34       
87.3        20.37       130.58      2.369       2.076       14.581      7.422       18.877      8.725       5.171       0.319       20.652      1.764       2.017       1089.792    41.791      2349.028    1896.836    1546.243    18.63       
87.4        20.37       130.34      2.357       2.28        16.203      9.211       19.677      14.825      7.571       6.019       19.728      1.735       2.015       1094.448    36.322      2319.53     1925.629    1576.835    18.075      
87.5        22.131      129.874     2.336       2.297       16.464      10.732      20.577      15.125      7.871       7.419       19.297      1.736       2.021       1098.716    35.126      2235.752    1991.476    1680.044    17.522      
87.6        22.284      129.136     2.334       2.235       16.796      12.859      20.977      15.725      9.971       9.119       18.875      1.758       2.027       1102.377    34.271      2155.151    2014.918    1739.597    17.415      
87.7        22.336      128.922     2.357       2.056       15.366      15.497      21.677      17.725      10.171      10.519      18.64       1.73        2.014       1104.465    34.613      2144.272    1944.094    1678.717    17.847      
87.8        21.727      128.996     2.391       2.162       14.196      17.402      22.277      17.925      12.371      11.619      18.532      1.693       2.007       1105.329    36.322      2115.175    1820.226    1528.619    18.23       
87.9        21.577      128.863     2.427       2.317       14.381      20.575      22.577      18.825      20.771      13.819      18.486      1.662       2.038       1105.816    38.202      1952.573    1724.989    1381.243    18.145      
88.0        22.491      128.827     2.447       2.528       14.771      23.42       22.677      20.525      22.171      15.819      18.678      1.693       2.064       1105.594    39.911      1623.175    1654.524    1291.066    17.962      
88.1        19.409      128.845     2.464       2.525       15.145      24.821      18.777      21.525      15.271      19.619      18.909      1.731       2.075       1105.433    42.304      1304.194    1546.222    1231.093    17.837      
88.2        15.885      128.416     2.484       2.607       7.808       16.126      17.377      23.425      17.271      18.519      19.142      1.788       2.087       1105.117    44.867      1085.134    1376.208    1183.25     17.75       
88.3        15.996      127.851     2.512       2.841       4.347       9.863       15.677      17.525      20.371      17.319      19.462      1.817       2.098       1104.597    47.602      1156.105    1220.543    1155.375    17.522      
88.4        21.478      127.98      2.531       2.975       3.889       9.428       14.277      11.725      22.571      16.719      19.681      1.79        2.097       1103.768    50.849      1311.941    1117.208    1150.574    16.801      
88.5        26.242      128.538     2.498       2.877       3.923       9.078       11.877      11.025      5.991       15.019      20.019      1.741       2.074       1102.216    54.097      1520.975    1178.55     1209.211    16.278      
88.6        25.41       128.664     2.435       2.617       4.766       9.378       8.677       10.725      7.071       12.519      20.465      1.707       2.019       1099.04     57.515      1593.079    1273.064    1256.836    16.379      
88.7        24.831      129.365     2.383       2.261       5.425       9.478       8.677       10.125      7.571       8.119       21.055      1.707       1.918       1094.779    60.933      1665.185    1347.497    1269.469    16.862      
88.8        31.55       129.543     2.381       1.835       6.063       9.578       8.977       9.725       8.171       8.119       22.061      1.7         1.853       1090.441    65.035      1737.29     1289.498    1206.745    16.98       
88.9        87.096      129.133     2.418       1.701       6.587       9.678       9.077       10.125      8.371       8.219       23.383      1.626       1.839       1084.634    72.555      1559.481    1304.831    1177.352    17.205      
89.0        277.971     128.956     2.448       2.051       6.817       9.878       9.377       10.325      8.371       8.319       24.818      1.52        1.892       1077.536    80.075      1259.636    1356.83     1164.626    18.213      
89.1        360.579     129.115     2.45        2.814       6.94        10.078      9.377       10.425      8.571       8.519       26.628      1.449       2.046       1069.798    87.766      902.635     1256.134    1030.513    17.885      
89.2        271.644     131.234     2.407       3.739       6.875       10.178      9.377       10.725      8.571       8.719       28.839      1.362       2.011       1061.568    94.773      756.431     945.108     733.657     16.09       
89.3        224.905     133.846     2.355       3.996       6.78        10.178      9.377       10.625      8.471       8.719       30.714      1.275       1.797       1053.392    101.438     693.122     606.512     428.942     14.281      
89.4        210.863     134.686     2.338       3.914       6.928       10.278      9.277       10.425      8.371       9.219       33.435      1.2         1.614       1045.323    107.762     697.429     460.164     288.263     14.41       
89.5        206.063     134.296     2.355       3.466       6.832       10.378      9.177       10.025      8.071       9.219       35.644      1.21        1.466       1037.434    113.402     762.777     453.679     302.958     19.402      
