~Version Information Section
VERS.                                         2.0:CWLS log ASCII Standart – VERSION 2.0
WRAP.                                          NO:One line per depth step
~Well Information Section
STRT.M                                        0.6:Начальная глубина
STOP.M                                      202.6:Конечная глубина
STEP.M                                          0:Шаг квантования по глубине
NULL.                                    -9999.25:Признак "Нет данных"
WELL.                                       130Мх:Скважина
~Parameter Information Section
~Curve Information Section
DEPTH.M                                          :Глубина
БК.Омм                                           :BK     (БК)
DСР.мм                                           :DS  (ДС)
W.g/cm3                                          :GGKp
ГК.гамма                                         :GK          (ГК)
А0.4М0.1N.Омм.ohmm                               :GZ1   ГЗ1(A0.4M0.1N)
А1.0М0.1N.Омм.ohmm                               :GZ2   ГЗ2(A1.0M0.1N)
А2.0М0.5N.Омм.ohmm                               :GZ3   ГЗ3(A2.0M0.5N)
А4.0М0.5N.Oмм.ohmm                               :GZ4   ГЗ4(A4.0M0.5N)
А8.0М1.0N.Омм.ohmm                               :GZ5   ГЗ5(A8.0M0.5N)
N0.5M2.0A.Омм.ohmm                               :GZK   ГЗK(N0.5M2.0A)
ИК.мСм/м                                         :IK
НГК.усл.ед                                       :NNKb  (ННКб)
ННКМ.усл.ед                                      :NNKm  (ННКм)
ПС.мВ                                            :PS       (ПС)
КС.Омм                                           :PZ    (КС)
R.Омм                                            :RS (Резистивиметр)
U1.мВ                                            :U1
U2.mV                                            :U2
U3.мВ                                            :U3
КП.%                                             :Кп
~ASCII LOG DATA
# ...
170.2       163.668     126.623     2.052       3.898       32.261      19.841      20.268      9.001       0.467       271.643     27.456      2.968       1.801       240.761     87.576      1.1         1311.622    1391.619    1363.628    14.97       
170.3       246.419     126.788     2.038       3.698       53.253      23.326      23.032      12.813      0.467       277.011     31.08       3.252       1.939       239.656     104.696     1.1         1499.638    1683.638    1515.638    15.507      
170.4       239.682     126.894     2.03        3.516       80.403      26.301      25.291      17.214      0.539       277.011     34.415      3.514       2.073       238.254     123.264     1.1         1655.641    1843.646    1699.651    16.755      
170.5       201.905     126.879     2.028       3.573       109.492     29.387      27.027      22.158      0.647       275.32      37.35       3.804       2.157       236.547     142.168     1.1         1723.636    2023.636    1883.635    18.115      
170.6       198.436     126.626     2.028       3.72        136.67      32.948      28.387      26.697      1.017       266.484     39.907      3.906       2.199       234.547     159.296     1.1         1795.64     2075.64     1975.641    18.878      
170.7       218.251     126.672     2.033       3.724       156.591     37.996      29.566      29.832      1.484       251.629     42.123      4.033       2.21        232.296     174.24      1.1         1863.632    2115.635    2039.636    18.184      
170.8       203.638     126.702     2.04        3.573       166.487     47.776      30.62       31.796      1.911       237.078     43.999      4.136       2.23        229.848     186.584     1.1         1943.638    2131.638    2035.638    17.068      
170.9       188.469     126.661     2.045       3.269       169.427     65.548      31.558      33.065      2.312       223.894     45.492      4.293       2.239       227.265     195.944     1.1         2015.641    2147.635    2003.635    16.844      
171.0       188.322     126.865     2.053       3.109       170.233     89.624      32.395      33.922      2.81        212.13      46.716      4.262       2.188       224.626     202.264     1.1         2039.637    2127.638    1955.64     17.397      
171.1       168.747     126.713     2.057       2.98        170.734     116.379     33.136      34.299      3.356       201.702     48.01       4.182       2.137       222.019     206.472     1.1         2055.637    2111.638    1887.636    17.235      
171.2       150.455     126.623     2.057       2.998       170.119     144.54      33.819      34.36       3.974       192.046     49.015      4.029       2.112       219.503     208.776     1.1         2075.638    2107.637    1847.64     16.149      
171.3       149.118     126.458     2.061       3.207       168.6       168.954     34.504      34.36       4.868       183.325     49.667      3.92        2.103       217.118     209.52      1.1         2091.638    2123.638    1803.638    15.684      
171.4       153.55      126.552     2.061       3.473       167.095     182.615     35.16       34.085      6.13        175.465     50.464      3.914       2.116       214.871     209.52      1.1         2095.64     2139.638    1763.636    16.493      
171.5       153.643     126.509     2.057       3.627       164.358     188.304     35.723      33.351      7.94        168.419     50.844      3.946       2.124       212.736     209.072     1.1         2095.638    2151.637    1783.638    17.205      
171.6       144.431     126.42      2.056       3.653       159.638     192.362     36.192      32.298      10.991      162.43      50.955      4.047       2.127       210.666     207.776     1.1         2091.636    2175.639    1791.639    17.699      
171.7       128.729     126.513     2.057       3.631       154.271     195.97      36.541      30.993      16.42       156.424     51.007      4.037       2.106       208.632     205.696     1.1         2055.641    2215.635    1791.635    18.895      
171.8       116.235     126.755     2.057       3.687       149.49      198.803     36.893      29.604      21.037      149.801     50.597      3.918       2.072       206.616     203.104     1.1         2039.638    2211.638    1807.638    20.683      
171.9       106.278     126.85      2.064       3.62        145.411     199.185     37.86       28.458      24.848      143.173     50.495      4.047       2.081       204.627     200.152     1.1         2051.64     2207.636    1823.636    22.607      
172.0       102.69      126.759     2.079       3.465       142.422     197.16      41.131      27.699      27.641      135.977     50.546      4.347       2.102       202.705     197.0       1.1         2019.638    2171.64     1839.637    23.702      
172.1       115.385     126.794     2.095       3.302       140.462     194.458     48.63       27.074      28.601      127.308     50.487      4.279       2.134       200.893     193.728     1.1         1991.636    2123.636    1863.64     24.33       
172.2       122.778     127.034     2.111       3.4         138.715     191.123     59.956      26.269      28.601      118.429     50.358      4.092       2.167       199.22      190.384     1.1         2023.639    2059.641    1835.638    24.55       
172.3       118.909     127.203     2.124       3.544       136.768     186.632     73.194      25.082      28.601      111.148     50.226      3.97        2.155       197.712     186.984     1.1         2047.638    2035.638    1803.638    24.481      
172.4       113.804     128.082     2.13        3.598       133.831     181.052     86.761      23.477      26.676      105.944     49.918      3.803       2.132       196.377     183.56      1.1         2059.645    2039.639    1763.631    23.342      
172.5       103.764     126.822     2.129       3.429       128.787     173.449     98.423      21.572      25.002      103.465     49.49       3.645       2.065       195.192     180.144     1.1         2115.636    2039.637    1679.641    21.832      
172.6       90.934      126.611     2.124       3.409       121.74      163.629     105.986     19.813      23.603      103.033     48.707      3.432       2.003       194.137     176.856     1.1         2159.637    2051.638    1595.637    20.083      
172.7       77.39       126.848     2.114       3.529       114.662     154.116     109.798     18.679      22.461      103.033     48.07       3.29        1.986       193.188     173.856     1.1         2143.641    2135.634    1571.639    19.854      
172.8       65.528      126.839     2.101       3.78        109.871     147.283     112.285     18.2        21.573      103.033     47.845      3.22        1.963       192.312     171.272     1.1         2111.638    2179.638    1639.638    20.047      
172.9       70.475      127.294     2.087       3.94        108.345     144.51      115.049     18.109      20.99       104.481     47.749      3.306       1.94        191.49      169.192     1.1         2063.636    2191.641    1707.645    21.315      
173.0       85.311      126.423     2.074       3.771       108.345     143.412     118.59      18.09       20.644      108.062     47.909      3.336       1.962       190.73      167.632     1.1         2019.639    2167.639    1759.635    22.233      
173.1       90.684      126.441     2.067       3.558       108.345     141.794     123.262     18.019      20.418      111.777     48.596      3.34        2.013       190.049     166.528     1.1         1987.636    2143.634    1807.639    22.803      
173.2       103.913     126.413     2.07        3.418       108.675     140.187     128.179     17.91       20.196      113.79      48.919      3.463       2.032       189.476     165.768     1.1         1955.64     2091.641    1851.641    23.157      
173.3       107.432     126.389     2.077       3.436       110.969     138.243     131.486     17.854      19.928      114.221     49.341      3.666       2.038       189.055     165.248     1.1         1923.638    2047.638    1811.638    25.443      
