~Version Information Section
VERS.                                         2.0:CWLS log ASCII Standart – VERSION 2.0
WRAP.                                          NO:One line per depth step
~Well Information Section
STRT.M                                        0.0:Начальная глубина
STOP.M                                      180.0:Конечная глубина
STEP.M                                          0:Шаг квантования по глубине
NULL.                                    -9999.25:Признак "Нет данных"
WELL.                                       120Мх:Скважина
~Parameter Information Section
~Curve Information Section
DEPTH.M                                          :Глубина
BK.Ohm*M                                         :BK     (БК)
DS.mm                                            :DS  (ДС)
GGK.g/cm3                                        :GGKp
ГК.mcr/h                                         :GK          (ГК)
GZ1.Ohm*M                                        :GZ1   ГЗ1(A0.4M0.1N)
GZ2.Ohm*M                                        :GZ2   ГЗ2(A1.0M0.1N)
GZ3.Ohm*M                                        :GZ3   ГЗ3(A2.0M0.5N)
GZ4.Ohm*M                                        :GZ4   ГЗ4(A4.0M0.5N)
GZ5.Ohm*M                                        :GZ5   ГЗ5(A8.0M0.5N)
GZR.Ohm*M                                        :GZK   ГЗK(N0.5M2.0A)
ИК.Ohm*M                                         :IK
НГК.u.e.                                         :NGK
NNKM.                                            :NNKm  (ННКм)
PS.mv                                            :PS       (ПС)
PZ.Ohm*M                                         :PZ    (КС)
RS.Ohm*M                                         :RS (Резистивиметр)
U1.mV                                            :U1
U2.mV                                            :U2
U3.mV                                            :U3
КП.%                                             :Кп
~ASCII LOG DATA
# ...
51.2        -9999.25    138.959     2.153       6.297       -9999.25    -9999.25    -9999.25    -9999.25    -9999.25    -9999.25    -9999.25    4.842       4.338       -9999.25    -9999.25    -9999.25    521.891     372.175     368.72      -3.797      
51.4        -9999.25    137.874     2.139       5.866       -9999.25    -9999.25    -9999.25    -9999.25    -9999.25    -9999.25    -9999.25    5.09        4.696       -9999.25    -9999.25    -9999.25    897.949     379.559     213.43      -5.183      
51.6        -9999.25    137.436     2.269       6.058       -9999.25    -9999.25    -9999.25    -9999.25    -9999.25    -9999.25    -9999.25    5.202       4.473       -9999.25    -9999.25    -9999.25    1123.665    559.419     315.241     -5.888      
51.8        -9999.25    137.705     2.262       6.307       -9999.25    -9999.25    -9999.25    -9999.25    -9999.25    -9999.25    -9999.25    5.064       4.412       -9999.25    -9999.25    -9999.25    830.006     519.34      354.835     -5.048      
52.0        -9999.25    138.468     2.237       6.451       -9999.25    -9999.25    -9999.25    -9999.25    -9999.25    -9999.25    -9999.25    4.994       4.498       -9999.25    -9999.25    -9999.25    521.7       389.571     343.05      -5.438      
52.2        -9999.25    138.173     2.233       6.925       -9999.25    -9999.25    -9999.25    -9999.25    -9999.25    -9999.25    -9999.25    5.054       4.448       -9999.25    -9999.25    -9999.25    583.581     360.971     297.444     -6.142      
52.4        -9999.25    136.026     2.265       7.584       -9999.25    -9999.25    -9999.25    -9999.25    -9999.25    -9999.25    -9999.25    4.992       4.286       -9999.25    -9999.25    -9999.25    680.766     315.465     187.975     -6.199      
52.6        -9999.25    136.702     2.247       7.258       -9999.25    -9999.25    -9999.25    -9999.25    -9999.25    -9999.25    -9999.25    4.714       4.12        -9999.25    -9999.25    -9999.25    694.29      410.238     290.547     -4.784      
52.8        -9999.25    136.219     2.234       7.014       -9999.25    -9999.25    -9999.25    -9999.25    -9999.25    -9999.25    -9999.25    4.743       4.199       -9999.25    -9999.25    -9999.25    881.742     466.906     291.757     -6.246      
53.0        -9999.25    136.086     2.247       5.808       -9999.25    -9999.25    -9999.25    -9999.25    -9999.25    -9999.25    -9999.25    4.932       4.398       -9999.25    -9999.25    -9999.25    835.939     633.248     543.0       -5.744      
53.2        -9999.25    136.376     2.271       5.481       -9999.25    -9999.25    -9999.25    -9999.25    -9999.25    -9999.25    -9999.25    5.159       4.501       -9999.25    -9999.25    -9999.25    834.094     756.989     747.913     -5.396      
53.4        -9999.25    137.116     2.272       6.051       -9999.25    -9999.25    -9999.25    -9999.25    -9999.25    -9999.25    -9999.25    5.111       4.552       -9999.25    -9999.25    -9999.25    871.539     840.262     873.785     -5.623      
53.6        -9999.25    137.72      2.207       6.458       -9999.25    -9999.25    -9999.25    -9999.25    -9999.25    -9999.25    -9999.25    5.163       4.531       -9999.25    -9999.25    -9999.25    1091.71     1015.637    1004.036    -5.841      
53.8        -9999.25    136.538     2.167       5.998       -9999.25    -9999.25    -9999.25    -9999.25    -9999.25    -9999.25    -9999.25    5.185       4.572       -9999.25    -9999.25    -9999.25    1209.732    1064.707    987.396     -5.518      
54.0        -9999.25    137.134     2.141       5.913       -9999.25    -9999.25    -9999.25    -9999.25    -9999.25    -9999.25    -9999.25    5.125       4.624       -9999.25    -9999.25    -9999.25    991.347     845.263     772.866     -6.19       
54.2        -9999.25    136.46      2.156       6.384       -9999.25    -9999.25    -9999.25    -9999.25    -9999.25    -9999.25    -9999.25    5.13        4.438       -9999.25    -9999.25    -9999.25    618.927     568.101     588.762     -5.669      
54.4        -9999.25    136.591     2.197       6.873       -9999.25    -9999.25    -9999.25    -9999.25    -9999.25    -9999.25    -9999.25    4.884       4.269       -9999.25    -9999.25    -9999.25    641.548     505.212     479.771     -6.371      
54.6        -9999.25    136.315     2.2         7.615       -9999.25    -9999.25    -9999.25    -9999.25    -9999.25    -9999.25    -9999.25    4.732       4.056       -9999.25    -9999.25    -9999.25    864.501     422.633     245.983     -6.686      
54.8        -9999.25    136.738     2.182       7.523       -9999.25    -9999.25    -9999.25    -9999.25    -9999.25    -9999.25    -9999.25    4.898       3.933       -9999.25    -9999.25    -9999.25    631.966     286.122     145.672     -6.813      
55.0        -9999.25    136.97      2.184       6.922       -9999.25    -9999.25    -9999.25    -9999.25    -9999.25    -9999.25    -9999.25    5.014       4.039       -9999.25    -9999.25    -9999.25    677.021     490.979     409.631     -6.88       
55.2        -9999.25    137.053     2.17        6.812       -9999.25    -9999.25    -9999.25    -9999.25    -9999.25    -9999.25    -9999.25    5.047       4.126       -9999.25    -9999.25    -9999.25    654.723     602.76      633.491     -6.677      
55.4        -9999.25    136.835     2.249       6.976       -9999.25    -9999.25    -9999.25    -9999.25    -9999.25    -9999.25    -9999.25    5.192       4.067       -9999.25    -9999.25    -9999.25    454.548     519.711     716.521     0.533       
55.6        -9999.25    136.077     2.223       6.829       -9999.25    -9999.25    -9999.25    -9999.25    -9999.25    -9999.25    -9999.25    3.695       3.173       -9999.25    -9999.25    -9999.25    497.493     450.061     585.843     18.191      
55.8        -9999.25    134.236     2.217       6.262       -9999.25    -9999.25    -9999.25    -9999.25    -9999.25    -9999.25    -9999.25    1.511       1.846       277.249     -9999.25    -9999.25    750.39      458.622     339.305     39.284      
56.0        -9999.25    134.152     2.249       5.957       -9999.25    -9999.25    -9999.25    -9999.25    -9999.25    -9999.25    -9999.25    1.004       1.88        276.918     -9999.25    -9999.25    799.798     492.134     337.609     39.316      
56.2        -9999.25    134.739     2.265       6.305       -9999.25    -9999.25    -9999.25    -9999.25    -9999.25    -9999.25    -9999.25    0.963       1.861       289.368     -9999.25    -9999.25    775.119     386.547     229.444     38.206      
56.4        -9999.25    135.517     2.256       6.617       27.401      15.463      21.587      31.904      29.748      30.494      -9999.25    1.043       1.885       340.878     43.277      1.336       517.612     339.89      305.182     37.881      
56.6        -9999.25    136.586     2.317       6.759       27.401      15.463      21.587      31.904      29.748      30.494      -9999.25    1.038       1.711       401.039     42.568      1.313       377.155     333.372     359.839     40.408      
56.8        -9999.25    137.253     2.234       6.956       27.401      15.463      21.587      31.746      29.748      30.525      7.658       0.934       1.646       460.373     41.248      1.301       466.335     293.233     239.065     43.103      
57.0        -9999.25    137.442     1.992       6.458       27.401      15.463      21.587      33.667      29.748      26.129      7.527       0.827       1.641       517.625     40.314      1.3         397.335     254.608     244.43      43.134      
57.2        21.577      137.399     2.075       5.634       27.401      15.463      21.587      29.667      29.748      17.232      7.516       0.986       1.658       565.788     39.457      1.3         375.655     258.685     277.962     44.069      
57.4        29.174      138.96      2.347       4.848       27.401      15.463      21.587      25.667      29.748      13.899      7.588       1.043       1.91        585.324     39.046      1.3         549.658     273.431     178.232     32.551      
