~Version Information Section
VERS.                                         2.0:CWLS log ASCII Standart – VERSION 2.0
WRAP.                                          NO:One line per depth step
~Well Information Section
STRT.M                                        0.5:Начальная глубина
STOP.M                                      201.9:Конечная глубина
STEP.M                                          0:Шаг квантования по глубине
NULL.                                    -9999.25:Признак "Нет данных"
WELL.                                       138Мх:Скважина
~Parameter Information Section
~Curve Information Section
DEPTH.M                                          :Глубина
БК.Омм                                           :BK     (БК)
DСР.мм                                           :DS  (ДС)
W.g/cm3                                          :GGKp
ГК.гамма                                         :GK          (ГК)
А0.4М0.1N.Омм.ohmm                               :GZ1   ГЗ1(A0.4M0.1N)
А1.0М0.1N.Омм.ohmm                               :GZ2   ГЗ2(A1.0M0.1N)
А2.0М0.5N.Омм.ohmm                               :GZ3   ГЗ3(A2.0M0.5N)
А4.0М0.5N.Oмм.ohmm                               :GZ4   ГЗ4(A4.0M0.5N)
А8.0М1.0N.Омм.ohmm                               :GZ5   ГЗ5(A8.0M0.5N)
N0.5M2.0A.Омм.ohmm                               :GZK   ГЗK(N0.5M2.0A)
ИК.мСм/м                                         :IK
ННКМ.усл.ед                                      :NNKm  (ННКм)
ПС.мВ                                            :PS       (ПС)
КС.Омм                                           :PZ    (КС)
R.Омм                                            :RS (Резистивиметр)
U1.мВ                                            :U1
U2.mV                                            :U2
U3.мВ                                            :U3
КП.%                                             :Кп
НГК.усл.ед                                       :NGK
~ASCII LOG DATA
# ...
147.7       71.072      138.408     2.076       5.396       46.861      38.34       39.638      32.385      26.529      39.37       24.15       1.667       261.0       111.419     1.08        227.678     367.027     504.633     34.978      1.131       
147.8       71.889      138.303     2.079       5.382       47.499      38.971      40.373      32.65       26.768      39.913      24.231      1.648       261.0       111.07      1.08        197.437     355.006     590.193     33.774      1.126       
147.9       71.845      138.265     2.081       5.507       48.046      39.604      41.136      32.826      27.016      40.356      24.179      1.692       261.0       110.582     1.08        200.472     366.832     677.547     31.752      1.151       
148.0       71.855      138.469     2.085       5.676       48.547      40.234      41.883      32.904      27.228      40.691      24.099      1.731       261.0       110.005     1.08        292.95      431.313     738.879     30.18       1.164       
148.1       73.213      138.386     2.088       5.737       49.064      40.877      42.559      32.923      27.381      40.922      24.058      1.704       261.0       109.363     1.08        345.215     474.613     766.149     30.506      1.184       
148.2       76.015      138.11      2.091       5.625       49.536      41.514      43.092      32.914      27.479      41.079      23.979      1.682       261.0       108.672     1.08        320.315     459.464     825.026     31.214      1.2         
148.3       76.817      137.878     2.091       5.598       49.738      41.916      43.408      32.869      27.533      41.225      23.828      1.684       260.984     107.946     1.08        205.955     391.649     770.763     31.744      1.195       
148.4       79.526      137.678     2.093       5.465       49.528      42.009      43.504      32.806      27.558      41.439      23.703      1.681       260.936     107.197     1.08        131.83      413.505     629.355     31.979      1.25        
148.5       80.422      137.701     2.093       5.333       48.7        41.856      43.442      32.766      27.578      41.843      23.538      1.668       260.856     106.44      1.08        146.856     529.992     398.361     33.314      1.233       
148.6       79.376      137.627     2.095       5.499       47.124      41.29       43.151      32.733      27.605      42.578      23.46       1.655       260.744     105.688     1.08        227.48      640.477     269.834     36.507      1.245       
148.7       78.524      137.523     2.093       5.787       44.893      40.167      42.545      32.675      27.646      43.687      23.454      1.647       260.6       104.947     1.08        452.255     670.475     228.187     36.968      1.143       
148.8       77.865      137.602     2.093       5.907       42.298      38.469      41.688      32.612      27.7        45.047      23.448      1.648       260.456     104.216     1.08        639.183     652.473     222.163     35.426      1.129       
148.9       76.424      137.82      2.095       5.785       39.995      36.491      40.643      32.554      27.785      46.465      23.397      1.657       260.344     103.493     1.08        760.486     742.466     227.355     32.33       1.13        
149.0       71.888      137.858     2.095       5.356       38.546      34.611      39.516      32.492      27.912      47.686      23.263      1.662       260.248     102.778     1.08        737.615     820.474     300.792     32.059      1.156       
149.1       68.69       137.736     2.094       5.14        38.08       32.99       38.465      32.44       28.06       48.472      23.054      1.663       260.152     102.066     1.08        830.89      892.472     380.235     30.323      1.126       
149.2       60.213      137.845     2.102       5.273       38.08       31.758      37.579      32.389      28.21       48.803      22.735      1.713       260.056     101.358     1.08        876.5       856.475     466.473     28.542      1.095       
149.3       41.575      137.321     2.108       5.702       38.08       30.987      36.9        32.338      28.362      48.869      22.405      1.764       259.928     100.662     1.08        922.119     784.469     460.473     27.699      1.145       
149.4       43.835      137.22      2.114       5.776       38.08       30.674      36.456      32.277      28.501      48.801      22.326      1.735       259.736     99.981      1.08        874.474     706.479     430.477     29.37       1.197       
149.5       65.752      136.96      2.124       5.731       38.093      30.633      36.244      32.199      28.616      48.555      22.482      1.696       259.512     99.307      1.08        874.474     622.474     388.474     32.055      1.212       
149.6       73.893      136.92      2.13        5.56        38.536      30.633      36.194      32.142      28.726      48.163      22.87       1.64        259.288     98.642      1.08        868.474     592.473     478.482     33.547      1.193       
149.7       69.599      136.83      2.125       5.751       39.66       30.633      36.194      32.106      28.824      47.72       23.475      1.609       259.064     97.976      1.08        862.474     574.474     592.465     34.121      1.153       
149.8       66.373      136.641     2.12        5.609       41.294      30.633      36.194      32.089      28.921      47.198      24.015      1.652       258.872     97.301      1.08        844.473     616.478     724.476     33.115      1.157       
149.9       65.097      136.623     2.114       5.487       43.299      30.874      36.194      32.088      29.038      46.569      24.437      1.697       258.744     96.606      1.08        832.475     646.472     778.47      31.782      1.136       
150.0       64.949      136.872     2.104       5.289       45.51       31.594      36.224      32.088      29.196      45.909      24.731      1.739       258.648     95.894      1.08        820.474     628.474     826.474     30.874      1.17        
150.1       67.362      137.497     2.1         5.156       47.865      32.745      36.324      32.088      29.397      45.313      25.02       1.759       258.552     95.165      1.08        820.474     562.47      856.474     30.404      1.127       
150.2       77.731      137.348     2.102       5.135       50.311      34.31       36.496      32.088      29.654      44.81       25.324      1.747       258.456     94.434      1.08        886.469     526.473     832.476     29.592      1.116       
150.3       88.797      137.475     2.104       5.248       52.676      36.242      36.744      32.109      29.946      44.408      25.627      1.753       258.344     93.726      1.08        910.476     640.483     784.47      28.282      1.12        
150.4       89.316      137.871     2.105       5.112       54.68       38.315      37.058      32.155      30.236      44.135      25.89       1.773       258.2       93.082      1.08        922.478     754.466     724.477     26.711      1.142       
150.5       85.082      138.222     2.107       5.193       56.167      40.351      37.408      32.223      30.499      43.965      26.141      1.785       258.056     92.531      1.08        850.474     874.474     676.474     26.004      1.178       
150.6       84.479      138.564     2.105       5.306       57.226      42.326      37.805      32.347      30.741      43.841      26.29       1.793       257.944     92.11       1.08        808.472     934.479     652.473     26.999      1.178       
150.7       85.585      138.817     2.101       5.429       57.978      44.17       38.255      32.596      30.988      43.73       26.38       1.781       257.864     91.829      1.08        772.475     988.471     790.463     28.33       1.216       
150.8       86.14       137.71      2.102       5.511       58.537      45.788      38.771      32.908      31.229      43.624      26.366      1.764       257.832     91.677      1.08        754.474     1000.472    922.484     28.933      1.249       
