~Version Information Section
VERS.                                         2.0:CWLS log ASCII Standart – VERSION 2.0
WRAP.                                          NO:One line per depth step
~Well Information Section
STRT.M                                        1.2:Начальная глубина
STOP.M                                      208.4:Конечная глубина
STEP.M                                          0:Шаг квантования по глубине
NULL.                                    -9999.25:Признак "Нет данных"
WELL.                                       109Мх:Скважина
~Parameter Information Section
~Curve Information Section
DEPTH.M                                          :Глубина
BK.Ohm*M                                         :BK     (БК)
DS.mm                                            :DS  (ДС)
GGK.g/cm3                                        :GGKp
ГК.mcr/h                                         :GK          (ГК)
GZ1.Ohm*M                                        :GZ1   ГЗ1(A0.4M0.1N)
GZ2.Ohm*M                                        :GZ2   ГЗ2(A1.0M0.1N)
GZ3.Ohm*M                                        :GZ3   ГЗ3(A2.0M0.5N)
GZ4.Ohm*M                                        :GZ4   ГЗ4(A4.0M0.5N)
GZ5.Ohm*M                                        :GZ5   ГЗ5(A8.0M0.5N)
GZR.Ohm*M                                        :GZK   ГЗK(N0.5M2.0A)
ИК.Ohm*M                                         :IK
НГК.u.e.                                         :NGK
NNKM.                                            :NNKm  (ННКм)
U1.mV                                            :U1
U2.mV                                            :U2
U3.mV                                            :U3
КП.%                                             :Кп
PS.mv                                            :PS       (ПС)
PZ.Ohm*M                                         :PZ    (КС)
RS.Ohm*M                                         :RS (Резистивиметр)
~ASCII LOG DATA
# ...
183.6       104.954     130.118     2.273       3.545       122.61      168.554     166.422     36.503      47.65       305.16      14.966      1.396       2.36        599.644     551.236     776.186     27.222      983.684     200.915     1.035       
183.7       104.954     130.95      2.258       3.446       122.61      169.074     165.982     38.663      47.93       312.44      14.803      1.309       2.386       763.778     636.733     752.089     25.482      984.581     209.207     1.035       
183.8       107.895     129.368     2.207       3.398       122.61      169.074     165.982     43.943      48.21       314.52      14.803      1.243       2.357       996.104     806.883     821.014     24.521      985.511     216.849     1.035       
183.9       106.17      129.02      2.169       3.281       122.61      170.634     165.982     46.223      49.05       318.68      14.803      1.249       2.318       1144.719    952.147     941.031     25.359      986.466     220.022     1.035       
184.0       109.396     129.289     2.136       3.214       122.61      172.194     165.982     46.343      49.05       321.8       14.642      1.256       2.228       1158.402    1002.765    1021.321    27.099      987.447     223.194     1.035       
184.1       109.396     130.021     2.13        3.275       123.03      174.274     165.982     46.463      49.05       322.84      14.485      1.249       2.16        1107.556    972.747     1015.139    28.279      988.444     225.429     1.035       
184.2       107.399     130.041     2.151       3.454       123.03      171.674     165.982     46.823      48.91       324.92      14.332      1.216       2.161       1106.669    937.18      959.502     27.987      989.467     227.16      1.035       
184.3       130.317     130.008     2.161       3.48        123.03      170.114     166.422     46.943      48.35       325.96      14.332      1.183       2.162       1192.308    938.013     898.498     28.829      990.497     228.097     1.035       
184.4       126.765     130.04      2.178       3.374       123.03      168.034     168.182     47.063      48.07       329.08      14.332      1.196       2.17        1221.937    918.004     845.646     29.915      991.52      228.962     1.035       
184.5       126.765     130.071     2.21        3.276       123.03      164.914     168.622     47.303      48.07       330.12      14.332      1.249       2.176       1085.629    829.289     803.97      30.881      992.542     229.972     1.035       
184.6       129.122     130.028     2.222       3.392       122.19      163.874     168.622     47.423      48.07       333.24      14.332      1.343       2.209       884.03      715.818     765.549     30.734      993.565     231.198     1.035       
184.7       123.311     130.687     2.257       3.451       121.77      163.874     171.702     47.543      48.07       335.32      14.181      1.369       2.243       783.206     647.795     717.684     29.712      994.587     232.64      1.036       
184.8       123.311     130.615     2.24        3.32        120.93      163.354     174.342     47.663      48.07       335.32      14.181      1.376       2.32        789.195     622.042     652.789     28.613      995.61      234.442     1.037       
184.9       122.18      129.408     2.244       3.163       120.51      163.354     174.342     47.543      48.07       333.24      14.181      1.356       2.417       766.009     576.036     576.581     27.144      996.624     235.668     1.038       
185.0       142.233     129.596     2.189       3.278       120.09      163.354     174.342     46.823      48.21       331.16      14.034      1.356       2.461       663.169     491.412     501.678     26.415      997.621     236.245     1.041       
185.1       142.233     130.026     2.167       3.436       120.09      163.354     173.902     45.983      48.21       330.12      13.89       1.356       2.491       553.558     406.906     436.633     25.774      998.61      236.317     1.042       
185.2       147.911     129.951     2.165       3.376       120.93      162.834     169.942     44.903      48.35       328.04      13.61       1.329       2.451       493.618     358.792     399.373     25.46       999.591     235.884     1.043       
185.3       132.434     129.468     2.171       3.173       122.19      162.834     167.302     44.183      48.49       324.92      13.474      1.309       2.39        500.119     385.948     448.336     25.59       1000.555    234.947     1.044       
185.4       118.304     129.428     2.202       3.096       122.61      162.834     166.862     44.183      48.49       321.8       13.341      1.296       2.379       570.956     481.453     568.995     26.153      1001.51     233.649     1.044       
185.5       99.541      129.446     2.179       3.332       123.87      163.354     166.862     44.183      48.91       320.76      13.211      1.296       2.386       694.471     615.65      712.825     26.438      1002.474    232.279     1.044       
185.6       99.541      129.479     2.185       3.568       125.55      165.434     166.422     44.183      49.05       316.6       12.834      1.316       2.402       834.22      725.325     796.635     26.152      1003.454    230.765     1.044       
185.7       95.719      129.753     2.179       3.679       126.39      165.954     165.982     44.183      48.77       316.6       12.714      1.356       2.435       971.73      761.133     772.405     25.764      1004.443    229.034     1.044       
185.8       100.462     130.068     2.218       3.533       126.81      165.954     165.982     44.183      48.77       312.44      12.595      1.443       2.45        1095.413    722.882     657.12      26.484      1005.449    227.088     1.044       
185.9       81.846      130.378     2.233       3.403       127.65      165.954     165.542     44.183      48.77       311.4       12.479      1.483       2.439       1151.951    670.804     557.974     27.381      1006.48     224.78      1.044       
186.0       81.846      130.261     2.245       3.381       128.07      165.954     165.542     44.303      48.77       310.36      12.142      1.456       2.439       1128.258    679.985     579.054     27.016      1007.536    223.05      1.044       
186.1       83.56       130.142     2.24        3.609       129.75      165.434     164.662     44.423      48.77       309.32      11.721      1.369       2.457       1109.513    774.978     710.018     25.89       1008.609    221.968     1.044       
186.2       96.161      130.676     2.255       3.541       128.91      165.434     164.662     44.543      48.91       308.28      11.62       1.303       2.459       1173.569    898.815     837.302     25.035      1009.707    221.392     1.044       
186.3       93.325      130.944     2.254       3.5         128.91      165.434     164.662     44.663      49.05       308.28      11.141      1.283       2.426       1257.766    966.31      878.124     25.22       1010.83     221.32      1.043       
186.4       93.325      131.95      2.271       3.401       128.91      165.434     164.662     44.783      49.19       308.28      10.961      1.323       2.402       1247.021    940.526     839.86      25.409      1011.995    221.536     1.042       
186.5       97.724      132.47      2.279       3.397       128.91      165.434     165.102     44.903      49.33       308.28      10.616      1.356       2.411       1124.346    831.188     744.863     25.413      1013.218    222.04      1.041       
186.6       100.693     129.804     2.283       3.433       129.33      165.954     165.542     45.023      49.47       311.4       10.063      1.389       2.421       1021.779    710.128     628.163     25.165      1014.484    222.689     1.038       
186.7       99.77       129.949     2.278       3.383       130.59      166.474     165.982     45.143      49.89       315.56      8.992       1.376       2.414       1004.656    625.759     524.628     24.853      1015.783    223.411     1.037       
