~Version Information Section
VERS.                                         2.0:CWLS log ASCII Standart – VERSION 2.0
WRAP.                                          NO:One line per depth step
~Well Information Section
STRT.M                                       1.07:Начальная глубина
STOP.M                                     192.17:Конечная глубина
STEP.M                                          0:Шаг квантования по глубине
NULL.                                    -9999.25:Признак "Нет данных"
WELL.                                        151К:Скважина
~Parameter Information Section
~Curve Information Section
DEPTH.M                                          :Глубина
BK.Ohm*M                                         :BK     (БК)
DS.mm                                            :DS  (ДС)
GGK.g/cm3                                        :GGKp
ГК.mcr/h                                         :GK          (ГК)
GZ1.Ohm*M                                        :GZ1   ГЗ1(A0.4M0.1N)
GZ2.Ohm*M                                        :GZ2   ГЗ2(A1.0M0.1N)
GZ3.Ohm*M                                        :GZ3   ГЗ3(A2.0M0.5N)
GZ4.Ohm*M                                        :GZ4   ГЗ4(A4.0M0.5N)
GZ5.Ohm*M                                        :GZ5   ГЗ5(A8.0M0.5N)
GZR.                                             :GZR   ГЗK(N0.5M2.0A)
ИК.Ohm*M                                         :IK
НГК.ue                                           :NGK     (НГК)
NNKM.                                            :NNKm  (ННКм)
PS.mv                                            :PS       (ПС)
PZ.Ohm*M                                         :PZ    (КС)
RS.Ohm*M                                         :RS (Резистивиметр)
W.%                                              :W
~ASCII LOG DATA
# ...
127.57      29.883      152.844     2.166       7.536       -9999.25    -9999.25    -9999.25    -9999.25    -9999.25    -9999.25    31.893      0.903       1.197       472.975     46.047      1.15        28.805      
127.6       -9999.25    -9999.25    -9999.25    -9999.25    47.129      48.13       38.721      31.091      39.356      26.321      -9999.25    -9999.25    -9999.25    -9999.25    -9999.25    -9999.25    -9999.25    
127.67      29.794      152.429     2.165       7.993       -9999.25    -9999.25    -9999.25    -9999.25    -9999.25    -9999.25    31.638      0.919       1.175       473.371     45.347      1.15        29.257      
127.7       -9999.25    -9999.25    -9999.25    -9999.25    46.533      49.612      40.233      31.545      42.379      25.495      -9999.25    -9999.25    -9999.25    -9999.25    -9999.25    -9999.25    -9999.25    
127.77      30.347      152.292     2.168       8.523       -9999.25    -9999.25    -9999.25    -9999.25    -9999.25    -9999.25    31.249      0.938       1.175       474.131     44.852      1.151       29.77       
127.8       -9999.25    -9999.25    -9999.25    -9999.25    45.854      50.131      41.972      31.979      43.753      24.907      -9999.25    -9999.25    -9999.25    -9999.25    -9999.25    -9999.25    -9999.25    
127.87      30.927      152.156     2.172       8.701       -9999.25    -9999.25    -9999.25    -9999.25    -9999.25    -9999.25    30.87       0.946       1.186       474.779     44.346      1.151       30.341      
127.9       -9999.25    -9999.25    -9999.25    -9999.25    45.473      50.201      43.395      32.551      43.887      24.905      -9999.25    -9999.25    -9999.25    -9999.25    -9999.25    -9999.25    -9999.25    
127.97      30.745      151.68      2.175       8.736       -9999.25    -9999.25    -9999.25    -9999.25    -9999.25    -9999.25    30.532      0.937       1.2         475.026     43.451      1.15        30.709      
128.0       -9999.25    -9999.25    -9999.25    -9999.25    45.982      51.046      44.178      33.138      43.667      25.071      -9999.25    -9999.25    -9999.25    -9999.25    -9999.25    -9999.25    -9999.25    
128.07      30.385      151.066     2.177       8.663       -9999.25    -9999.25    -9999.25    -9999.25    -9999.25    -9999.25    30.155      0.915       1.212       474.848     42.317      1.148       30.891      
128.1       -9999.25    -9999.25    -9999.25    -9999.25    47.653      52.918      44.429      33.612      43.358      24.923      -9999.25    -9999.25    -9999.25    -9999.25    -9999.25    -9999.25    -9999.25    
128.17      30.571      151.082     2.176       8.618       -9999.25    -9999.25    -9999.25    -9999.25    -9999.25    -9999.25    29.799      0.899       1.223       474.686     41.505      1.149       31.001      
128.2       -9999.25    -9999.25    -9999.25    -9999.25    47.589      51.884      44.369      34.004      43.002      24.674      -9999.25    -9999.25    -9999.25    -9999.25    -9999.25    -9999.25    -9999.25    
128.27      31.286      151.48      2.171       8.714       -9999.25    -9999.25    -9999.25    -9999.25    -9999.25    -9999.25    29.431      0.899       1.228       474.84      41.107      1.149       31.301      
128.3       -9999.25    -9999.25    -9999.25    -9999.25    45.172      47.846      44.092      34.589      43.015      24.477      -9999.25    -9999.25    -9999.25    -9999.25    -9999.25    -9999.25    -9999.25    
128.37      31.895      151.399     2.165       8.77        -9999.25    -9999.25    -9999.25    -9999.25    -9999.25    -9999.25    29.12       0.898       1.216       475.504     40.934      1.15        31.917      
128.4       -9999.25    -9999.25    -9999.25    -9999.25    43.45       45.089      43.479      35.249      43.404      24.346      -9999.25    -9999.25    -9999.25    -9999.25    -9999.25    -9999.25    -9999.25    
128.47      30.653      151.488     2.158       8.572       -9999.25    -9999.25    -9999.25    -9999.25    -9999.25    -9999.25    28.787      0.881       1.198       476.258     40.686      1.148       32.702      
128.5       -9999.25    -9999.25    -9999.25    -9999.25    42.952      44.191      43.286      36.283      43.012      24.732      -9999.25    -9999.25    -9999.25    -9999.25    -9999.25    -9999.25    -9999.25    
128.57      28.523      151.498     2.152       8.279       -9999.25    -9999.25    -9999.25    -9999.25    -9999.25    -9999.25    28.443      0.858       1.184       476.736     39.771      1.149       33.12       
128.6       -9999.25    -9999.25    -9999.25    -9999.25    43.187      44.662      44.672      38.78       42.26       26.023      -9999.25    -9999.25    -9999.25    -9999.25    -9999.25    -9999.25    -9999.25    
128.67      27.548      150.925     2.147       7.97        -9999.25    -9999.25    -9999.25    -9999.25    -9999.25    -9999.25    28.134      0.84        1.178       477.079     37.96       1.149       33.268      
128.7       -9999.25    -9999.25    -9999.25    -9999.25    44.885      47.986      46.272      41.626      41.146      27.191      -9999.25    -9999.25    -9999.25    -9999.25    -9999.25    -9999.25    -9999.25    
128.77      27.664      150.842     2.143       7.891       -9999.25    -9999.25    -9999.25    -9999.25    -9999.25    -9999.25    27.754      0.832       1.174       477.596     36.08       1.15        33.046      
128.8       -9999.25    -9999.25    -9999.25    -9999.25    46.875      50.098      47.058      43.021      40.568      27.564      -9999.25    -9999.25    -9999.25    -9999.25    -9999.25    -9999.25    -9999.25    
128.87      28.093      151.095     2.141       8.113       -9999.25    -9999.25    -9999.25    -9999.25    -9999.25    -9999.25    27.308      0.823       1.163       478.249     34.722      1.15        32.782      
128.9       -9999.25    -9999.25    -9999.25    -9999.25    44.461      45.867      47.378      43.033      40.522      27.666      -9999.25    -9999.25    -9999.25    -9999.25    -9999.25    -9999.25    -9999.25    
128.97      27.667      151.406     2.139       8.427       -9999.25    -9999.25    -9999.25    -9999.25    -9999.25    -9999.25    26.848      0.826       1.149       478.627     33.883      1.151       32.603      
129.0       -9999.25    -9999.25    -9999.25    -9999.25    40.2        40.73       46.31       41.84       41.312      27.683      -9999.25    -9999.25    -9999.25    -9999.25    -9999.25    -9999.25    -9999.25    
129.07      26.437      151.476     2.138       9.034       -9999.25    -9999.25    -9999.25    -9999.25    -9999.25    -9999.25    26.439      0.849       1.135       478.703     33.702      1.152       32.843      
129.1       -9999.25    -9999.25    -9999.25    -9999.25    37.309      37.868      44.332      39.771      42.363      27.704      -9999.25    -9999.25    -9999.25    -9999.25    -9999.25    -9999.25    -9999.25    
129.17      25.037      151.409     2.138       9.358       -9999.25    -9999.25    -9999.25    -9999.25    -9999.25    -9999.25    26.033      0.874       1.138       478.726     34.012      1.152       33.153      
129.2       -9999.25    -9999.25    -9999.25    -9999.25    35.081      36.585      43.451      38.536      42.57       28.469      -9999.25    -9999.25    -9999.25    -9999.25    -9999.25    -9999.25    -9999.25    
129.27      24.011      151.259     2.138       9.912       -9999.25    -9999.25    -9999.25    -9999.25    -9999.25    -9999.25    25.635      0.87        1.149       478.823     33.888      1.148       33.371      
129.3       -9999.25    -9999.25    -9999.25    -9999.25    34.858      36.872      44.075      39.058      41.92       30.414      -9999.25    -9999.25    -9999.25    -9999.25    -9999.25    -9999.25    -9999.25    
129.37      23.025      151.113     2.139       10.176      -9999.25    -9999.25    -9999.25    -9999.25    -9999.25    -9999.25    25.293      0.84        1.161       478.837     32.75       1.149       32.943      
