~Version Information Section
VERS.                                         2.0:CWLS log ASCII Standart – VERSION 2.0
WRAP.                                          NO:One line per depth step
~Well Information Section
STRT.M                                        0.5:Начальная глубина
STOP.M                                      158.2:Конечная глубина
STEP.M                                          0:Шаг квантования по глубине
NULL.                                    -9999.25:Признак "Нет данных"
WELL.                                       136Мх:Скважина
~Parameter Information Section
~Curve Information Section
DEPTH.M                                          :Глубина
BK.Ohm*M                                         :BK     (БК)
DS.mm                                            :DS  (ДС)
GGK.g/cm3                                        :GGKp
ГК.mcr/h                                         :GK          (ГК)
GZ1.Ohm*M                                        :GZ1   ГЗ1(A0.4M0.1N)
GZ2.Ohm*M                                        :GZ2   ГЗ2(A1.0M0.1N)
GZ3.Ohm*M                                        :GZ3   ГЗ3(A2.0M0.5N)
GZ4.Ohm*M                                        :GZ4   ГЗ4(A4.0M0.5N)
GZ5.Ohm*M                                        :GZ5   ГЗ5(A8.0M0.5N)
GZR.Ohm*M                                        :GZK   ГЗK(N0.5M2.0A)
ИК.Ohm*M                                         :IK
НГК.ue                                           :NGK     (НГК)
NNKM.                                            :NNKm  (ННКм)
PS.mv                                            :PS       (ПС)
PZ.Ohm*M                                         :PZ    (КС)
RS.Ohm*M                                         :RS (Резистивиметр)
U1.mV                                            :U1
U2.mV                                            :U2
U3.mV                                            :U3
КП.%                                             :Кп
~ASCII LOG DATA
# ...
131.7       18.358      128.436     2.255       6.486       14.443      13.144      14.532      15.152      1.831       13.566      11.032      1.196       1.995       120.485     25.032      1.087       -1955.99    260.0       -1619.33    38.459      
131.8       18.522      128.432     2.255       6.563       14.201      13.17       14.502      14.847      1.825       13.751      11.088      1.165       1.999       119.891     24.892      1.087       -2028.0     243.332     -1787.33    37.041      
131.9       18.955      128.433     2.261       6.762       14.201      13.156      14.486      14.452      1.825       13.954      11.133      1.116       2.022       119.376     24.707      1.087       -2043.99    226.668     -2000.66    36.61       
132.0       19.106      128.43      2.263       7.037       14.182      13.013      14.474      14.168      1.829       14.133      11.221      1.07        2.034       118.944     24.5        1.087       -2052.0     203.333     -2150.08    35.254      
132.1       19.42       128.43      2.268       7.017       14.182      12.929      14.442      13.945      1.835       14.253      11.279      1.062       2.026       118.61      24.293      1.087       -2076.0     193.333     -2190.19    33.886      
132.2       19.604      128.426     2.266       6.912       14.237      12.927      14.407      13.745      1.843       14.349      11.337      1.094       2.039       118.374     24.108      1.087       -2099.99    183.334     -2198.8     33.344      
132.3       19.834      128.434     2.249       6.752       14.488      12.909      14.417      13.504      1.853       14.421      11.4        1.104       2.066       118.225     23.968      1.087       -2136.0     180.0       -2175.93    34.234      
132.4       20.333      128.443     2.265       6.662       14.761      12.909      14.424      13.275      1.861       14.455      11.438      1.119       2.075       118.16      23.878      1.087       -2155.99    175.16      -2141.62    35.248      
132.5       19.791      128.432     2.266       6.601       15.014      13.002      14.41       13.006      1.869       14.476      11.482      1.088       2.074       118.16      23.828      1.087       -2188.0     161.229     -2113.04    34.899      
132.6       17.733      128.458     2.287       6.537       15.192      13.175      14.391      12.756      1.865       14.485      11.514      1.102       2.104       118.16      23.806      1.087       -2208.0     147.297     -2108.38    33.957      
132.7       19.015      128.448     2.299       6.666       15.401      13.319      14.347      12.492      1.865       14.478      11.531      1.123       2.135       118.16      23.794      1.087       -2224.0     138.42      -2133.34    33.39       
132.8       20.376      128.39      2.285       6.841       15.473      13.297      14.278      12.262      1.809       14.453      11.566      1.161       2.098       118.193     23.778      1.087       -2175.99    138.846     -2164.0     33.599      
132.9       19.457      128.359     2.279       6.829       15.525      13.307      14.175      12.052      1.758       14.431      11.566      1.186       2.063       118.323     23.744      1.087       -2128.0     143.638     -2179.23    34.81       
133.0       18.953      128.373     2.277       6.649       15.595      13.472      14.069      11.84       1.732       14.431      11.564      1.202       2.07        118.545     23.688      1.087       -2080.0     152.582     -2173.33    35.648      
133.1       18.766      128.395     2.274       6.509       15.595      13.609      13.995      11.692      1.732       14.467      11.568      1.227       2.047       118.861     23.604      1.087       -2080.0     165.612     -2164.47    36.814      
133.2       18.796      128.437     2.276       6.52        15.568      13.653      13.938      11.568      1.732       14.489      11.57       1.208       1.993       119.227     23.503      1.087       -2080.0     174.208     -2140.44    37.437      
133.3       19.078      128.523     2.265       6.488       15.601      13.711      13.909      11.473      1.732       14.489      11.553      1.189       2.008       119.58      23.397      1.087       -2080.0     174.415     -2105.36    37.577      
133.4       19.243      128.685     2.243       6.417       15.577      13.741      13.909      11.473      1.733       14.516      11.574      1.177       2.071       119.849     23.296      1.087       -2080.0     161.088     -2104.78    37.148      
133.5       19.513      128.569     2.234       6.394       15.538      13.706      13.933      11.472      1.763       14.564      11.597      1.179       2.068       119.975     23.212      1.087       -2094.5     147.827     -2122.34    36.793      
133.6       19.762      128.463     2.24        6.567       15.538      13.689      13.933      11.361      1.888       14.617      11.633      1.135       2.037       119.975     23.156      1.087       -2122.02    138.591     -2162.09    37.938      
133.7       19.563      128.467     2.257       6.745       15.538      13.737      13.933      11.306      2.024       14.684      11.667      1.13        2.045       119.975     23.122      1.087       -2162.55    133.951     -2188.09    40.319      
133.8       19.451      128.489     2.272       6.949       15.567      13.779      13.973      11.243      2.156       14.724      11.689      1.142       2.062       119.933     23.106      1.087       -2188.57    129.31      -2214.1     41.042      
133.9       19.992      128.534     2.29        6.864       15.604      13.828      14.0        11.185      2.265       14.724      11.714      1.177       2.071       119.724     23.1        1.087       -2201.59    120.03      -2212.0     40.322      
134.0       20.495      128.566     2.273       6.539       15.703      13.828      14.02       11.138      2.352       14.724      11.77       1.125       2.075       119.325     23.1        1.087       -2200.83    115.39      -2161.77    38.037      
134.1       20.582      128.489     2.259       6.292       15.872      13.852      14.05       11.108      2.422       14.712      11.778      1.114       2.066       118.731     23.1        1.087       -2199.32    110.75      -2111.54    37.396      
134.2       20.13       128.477     2.25        6.269       16.032      13.9        14.08       11.08       2.487       14.657      11.801      1.131       2.08        117.933     23.1        1.087       -2192.6     110.75      -2081.22    37.316      
134.3       19.738      128.423     2.241       6.489       16.185      13.884      14.101      11.014      2.527       14.559      11.801      1.167       2.117       116.875     23.1        1.087       -2181.42    115.39      -2081.22    37.455      
134.4       19.696      128.422     2.27        6.607       16.301      13.916      14.121      10.93       2.582       14.45       11.799      1.166       2.139       115.52      23.1        1.087       -2165.78    120.03      -2069.12    37.401      
134.5       19.735      128.411     2.283       6.667       16.352      13.948      14.142      10.824      2.641       14.343      11.788      1.157       2.144       113.929     23.1        1.087       -2139.1     129.31      -2057.0     36.099      
134.6       19.435      128.423     2.296       6.741       16.396      13.991      14.162      10.722      2.766       14.254      11.769      1.179       2.136       112.189     23.1        1.087       -2101.4     133.951     -2023.32    34.437      
134.7       19.434      128.44      2.304       6.517       16.43       14.046      14.182      10.599      2.939       14.187      11.76       1.223       2.125       110.356     23.1        1.087       -2075.12    147.87      -1999.23    33.712      
134.8       19.943      128.485     2.296       6.315       16.43       14.046      14.209      10.471      3.232       14.156      11.765      1.208       2.123       108.509     23.1        1.087       -2088.67    152.698     -1984.82    34.162      
