~Version Information Section
VERS.                                         2.0:CWLS log ASCII Standart – VERSION 2.0
WRAP.                                          NO:One line per depth step
~Well Information Section
STRT.M                                        0.6:Начальная глубина
STOP.M                                      205.9:Конечная глубина
STEP.M                                          0:Шаг квантования по глубине
NULL.                                    -9999.25:Признак "Нет данных"
WELL.                                       106Мх:Скважина
~Parameter Information Section
~Curve Information Section
DEPTH.M                                          :Глубина
BK.Ohm*M                                         :BK     (БК)
DS.mm                                            :DS  (ДС)
GGK.g/cm3                                        :GGKp
ГК.mcr/h                                         :GK          (ГК)
GZ1.Ohm*M                                        :GZ1   ГЗ1(A0.4M0.1N)
GZ2.Ohm*M                                        :GZ2   ГЗ2(A1.0M0.1N)
GZ3.Ohm*M                                        :GZ3   ГЗ3(A2.0M0.5N)
U2.mV                                            :U2
U3.mV                                            :U3
КП.%                                             :Кп
GZ4.Ohm*M                                        :GZ4   ГЗ4(A4.0M0.5N)
GZ5.Ohm*M                                        :GZ5   ГЗ5(A8.0M0.5N)
GZR.Ohm*M                                        :GZK   ГЗK(N0.5M2.0A)
ИК.Ohm*M                                         :IK
НГК.u.e.                                         :NGK
NNKM.                                            :NNKm  (ННКм)
PS.mv                                            :PS       (ПС)
PZ.Ohm*M                                         :PZ    (КС)
RS.Ohm*M                                         :RS (Резистивиметр)
U1.mV                                            :U1
~ASCII LOG DATA
# ...
157.4       31.55       132.36      2.279       8.247       19.866      18.035      17.015      353.664     447.906     31.482      31.976      21.977      9.906       18.105      1.136       2.101       585.884     22.163      1.1         455.515     
157.5       31.989      132.357     2.274       8.179       20.209      18.166      17.424      353.664     417.57      31.928      33.492      22.111      9.77        18.119      1.097       2.082       584.173     22.326      1.1         481.942     
157.6       33.189      132.59      2.275       7.981       20.285      18.181      17.649      356.056     401.423     32.826      34.639      22.162      9.566       18.037      1.093       2.079       581.436     22.563      1.1         505.023     
157.7       33.189      133.154     2.281       8.025       20.285      18.091      17.521      359.309     400.631     33.14       35.077      22.121      9.305       17.973      1.16        2.096       578.013     22.844      1.1         518.692     
157.8       33.266      131.743     2.294       8.373       20.113      17.817      17.36       364.609     409.142     32.214      34.664      21.993      9.014       17.793      1.235       2.17        574.249     23.141      1.1         510.162     
157.9       34.356      131.94      2.312       8.555       19.642      17.266      16.92       371.356     411.974     30.176      33.532      21.745      8.779       17.634      1.294       2.259       570.827     23.378      1.1         524.639     
158.0       37.411      131.641     2.329       8.605       18.829      16.495      16.304      381.893     405.015     29.415      32.019      21.394      8.638       17.494      1.289       2.317       568.089     23.526      1.1         563.94      
158.1       38.815      131.709     2.341       8.505       17.772      15.521      15.66       391.971     392.496     29.479      30.494      20.97       8.63        17.401      1.231       2.348       565.351     23.6        1.1         587.757     
158.2       42.658      132.046     2.348       8.468       16.666      14.75       15.015      357.907     382.576     30.405      29.224      20.516      8.778       17.19       1.159       2.307       562.613     23.674      1.1         571.267     
158.3       35.645      132.269     2.344       8.383       15.721      14.293      14.464      335.761     383.807     30.725      28.332      20.085      9.062       16.946      1.101       2.232       559.191     23.793      1.1         526.911     
158.4       27.227      132.183     2.334       8.316       15.016      14.071      14.178      335.761     392.796     30.666      27.843      19.725      9.458       16.716      1.096       2.152       555.427     23.926      1.1         491.073     
158.5       25.763      132.182     2.324       8.448       14.52       14.013      14.085      354.236     404.013     30.907      27.713      19.46       9.913       16.417      1.123       2.073       552.004     23.97       1.1         473.647     
158.6       25.119      132.1       2.312       8.66        14.171      14.005      14.037      337.495     405.014     32.055      27.822      19.284      10.334      16.181      1.125       2.014       549.267     23.97       1.1         462.386     
158.7       24.155      132.031     2.305       8.673       13.956      13.889      13.919      318.915     401.558     32.98       28.076      19.168      10.704      15.768      1.07        1.992       547.556     23.822      1.1         456.95      
158.8       22.594      132.015     2.297       8.401       13.876      13.694      13.854      318.915     403.464     34.076      28.426      19.072      11.034      15.43       1.023       1.989       546.187     23.467      1.1         452.61      
158.9       21.677      131.836     2.289       8.23        13.876      13.453      13.726      332.535     410.444     34.362      28.727      18.962      11.354      15.115      1.069       1.974       544.818     22.963      1.1         450.31      
159.0       22.856      132.355     2.285       8.394       13.917      13.206      13.554      380.0       409.359     36.116      28.794      18.815      11.661      14.887      1.125       1.961       542.422     22.415      1.1         446.107     
159.1       23.442      131.97      2.287       8.667       13.928      12.988      13.243      360.0       390.589     36.911      28.541      18.619      11.813      14.72       1.184       2.027       538.658     21.867      1.1         443.053     
159.2       21.281      131.339     2.294       8.853       13.928      12.577      12.916      360.0       372.202     35.027      27.977      18.364      11.836      14.549      1.201       2.093       534.209     21.333      1.1         440.0       
159.3       21.577      131.461     2.315       8.702       13.833      12.041      12.401      380.0       374.727     32.011      27.174      18.049      11.804      14.406      1.226       2.136       530.444     20.844      1.1         440.0       
159.4       24.491      131.388     2.336       8.35        13.637      11.518      11.854      380.0       407.267     30.392      26.248      17.683      11.774      14.312      1.219       2.176       528.049     20.43       1.1         440.0       
159.5       26.062      131.529     2.352       8.154       13.472      11.208      11.379      380.0       452.783     31.662      25.336      17.288      11.764      14.268      1.184       2.161       527.022     20.119      1.1         436.667     
159.6       25.41       131.554     2.361       8.198       13.312      11.044      10.93       390.0       494.25      32.811      24.557      16.892      11.773      14.26       1.157       2.149       526.68      19.852      1.1         426.666     
159.7       24.099      131.397     2.361       8.397       13.095      10.877      10.579      390.0       519.518     32.388      23.911      16.519      11.839      14.234      1.135       2.148       526.338     19.615      1.1         413.334     
159.8       23.014      131.026     2.354       8.639       12.814      10.647      10.288      420.0       529.582     31.514      23.308      16.181      11.932      14.14       1.134       2.152       525.653     19.407      1.1         403.333     
159.9       22.439      131.01      2.35        8.446       12.542      10.487      10.008      420.0       526.166     30.86       22.685      15.879      12.186      13.989      1.13        2.162       524.627     19.274      1.1         413.334     
160.0       22.542      131.25      2.341       8.452       12.35       10.393      9.667       420.0       513.816     31.136      22.028      15.607      12.596      13.908      1.13        2.147       523.942     19.215      1.1         423.333     
160.1       23.067      131.067     2.329       8.463       12.203      10.348      9.469       420.0       498.511     31.986      21.348      15.367      13.294      13.825      1.137       2.118       523.6       19.2        1.1         430.0       
160.2       23.121      131.067     2.315       8.433       12.043      10.287      9.316       430.0       487.315     31.83       20.668      15.166      14.252      13.728      1.143       2.112       523.6       19.2        1.1         420.0       
160.3       22.856      131.083     2.298       8.631       11.916      10.177      9.208       420.0       482.891     30.555      20.044      15.012      15.244      13.657      1.128       2.115       523.6       19.2        1.1         413.333     
160.4       22.699      131.215     2.282       8.997       11.895      10.203      9.14        410.0       480.631     29.803      19.566      14.905      16.359      13.64       1.103       2.119       523.6       19.2        1.1         420.001     
160.5       21.928      131.261     2.276       9.578       11.895      10.438      9.12        410.0       475.471     30.597      19.288      14.829      17.522      13.586      1.114       2.112       523.942     19.2        1.1         423.333     
