~Version Information Section
VERS.                                         2.0:CWLS log ASCII Standart – VERSION 2.0
WRAP.                                          NO:One line per depth step
~Well Information Section
STRT.M                                        1.6:Начальная глубина
STOP.M                                      209.3:Конечная глубина
STEP.M                                          0:Шаг квантования по глубине
NULL.                                    -9999.25:Признак "Нет данных"
WELL.                                       132Мх:Скважина
~Parameter Information Section
~Curve Information Section
DEPTH.M                                          :Глубина
BК.                                              :BК (Омм)
DS.mm                                            :DS
GGK.g/cm3                                        :GGKp
IК.                                              :IК (Омм)
NGК.                                             :NGК (усл.ед.)
PS.mV                                            :PS
PZ.                                              :PZ (Омм)
REZ.                                             :REZ (Омм)
U1.                                              :U1 (ue)
U2.                                              :U2 (ue)
U3.                                              :U3 (ue)
ГК.mcr/h                                         :ГКканаломНГК
~ASCII LOG DATA
# ...
47.5        20.449      128.672     2.285       17.494      1.248       182.389     50.325      2.415       2051.653    2124.655    2187.076    7.25        
47.6        25.044      128.563     2.309       16.661      1.238       181.892     45.53       2.415       2058.024    2125.256    2181.865    7.601       
47.7        30.497      130.033     2.321       16.264      1.242       181.307     38.014      2.416       2066.854    2125.195    2172.873    8.264       
47.8        27.946      130.331     2.332       15.897      1.26        180.655     30.906      2.416       2070.523    2121.822    2162.482    8.627       
47.9        28.022      130.041     2.315       15.45       1.248       180.057     25.866      2.416       2070.338    2117.062    2153.2      9.081       
48.0        21.599      130.315     2.307       15.082      1.203       179.596     23.339      2.415       2069.301    2114.431    2149.022    9.282       
48.1        15.189      131.407     2.349       14.66       1.148       179.28      22.449      2.415       2065.165    2113.852    2152.049    9.345       
48.2        13.242      133.606     2.39        14.193      1.128       179.135     22.31       2.417       2057.446    2113.518    2159.168    9.255       
48.3        13.178      133.641     2.402       13.895      1.105       179.174     22.175      2.416       2049.708    2113.748    2167.434    8.936       
48.4        12.719      131.494     2.392       13.663      1.077       179.346     22.031      2.417       2047.629    2115.34     2172.71     8.709       
48.5        12.64       129.171     2.369       13.615      1.068       179.562     21.507      2.418       2048.016    2117.71     2177.057    7.918       
48.6        12.708      127.694     2.409       13.696      1.085       179.802     21.33       2.418       2046.905    2120.524    2183.791    7.355       
48.7        13.954      127.494     2.407       13.844      1.117       180.019     21.775      2.417       2047.674    2123.257    2188.482    6.455       
48.8        15.76       128.091     2.445       14.03       1.133       180.215     22.417      2.416       2051.995    2126.752    2191.134    6.131       
48.9        16.168      128.187     2.407       14.344      1.162       180.391     22.897      2.417       2055.905    2130.506    2194.691    5.968       
49.0        22.785      128.809     2.403       14.889      1.191       180.615     23.347      2.415       2053.682    2132.217    2200.313    6.141       
49.1        32.182      129.846     2.351       15.277      1.19        180.919     23.779      2.414       2048.922    2131.635    2203.892    5.827       
49.2        30.358      128.423     2.319       15.779      1.159       181.374     24.67       2.418       2046.067    2129.262    2201.987    5.355       
49.3        30.783      127.927     2.305       16.09       1.13        181.977     25.638      2.425       2043.077    2125.865    2198.185    5.382       
49.4        44.601      129.305     2.345       16.251      1.129       182.728     25.369      2.439       2039.068    2122.147    2194.778    5.915       
49.5        45.644      126.808     2.393       16.337      1.138       183.64      24.595      2.454       2035.154    2119.88     2194.212    6.842       
49.6        36.664      127.557     2.419       16.197      1.142       184.714     23.844      2.469       2034.633    2119.874    2194.795    7.252       
49.7        21.728      127.899     2.419       15.967      1.164       186.014     23.859      2.485       2040.282    2122.028    2193.507    7.437       
49.8        15.938      127.582     2.425       15.767      1.182       187.518     24.05       2.497       2047.8      2125.018    2191.989    7.22        
49.9        19.514      127.007     2.444       15.401      1.173       189.237     24.458      2.51        2053.689    2127.331    2190.707    6.992       
50.0        16.431      127.117     2.496       15.194      1.145       191.194     25.185      2.52        2059.498    2127.68     2185.543    6.939       
50.1        14.834      127.329     2.489       15.194      1.147       193.338     26.404      2.524       2068.034    2127.175    2175.934    6.838       
50.2        18.617      126.965     2.468       15.314      1.175       195.533     27.182      2.525       2077.609    2127.881    2167.754    6.773       
50.3        22.577      126.273     2.416       15.495      1.237       197.665     27.976      2.524       2082.003    2129.272    2166.156    6.754       
50.4        20.994      126.445     2.387       15.809      1.27        199.664     28.25       2.525       2083.808    2131.565    2168.934    6.845       
50.5        19.231      127.061     2.354       16.072      1.285       201.558     28.5        2.526       2084.523    2133.015    2171.133    7.091       
50.6        21.383      127.017     2.368       16.307      1.267       203.345     28.75       2.527       2080.012    2132.59     2174.84     7.367       
50.7        20.414      126.492     2.323       16.513      1.258       205.01      28.861      2.525       2074.301    2131.325    2178.017    7.745       
50.8        16.589      125.565     2.302       16.654      1.264       206.561     28.833      2.525       2064.494    2129.154    2183.48     7.803       
50.9        14.182      125.493     2.265       16.833      1.211       207.928     28.667      2.525       2050.737    2126.909    2192.865    7.57        
51.0        13.481      125.633     2.295       17.242      1.15        209.15      28.556      2.526       2041.223    2125.269    2199.224    7.143       
51.1        16.459      126.568     2.37        17.634      1.155       210.233     28.5        2.528       2041.581    2126.703    2201.756    6.803       
51.2        20.628      126.183     2.436       18.601      1.215       211.163     28.362      2.525       2047.827    2131.044    2204.166    6.696       
51.3        25.823      125.509     2.5         19.436      1.264       211.988     28.583      2.513       2049.621    2134.586    2209.475    6.618       
51.4        32.189      125.751     2.469       20.298      1.255       212.752     29.631      2.498       2058.199    2135.4      2202.619    6.499       
51.5        21.532      125.61      2.481       21.531      1.278       213.516     32.68       2.482       2069.687    2134.814    2189.923    6.188       
51.6        17.996      125.538     2.465       22.267      1.33        214.326     37.645      2.467       2073.715    2133.322    2182.811    5.785       
51.7        26.804      126.095     2.501       23.478      1.443       215.059     43.018      2.452       2071.048    2130.925    2180.67     5.357       
51.8        70.311      126.19      2.503       24.208      1.555       215.653     47.066      2.44        2068.713    2129.341    2179.844    5.104       
51.9        95.745      126.2       2.493       25.063      1.715       216.06      50.047      2.43        2073.82     2128.644    2173.443    4.932       
52.0        116.484     126.087     2.488       25.986      1.822       216.208     52.163      2.423       2078.169    2128.915    2169.754    4.879       
52.1        99.276      126.165     2.478       26.249      1.936       216.112     54.563      2.42        2082.089    2130.284    2168.635    4.835       
52.2        103.62      126.251     2.472       26.16       1.976       215.798     55.749      2.418       2088.109    2132.598    2167.261    4.882       
52.3        101.786     126.246     2.431       25.899      1.983       215.232     56.887      2.418       2088.959    2130.433    2162.078    5.052       
52.4        95.416      126.291     2.406       25.475      1.971       214.391     57.524      2.418       2088.552    2127.884    2157.38     5.36        
52.5        98.219      126.585     2.383       25.065      2.019       213.261     57.828      2.419       2083.947    2127.03     2160.164    5.722       
