~Version Information Section
VERS.                                         2.0:CWLS log ASCII Standart – VERSION 2.0
WRAP.                                          NO:One line per depth step
~Well Information Section
STRT.M                                        0.8:Начальная глубина
STOP.M                                      209.6:Конечная глубина
STEP.M                                          0:Шаг квантования по глубине
NULL.                                    -9999.25:Признак "Нет данных"
WELL.                                         5Мх:Скважина
~Parameter Information Section
~Curve Information Section
DEPTH.M                                          :Глубина
BK.Ohm*M                                         :BK     (БК)
DS.mm                                            :DS  (ДС)
ГК.mcr/h                                         :GK          (ГК)
GZ1.Ohm*M                                        :GZ1   ГЗ1(A0.4M0.1N)
GZ2.Ohm*M                                        :GZ2   ГЗ2(A1.0M0.1N)
GZ3.Ohm*M                                        :GZ3   ГЗ3(A2.0M0.5N)
GZ4.Ohm*M                                        :GZ4   ГЗ4(A4.0M0.5N)
GZ5.Ohm*M                                        :GZ5   ГЗ5(A8.0M0.5N)
GZR.Ohm*M                                        :GZK   ГЗK(N0.5M2.0A)
ИК.Ohm*M                                         :IK
НГК.                                             :NNKb  (ННКб)
NNKM.                                            :NNKm  (ННКм)
PS.mv                                            :PS       (ПС)
PZ.Ohm*M                                         :PZ    (КС)
RS.Ohm*M                                         :RS (Резистивиметр)
W.%                                              :W
ГГК.g/cm3                                        :ГГК
SGDT1.1/min                                      :ПЛ1
SGDT2.1/min                                      :ПЛ2
SGDT3.1/min                                      :ПЛ3
SGDT4.1/min                                      :ПЛ4
~ASCII LOG DATA
# ...
186.8       102.094     141.966     3.299       9.429       14.796      15.694      9.403       24.442      24.466      30.362      5.376       2.762       925.015     127.76      0.798       22.397      2.278       14120.0     21380.0     14360.0     3960.0      
187.0       110.918     142.089     3.316       9.385       15.712      17.854      9.189       30.562      23.506      29.924      5.633       2.832       924.344     115.378     0.798       21.836      2.31        13400.04    20820.0     13960.0     4120.0      
187.2       114.815     141.752     3.36        9.01        16.696      18.214      8.813       30.202      24.946      29.572      5.965       2.915       927.366     84.027      0.798       21.293      2.323       13239.991   21540.0     14240.0     4240.0      
187.4       119.399     142.267     3.738       9.027       17.839      18.754      8.879       29.662      25.906      28.848      5.635       2.923       931.732     50.654      0.799       22.407      2.307       13040.006   22180.0     15020.0     3960.0      
187.6       101.859     141.808     3.405       9.263       18.378      17.494      8.923       28.402      27.346      27.778      5.598       2.841       934.409     36.492      0.802       22.018      2.298       13960.04    22800.0     14860.0     4040.0      
187.8       88.92       145.494     3.675       8.562       17.832      17.134      8.551       27.862      26.866      26.205      5.722       2.8         940.505     30.6        0.804       20.589      2.324       13240.0     22320.0     13900.0     3920.0      
188.0       109.144     141.224     3.681       7.436       16.911      16.774      7.634       29.842      23.986      24.058      6.316       2.868       955.143     29.819      0.804       18.15       2.376       12599.984   20840.0     14260.0     3820.0      
188.2       164.437     146.927     3.451       7.236       16.78       15.874      7.217       30.202      21.106      22.128      7.265       3.07        972.519     31.037      0.804       15.822      2.414       10640.101   20500.0     14040.0     3480.0      
188.4       226.464     151.558     3.184       7.984       17.551      15.694      7.487       26.782      6.706       20.688      7.673       3.202       992.412     31.258      0.804       16.021      2.442       9440.021    20060.0     12140.0     3360.0      
188.6       143.549     151.767     3.447       9.459       19.176      15.874      8.287       25.162      4.786       19.294      6.433       3.196       1013.684    27.309      0.804       21.532      2.498       9560.021    18660.0     11380.0     3240.0      
188.8       41.115      152.5       4.31        10.072      20.112      16.774      9.856       23.902      3.826       17.189      4.55        2.876       1029.214    19.298      0.805       29.871      2.491       9000.0      17640.0     12100.0     3580.0      
189.0       9.954       154.502     5.917       7.778       17.417      17.854      10.152      21.922      3.826       15.509      3.007       2.342       1044.211    11.654      0.808       37.9        2.368       9639.921    20720.0     14340.0     3920.0      
189.2       11.35       169.92      7.614       3.51        12.195      12.454      10.203      19.402      3.826       14.535      2.497       1.911       1046.366    7.289       0.81        37.564      2.245       14399.891   22760.0     15660.0     4040.0      
189.4       12.764      164.357     7.306       2.864       11.221      11.554      10.047      18.322      3.569       14.524      2.779       1.781       1042.914    7.09        0.81        32.044      2.208       15199.924   22060.0     15360.0     3880.0      
189.6       12.417      162.044     7.089       2.841       10.873      10.654      9.665       16.702      3.004       14.842      2.934       1.88        1035.888    9.668       0.81        30.431      2.263       13920.033   22280.0     14120.0     3600.0      
189.8       13.092      169.705     5.637       2.717       10.672      5.928       8.826       16.702      3.09        15.447      3.712       1.928       1026.271    17.497      0.81        23.282      2.392       12840.0     20040.0     12500.0     3040.0      
190.0       24.946      149.076     4.275       2.611       10.339      4.59        5.934       16.702      3.353       16.54       5.394       2.392       1015.703    25.765      0.811       17.85       2.477       9320.089    18100.0     11980.0     3320.0      
190.2       54.828      147.281     4.118       2.863       10.325      4.591       2.085       17.062      2.93        18.077      5.783       2.892       1012.012    27.693      0.816       20.961      2.398       9519.967    19480.0     13480.0     3660.0      
190.4       21.677      149.315     5.029       3.018       9.887       4.592       1.769       17.422      2.366       18.903      4.68        2.754       1008.862    26.967      0.82        26.549      2.233       12760.152   21880.0     15080.0     3900.0      
190.6       22.233      149.08      5.611       3.352       10.232      4.603       3.833       17.242      1.818       19.12       4.152       2.367       990.429     27.759      0.825       26.181      2.132       17040.104   22740.0     14940.0     4080.0      
190.8       45.92       143.583     4.66        2.954       9.824       4.602       4.311       16.702      1.792       19.801      4.04        2.239       955.282     27.468      0.831       25.319      2.152       19560.0     22660.0     14880.0     3960.0      
191.0       37.497      143.718     4.185       3.379       9.759       4.592       3.494       17.062      1.96        20.069      4.168       2.366       934.185     26.84       0.836       25.981      2.212       16560.08    22460.0     14860.0     4060.0      
191.2       42.56       145.462     4.207       3.445       10.224      4.57        3.812       17.962      2.24        19.92       4.367       2.441       926.612     22.862      0.841       26.286      2.229       16039.948   22920.0     15360.0     3840.0      
191.4       27.227      144.172     4.439       3.839       10.76       4.731       5.04        18.322      2.558       19.512      4.119       2.549       919.177     17.112      0.844       29.64       2.207       16319.964   24480.0     16119.999   3960.0      
191.6       22.284      146.201     4.898       3.858       11.205      4.342       6.489       17.602      2.577       18.823      3.778       2.346       921.723     14.441      0.845       30.251      2.181       16280.019   24720.0     15380.001   3840.0      
191.8       29.04       140.714     4.417       3.222       10.956      4.187       7.296       17.062      2.389       18.451      3.82        2.253       926.903     13.398      0.845       28.152      2.186       17280.0     23660.0     15160.0     3860.0      
192.0       29.377      140.931     4.051       3.186       10.855      3.489       7.021       17.062      1.96        18.228      4.042       2.317       934.57      13.93       0.848       26.583      2.235       17279.988   23580.0     15040.0     4300.0      
192.2       30.832      139.338     4.176       3.259       10.853      3.509       6.46        17.062      1.568       17.889      4.284       2.372       936.579     15.821      0.851       25.545      2.278       15800.043   23060.0     15020.0     4220.0      
192.4       36.813      140.304     4.046       3.247       10.708      3.488       5.788       17.242      1.306       17.581      4.435       2.47        940.173     17.743      0.851       25.881      2.272       14959.973   22840.0     15680.001   4120.0      
192.6       34.834      142.839     4.397       3.293       10.588      3.496       5.097       17.962      1.326       17.16       4.308       2.543       944.748     18.671      0.851       27.563      2.271       16440.059   24180.0     16239.999   4300.0      
192.8       21.38       139.832     4.516       3.556       10.691      3.487       5.452       17.782      1.456       16.593      4.18        2.461       951.195     18.169      0.851       28.183      2.289       16200.0     25040.0     16260.0     4440.0      
