~Version Information Section
VERS.                                         2.0:CWLS log ASCII Standart – VERSION 2.0
WRAP.                                          NO:One line per depth step
~Well Information Section
STRT.M                                        0.2:Начальная глубина
STOP.M                                      176.0:Конечная глубина
STEP.M                                          0:Шаг квантования по глубине
NULL.                                    -9999.25:Признак "Нет данных"
WELL.                                       112Мх:Скважина
~Parameter Information Section
~Curve Information Section
DEPTH.M                                          :Глубина
BK.Ohm*M                                         :BK     (БК)
DS.mm                                            :DS  (ДС)
GGK.g/cm3                                        :GGKp
ГК.mcr/h                                         :GK          (ГК)
GZ1.Ohm*M                                        :GZ1   ГЗ1(A0.4M0.1N)
GZ2.Ohm*M                                        :GZ2   ГЗ2(A1.0M0.1N)
GZ3.Ohm*M                                        :GZ3   ГЗ3(A2.0M0.5N)
GZ4.Ohm*M                                        :GZ4   ГЗ4(A4.0M0.5N)
GZ5.Ohm*M                                        :GZ5   ГЗ5(A8.0M0.5N)
GZR.Ohm*M                                        :GZK   ГЗK(N0.5M2.0A)
ИК.Ohm*M                                         :IK
НГК.ue                                           :NGK     (НГК)
NNKM.                                            :NNKm  (ННКм)
PS.mv                                            :PS       (ПС)
PZ.Ohm*M                                         :PZ    (КС)
U1.mV                                            :U1
U2.mV                                            :U2
U3.mV                                            :U3
КП.%                                             :Кп
~ASCII LOG DATA
# ...
129.4       26.499      139.616     2.361       5.936       24.768      25.026      26.483      20.514      11.728      22.187      15.828      1.166       1.916       355.18      50.6        325.999     2534.292    256.3       41.343      
129.5       26.054      139.455     2.371       5.902       24.571      24.424      26.257      20.401      11.725      22.756      15.631      1.173       1.932       354.1       50.04       333.874     2534.292    256.3       39.177      
129.6       26.219      138.972     2.378       5.716       24.42       23.78       25.953      20.232      11.714      23.276      15.557      1.118       1.946       353.18      49.52       349.11      2573.913    309.855     38.331      
129.7       26.727      139.198     2.378       5.847       24.287      23.095      25.542      19.979      11.68       23.698      15.509      1.092       1.977       352.38      49.04       320.0       2582.278    355.493     38.832      
129.8       26.605      139.047     2.369       5.94        24.153      22.38       25.018      19.621      11.609      24.003      15.406      1.09        2.021       351.62      48.64       320.0       2561.895    350.432     38.734      
129.9       25.615      138.641     2.353       5.864       23.995      21.662      24.39       19.149      11.493      24.199      15.329      1.135       2.05        350.84      48.36       320.0       2558.45     311.094     37.497      
130.0       24.412      138.688     2.337       5.958       23.787      20.981      23.686      18.573      11.327      24.314      15.31       1.135       2.06        350.04      48.16       320.0       2555.005    271.755     36.119      
130.1       23.439      138.81      2.329       6.042       23.526      20.377      22.946      17.924      11.118      24.378      15.304      1.128       2.061       349.26      48.04       320.0       2553.593    238.606     36.456      
130.2       23.571      138.935     2.328       6.391       23.218      19.875      22.208      17.254      10.88       24.416      15.247      1.113       2.048       348.58      48.0        340.0       2553.593    238.606     37.952      
130.3       23.271      139.012     2.332       6.491       22.869      19.489      21.494      16.604      10.629      24.448      15.136      1.13        1.977       348.1       48.0        330.0       2573.042    269.006     40.206      
130.4       22.186      139.549     2.335       6.227       22.499      19.216      20.816      16.012      10.382      24.494      15.077      1.123       1.914       347.88      48.0        320.0       2593.839    300.848     42.584      
130.5       21.418      140.075     2.342       6.062       22.14       19.028      20.18       15.495      10.15       24.566      14.967      1.101       1.898       347.84      48.0        310.0       2632.816    352.13      43.844      
130.6       21.176      139.378     2.347       6.085       21.817      18.903      19.586      15.053      9.942       24.678      14.878      1.061       1.893       347.84      48.0        310.0       2671.793    403.413     44.473      
130.7       20.995      139.459     2.355       6.331       21.544      18.816      19.04       14.671      9.758       24.847      14.859      1.08        1.911       347.84      48.0        320.0       2633.319    423.535     43.453      
130.8       20.86       139.07      2.361       6.314       21.334      18.749      18.554      14.33       9.599       25.087      14.821      1.083       1.946       347.92      48.0        270.0       2561.133    395.057     42.248      
130.9       21.045      138.819     2.366       6.034       21.187      18.688      18.142      14.017      9.46        25.399      14.745      1.09        1.99        348.16      48.0        270.0       2531.029    344.364     42.055      
131.0       21.863      138.212     2.369       5.954       21.087      18.631      17.817      13.727      9.34        25.794      14.698      1.068       2.025       348.54      48.0        300.0       2500.926    293.672     42.871      
131.1       21.98       138.17      2.367       5.973       21.026      18.581      17.584      13.464      9.236       26.3        14.709      1.048       2.041       349.02      48.0        300.0       2500.53     292.803     42.023      
131.2       21.568      138.295     2.365       6.129       20.997      18.538      17.436      13.237      9.144       26.956      14.797      1.043       2.021       349.58      48.0        340.0       2500.124    291.914     40.464      
131.3       21.962      138.684     2.365       5.858       20.99       18.498      17.355      13.057      9.055       27.785      14.86       1.033       1.993       350.18      48.0        310.0       2499.719    291.025     39.54       
131.4       22.679      138.821     2.36        5.64        20.99       18.463      17.32       12.918      8.963       28.796      14.87       1.086       1.984       350.8       48.0        290.0       2499.719    291.025     40.354      
131.5       23.428      138.799     2.351       5.818       20.99       18.431      17.309      12.808      8.858       29.891      14.87       1.105       1.979       351.44      48.0        290.0       2547.611    296.235     40.762      
131.6       23.992      138.671     2.345       6.209       20.99       18.387      17.305      12.703      8.735       30.787      14.885      1.113       1.963       352.06      48.04       310.0       2580.319    271.202     40.737      
131.7       23.97       138.798     2.344       6.313       20.989      18.311      17.294      12.569      8.593       31.179      14.916      1.096       1.943       352.6       48.2        360.0       2557.023    237.771     40.968      
131.8       23.253      138.029     2.356       6.14        20.985      18.173      17.249      12.366      8.437       31.185      14.943      1.098       1.926       353.04      48.52       360.0       2538.938    237.771     39.496      
131.9       22.549      137.689     2.379       5.791       20.978      17.925      17.121      12.049      8.271       31.132      14.956      1.096       1.962       353.42      49.08       360.0       2521.386    246.206     37.007      
132.0       22.747      137.31      2.4         5.369       20.937      17.528      16.857      11.565      8.102       30.692      15.034      1.079       2.056       353.76      49.88       350.0       2503.834    258.919     34.658      
132.1       24.549      137.299     2.405       5.271       20.815      16.981      16.415      10.862      7.934       29.364      15.228      1.086       2.112       354.08      50.92       300.0       2503.834    271.631     34.577      
132.2       26.711      137.196     2.39        5.393       20.603      16.33       15.798      9.917       7.775       27.205      15.505      1.136       2.127       354.42      52.04       270.0       2517.418    305.554     38.104      
132.3       26.323      137.279     2.372       5.624       20.335      15.665      15.069      8.769       7.632       24.508      15.843      1.135       2.109       354.8       53.24       270.0       2535.341    309.814     41.514      
132.4       25.435      137.569     2.353       5.771       20.087      15.106      14.343      7.515       7.52        21.644      16.263      1.158       2.072       355.18      54.44       300.0       2541.157    265.694     44.767      
132.5       24.132      137.717     2.342       5.993       19.947      14.749      13.74       6.293       7.446       18.842      16.608      1.224       2.037       355.5       55.64       310.0       2539.597    247.753     45.643      
132.6       21.133      137.847     2.344       5.962       19.947      14.632      13.344      5.266       7.418       16.288      16.83       1.287       2.009       355.74      56.76       300.0       2532.453    234.862     47.356      
132.7       18.145      139.033     2.362       5.705       19.952      14.632      13.192      4.573       7.414       14.089      17.048      1.266       1.977       355.9       58.08       300.0       2525.31     221.971     46.922      
