~Version Information Section
VERS.                                         2.0:CWLS log ASCII Standart – VERSION 2.0
WRAP.                                          NO:One line per depth step
~Well Information Section
STRT.M                                        0.0:Начальная глубина
STOP.M                                      133.6:Конечная глубина
STEP.M                                          0:Шаг квантования по глубине
NULL.                                    -9999.25:Признак "Нет данных"
WELL.                                       118Мх:Скважина
~Parameter Information Section
~Curve Information Section
DEPTH.M                                          :Глубина
BK.Ohm*M                                         :BK     (БК)
DS.mm                                            :DS  (ДС)
GGK.g/cm3                                        :GGKp
ГК.mcr/h                                         :GK          (ГК)
GZ1.Ohm*M                                        :GZ1   ГЗ1(A0.4M0.1N)
GZ2.Ohm*M                                        :GZ2   ГЗ2(A1.0M0.1N)
GZ3.Ohm*M                                        :GZ3   ГЗ3(A2.0M0.5N)
GZ4.Ohm*M                                        :GZ4   ГЗ4(A4.0M0.5N)
GZ5.Ohm*M                                        :GZ5   ГЗ5(A8.0M0.5N)
GZR.Ohm*M                                        :GZK   ГЗK(N0.5M2.0A)
ИК.Ohm*M                                         :IK
НГК.усл.ед                                       :NGK
NNKM.                                            :NNKm  (ННКм)
PS.mv                                            :PS       (ПС)
PZ.Ohm*M                                         :PZ    (КС)
RS.Ohm*M                                         :RS (Резистивиметр)
U1.mV                                            :U1
U2.mV                                            :U2
U3.mV                                            :U3
W.%                                              :W
~ASCII LOG DATA
# ...
89.6        29.785      161.558     2.289       6.804       42.263      39.946      34.361      36.148      39.58       30.867      11.412      1.12        2.049       1214.566    51.791      1.028       696.583     617.291     614.073     26.518      
89.8        23.878      161.954     2.312       6.696       39.242      38.115      33.935      35.339      39.371      31.958      11.358      1.057       2.043       1217.446    51.791      1.029       709.25      500.472     409.622     25.183      
90.0        23.878      162.259     2.3         6.581       35.703      38.374      34.402      35.708      38.942      32.161      11.227      1.066       2.005       1220.326    51.791      1.031       627.897     408.982     333.626     27.333      
90.2        28.576      162.265     2.323       6.486       37.279      43.401      35.299      37.101      39.078      32.438      11.183      1.152       2.125       1222.486    51.791      1.031       589.446     361.445     328.006     32.82       
90.4        26.122      162.144     2.344       6.146       35.929      40.318      36.086      38.247      40.074      33.247      11.181      1.048       2.057       1223.686    51.791      1.031       738.11      273.549     148.812     32.287      
90.6        27.227      162.747     2.338       6.377       38.436      42.315      37.6        39.899      39.781      31.068      11.146      1.004       2.007       1222.006    51.791      1.031       748.909     314.261     212.8       27.63       
90.8        27.797      162.825     2.288       6.212       43.16       46.977      38.162      41.657      38.32       27.78       11.09       1.045       2.111       1216.726    51.791      1.031       508.867     323.017     385.578     25.597      
91.0        23.605      161.386     2.271       6.045       37.239      38.48       35.374      39.192      37.25       26.603      11.043      1.047       2.005       1210.006    51.791      1.031       679.304     375.107     333.126     31.867      
91.2        21.577      161.415     2.283       6.147       33.411      35.499      31.758      35.059      36.199      27.315      10.889      0.993       1.959       1201.126    51.791      1.029       615.003     331.792     235.635     34.035      
91.4        21.627      161.946     2.277       6.684       32.214      33.862      31.725      33.792      34.239      27.134      10.784      1.034       1.975       1191.046    51.791      1.026       390.597     332.077     355.606     33.568      
91.6        23.335      160.871     2.275       7.114       31.535      35.244      32.793      34.609      33.332      25.926      10.763      1.046       2.102       1180.966    51.764      1.021       446.963     433.735     496.825     27.846      
91.8        29.309      160.91      2.279       6.842       36.59       39.094      33.311      35.372      33.246      24.966      10.786      1.079       2.057       1174.006    51.442      1.015       579.831     484.221     489.579     29.29       
92.0        23.174      161.191     2.304       7.359       36.066      37.203      32.624      34.87       33.006      24.211      10.798      1.064       2.04        1167.046    50.582      1.01        863.549     482.148     326.856     31.516      
92.2        22.439      160.984     2.309       6.697       36.468      36.124      31.352      33.356      32.454      23.152      10.7        1.019       1.983       1161.766    49.186      1.003       940.474     442.592     277.242     33.014      
92.4        22.646      160.424     2.291       6.178       32.326      33.809      30.829      32.498      31.679      22.958      10.598      1.016       1.967       1158.646    47.386      0.996       601.65      452.606     465.125     29.367      
92.6        24.266      160.194     2.319       6.547       33.294      34.853      31.176      32.463      31.943      23.441      10.508      1.036       2.026       1156.486    45.372      0.989       568.51      513.486     533.469     27.784      
92.8        23.605      160.641     2.328       6.83        33.932      36.063      32.695      33.641      32.059      22.826      10.386      1.08        2.11        1155.046    43.331      0.983       650.983     506.413     446.513     30.956      
93.0        23.823      160.481     2.352       7.127       34.851      38.063      34.291      34.813      32.064      21.405      10.279      1.074       2.076       1154.806    41.29       0.977       571.826     419.721     357.771     28.566      
93.2        25.704      160.564     2.291       7.547       36.009      37.484      34.735      34.269      31.75       20.916      10.149      1.059       2.059       1154.806    39.249      0.974       537.841     353.182     286.997     27.309      
93.4        22.961      160.514     2.292       7.344       34.947      35.7        32.171      32.447      31.177      21.644      9.976       0.983       1.992       1155.046    37.1        0.974       455.417     277.784     234.454     27.552      
93.6        19.275      160.562     2.289       7.118       32.541      33.051      30.093      30.974      30.303      22.853      9.802       0.968       1.897       1155.766    34.629      0.974       479.036     317.011     280.364     28.519      
93.8        18.578      160.438     2.293       6.917       30.133      31.904      29.812      30.697      29.065      24.635      9.598       1.025       1.949       1157.446    31.944      0.974       662.065     498.311     467.225     29.221      
94.0        17.947      160.363     2.313       6.718       28.898      32.569      29.384      30.07       28.638      26.197      9.456       1.1         1.972       1159.366    29.312      0.974       658.071     573.506     623.391     30.643      
94.2        16.943      160.728     2.325       6.872       25.7        28.245      29.04       29.925      28.798      27.995      9.306       1.019       1.961       1162.486    27.002      0.977       800.381     472.052     434.017     33.661      
94.4        17.62       160.35      2.332       6.142       25.839      28.035      28.5        30.55       29.083      27.592      9.21        1.056       1.985       1166.326    24.853      0.98        805.479     350.682     368.941     33.81       
94.6        20.749      160.42      2.325       5.806       27.576      28.306      29.2        31.453      28.44       26.459      9.193       1.018       2.015       1170.406    22.92       0.985       583.737     257.301     288.413     32.183      
94.8        21.281      160.564     2.317       6.327       29.194      26.969      27.81       29.682      27.855      25.504      9.229       1.029       1.984       1174.726    21.308      0.992       306.053     232.846     399.178     32.02       
95.0        18.323      160.538     2.313       7.074       27.777      24.317      25.072      27.113      26.618      25.234      9.144       0.977       1.948       1178.566    20.314      0.999       208.371     246.345     493.027     32.207      
95.2        17.179      160.497     2.296       7.286       26.537      23.246      22.763      25.794      24.844      25.571      9.053       0.995       1.961       1181.926    19.885      1.005       421.634     374.252     482.968     35.602      
95.4        16.634      160.551     2.297       7.284       24.247      22.714      21.452      24.539      22.647      26.846      8.953       1.022       1.978       1184.566    19.831      1.013       691.695     514.745     443.588     34.258      
95.6        16.711      160.795     2.304       7.621       23.143      22.26       19.829      23.555      21.41       29.128      8.867       1.027       1.93        1186.726    19.831      1.019       644.41      458.123     365.863     31.503      
95.8        17.022      160.758     2.306       7.632       22.941      22.151      18.852      23.592      20.748      29.597      8.85        1.047       1.965       1187.926    19.938      1.024       486.462     342.211     283.108     27.867      
