~Version Information Section
VERS.                                         2.0:CWLS log ASCII Standart – VERSION 2.0
WRAP.                                          NO:One line per depth step
~Well Information Section
STRT.M                                        0.5:Начальная глубина
STOP.M                                      158.2:Конечная глубина
STEP.M                                          0:Шаг квантования по глубине
NULL.                                    -9999.25:Признак "Нет данных"
WELL.                                       136Мх:Скважина
~Parameter Information Section
~Curve Information Section
DEPTH.M                                          :Глубина
BK.Ohm*M                                         :BK     (БК)
DS.mm                                            :DS  (ДС)
GGK.g/cm3                                        :GGKp
ГК.mcr/h                                         :GK          (ГК)
GZ1.Ohm*M                                        :GZ1   ГЗ1(A0.4M0.1N)
GZ2.Ohm*M                                        :GZ2   ГЗ2(A1.0M0.1N)
GZ3.Ohm*M                                        :GZ3   ГЗ3(A2.0M0.5N)
GZ4.Ohm*M                                        :GZ4   ГЗ4(A4.0M0.5N)
GZ5.Ohm*M                                        :GZ5   ГЗ5(A8.0M0.5N)
GZR.Ohm*M                                        :GZK   ГЗK(N0.5M2.0A)
ИК.Ohm*M                                         :IK
НГК.ue                                           :NGK     (НГК)
NNKM.                                            :NNKm  (ННКм)
PS.mv                                            :PS       (ПС)
PZ.Ohm*M                                         :PZ    (КС)
RS.Ohm*M                                         :RS (Резистивиметр)
U1.mV                                            :U1
U2.mV                                            :U2
U3.mV                                            :U3
КП.%                                             :Кп
~ASCII LOG DATA
# ...
112.5       44.295      136.415     2.252       6.087       31.129      25.804      27.604      19.252      11.619      28.956      23.965      1.237       2.074       89.272      48.306      1.087       -2260.0     143.333     -2065.0     35.893      
112.6       45.532      136.64      2.262       5.818       31.718      26.049      27.33       19.256      11.984      28.77       24.054      1.23        2.121       89.406      48.597      1.087       -2268.0     136.667     -2080.0     38.231      
112.7       42.851      136.458     2.284       5.71        32.085      26.246      27.068      19.441      12.35       28.405      24.204      1.248       2.174       89.406      48.894      1.087       -2276.0     120.0       -2095.0     39.114      
112.8       40.532      135.807     2.279       5.787       32.52       26.453      26.964      19.658      12.649      27.932      24.264      1.189       2.174       89.406      49.179      1.087       -2288.0     103.333     -2110.0     38.935      
112.9       40.482      136.069     2.241       6.171       32.841      26.668      26.91       19.963      12.769      27.488      24.34       1.153       2.133       89.364      49.448      1.087       -2296.0     76.667      -2070.0     37.31       
113.0       41.568      136.117     2.228       6.4         33.069      26.9        26.91       20.132      12.812      27.117      24.272      1.156       2.039       89.132      49.694      1.087       -2304.0     50.0        -2045.0     36.443      
113.1       44.712      136.251     2.225       6.438       33.365      27.084      26.91       20.286      12.874      26.808      24.305      1.205       1.992       88.706      49.93       1.087       -2308.0     30.0        -2030.0     36.863      
113.2       47.691      135.881     2.23        6.208       33.629      27.251      26.91       20.507      12.981      26.569      24.368      1.209       2.024       88.116      50.165      1.087       -2288.0     53.332      -2064.99    37.762      
113.3       49.568      135.483     2.252       5.971       34.221      27.788      27.021      20.732      13.016      26.443      24.414      1.196       2.094       87.434      50.394      1.087       -2288.0     86.668      -2095.0     38.544      
113.4       46.72       135.538     2.258       5.933       34.474      28.393      27.446      21.01       13.061      26.288      24.323      1.139       2.163       86.72       50.607      1.087       -2288.0     133.333     -2120.0     37.797      
113.5       44.548      135.656     2.257       5.958       34.973      29.062      28.041      21.226      13.134      26.256      24.265      1.067       2.122       86.019      50.792      1.087       -2308.0     140.0       -2135.0     36.479      
113.6       44.126      135.704     2.25        6.054       35.788      29.684      28.463      21.226      13.236      26.217      24.227      1.072       2.055       85.393      50.932      1.087       -2276.0     146.667     -2145.0     35.162      
113.7       43.841      135.821     2.251       6.118       36.386      30.293      28.879      21.442      13.268      26.217      24.173      1.129       2.086       84.887      51.022      1.087       -2244.0     143.333     -2150.0     33.895      
113.8       45.956      135.825     2.273       6.182       36.722      30.505      29.283      21.605      13.268      26.099      24.126      1.243       2.133       84.52       51.072      1.087       -2212.0     140.0       -2145.0     35.383      
113.9       42.143      135.781     2.265       6.168       36.722      30.758      29.506      21.653      13.231      25.963      24.084      1.266       2.146       84.284      51.078      1.087       -2212.0     136.667     -2140.0     38.451      
114.0       38.639      135.76      2.247       5.964       36.438      30.649      29.557      21.653      13.163      25.803      23.96       1.244       2.158       84.168      51.078      1.087       -2196.0     126.667     -2135.0     39.765      
114.1       43.063      135.783     2.243       5.81        36.135      30.649      29.557      21.64       13.096      25.675      23.854      1.221       2.159       84.168      51.078      1.087       -2192.0     123.333     -2155.0     38.507      
114.2       37.529      135.99      2.214       5.856       35.188      30.375      29.519      21.52       13.029      25.675      23.664      1.226       2.138       84.168      51.033      1.087       -2188.0     120.0       -2174.99    35.931      
114.3       35.027      135.933     2.211       6.271       34.266      30.373      29.659      21.479      12.951      25.8        23.485      1.24        2.082       84.168      50.932      1.087       -2208.0     120.0       -2215.0     35.563      
114.4       36.715      135.816     2.225       6.732       33.833      30.534      29.852      21.543      12.861      25.886      23.356      1.215       2.019       84.172      50.764      1.087       -2216.0     130.0       -2245.0     35.968      
114.5       40.329      135.735     2.237       6.808       33.665      30.529      30.052      21.577      12.861      26.037      23.273      1.196       1.976       84.302      50.506      1.087       -2224.0     153.333     -2270.0     35.136      
114.6       45.907      135.723     2.259       6.586       33.453      30.137      30.215      21.577      12.861      26.456      23.301      1.2         2.016       84.567      50.182      1.087       -2224.0     163.333     -2275.0     33.173      
114.7       46.829      135.648     2.261       6.304       33.234      29.793      30.215      21.577      12.861      27.219      23.404      1.219       2.085       84.975      49.812      1.087       -2240.0     163.334     -2245.0     32.195      
114.8       44.446      135.693     2.28        6.253       33.037      29.421      30.293      21.577      12.886      28.142      23.412      1.204       2.153       85.518      49.42       1.087       -2264.0     150.0       -2214.99    33.436      
114.9       40.331      135.743     2.281       6.464       33.037      29.421      30.509      21.695      12.942      29.126      23.366      1.176       2.202       86.158      49.022      1.087       -2288.0     143.333     -2155.0     35.507      
115.0       39.515      135.82      2.274       6.479       33.523      29.871      30.769      21.948      13.026      29.795      23.28       1.18        2.179       86.859      48.647      1.087       -2296.0     130.0       -2125.0     36.213      
115.1       40.258      135.858     2.277       6.229       33.957      29.871      30.769      22.233      13.124      30.23       23.216      1.241       2.167       87.583      48.289      1.087       -2268.0     113.333     -2085.0     35.076      
115.2       44.664      135.719     2.285       5.995       33.957      29.871      30.769      22.397      13.263      30.322      23.122      1.328       2.183       88.334      47.936      1.087       -2240.0     96.667      -2065.0     34.434      
115.3       44.593      135.5       2.279       6.216       33.957      29.43       30.73       22.397      13.345      30.322      23.122      1.352       2.194       89.156      47.572      1.087       -2183.99    86.666      -2050.0     34.97       
115.4       41.093      135.546     2.253       6.549       34.056      28.743      30.293      22.397      13.42       30.322      23.029      1.311       2.202       90.13       47.191      1.087       -2156.0     93.333      -2050.0     36.51       
115.5       39.08       135.954     2.242       6.617       33.795      28.301      29.658      22.319      13.489      30.223      22.963      1.239       2.168       91.346      46.788      1.087       -2128.0     120.0       -2060.0     38.114      
115.6       38.485      136.183     2.208       6.46        33.618      27.987      28.941      22.027      13.503      29.834      22.891      1.188       2.124       92.877      46.346      1.087       -2112.0     143.333     -2025.0     37.794      
