~Version Information Section
VERS.                                         2.0:CWLS log ASCII Standart – VERSION 2.0
WRAP.                                          NO:One line per depth step
~Well Information Section
STRT.M                                        0.6:Начальная глубина
STOP.M                                      191.4:Конечная глубина
STEP.M                                          0:Шаг квантования по глубине
NULL.                                    -9999.25:Признак "Нет данных"
WELL.                                       129Мх:Скважина
~Parameter Information Section
~Curve Information Section
DEPTH.M                                          :Глубина
BK.lgОмм                                         :BK     (БК)
ПРОФ_СР.мм                                       :DS  (ДС)
ГК.имп/мин                                       :GK          (ГК)
ГЗ1.Омм                                          :GZ1   ГЗ1(A0.4M0.1N)
ГЗ2.Омм                                          :GZ2   ГЗ2(A1.0M0.1N)
ГЗ3.Омм                                          :GZ3   ГЗ3(A2.0M0.5N)
ГЗ4.Oмм                                          :GZ4   ГЗ4(A4.0M0.5N)
ГЗ5.Oмм                                          :GZ5   ГЗ5(A8.0M0.5N)
ГЗК.Омм                                          :GZK   ГЗK(N0.5M2.0A)
ИК.мСм/м                                         :IK
НГК.усл.ед                                       :NNKb  (ННКб)
ННКМ.усл.ед                                      :NNKm  (ННКм)
PZ.Омм                                           :PZ    (КС)
РЕЗ.Омм                                          :RS (Резистивиметр)
U1.мВ                                            :U1
U2.mV                                            :U2
U3.мВ                                            :U3
КП.%                                             :Кп
ПС.                                              :ПС
~ASCII LOG DATA
# ...
123.0       79.81       127.659     5.03        55.451      51.649      40.135      4.432       69.0        39.583      18.639      3.901       2.465       53.755      1.12        1008.0      1258.667    821.333     27.35       -39.56      
123.1       85.396      127.708     4.749       56.008      51.57       41.508      4.662       69.0        38.715      18.883      4.055       2.486       54.463      1.12        997.334     1261.333    848.0       27.622      -38.44      
123.2       81.219      127.831     4.186       56.373      51.432      42.707      4.871       69.0        38.063      18.93       4.013       2.493       54.463      1.12        992.0       1272.0      853.333     28.499      -37.16      
123.3       74.808      127.95      4.57        56.408      51.245      43.698      5.045       69.0        37.71       18.83       3.957       2.468       54.463      1.12        997.333     1280.0      842.667     29.2        -35.76      
123.4       70.501      128.119     4.954       56.408      50.86       44.449      5.174       69.0        37.571      18.883      4.044       2.438       54.02       1.12        1002.667    1288.0      826.667     29.889      -34.36      
123.5       70.448      128.199     4.71        55.838      50.021      44.932      5.253       69.0        37.533      18.83       4.128       2.417       52.565      1.12        1013.333    1296.0      824.0       30.548      -32.96      
123.6       70.617      128.475     4.589       54.495      48.597      45.159      5.288       69.0        37.402      19.086      3.946       2.404       50.308      1.12        1024.0      1298.667    821.334     30.63       -31.72      
123.7       72.88       128.817     3.955       52.323      46.481      45.18       5.292       69.0        37.074      18.93       3.808       2.432       47.924      1.12        1032.0      1296.0      813.333     30.64       -30.68      
123.8       75.82       128.797     4.128       49.625      43.898      45.18       5.292       68.822      36.484      19.032      3.776       2.469       45.821      1.12        1034.667    1285.333    813.333     30.663      -29.8       
123.9       76.22       128.729     4.992       46.813      41.191      45.092      5.284       68.244      35.696      19.13       3.793       2.513       44.069      1.12        1032.0      1272.0      805.333     30.315      -29.12      
124.0       72.73       128.749     4.915       44.326      38.821      44.959      5.278       67.044      34.801      19.032      3.885       2.517       42.629      1.12        1026.667    1258.667    805.333     30.436      -28.64      
124.1       69.736      128.764     4.531       42.333      37.026      44.807      5.278       65.311      33.878      19.135      3.851       2.476       41.439      1.12        1021.334    1250.667    802.666     31.056      -28.32      
124.2       71.099      128.781     4.474       40.963      36.034      44.623      5.279       63.222      33.024      19.29       3.698       2.458       40.477      1.12        1016.0      1245.333    826.667     31.122      -28.12      
124.3       73.849      128.859     4.358       40.247      35.872      44.397      5.287       61.133      32.304      19.503      3.698       2.456       39.806      1.12        1032.0      1264.0      842.667     31.26       -28.0       
124.4       75.159      128.871     4.205       40.247      35.872      44.138      5.302       59.356      31.763      19.451      3.692       2.46        39.496      1.12        1042.667    1285.333    858.667     31.336      -27.88      
124.5       70.918      128.993     4.128       40.276      36.552      43.876      5.322       58.156      31.316      19.505      3.666       2.453       39.496      1.12        1045.333    1312.0      864.0       30.969      -27.76      
124.6       67.1        129.054     4.096       41.161      37.965      43.646      5.345       57.489      30.801      19.505      3.63        2.385       39.496      1.12        1024.001    1320.0      864.0       29.98       -27.6       
124.7       63.712      129.177     4.09        42.952      40.072      43.487      5.368       57.178      30.041      19.451      3.604       2.346       39.496      1.12        1024.0      1330.667    853.333     29.093      -27.4       
124.8       62.328      129.264     5.126       45.416      42.644      43.419      5.388       57.044      28.957      19.667      3.657       2.404       39.597      1.12        1026.667    1341.333    848.0       28.705      -27.2       
124.9       64.259      129.379     5.126       48.133      45.436      43.419      5.403       57.0        27.658      19.558      3.858       2.433       40.183      1.12        1037.333    1344.0      850.667     28.706      -26.96      
125.0       67.092      129.335     5.088       50.653      48.15       43.448      5.41        57.0        26.267      19.611      3.997       2.414       41.376      1.12        1032.0      1341.333    848.0       28.435      -26.64      
125.1       72.057      129.292     4.864       52.801      50.702      43.559      5.41        57.0        24.886      19.722      4.125       2.415       43.295      1.12        1032.0      1336.0      845.334     28.48       -26.28      
125.2       75.687      129.309     4.416       54.494      52.98       43.729      5.409       57.0        23.398      19.667      4.084       2.428       46.038      1.12        1034.667    1330.667    832.0       28.589      -25.92      
125.3       77.567      129.435     4.32        55.848      55.03       43.95       5.4         57.0        21.658      19.503      4.027       2.455       49.621      1.12        1042.667    1325.333    834.667     28.233      -25.48      
125.4       77.508      129.502     4.224       57.019      56.897      44.218      5.387       57.0        19.532      19.558      4.081       2.488       53.865      1.12        1058.667    1320.0      842.667     27.997      -24.96      
125.5       75.375      129.608     4.32        58.206      58.622      44.535      5.372       57.0        17.124      19.558      4.158       2.539       58.397      1.12        1064.0      1320.0      848.0       28.309      -24.36      
125.6       73.114      129.893     4.416       59.531      60.117      44.91       5.356       57.0        14.707      19.451      4.113       2.575       62.739      1.12        1045.334    1320.0      834.667     28.538      -23.6       
125.7       69.239      129.85      4.656       61.037      61.376      45.389      5.338       57.0        12.562      19.344      4.049       2.528       66.471      1.12        1013.332    1330.667    837.334     28.928      -22.6       
125.8       67.179      129.807     4.704       62.692      62.513      46.044      5.317       57.0        10.801      19.185      4.001       2.492       69.337      1.12        984.0       1336.0      845.333     29.088      -21.52      
125.9       65.919      129.919     4.915       64.406      63.568      46.919      5.288       57.0        9.355       19.185      3.999       2.498       71.305      1.12        965.333     1336.0      874.667     28.495      -20.48      
126.0       66.947      129.971     4.915       65.982      64.259      48.003      5.25        57.044      8.112       19.135      4.044       2.487       72.412      1.12        944.0       1325.333    880.0       28.059      -19.56      
126.1       67.875      129.889     4.282       67.171      64.259      49.216      5.209       57.222      6.99        19.135      4.039       2.467       72.863      1.12        928.0       1322.667    885.334     28.007      -18.84      
126.2       68.183      130.163     4.275       67.808      64.116      50.47       5.17        57.622      6.053       19.135      4.036       2.482       72.863      1.12        938.667     1328.0      882.667     27.721      -18.4       
126.3       67.922      130.375     4.262       68.061      62.777      51.662      5.141       58.289      5.419       19.29       4.198       2.508       72.863      1.12        952.0       1346.667    877.333     27.731      -18.12      
