~Version Information Section
VERS.                                         2.0:CWLS log ASCII Standart – VERSION 2.0
WRAP.                                          NO:One line per depth step
~Well Information Section
STRT.M                                        0.0:Начальная глубина
STOP.M                                      211.0:Конечная глубина
STEP.M                                          0:Шаг квантования по глубине
NULL.                                    -9999.25:Признак "Нет данных"
WELL.                                       125Мх:Скважина
~Parameter Information Section
~Curve Information Section
DEPTH.M                                          :Глубина
BK.lgОмм                                         :BK
D.                                               :D sr
GGKP.g/sm3                                       :GGKp
ГК.гамма                                         :GK
ИК.мСм/м                                         :IK
KP.%                                             :Kp
PS.                                              :PS       (ПС)
PZ.Омм                                           :PZ
RIS.Омм                                          :RIS
U1.                                              :U1
U2.                                              :U2
U3.                                              :U3
БЗ.                                              :БЗ (ГГК-1)
ГЗ1.Омм                                          :ГЗ1
ГЗ2.Омм                                          :ГЗ2
ГЗ3.Омм                                          :ГЗ3
ГЗ4.Oмм                                          :ГЗ4
ГЗ5.Oмм                                          :ГЗ5
ГЗК.Омм                                          :ГЗК
ИКБ.мСм/м                                        :ИКБ
МЗ.                                              :МЗ жесткий (ГГК-4)
ННКМ.усл.ед                                      :ННКм
ИКМ.мСм/м                                        :ИКМ
НГК.усл.ед                                       :ННКб
~ASCII LOG DATA
# ...
121.5       42.364      126.432     2.32        4.665       33.788      27.274      136.044     69.925      1.105       485.448     141.636     278.241     13472.0     62.604      59.349      51.031      32.207      32.778      53.798      40.453      19004.0     1.088       24.543      2.462       
121.6       41.115      126.522     2.328       4.83        34.0        27.153      135.89      71.189      1.106       523.404     136.703     303.172     12952.857   61.224      59.402      53.352      36.201      36.319      51.299      40.605      18221.428   1.11        24.521      2.537       
121.7       39.628      126.62      2.344       4.85        34.258      27.956      135.851     72.957      1.105       547.933     133.39      322.66      12605.333   61.046      61.295      57.571      41.24       40.315      49.594      40.734      17488.0     1.135       24.572      2.511       
121.8       38.905      126.79      2.364       4.974       34.439      28.581      135.942     75.346      1.106       560.197     135.409     332.535     12180.0     62.847      64.857      63.064      47.247      44.943      49.185      40.906      17670.0     1.158       24.722      2.397       
121.9       40.551      126.823     2.386       4.899       34.709      28.717      136.174     78.45       1.107       561.751     137.427     335.315     12165.333   66.903      69.653      69.711      54.486      48.793      50.255      41.151      18350.666   1.16        25.029      2.41        
122.0       45.604      127.092     2.405       4.897       35.013      28.759      136.55      82.292      1.108       558.0       137.28      336.502     12149.23    73.325      75.115      76.919      62.358      53.385      52.943      41.52       19183.076   1.135       25.493      2.516       
122.1       57.544      127.117     2.41        4.735       35.42       28.487      137.066     86.763      1.109       551.587     133.195     337.259     12151.25    82.36       81.289      84.634      70.968      57.425      57.231      41.985      19575.0     1.129       26.001      2.565       
122.2       78.343      126.747     2.407       4.474       35.957      28.059      137.709     91.648      1.11        547.933     128.515     335.744     12508.571   94.042      88.532      92.569      80.199      60.193      62.381      42.543      19487.143   1.141       26.69       2.629       
122.3       105.682     127.135     2.389       4.18        36.476      28.126      138.461     96.647      1.111       531.64      118.709     327.024     12747.143   108.187     97.039      100.414     89.783      61.92       68.473      43.108      19187.143   1.153       27.438      2.538       
122.4       126.765     127.449     2.365       4.021       36.948      28.882      139.3       101.407     1.111       511.263     111.711     318.051     13080.0     124.37      106.85      107.838     98.877      63.489      74.97       43.689      19340.0     1.193       28.313      2.456       
122.5       130.918     127.599     2.348       3.75        37.414      29.832      140.201     105.63      1.111       491.83      113.81      314.821     13738.667   142.01      117.453     114.02      105.681     64.251      81.497      44.269      19377.334   1.206       29.143      2.405       
122.6       126.474     128.061     2.331       3.518       37.864      30.522      141.136     109.021     1.112       495.76      125.813     321.053     14028.0     159.778     128.701     117.374     109.23      63.939      87.306      44.919      19293.334   1.215       30.007      2.412       
122.7       123.027     127.432     2.323       3.41        38.301      30.728      142.076     111.288     1.111       517.27      141.041     334.306     13829.333   174.475     138.423     117.698     109.083     62.449      92.088      45.607      19032.0     1.211       30.668      2.522       
122.8       125.314     127.219     2.327       3.371       38.709      30.185      142.995     112.139     1.111       559.417     156.397     354.391     13807.143   181.273     142.956     114.927     105.543     61.132      95.496      46.317      18362.857   1.207       31.075      2.579       
122.9       128.529     127.933     2.338       3.348       39.046      29.173      143.872     111.365     1.11        605.648     168.945     373.686     13098.667   179.717     142.238     109.841     100.064     58.052      97.136      46.892      18108.0     1.209       31.138      2.689       
123.0       123.027     128.39      2.356       3.331       39.131      28.031      144.688     108.974     1.109       645.223     177.539     385.911     12338.571   171.458     138.653     103.091     93.153      54.358      96.657      47.298      17878.572   1.215       30.87       2.8         
123.1       97.949      128.587     2.381       3.47        38.997      27.44       145.43      105.188     1.109       660.694     182.609     387.992     11756.0     160.488     135.593     95.593      85.591      50.914      94.339      47.416      17534.666   1.263       30.402      2.955       
123.2       63.973      128.257     2.399       3.521       38.589      27.234      146.092     100.464     1.108       658.61      186.19      385.326     11081.538   147.474     132.348     87.8        77.472      47.957      89.733      47.216      17673.846   1.276       29.682      2.895       
123.3       38.282      127.88      2.407       3.903       37.886      27.273      146.675     95.375      1.108       647.77      189.64      386.524     10650.667   132.248     127.656     79.827      69.414      45.293      83.675      46.617      17385.334   1.271       28.583      2.796       
123.4       27.29       127.857     2.409       4.17        36.997      27.511      147.183     90.281      1.108       634.456     192.375     388.514     10828.571   115.155     120.929     72.17       62.502      42.728      76.969      45.715      17360.0     1.266       27.377      2.799       
123.5       29.309      128.219     2.396       4.502       36.023      27.747      147.629     85.403      1.108       619.515     190.348     382.564     11401.333   97.695      111.864     65.651      57.903      40.423      70.566      44.512      17680.0     1.247       26.254      2.771       
123.6       40.551      129.463     2.381       4.59        35.082      27.446      148.028     80.823      1.108       603.712     183.358     368.153     11547.143   83.175      102.958     61.052      55.738      38.366      64.817      43.129      17464.285   1.18        25.469      2.662       
123.7       56.494      130.237     2.366       4.818       34.234      26.897      148.399     76.69       1.108       587.906     174.064     353.741     11957.333   75.342      98.086      58.511      55.18       36.664      60.244      41.663      17188.0     1.103       24.975      2.622       
123.8       62.661      129.197     2.352       4.75        33.517      26.579      148.758     73.183      1.108       572.339     164.77      341.154     11865.0     74.277      97.507      57.599      55.17       35.627      56.793      40.305      16938.75    1.149       24.584      2.751       
123.9       62.373      127.819     2.34        4.702       32.932      26.391      149.123     70.397      1.108       560.05      159.985     331.79      11927.143   77.436      98.012      57.656      55.016      34.967      54.246      39.174      16707.143   1.205       24.303      2.796       
124.0       61.094      127.283     2.33        4.577       32.409      26.296      149.51      68.301      1.108       555.241     167.765     331.559     12220.0     78.366      94.695      57.943      53.982      34.24       52.62       38.335      16907.143   1.224       23.995      2.798       
124.1       60.954      126.967     2.321       4.671       32.007      26.512      149.929     66.675      1.108       554.517     178.898     333.832     12580.0     77.603      89.095      57.964      52.069      33.445      52.269      37.805      17345.334   1.232       23.864      2.819       
