~Version Information Section
VERS.                                         2.0:CWLS log ASCII Standart – VERSION 2.0
WRAP.                                          NO:One line per depth step
~Well Information Section
STRT.M                                       0.67:Начальная глубина
STOP.M                                     204.27:Конечная глубина
STEP.M                                          0:Шаг квантования по глубине
NULL.                                    -9999.25:Признак "Нет данных"
WELL.                                       110Мх:Скважина
~Parameter Information Section
~Curve Information Section
DEPTH.M                                          :Глубина
БК.Омм                                           :BK     (БК)
DСР.мм                                           :DS  (ДС)
ГК.гамма                                         :GK          (ГК)
А0.4М0.1N.Омм.ohmm                               :GZ1   ГЗ1(A0.4M0.1N)
А1.0М0.1N.Омм.ohmm                               :GZ2   ГЗ2(A1.0M0.1N)
А2.0М0.5N.Омм.ohmm                               :GZ3   ГЗ3(A2.0M0.5N)
А4.0М0.5N.Oмм.ohmm                               :GZ4   ГЗ4(A4.0M0.5N)
А8.0М1.0N.Омм.ohmm                               :GZ5   ГЗ5(A8.0M0.5N)
N0.5M2.0A.Омм.ohmm                               :GZK   ГЗK(N0.5M2.0A)
ИК.мСм/м                                         :IK
НГК.усл.ед                                       :NGK     (НГК)
ПС.mv                                            :PS       (ПС)
КС.Омм                                           :PZ    (КС)
R.Омм                                            :RS (Резистивиметр)
W_SI.%                                           :п
ННКМ.имп/1,25с                                   :ННКм
ПЛОТНОСТЬГГК.г/см3                               :плотностьГГК
~ASCII LOG DATA
# ...
164.87      23.014      122.267     7.544       -9999.25    -9999.25    -9999.25    -9999.25    -9999.25    -9999.25    14.076      1.666       336.837     111.857     0.96        19.026      2.427       2.554       
164.9       -9999.25    -9999.25    -9999.25    35.981      26.421      31.052      24.404      93.226      18.675      -9999.25    -9999.25    -9999.25    -9999.25    -9999.25    -9999.25    -9999.25    -9999.25    
164.97      13.859      122.52      7.92        -9999.25    -9999.25    -9999.25    -9999.25    -9999.25    -9999.25    13.243      1.584       346.806     80.524      0.96        19.513      2.325       2.554       
165.0       -9999.25    -9999.25    -9999.25    31.347      21.371      9.43        8.303       44.05       10.969      -9999.25    -9999.25    -9999.25    -9999.25    -9999.25    -9999.25    -9999.25    -9999.25    
165.07      12.59       122.708     8.868       -9999.25    -9999.25    -9999.25    -9999.25    -9999.25    -9999.25    12.599      1.496       353.413     51.111      0.96        20.373      2.032       2.548       
165.1       -9999.25    -9999.25    -9999.25    25.858      17.675      5.442       2.553       15.133      9.534       -9999.25    -9999.25    -9999.25    -9999.25    -9999.25    -9999.25    -9999.25    -9999.25    
165.17      12.395      122.778     10.043      -9999.25    -9999.25    -9999.25    -9999.25    -9999.25    -9999.25    12.071      1.409       357.137     26.738      0.96        21.466      1.752       2.534       
165.2       -9999.25    -9999.25    -9999.25    22.085      15.182      4.299       1.768       8.38        9.61        -9999.25    -9999.25    -9999.25    -9999.25    -9999.25    -9999.25    -9999.25    -9999.25    
165.27      12.491      122.473     10.671      -9999.25    -9999.25    -9999.25    -9999.25    -9999.25    -9999.25    11.681      1.289       358.786     17.063      0.96        22.767      1.66        2.519       
165.3       -9999.25    -9999.25    -9999.25    20.245      14.369      3.796       1.729       6.491       9.9         -9999.25    -9999.25    -9999.25    -9999.25    -9999.25    -9999.25    -9999.25    -9999.25    
165.37      12.849      122.379     10.776      -9999.25    -9999.25    -9999.25    -9999.25    -9999.25    -9999.25    11.345      1.174       359.271     17.579      0.96        24.269      1.651       2.499       
165.4       -9999.25    -9999.25    -9999.25    19.217      15.066      3.319       1.821       5.428       10.174      -9999.25    -9999.25    -9999.25    -9999.25    -9999.25    -9999.25    -9999.25    -9999.25    
165.47      12.809      122.357     10.766      -9999.25    -9999.25    -9999.25    -9999.25    -9999.25    -9999.25    11.081      1.121       359.318     20.59       0.96        25.211      1.64        2.477       
165.5       -9999.25    -9999.25    -9999.25    18.883      17.924      3.204       1.884       4.998       10.584      -9999.25    -9999.25    -9999.25    -9999.25    -9999.25    -9999.25    -9999.25    -9999.25    
165.57      12.465      122.362     10.677      -9999.25    -9999.25    -9999.25    -9999.25    -9999.25    -9999.25    10.903      1.142       359.262     21.496      0.96        25.934      1.6         2.464       
165.6       -9999.25    -9999.25    -9999.25    18.831      20.958      3.288       1.853       4.798       11.046      -9999.25    -9999.25    -9999.25    -9999.25    -9999.25    -9999.25    -9999.25    -9999.25    
165.67      12.582      122.379     10.632      -9999.25    -9999.25    -9999.25    -9999.25    -9999.25    -9999.25    10.776      1.191       359.211     20.488      0.96        26.639      1.585       2.46        
165.7       -9999.25    -9999.25    -9999.25    18.909      20.97       3.404       1.788       4.637       11.465      -9999.25    -9999.25    -9999.25    -9999.25    -9999.25    -9999.25    -9999.25    -9999.25    
165.77      13.008      122.397     10.057      -9999.25    -9999.25    -9999.25    -9999.25    -9999.25    -9999.25    10.711      1.208       359.202     19.215      0.96        27.222      1.583       2.462       
165.8       -9999.25    -9999.25    -9999.25    18.814      18.896      3.474       1.802       4.506       11.751      -9999.25    -9999.25    -9999.25    -9999.25    -9999.25    -9999.25    -9999.25    -9999.25    
165.87      13.395      122.36      9.527       -9999.25    -9999.25    -9999.25    -9999.25    -9999.25    -9999.25    10.686      1.212       359.243     18.255      0.96        27.652      1.584       2.467       
165.9       -9999.25    -9999.25    -9999.25    18.65       17.095      3.72        2.026       4.471       12.027      -9999.25    -9999.25    -9999.25    -9999.25    -9999.25    -9999.25    -9999.25    -9999.25    
165.97      13.38       122.329     9.186       -9999.25    -9999.25    -9999.25    -9999.25    -9999.25    -9999.25    10.674      1.218       359.352     17.697      0.96        27.838      1.624       2.471       
166.0       -9999.25    -9999.25    -9999.25    18.646      16.227      4.177       2.456       4.439       12.271      -9999.25    -9999.25    -9999.25    -9999.25    -9999.25    -9999.25    -9999.25    -9999.25    
166.07      13.233      122.351     9.428       -9999.25    -9999.25    -9999.25    -9999.25    -9999.25    -9999.25    10.685      1.24        359.505     17.269      0.96        27.909      1.64        2.475       
166.1       -9999.25    -9999.25    -9999.25    18.684      15.679      4.554       2.957       4.456       12.427      -9999.25    -9999.25    -9999.25    -9999.25    -9999.25    -9999.25    -9999.25    -9999.25    
166.17      13.343      122.365     9.775       -9999.25    -9999.25    -9999.25    -9999.25    -9999.25    -9999.25    10.711      1.23        359.695     16.908      0.96        27.86       1.645       2.478       
166.2       -9999.25    -9999.25    -9999.25    18.564      14.989      5.031       3.225       4.405       12.641      -9999.25    -9999.25    -9999.25    -9999.25    -9999.25    -9999.25    -9999.25    -9999.25    
166.27      13.612      122.331     9.845       -9999.25    -9999.25    -9999.25    -9999.25    -9999.25    -9999.25    10.742      1.164       359.949     16.611      0.96        27.772      1.648       2.476       
166.3       -9999.25    -9999.25    -9999.25    18.484      14.613      5.705       3.013       4.391       13.004      -9999.25    -9999.25    -9999.25    -9999.25    -9999.25    -9999.25    -9999.25    -9999.25    
166.37      13.734      122.316     9.697       -9999.25    -9999.25    -9999.25    -9999.25    -9999.25    -9999.25    10.799      1.1         360.266     16.402      0.96        27.582      1.617       2.473       
166.4       -9999.25    -9999.25    -9999.25    18.832      14.567      6.765       2.577       4.326       13.637      -9999.25    -9999.25    -9999.25    -9999.25    -9999.25    -9999.25    -9999.25    -9999.25    
166.47      14.108      122.307     9.436       -9999.25    -9999.25    -9999.25    -9999.25    -9999.25    -9999.25    10.863      1.093       360.668     16.272      0.96        27.304      1.603       2.47        
166.5       -9999.25    -9999.25    -9999.25    19.728      15.066      8.673       2.301       4.163       14.11       -9999.25    -9999.25    -9999.25    -9999.25    -9999.25    -9999.25    -9999.25    -9999.25    
166.57      14.748      122.296     9.276       -9999.25    -9999.25    -9999.25    -9999.25    -9999.25    -9999.25    10.923      1.154       361.212     16.194      0.96        27.579      1.605       2.469       
166.6       -9999.25    -9999.25    -9999.25    20.409      15.307      10.847      2.28        3.961       14.226      -9999.25    -9999.25    -9999.25    -9999.25    -9999.25    -9999.25    -9999.25    -9999.25    
166.67      15.268      122.306     9.213       -9999.25    -9999.25    -9999.25    -9999.25    -9999.25    -9999.25    10.979      1.213       361.949     16.157      0.96        28.099      1.607       2.469       
