~Version Information Section
VERS.                                         2.0:CWLS log ASCII Standart – VERSION 2.0
WRAP.                                          NO:One line per depth step
~Well Information Section
STRT.M                                        0.8:Начальная глубина
STOP.M                                      209.6:Конечная глубина
STEP.M                                          0:Шаг квантования по глубине
NULL.                                    -9999.25:Признак "Нет данных"
WELL.                                         5Мх:Скважина
~Parameter Information Section
~Curve Information Section
DEPTH.M                                          :Глубина
BK.Ohm*M                                         :BK     (БК)
DS.mm                                            :DS  (ДС)
ГК.mcr/h                                         :GK          (ГК)
GZ1.Ohm*M                                        :GZ1   ГЗ1(A0.4M0.1N)
GZ2.Ohm*M                                        :GZ2   ГЗ2(A1.0M0.1N)
GZ3.Ohm*M                                        :GZ3   ГЗ3(A2.0M0.5N)
GZ4.Ohm*M                                        :GZ4   ГЗ4(A4.0M0.5N)
GZ5.Ohm*M                                        :GZ5   ГЗ5(A8.0M0.5N)
GZR.Ohm*M                                        :GZK   ГЗK(N0.5M2.0A)
ИК.Ohm*M                                         :IK
НГК.                                             :NNKb  (ННКб)
NNKM.                                            :NNKm  (ННКм)
PS.mv                                            :PS       (ПС)
PZ.Ohm*M                                         :PZ    (КС)
RS.Ohm*M                                         :RS (Резистивиметр)
W.%                                              :W
ГГК.g/cm3                                        :ГГК
SGDT1.1/min                                      :ПЛ1
SGDT2.1/min                                      :ПЛ2
SGDT3.1/min                                      :ПЛ3
SGDT4.1/min                                      :ПЛ4
~ASCII LOG DATA
# ...
56.6        46.666      150.356     4.153       5.025       7.056       8.314       5.844       21.742      29.074      25.491      4.014       2.33        869.462     77.064      0.857       26.995      2.153       18713.963   22650.205   16438.135   5008.906    
56.8        56.754      150.394     3.973       4.983       3.219       8.134       5.844       21.382      28.502      27.671      3.949       2.395       870.684     80.777      0.859       28.409      2.137       18540.836   23244.199   17315.328   4973.936    
57.0        73.451      150.645     3.919       6.19        1.394       8.854       6.084       21.022      25.577      29.284      4.123       2.416       869.856     85.781      0.862       27.625      2.139       20528.434   23896.104   17439.746   5040.938    
57.2        47.863      150.698     3.675       7.393       0.444       10.474      6.804       33.622      19.162      29.714      4.419       2.41        866.285     91.151      0.863       24.992      2.149       19044.707   23602.813   16842.164   4775.176    
57.4        61.659      150.527     3.719       9.222       0.465       10.654      8.644       32.542      12.276      30.339      4.654       2.421       867.448     92.683      0.863       23.698      2.124       18389.432   23240.703   16940.0     4884.082    
57.6        139.637     150.5       3.556       7.006       0.463       17.134      7.924       28.402      7.767       31.0        4.337       2.487       881.124     91.232      0.865       26.436      2.082       21373.926   23819.941   17790.723   5080.0      
57.8        146.555     151.134     3.829       7.31        0.463       13.714      7.604       27.142      6.016       31.312      4.126       2.464       893.33      82.915      0.868       27.842      2.055       22050.355   23887.061   17477.301   5282.422    
58.0        87.498      151.487     4.463       10.533      1.04        13.714      8.484       40.642      5.645       31.09       4.215       2.363       900.551     68.191      0.872       26.057      2.019       23318.785   25071.484   17306.969   5398.379    
58.2        57.81       151.274     4.739       14.99       6.887       14.794      9.204       39.562      5.851       30.045      4.212       2.413       913.306     52.53       0.875       26.533      1.997       24941.807   25452.969   17924.414   5452.871    
58.4        47.424      152.004     4.41        12.753      12.548      28.294      10.084      37.222      6.316       29.206      4.101       2.362       925.438     44.738      0.876       27.002      2.029       26203.881   24797.539   18504.199   5479.922    
58.6        47.753      152.424     4.246       11.386      14.951      25.234      10.564      35.782      7.341       28.878      4.227       2.387       929.624     44.342      0.879       26.191      2.082       23401.875   24239.98    18217.047   5045.469    
58.8        56.364      152.691     4.318       9.85        14.002      19.654      9.844       34.162      7.732       28.976      4.247       2.449       930.32      46.7        0.881       26.688      2.087       20453.938   24308.828   17704.684   4975.254    
59.0        52.119      152.673     4.298       9.66        13.535      19.294      9.124       30.022      7.526       29.071      4.062       2.404       929.195     49.76       0.881       27.466      2.056       21879.484   24458.701   17863.063   5211.191    
59.2        43.853      151.193     4.532       9.679       13.666      17.674      8.484       28.942      7.881       29.233      4.412       2.395       927.995     56.259      0.881       25.251      2.053       23907.021   24375.957   18142.783   5148.408    
59.4        82.224      151.485     4.295       8.894       14.224      15.694      7.204       27.502      8.159       30.027      4.396       2.43        926.53      59.647      0.881       24.873      2.044       23034.83    24258.613   18125.664   5044.102    
59.6        63.533      151.879     3.957       6.417       12.92       14.794      6.244       25.702      8.161       30.648      4.48        2.431       922.987     57.498      0.881       24.619      2.001       24125.98    25408.438   18606.309   5406.504    
59.8        63.68       152.002     4.501       6.582       13.889      13.174      6.084       23.902      8.012       30.899      4.488       2.411       914.949     55.684      0.881       24.255      1.97        27497.813   26341.963   19086.67    5691.172    
60.0        68.865      151.947     4.595       5.882       13.088      10.114      6.004       23.362      7.509       30.433      4.447       2.431       907.299     57.337      0.881       24.488      1.986       26576.881   25735.859   18314.014   5585.547    
60.2        79.799      152.207     4.43        5.581       12.455      9.574       6.004       22.822      6.614       29.916      4.6         2.47        904.389     58.541      0.881       24.387      2.015       24768.057   24562.188   17588.232   5218.281    
60.4        69.183      152.441     4.155       5.323       12.363      9.394       6.004       22.822      5.721       30.06       4.494       2.457       904.313     60.298      0.881       24.78       2.024       23822.104   24440.781   17628.969   5199.941    
60.6        69.823      152.345     3.941       5.432       12.754      9.214       6.084       23.002      5.553       30.814      4.554       2.446       905.336     60.809      0.881       24.202      2.015       23630.068   24408.047   17698.057   5141.66     
60.8        84.14       152.359     3.875       5.242       12.568      9.214       6.244       23.182      6.651       30.077      4.414       2.531       909.836     57.62       0.885       27.016      2.034       24509.74    24823.184   17683.789   5322.744    
61.0        59.704      152.072     4.145       5.133       12.959      9.214       6.244       23.002      8.144       28.823      3.768       2.447       916.624     53.702      0.893       31.64       2.091       23077.273   24466.309   17039.883   5486.367    
61.2        29.377      150.599     4.336       5.555       13.555      9.214       6.084       21.562      8.813       28.241      3.705       2.259       919.388     55.524      0.897       29.549      2.119       19466.309   23578.437   16724.463   5304.043    
61.4        52.481      151.749     4.604       5.573       13.369      9.394       5.844       21.022      8.049       29.399      4.062       2.255       916.817     61.104      0.899       25.838      2.1         20185.045   23798.701   17187.266   5183.965    
61.6        47.098      152.077     4.694       3.759       11.766      7.774       5.364       19.222      7.192       30.546      4.405       2.352       914.037     71.182      0.899       23.922      2.076       21906.785   23972.129   17370.43    5072.432    
61.8        61.376      152.223     4.454       3.763       11.916      7.054       5.204       18.862      6.97        30.707      4.698       2.377       912.847     77.646      0.899       21.976      2.047       22316.51    24409.365   17387.646   5241.563    
62.0        87.297      151.821     4.245       3.581       11.543      5.794       4.884       18.322      6.914       31.058      5.351       2.487       911.189     79.48       0.902       19.999      2.007       24220.996   25236.875   18116.094   5222.803    
62.2        85.31       151.748     4.276       3.722       11.357      5.794       4.884       18.322      6.708       31.528      5.363       2.545       909.865     77.492      0.905       19.772      1.96        26376.816   25890.068   18367.809   4876.035    
62.4        86.497      152.258     4.52        4.199       11.618      5.794       5.044       18.682      5.721       31.591      5.32        2.559       908.035     74.474      0.905       20.287      1.946       27178.873   26632.852   18220.543   5181.963    
62.6        75.162      152.111     4.006       4.512       11.935      6.874       5.204       19.222      4.863       31.253      5.212       2.526       905.931     80.153      0.905       20.299      1.985       27599.824   25859.883   17325.406   4950.391    
