~Version Information Section
VERS.                                         2.0:CWLS log ASCII Standart – VERSION 2.0
WRAP.                                          NO:One line per depth step
~Well Information Section
STRT.M                                        0.0:Начальная глубина
STOP.M                                      133.6:Конечная глубина
STEP.M                                          0:Шаг квантования по глубине
NULL.                                    -9999.25:Признак "Нет данных"
WELL.                                       118Мх:Скважина
~Parameter Information Section
~Curve Information Section
DEPTH.M                                          :Глубина
BK.Ohm*M                                         :BK     (БК)
DS.mm                                            :DS  (ДС)
GGK.g/cm3                                        :GGKp
ГК.mcr/h                                         :GK          (ГК)
GZ1.Ohm*M                                        :GZ1   ГЗ1(A0.4M0.1N)
GZ2.Ohm*M                                        :GZ2   ГЗ2(A1.0M0.1N)
GZ3.Ohm*M                                        :GZ3   ГЗ3(A2.0M0.5N)
GZ4.Ohm*M                                        :GZ4   ГЗ4(A4.0M0.5N)
GZ5.Ohm*M                                        :GZ5   ГЗ5(A8.0M0.5N)
GZR.Ohm*M                                        :GZK   ГЗK(N0.5M2.0A)
ИК.Ohm*M                                         :IK
НГК.усл.ед                                       :NGK
NNKM.                                            :NNKm  (ННКм)
PS.mv                                            :PS       (ПС)
PZ.Ohm*M                                         :PZ    (КС)
RS.Ohm*M                                         :RS (Резистивиметр)
U1.mV                                            :U1
U2.mV                                            :U2
U3.mV                                            :U3
W.%                                              :W
~ASCII LOG DATA
# ...
38.4        12.735      170.9       2.285       6.668       14.813      12.933      12.211      14.017      9.191       19.09       6.808       0.912       1.741       923.926     6.671       1.009       674.46      350.349     218.017     38.74       
38.6        12.589      171.181     2.228       6.676       15.295      13.066      11.484      13.724      9.06        19.262      6.872       0.92        1.855       927.766     6.671       1.013       624.364     247.042     125.16      41.582      
38.8        11.455      170.04      2.232       7.034       14.309      11.202      10.459      12.682      9.154       21.54       7.04        0.821       1.775       928.726     6.671       1.018       398.816     195.263     144.191     38.343      
39.0        10.116      170.913     2.325       6.731       13.11       10.591      10.123      12.122      9.411       23.248      7.068       0.932       1.732       928.966     6.671       1.022       269.896     206.534     232.563     34.626      
39.2        11.169      173.732     2.35        6.087       13.5        12.304      11.89       13.577      9.265       21.532      6.938       0.962       1.722       928.486     6.671       1.026       330.458     239.009     238.402     42.544      
39.4        16.255      171.109     2.322       6.152       17.256      16.083      12.528      14.211      9.02        19.612      7.106       1.009       1.865       928.006     6.671       1.03        404.936     219.813     151.22      38.014      
39.6        14.191      169.86      2.305       6.952       16.26       12.658      10.883      13.031      9.059       29.381      7.478       0.975       1.914       927.766     6.778       1.032       471.835     222.878     127.223     34.904      
39.8        10.423      170.575     2.384       7.185       14.893      9.337       8.537       11.82       10.419      31.693      7.661       1.0         1.786       927.766     7.101       1.033       459.086     277.816     305.133     33.785      
40.0        9.616       177.407     2.395       5.312       11.952      8.667       10.345      14.967      11.43       27.442      7.585       0.949       1.724       927.766     7.638       1.033       326.331     347.678     608.905     39.861      
40.2        11.749      167.663     2.317       4.53        16.448      17.767      13.649      16.334      11.969      29.584      7.738       1.006       1.83        928.966     8.632       1.033       425.874     398.531     544.415     42.242      
40.4        25.942      159.856     2.26        5.634       19.333      18.583      13.982      14.392      13.828      36.025      8.366       1.052       2.091       930.406     10.888      1.033       553.833     298.587     259.491     35.691      
40.6        15.596      160.433     2.288       5.961       19.005      11.71       12.188      15.476      16.741      38.236      9.117       1.069       2.084       932.806     15.507      1.031       525.397     268.443     184.051     32.611      
40.8        15.417      153.305     2.337       5.534       21.35       13.343      13.684      19.937      19.959      31.096      9.545       1.097       1.939       936.166     22.651      1.029       745.456     564.998     482.349     34.502      
41.0        27.353      151.516     2.337       4.098       24.746      17.813      18.99       25.373      22.87       26.444      9.773       1.124       2.055       940.726     31.568      1.023       1127.665    742.503     555.641     30.996      
41.2        38.282      152.649     2.327       3.527       31.603      28.928      21.92       26.076      26.771      22.618      10.344      1.127       2.29        945.286     41.37       1.017       1294.437    861.321     647.982     27.556      
41.4        72.111      153.379     2.284       3.787       51.518      37.938      22.148      23.914      29.469      20.958      10.814      1.167       2.49        950.326     51.979      1.011       1312.635    1044.538    894.512     27.097      
41.6        42.073      151.618     2.268       4.16        53.698      34.023      21.584      23.509      29.2        23.9        11.005      0.993       2.371       955.606     62.722      1.005       1033.983    733.773     567.882     28.542      
41.8        41.305      152.915     2.304       4.502       66.158      43.382      21.965      22.446      28.159      28.268      10.835      0.976       2.319       961.606     70.027      1.0         699.018     459.54      368.461     32.001      
42.0        29.923      161.744     2.362       4.225       58.195      47.726      22.065      22.11       27.296      37.889      10.517      0.954       2.148       967.366     69.92       0.995       691.856     627.885     657.032     39.27       
42.2        14.06       156.782     2.367       4.554       43.028      57.673      20.756      24.236      27.94       68.208      10.102      0.972       2.106       972.166     61.862      0.992       542.584     497.44      522.963     31.308      
42.4        22.594      158.312     2.352       5.656       34.896      68.258      25.927      24.832      30.5        94.482      9.857       1.058       2.398       976.006     50.394      0.99        437.58      403.504     450.876     29.145      
42.6        17.258      157.755     2.39        6.983       19.989      53.337      29.381      28.276      36.913      115.103     9.732       1.178       2.297       977.686     41.29       0.989       547.772     433.885     428.425     33.166      
42.8        9.528       158.263     2.464       5.577       27.629      33.054      30.164      34.924      44.314      103.561     9.361       1.25        2.014       976.726     37.96       0.989       829.65      445.585     276.425     37.36       
43.0        29.785      156.766     2.462       3.636       38.143      39.485      35.943      37.714      48.583      67.009      9.25        1.168       2.481       972.166     40.054      0.989       926.816     458.953     248.292     29.941      
43.2        42.462      151.97      2.426       2.688       70.942      37.603      41.182      32.376      48.089      46.94       9.816       1.057       2.526       966.646     46.07       0.989       779.796     471.343     325.013     28.49       
43.4        74.817      153.378     2.352       3.497       48.544      18.699      37.33       20.287      43.1        37.293      10.581      0.954       2.638       960.166     53.94       0.99        811.553     608.077     503.83      33.773      
43.6        24.604      161.011     2.28        4.69        41.122      19.761      25.83       11.134      34.098      34.8        10.814      0.941       2.264       952.726     61.084      0.992       964.561     769.088     670.141     34.348      
43.8        17.14       157.695     2.255       4.641       29.769      28.521      13.516      7.424       21.271      36.521      10.63       1.005       2.181       945.526     65.434      0.993       918.984     864.152     887.81      29.638      
44.0        23.768      155.374     2.277       4.903       29.139      32.836      10.403      5.93        10.421      44.09       10.518      1.078       2.219       939.526     66.509      0.995       773.296     771.907     861.612     30.852      
44.2        23.496      159.13      2.296       4.887       24.814      31.693      9.023       5.742       10.272      52.647      10.679      1.175       2.128       933.766     65.73       0.997       628.002     452.773     446.375     30.235      
44.4        19.588      156.906     2.294       4.831       30.352      39.802      11.82       7.272       10.887      51.799      10.712      1.179       2.188       928.006     64.951      1.0         658.64      341.247     212.919     34.503      
44.6        30.549      151.704     2.312       4.742       41.193      50.503      16.573      9.752       11.092      44.314      10.814      1.293       2.303       922.486     65.569      1.002       1036.412    641.11      424.605     27.1        
