~Version Information Section
VERS.                                         2.0:CWLS log ASCII Standart – VERSION 2.0
WRAP.                                          NO:One line per depth step
~Well Information Section
STRT.M                                        1.0:Начальная глубина
STOP.M                                      199.5:Конечная глубина
STEP.M                                          0:Шаг квантования по глубине
NULL.                                    -9999.25:Признак "Нет данных"
WELL.                                       122Мх:Скважина
~Parameter Information Section
~Curve Information Section
DEPTH.M                                          :Глубина
БК.Омм                                           :BK     (БК)
DСР.мм                                           :DS  (ДС)
ГК.гамма                                         :GK          (ГК)
А0.4М0.1N.Омм.ohmm                               :GZ1   ГЗ1(A0.4M0.1N)
А1.0М0.1N.Омм.ohmm                               :GZ2   ГЗ2(A1.0M0.1N)
А2.0М0.5N.Омм.ohmm                               :GZ3   ГЗ3(A2.0M0.5N)
А4.0М0.5N.Oмм.ohmm                               :GZ4   ГЗ4(A4.0M0.5N)
А8.0М1.0N.Омм.ohmm                               :GZ5   ГЗ5(A8.0M0.5N)
N0.5M2.0A.Омм.ohmm                               :GZK   ГЗK(N0.5M2.0A)
ИК.мСм/м                                         :IK
НГК.усл.ед                                       :NGK     (НГК)
ПС.mv                                            :PS       (ПС)
КС.Омм                                           :PZ    (КС)
R.Омм                                            :RS (Резистивиметр)
ПЛОТНОСТЬ.г/см3                                  :ГГКп
П.                                               :п
ННКМ.усл.ед                                      :ННКм
~ASCII LOG DATA
# ...
4.7         -9999.25    165.412     4.405       -9999.25    -9999.25    -9999.25    -9999.25    -9999.25    -9999.25    -9999.25    1.206       -9999.25    -9999.25    1.225       2.371       34.862      140.87      
4.8         -9999.25    165.918     4.407       -9999.25    -9999.25    -9999.25    -9999.25    -9999.25    -9999.25    -9999.25    1.178       -9999.25    -9999.25    1.224       2.372       34.824      139.983     
4.9         -9999.25    165.655     4.681       -9999.25    -9999.25    -9999.25    -9999.25    -9999.25    -9999.25    -9999.25    1.182       -9999.25    -9999.25    1.219       2.343       35.085      139.89      
5.0         -9999.25    171.053     5.069       -9999.25    -9999.25    -9999.25    -9999.25    -9999.25    -9999.25    -9999.25    1.193       -9999.25    -9999.25    1.22        2.295       35.347      139.051     
5.1         -9999.25    167.494     5.461       -9999.25    -9999.25    -9999.25    -9999.25    -9999.25    -9999.25    -9999.25    1.164       -9999.25    -9999.25    1.219       2.246       35.822      138.885     
5.2         -9999.25    166.157     5.639       -9999.25    -9999.25    -9999.25    -9999.25    -9999.25    -9999.25    -9999.25    1.105       -9999.25    -9999.25    1.215       2.208       36.259      137.392     
5.3         -9999.25    166.218     5.682       -9999.25    -9999.25    -9999.25    -9999.25    -9999.25    -9999.25    -9999.25    1.066       -9999.25    -9999.25    1.214       2.188       36.776      136.924     
5.4         -9999.25    166.665     5.549       -9999.25    -9999.25    -9999.25    -9999.25    -9999.25    -9999.25    -9999.25    1.067       -9999.25    -9999.25    1.213       2.182       37.698      132.132     
5.5         -9999.25    165.312     5.427       -9999.25    -9999.25    -9999.25    -9999.25    -9999.25    -9999.25    -9999.25    1.08        -9999.25    -9999.25    1.212       2.19        38.81       126.614     
5.6         -9999.25    166.501     5.431       -9999.25    -9999.25    -9999.25    -9999.25    -9999.25    -9999.25    -9999.25    1.077       -9999.25    -9999.25    1.212       2.207       40.113      123.494     
5.7         -9999.25    168.748     5.385       -9999.25    -9999.25    -9999.25    -9999.25    -9999.25    -9999.25    -9999.25    1.073       -9999.25    -9999.25    1.214       2.233       41.662      121.713     
5.8         -9999.25    166.821     5.02        -9999.25    -9999.25    -9999.25    -9999.25    -9999.25    -9999.25    -9999.25    1.091       10.188      -9999.25    1.216       2.26        42.499      121.712     
5.9         -9999.25    166.574     4.64        -9999.25    -9999.25    -9999.25    -9999.25    -9999.25    -9999.25    -9999.25    1.118       9.625       -9999.25    1.216       2.289       43.557      121.737     
6.0         -9999.25    166.926     4.452       -9999.25    -9999.25    -9999.25    -9999.25    -9999.25    -9999.25    -9999.25    1.129       10.083      -9999.25    1.216       2.311       43.82       122.232     
6.1         -9999.25    167.785     4.589       -9999.25    -9999.25    -9999.25    -9999.25    -9999.25    -9999.25    -9999.25    1.115       10.792      -9999.25    1.217       2.328       43.175      124.556     
6.2         -9999.25    164.907     4.777       -9999.25    -9999.25    -9999.25    -9999.25    -9999.25    -9999.25    -9999.25    1.082       11.396      -9999.25    1.214       2.333       42.579      127.639     
6.3         -9999.25    160.409     4.996       -9999.25    -9999.25    -9999.25    4.214       -9999.25    35.709      -9999.25    1.041       11.979      -9999.25    1.213       2.327       41.535      132.204     
6.4         -9999.25    157.201     5.316       -9999.25    -9999.25    -9999.25    3.819       -9999.25    34.971      -9999.25    1.01        12.292      -9999.25    1.213       2.308       40.039      134.381     
6.5         -9999.25    153.567     5.786       -9999.25    -9999.25    -9999.25    3.415       -9999.25    36.111      -9999.25    0.998       12.5        -9999.25    1.212       2.283       38.676      134.56      
6.6         -9999.25    155.148     5.961       -9999.25    -9999.25    -9999.25    3.364       -9999.25    43.213      -9999.25    1.019       11.75       -9999.25    1.212       2.261       37.453      133.891     
6.7         -9999.25    158.636     5.54        -9999.25    -9999.25    -9999.25    3.668       -9999.25    51.507      -9999.25    1.068       10.375      -9999.25    1.212       2.245       37.061      132.091     
6.8         -9999.25    161.672     4.834       -9999.25    -9999.25    -9999.25    4.237       -9999.25    52.865      -9999.25    1.12        9.667       -9999.25    1.214       2.237       37.972      129.53      
6.9         -9999.25    165.94      4.161       -9999.25    -9999.25    -9999.25    5.155       -9999.25    46.792      -9999.25    1.141       9.208       -9999.25    1.222       2.241       39.243      128.662     
7.0         -9999.25    165.468     3.894       -9999.25    -9999.25    -9999.25    6.155       -9999.25    39.524      -9999.25    1.128       8.958       -9999.25    1.226       2.257       40.353      129.164     
7.1         -9999.25    155.26      3.722       -9999.25    -9999.25    -9999.25    6.859       -9999.25    35.128      -9999.25    1.109       8.333       -9999.25    1.225       2.277       41.509      130.455     
7.2         -9999.25    153.387     3.758       -9999.25    -9999.25    -9999.25    7.054       -9999.25    30.927      -9999.25    1.101       8.479       -9999.25    1.224       2.292       42.468      130.95      
7.3         -9999.25    153.268     3.959       -9999.25    -9999.25    -9999.25    6.813       -9999.25    26.502      -9999.25    1.096       9.521       -9999.25    1.221       2.299       42.618      131.534     
7.4         -9999.25    150.406     4.232       -9999.25    -9999.25    -9999.25    6.359       -9999.25    23.694      -9999.25    1.086       8.042       -9999.25    1.214       2.3         41.968      134.271     
7.5         -9999.25    149.142     4.374       -9999.25    -9999.25    -9999.25    5.791       -9999.25    22.734      -9999.25    1.082       4.958       -9999.25    1.212       2.295       40.458      136.411     
7.6         -9999.25    149.071     4.282       -9999.25    -9999.25    -9999.25    5.193       -9999.25    22.454      -9999.25    1.091       3.458       -9999.25    1.212       2.287       38.278      137.341     
7.7         -9999.25    149.427     4.12        -9999.25    -9999.25    -9999.25    4.863       -9999.25    23.123      -9999.25    1.119       1.917       -9999.25    1.217       2.278       36.18       136.455     
7.8         -9999.25    149.611     4.127       -9999.25    -9999.25    -9999.25    5.103       -9999.25    25.124      -9999.25    1.175       0.521       -9999.25    1.221       2.272       34.324      135.239     
7.9         -9999.25    150.355     4.268       -9999.25    -9999.25    -9999.25    5.702       -9999.25    27.497      -9999.25    1.244       0.729       -9999.25    1.225       2.268       32.628      135.767     
8.0         -9999.25    151.57      4.408       -9999.25    -9999.25    -9999.25    6.156       -9999.25    29.093      -9999.25    1.293       1.542       -9999.25    1.231       2.264       31.39       137.74      
8.1         -9999.25    157.847     4.485       -9999.25    -9999.25    -9999.25    6.385       -9999.25    29.453      -9999.25    1.305       2.083       -9999.25    1.232       2.255       30.94       140.502     
8.2         -9999.25    163.094     4.569       -9999.25    -9999.25    -9999.25    6.511       -9999.25    28.86       -9999.25    1.286       1.958       -9999.25    1.234       2.239       30.968      142.863     
8.3         -9999.25    164.82      4.652       -9999.25    -9999.25    -9999.25    6.672       -9999.25    28.052      -9999.25    1.259       0.792       -9999.25    1.23        2.223       31.494      144.207     
