~Version Information Section
VERS.                                         2.0:CWLS log ASCII Standart – VERSION 2.0
WRAP.                                          NO:One line per depth step
~Well Information Section
STRT.M                                        0.8:Начальная глубина
STOP.M                                      209.6:Конечная глубина
STEP.M                                          0:Шаг квантования по глубине
NULL.                                    -9999.25:Признак "Нет данных"
WELL.                                         5Мх:Скважина
~Parameter Information Section
~Curve Information Section
DEPTH.M                                          :Глубина
BK.Ohm*M                                         :BK     (БК)
DS.mm                                            :DS  (ДС)
ГК.mcr/h                                         :GK          (ГК)
GZ1.Ohm*M                                        :GZ1   ГЗ1(A0.4M0.1N)
GZ2.Ohm*M                                        :GZ2   ГЗ2(A1.0M0.1N)
GZ3.Ohm*M                                        :GZ3   ГЗ3(A2.0M0.5N)
GZ4.Ohm*M                                        :GZ4   ГЗ4(A4.0M0.5N)
GZ5.Ohm*M                                        :GZ5   ГЗ5(A8.0M0.5N)
GZR.Ohm*M                                        :GZK   ГЗK(N0.5M2.0A)
ИК.Ohm*M                                         :IK
НГК.                                             :NNKb  (ННКб)
NNKM.                                            :NNKm  (ННКм)
PS.mv                                            :PS       (ПС)
PZ.Ohm*M                                         :PZ    (КС)
RS.Ohm*M                                         :RS (Резистивиметр)
W.%                                              :W
ГГК.g/cm3                                        :ГГК
SGDT1.1/min                                      :ПЛ1
SGDT2.1/min                                      :ПЛ2
SGDT3.1/min                                      :ПЛ3
SGDT4.1/min                                      :ПЛ4
~ASCII LOG DATA
# ...
174.4       14.521      167.142     7.274       5.246       10.5        7.234       5.924       23.722      16.306      14.761      2.89        2.001       939.416     14.903      0.822       34.624      2.289       12760.04    18720.0     12620.0     3360.0      
174.6       13.49       165.954     7.217       5.283       10.239      6.514       5.764       23.002      16.306      15.084      2.886       1.955       945.543     15.497      0.822       33.772      2.319       12039.927   19660.0     13120.0     3440.0      
174.8       13.9        165.072     7.525       5.239       9.829       5.974       5.444       22.462      16.306      15.655      2.978       1.941       950.685     17.303      0.822       32.949      2.331       11120.0     19640.0     13160.0     3440.0      
175.0       13.996      163.898     7.518       5.015       9.083       4.894       2.244       16.702      16.786      16.475      2.799       1.967       948.495     20.502      0.822       34.693      2.334       12319.954   19800.0     13240.0     3760.0      
175.2       13.836      162.25      7.229       4.899       8.169       3.814       1.604       15.442      24.946      17.074      2.952       1.958       934.886     37.791      0.822       33.113      2.297       12160.019   19980.0     13700.0     4100.0      
175.4       11.376      159.0       5.864       4.762       6.21        3.454       0.564       14.362      30.706      18.062      3.065       2.014       922.436     81.72       0.822       32.56       2.182       13280.067   21140.0     14320.0     3700.0      
175.6       56.885      153.099     4.569       2.553       0.147       0.754       0.644       13.102      32.626      20.259      3.16        2.057       907.252     119.112     0.822       32.405      2.095       18880.184   22780.0     14860.0     3780.0      
175.8       97.275      151.622     3.843       0.378       0.168       0.214       6.804       11.842      34.546      23.42       3.522       2.306       889.815     131.127     0.822       31.642      2.078       20800.0     23180.0     15639.999   4000.0      
176.0       74.302      154.017     3.528       3.993       0.147       0.034       8.564       11.662      33.106      25.894      3.581       2.261       879.192     111.048     0.822       30.474      2.09        19879.92    23440.0     16100.001   4200.0      
176.2       73.114      152.0       3.541       9.108       0.168       1.654       9.284       31.282      33.586      27.406      3.769       2.252       868.437     86.073      0.822       29.096      2.106       20960.055   24500.0     15759.999   4360.0      
176.4       59.566      148.751     3.642       9.828       0.166       19.114      10.004      30.202      32.146      28.821      3.577       2.265       861.348     64.754      0.822       30.526      2.142       19759.996   24580.0     15459.999   4060.0      
176.6       47.973      150.767     3.466       9.809       0.709       18.214      9.604       28.582      38.386      29.107      3.426       2.274       855.549     47.291      0.822       32.238      2.161       19079.977   25360.0     16200.0     4140.0      
176.8       45.29       145.956     3.693       8.021       5.893       17.854      9.044       28.042      41.746      27.82       3.616       2.27        841.997     37.432      0.822       30.924      2.147       18480.0     25880.0     16680.0     4280.0      
177.0       52.24       145.358     3.559       7.516       8.206       16.414      9.364       30.742      43.186      26.988      3.659       2.293       835.213     37.155      0.822       30.136      2.121       19919.902   25300.0     17380.0     4480.0      
177.2       64.269      146.462     3.892       7.92        9.94        15.514      9.604       31.822      46.546      26.988      3.769       2.313       839.434     40.131      0.822       29.524      2.12        20960.025   24780.0     17700.0     4820.0      
177.4       60.534      146.135     3.678       9.175       11.861      15.154      9.764       33.082      48.466      27.05       3.831       2.33        858.739     42.261      0.822       28.937      2.139       21040.006   25180.0     17600.0     4660.0      
177.6       60.814      146.443     4.044       10.554      14.136      15.334      10.564      33.982      51.826      26.72       3.895       2.327       875.74      44.077      0.822       28.314      2.139       19359.945   25480.0     16980.0     4640.0      
177.8       62.517      145.047     3.957       11.385      15.088      16.774      11.284      34.702      62.386      26.561      3.871       2.312       878.178     47.516      0.822       28.423      2.119       20400.0     25660.0     17320.0     4620.0      
178.0       60.256      146.179     3.794       12.076      15.611      19.654      11.764      35.242      64.306      26.966      3.738       2.312       876.337     51.049      0.822       29.49       2.101       20760.055   26080.0     17020.0     4360.0      
178.2       62.806      145.742     3.672       12.081      15.741      22.714      12.324      35.962      65.746      27.343      3.786       2.333       873.4       53.296      0.822       30.25       2.081       20319.99    25600.0     16940.0     4080.0      
178.4       60.534      146.17      3.365       12.396      16.076      23.614      12.484      36.502      67.186      27.905      3.584       2.316       872.932     55.916      0.822       30.722      2.078       21120.074   24560.0     17060.0     4120.0      
178.6       60.954      146.448     3.265       12.57       16.321      26.134      12.884      39.022      66.706      28.426      3.869       2.361       873.916     56.873      0.822       29.946      2.127       20999.945   23700.0     16480.0     4060.0      
178.8       57.943      146.468     3.159       13.661      16.597      26.854      13.124      39.562      65.746      28.867      3.797       2.369       877.623     58.177      0.822       29.44       2.199       18760.0     23020.0     15780.0     4020.0      
179.0       60.256      145.751     3.207       13.373      15.761      27.754      13.204      40.282      65.746      29.472      4.155       2.387       881.928     62.846      0.822       27.086      2.208       16960.043   23060.0     17000.0     3860.0      
179.2       75.336      145.212     3.23        13.045      15.499      27.754      13.044      41.002      65.746      29.898      4.09        2.465       886.305     66.415      0.822       28.433      2.175       17719.92    24540.0     17820.0     4100.0      
179.4       59.704      146.885     3.552       15.384      17.494      27.934      12.884      41.182      62.386      30.103      3.952       2.401       888.78      71.66       0.822       28.911      2.174       19039.963   24820.0     16500.0     4340.0      
179.6       72.444      145.621     3.784       14.317      16.822      30.454      12.644      41.002      53.266      30.415      3.991       2.378       890.266     76.046      0.822       28.88       2.193       17879.973   23800.0     16200.0     4400.0      
179.8       62.373      146.766     3.699       13.448      16.524      32.074      12.244      40.642      51.346      30.787      3.83        2.434       891.06      81.046      0.822       30.344      2.177       17200.0     23360.0     17120.0     4380.0      
180.0       61.518      143.997     3.609       14.574      17.195      29.734      11.924      40.642      89.266      31.032      3.795       2.428       888.428     89.288      0.822       31.283      2.155       18639.979   24160.0     16600.0     4100.0      
180.2       56.885      144.132     3.769       13.702      16.487      28.294      11.764      42.082      95.026      31.141      3.748       2.42        885.518     99.575      0.822       31.596      2.158       19519.994   24300.0     16980.0     3880.0      
180.4       58.749      145.914     3.7         13.291      15.349      27.574      15.697      40.462      100.786     31.929      3.739       2.359       886.453     120.439     0.822       30.967      2.159       18559.982   24380.0     16980.0     4100.0      
