~Version Information Section
VERS.                                         2.0:CWLS log ASCII Standart – VERSION 2.0
WRAP.                                          NO:One line per depth step
~Well Information Section
STRT.M                                        1.2:Начальная глубина
STOP.M                                      169.4:Конечная глубина
STEP.M                                          0:Шаг квантования по глубине
NULL.                                    -9999.25:Признак "Нет данных"
WELL.                                       114Мх:Скважина
~Parameter Information Section
~Curve Information Section
DEPTH.M                                          :Глубина
BK.Ohm*M                                         :BK     (БК)
DS.mm                                            :DS  (ДС)
GGK.g/cm3                                        :GGKp
ГК.mcr/h                                         :GK          (ГК)
GZ1.Ohm*M                                        :GZ1   ГЗ1(A0.4M0.1N)
GZ2.Ohm*M                                        :GZ2   ГЗ2(A1.0M0.1N)
GZ3.Ohm*M                                        :GZ3   ГЗ3(A2.0M0.5N)
GZ4.Ohm*M                                        :GZ4   ГЗ4(A4.0M0.5N)
GZ5.Ohm*M                                        :GZ5   ГЗ5(A8.0M0.5N)
GZR.Ohm*M                                        :GZK   ГЗK(N0.5M2.0A)
ИК.Ohm*M                                         :IK
НГК.ue                                           :NGK     (НГК)
NNKM.                                            :NNKm  (ННКм)
PS.mv                                            :PS       (ПС)
PZ.Ohm*M                                         :PZ    (КС)
U1.mV                                            :U1
U2.mV                                            :U2
U3.mV                                            :U3
КП.%                                             :Кп
~ASCII LOG DATA
# ...
62.4        16.368      133.659     2.402       4.781       1.423       6.672       5.177       6.325       5.271       5.219       16.07       1.116       1.47        1020.741    -3.329      277.461     314.812     549.566     26.448      
62.5        15.101      134.517     2.394       4.947       1.399       6.672       5.177       6.325       5.271       5.219       15.931      1.064       1.417       1022.167    -3.329      263.347     325.293     516.356     24.747      
62.6        14.655      133.361     2.347       5.477       1.341       6.6         5.177       6.325       5.271       5.219       15.842      0.983       1.301       1023.349    -3.329      191.977     311.975     391.648     24.188      
62.7        15.101      133.783     2.29        6.263       1.303       6.6         5.177       6.325       5.271       5.119       15.795      0.957       1.185       1024.228    -3.329      198.356     281.647     318.84      26.227      
62.8        15.241      134.28      2.238       6.961       1.312       6.576       5.177       6.325       5.271       5.119       15.768      0.956       1.155       1024.629    -3.329      302.538     235.15      311.395     28.824      
62.9        15.031      134.377     2.191       7.601       1.278       6.552       5.177       6.325       5.271       5.019       15.768      0.95        1.124       1024.895    -3.329      418.248     225.601     300.096     33.438      
63.0        15.101      136.8       2.154       7.913       1.269       6.479       5.177       6.325       5.271       4.919       15.741      0.942       1.088       1024.114    -3.158      444.889     261.112     275.929     35.38       
63.1        15.959      136.608     2.116       7.86        1.264       6.503       5.177       6.325       5.271       4.919       15.751      0.989       1.054       1023.07     -2.987      390.501     290.564     227.79      36.974      
63.2        16.596      138.205     2.085       7.458       1.274       6.527       5.177       6.325       5.271       4.919       15.795      1.023       1.066       1021.908    -2.645      346.188     265.433     164.613     36.816      
63.3        17.179      137.975     2.101       7.109       1.259       6.503       5.177       6.325       5.271       4.919       15.849      1.029       1.075       1020.432    -1.962      314.081     218.426     126.877     38.221      
63.4        18.493      137.496     2.147       6.861       1.322       6.431       5.177       6.325       5.171       4.919       15.959      0.976       1.064       1018.702    -1.278      268.765     209.298     134.239     40.005      
63.5        21.135      137.767     2.197       6.68        1.506       6.165       5.177       6.325       5.171       4.919       16.014      0.928       1.058       1016.769    -0.594      205.428     238.509     215.591     41.642      
63.6        21.528      137.827     2.218       6.562       1.709       6.286       5.177       6.325       5.171       4.919       16.07       0.936       1.07        1014.319    0.26        155.576     264.667     339.009     41.665      
63.7        20.184      136.589     2.219       6.465       1.38        6.358       5.177       6.425       5.171       4.919       16.165      0.971       1.078       1012.127    1.286       127.999     279.14      495.933     41.161      
63.8        20.184      135.749     2.227       6.135       1.279       6.189       5.177       6.525       5.171       4.919       16.193      1.024       1.067       1010.337    2.482       128.723     276.21      570.189     40.496      
63.9        20.184      135.991     2.276       5.505       1.438       6.141       5.177       6.525       5.171       4.919       16.25       1.027       1.075       1009.577    3.678       142.661     253.693     528.079     39.899      
64.0        21.038      136.252     2.35        4.92        1.651       6.238       5.177       6.625       5.171       4.919       16.296      0.998       1.118       1008.497    5.046       196.581     225.531     410.146     39.531      
64.1        18.281      135.91      2.423       4.601       1.849       6.358       5.177       6.625       4.971       4.919       16.279      0.994       1.187       1007.706    6.242       296.372     211.467     319.45      38.876      
64.2        16.634      135.245     2.438       4.55        1.781       6.431       5.177       6.625       4.971       4.919       16.211      0.991       1.293       1006.612    7.438       409.85      222.825     276.423     37.712      
64.3        15.382      135.396     2.399       4.692       1.743       6.407       5.177       6.725       4.971       4.919       16.204      0.976       1.33        1005.874    8.464       492.638     248.198     238.099     36.238      
64.4        14.488      135.641     2.333       5.019       1.762       6.431       5.177       6.725       5.071       4.919       16.211      0.945       1.276       1005.24     9.147       532.81      289.572     221.698     33.168      
64.5        14.125      135.815     2.295       5.483       1.975       6.479       5.177       6.725       5.071       4.919       16.108      0.955       1.222       1004.812    9.831       519.501     342.914     246.475     29.531      
64.6        14.488      136.024     2.294       5.873       1.854       6.673       5.177       6.725       5.171       4.919       15.996      0.985       1.177       1004.364    10.515      445.63      405.686     314.86      27.638      
64.7        14.289      136.699     2.302       6.023       1.67        6.842       5.077       6.725       5.171       4.919       15.849      0.995       1.144       1004.351    11.027      345.112     428.548     355.816     28.601      
64.8        14.191      137.659     2.293       6.036       1.457       6.793       5.077       6.725       5.171       4.919       15.751      0.972       1.12        1004.771    11.369      276.665     388.422     337.459     31.385      
64.9        18.155      137.227     2.292       6.034       1.308       6.721       5.177       6.725       5.171       4.919       15.688      0.948       1.119       1005.313    11.54       289.544     326.057     312.84      33.36       
65.0        23.933      138.484     2.284       6.022       1.24        6.624       5.277       6.725       5.171       4.919       15.671      0.949       1.131       1005.641    11.711      366.776     305.375     349.808     35.147      
65.1        19.498      137.747     2.273       6.046       1.177       6.576       5.277       6.725       5.171       4.919       15.678      0.953       1.13        1006.463    11.711      458.841     338.371     415.169     36.649      
65.2        14.588      137.297     2.258       6.179       1.109       6.503       5.277       6.725       5.171       4.919       15.688      0.94        1.124       1007.785    11.711      516.258     379.556     426.06      36.389      
65.3        21.429      137.794     2.227       6.494       1.027       6.407       5.277       6.725       5.071       4.919       15.741      0.92        1.113       1009.946    11.711      522.086     400.313     373.383     35.126      
65.4        76.913      137.681     2.191       6.76        0.964       6.286       5.277       6.825       5.071       4.919       15.768      0.919       1.102       1012.252    11.711      514.827     404.396     320.997     35.002      
65.5        106.414     137.723     2.162       6.843       1.003       6.189       5.377       6.825       5.071       5.019       15.761      0.949       1.062       1014.602    11.711      518.966     396.548     298.721     36.283      
65.6        58.076      138.315     2.158       6.837       1.042       6.237       5.377       6.825       5.071       5.019       15.778      0.998       1.024       1016.754    11.711      540.292     384.243     284.92      38.761      
65.7        39.174      139.653     2.174       6.895       1.08        6.286       5.377       6.825       5.071       5.119       15.904      1.079       1.027       1018.504    11.711      576.56      372.136     265.891     39.699      
