~Version Information Section
VERS.                                         2.0:CWLS log ASCII Standart – VERSION 2.0
WRAP.                                          NO:One line per depth step
~Well Information Section
STRT.M                                        0.2:Начальная глубина
STOP.M                                      176.0:Конечная глубина
STEP.M                                          0:Шаг квантования по глубине
NULL.                                    -9999.25:Признак "Нет данных"
WELL.                                       112Мх:Скважина
~Parameter Information Section
~Curve Information Section
DEPTH.M                                          :Глубина
BK.Ohm*M                                         :BK     (БК)
DS.mm                                            :DS  (ДС)
GGK.g/cm3                                        :GGKp
ГК.mcr/h                                         :GK          (ГК)
GZ1.Ohm*M                                        :GZ1   ГЗ1(A0.4M0.1N)
GZ2.Ohm*M                                        :GZ2   ГЗ2(A1.0M0.1N)
GZ3.Ohm*M                                        :GZ3   ГЗ3(A2.0M0.5N)
GZ4.Ohm*M                                        :GZ4   ГЗ4(A4.0M0.5N)
GZ5.Ohm*M                                        :GZ5   ГЗ5(A8.0M0.5N)
GZR.Ohm*M                                        :GZK   ГЗK(N0.5M2.0A)
ИК.Ohm*M                                         :IK
НГК.ue                                           :NGK     (НГК)
NNKM.                                            :NNKm  (ННКм)
PS.mv                                            :PS       (ПС)
PZ.Ohm*M                                         :PZ    (КС)
U1.mV                                            :U1
U2.mV                                            :U2
U3.mV                                            :U3
КП.%                                             :Кп
~ASCII LOG DATA
# ...
78.4        32.709      137.088     2.376       4.633       34.172      25.584      6.016       2.0         5.77        41.295      26.031      1.296       2.263       350.14      75.72       370.723     2613.36     358.875     36.029      
78.5        32.044      136.427     2.388       4.74        35.437      28.556      6.72        2.0         5.9         47.89       26.752      1.316       2.274       351.04      77.56       450.714     2698.24     447.429     30.581      
78.6        32.626      136.223     2.41        4.793       37.749      31.631      7.946       2.0         6.184       56.008      27.608      1.281       2.415       351.92      79.44       461.388     2701.181    444.45      28.487      
78.7        42.213      136.136     2.431       4.631       41.314      34.627      9.805       2.0         6.593       65.239      28.625      1.246       2.58        352.76      81.24       421.602     2652.238    388.534     27.712      
78.8        69.785      135.722     2.445       4.431       46.101      37.428      12.372      2.0         7.088       75.122      29.923      1.288       2.717       353.52      82.88       395.32      2617.264    346.958     28.724      
78.9        91.481      135.615     2.448       4.449       51.821      39.901      15.655      2.0         7.632       85.163      31.447      1.311       2.814       354.22      84.44       395.32      2617.264    346.958     29.39       
79.0        82.141      135.961     2.448       4.393       57.983      41.871      19.569      2.0         8.205       95.144      33.252      1.343       2.734       354.92      85.88       417.779     2632.709    357.132     29.041      
79.1        70.685      136.345     2.447       4.247       64.018      43.268      23.905      2.0         8.817       105.408     35.152      1.355       2.671       355.68      87.24       437.368     2624.789    331.212     28.581      
79.2        101.829     136.067     2.446       4.18        69.495      44.28       28.393      2.0         9.514       116.841     37.132      1.39        2.684       356.56      88.68       445.274     2607.818    302.739     27.284      
79.3        145.124     136.028     2.451       4.467       74.26       45.026      32.787      2.06        10.356      130.585     38.746      1.419       2.716       357.6       90.56       453.18      2597.151    283.086     26.339      
79.4        99.45       135.906     2.457       4.651       78.294      45.646      36.929      2.44        11.397      147.635     39.889      1.488       2.766       358.82      92.92       461.016     2597.151    283.086     25.872      
79.5        58.696      135.788     2.454       4.536       81.824      46.357      40.773      3.0         12.675      168.079     40.725      1.513       2.814       360.18      95.72       468.508     2617.787    307.221     25.935      
79.6        55.487      136.126     2.445       4.128       85.303      47.436      44.434      3.06        14.211      190.255     41.455      1.589       2.84        361.58      100.04      476.188     2640.634    335.547     24.788      
79.7        65.25       136.166     2.437       3.834       89.342      49.155      48.08       3.44        16.001      210.614     42.202      1.575       2.859       362.92      105.72      484.963     2676.212    388.014     23.237      
79.8        66.858      135.797     2.428       3.447       94.694      51.966      51.831      4.06        18.032      225.009     42.815      1.623       2.904       364.14      112.08      493.738     2711.791    440.48      21.958      
79.9        76.613      135.793     2.418       3.324       102.294     56.352      55.727      4.44        20.286      231.375     43.92       1.648       3.082       365.28      119.92      509.822     2705.781    389.827     22.68       
80.0        165.975     135.745     2.413       3.22        112.954     62.687      59.749      5.0         22.739      232.069     46.232      1.696       3.219       366.38      131.64      580.36      2673.162    310.86      24.188      
80.1        341.292     135.718     2.408       3.193       127.056     71.13       63.82       5.06        25.363      231.64      48.982      1.71        3.163       367.46      145.96      577.54      2647.886    302.17      25.253      
80.2        432.429     135.283     2.408       3.1         144.215     81.77       67.881      5.44        28.122      228.144     51.363      1.761       3.075       368.58      163.32      517.098     2622.611    293.479     25.487      
80.3        378.931     134.626     2.412       3.047       163.501     94.735      71.956      6.12        30.964      218.346     53.228      1.814       2.993       369.76      184.28      467.787     2599.975    284.364     24.819      
80.4        286.519     135.377     2.433       3.247       183.88      110.248     76.119      6.88        33.812      204.768     54.613      1.857       2.979       370.86      207.24      467.787     2599.975    269.531     24.576      
80.5        292.692     135.431     2.462       3.131       204.325     128.769     80.484      8.18        36.55       190.862     55.737      1.922       3.031       371.8       227.56      568.586     2612.944    260.273     22.84       
80.6        405.593     135.958     2.489       2.964       223.849     151.072     85.221      9.518       38.969      178.498     56.255      1.908       3.111       372.6       244.64      603.267     2628.182    260.273     21.015      
80.7        586.759     136.292     2.503       2.8         241.998     178.442     90.548      13.198      40.719      167.937     56.721      1.919       3.178       373.26      257.76      547.095     2687.197    358.498     19.593      
80.8        656.749     135.401     2.495       2.829       258.85      212.823     96.727      20.667      41.548      158.611     57.234      1.856       3.281       373.84      266.52      547.095     2744.548    449.739     19.964      
80.9        550.504     134.92      2.476       3.022       274.36      256.215     104.12      34.297      41.709      149.89      57.501      1.852       3.387       374.44      271.4       559.885     2747.308    445.778     20.959      
81.0        492.039     135.067     2.454       3.053       288.627     310.153     113.232     50.189      41.588      141.38      57.396      1.845       3.391       375.1       274.72      572.676     2750.069    441.817     21.621      
81.1        632.269     134.662     2.442       3.187       302.364     375.065     124.581     68.093      40.82       132.875     56.503      1.924       3.371       375.82      276.88      540.991     2724.606    425.205     22.134      
81.2        920.638     135.055     2.444       2.893       316.174     448.495     138.495     87.674      38.747      124.373     55.546      2.019       3.348       376.62      277.68      495.436     2695.698    408.19      21.475      
81.3        1067.922    135.436     2.467       2.731       329.986     524.194     155.042     108.173     35.237      116.037     55.256      2.168       3.329       377.48      277.68      472.455     2695.698    408.19      20.428      
81.4        1056.756    135.474     2.499       2.464       343.609     594.053     173.966     128.015     30.598      108.113     54.65       2.209       3.321       378.3       277.68      450.498     2730.025    497.305     19.388      
81.5        1006.987    135.999     2.525       2.669       356.262     648.704     194.522     145.029     25.336      100.811     53.837      2.198       3.324       378.98      277.0       387.924     2724.187    586.37      19.067      
81.6        1023.177    136.041     2.538       2.798       365.732     680.52      215.55      156.919     20.009      94.243      52.31       2.119       3.341       379.52      274.76      322.613     2675.748    574.85      18.856      
81.7        1001.461    135.927     2.537       2.789       370.081     690.852     235.717     162.329     15.136      88.443      50.847      2.12        3.369       379.94      270.2       257.303     2627.309    563.331     18.582      
