~Version Information Section
VERS.                                         2.0:CWLS log ASCII Standart – VERSION 2.0
WRAP.                                          NO:One line per depth step
~Well Information Section
STRT.M                                        0.0:Начальная глубина
STOP.M                                      166.2:Конечная глубина
STEP.M                                          0:Шаг квантования по глубине
NULL.                                    -9999.25:Признак "Нет данных"
WELL.                                         1Мх:Скважина
~Parameter Information Section
~Curve Information Section
DEPTH.M                                          :Глубина
BK.lgОмм                                         :BK
ПРОФ_СР.мм                                       :ПРОФ_СР
GGKP.имп/мин                                     :GGKp
ГК.мкР/час                                       :GK
ИК.мСм/м                                         :IK
PS.мВ                                            :PS
PZ.Омм                                           :PZ
RIS.Омм                                          :RIS
U1.мВ                                            :U1
U2.мВ                                            :U2
U3.mv                                            :U3
WS.%                                             :WS
ГЗ1.Омм                                          :ГЗ1
ГЗ2.Омм                                          :ГЗ2
ГЗ3.Омм                                          :ГЗ3
ГЗ4.Oмм                                          :ГЗ4
ГЗК.Омм                                          :ГЗК
НГК.усл.ед                                       :ННКб
ННКМ.усл.ед                                      :ННКм
ГЗ5.Oмм                                          :ГЗ5
ПЛ1.имп/мин                                      :ПЛ1
ПЛ2.имп/мин                                      :ПЛ2
ПЛ3.имп/мин                                      :ПЛ3
ПЛ4.имп/мин                                      :ПЛ4
~ASCII LOG DATA
# ...
78.3        59.555      148.83      2.21        3.739       31.356      94.01       49.972      1.075       2646.952    2239.019    1943.97     30.631      9.294       9.545       6.577       8.525       8.119       3.306       2.26        6.571       15600.0     22420.0     15280.0     3560.0      
78.4        53.504      149.444     2.191       3.8         31.322      93.828      48.04       1.075       2893.831    2427.155    2082.365    31.092      8.533       9.472       6.577       8.525       8.219       3.343       2.222       6.671       18480.0     22620.0     15100.0     3600.0      
78.5        49.859      149.573     2.178       3.876       31.322      93.993      46.793      1.075       2951.754    2466.836    2106.472    31.69       7.904       9.328       6.777       8.525       8.419       3.371       2.206       6.871       19200.0     22660.0     15160.0     3520.0      
78.6        50.611      149.29      2.186       3.97        31.502      94.668      46.241      1.075       2875.053    2374.754    2003.06     31.923      7.614       9.087       6.977       8.525       8.519       3.396       2.18        6.971       15360.0     22660.0     15080.0     3560.0      
78.7        54.291      149.282     2.184       4.037       31.644      95.921      45.991      1.075       2704.479    2200.842    1828.479    32.241      7.704       9.256       7.177       8.525       8.519       3.388       2.154       7.071       14400.0     23280.0     14980.0     3720.0      
78.8        57.794      149.363     2.197       4.087       31.938      97.877      46.433      1.075       2405.851    1956.388    1628.4      32.016      7.669       9.037       7.477       8.725       8.519       3.288       2.137       7.171       15720.0     23580.0     14540.0     3680.0      
78.9        60.305      149.801     2.19        4.067       32.273      100.436     47.508      1.075       2028.103    1676.531    1426.911    31.971      7.854       8.918       7.877       8.725       8.619       3.209       2.133       7.271       15960.0     23480.0     14440.0     3760.0      
79.0        61.385      149.918     2.193       4.021       32.695      103.557     49.459      1.075       1783.851    1499.236    1303.05     32.199      8.47        9.158       7.877       8.925       8.819       3.244       2.155       7.371       15240.0     24040.0     14620.0     3940.0      
79.1        65.28       149.921     2.194       4.029       32.847      107.215     51.255      1.075       1702.15     1443.543    1267.865    31.538      9.77        9.763       8.277       9.025       8.919       3.374       2.197       7.571       17880.0     24300.0     14660.0     3860.0      
79.2        70.951      149.971     2.195       4.091       33.118      111.329     52.477      1.075       1759.467    1497.632    1317.803    31.364      10.798      10.658      8.577       9.125       9.119       3.489       2.244       7.671       17280.0     24280.0     14700.0     3820.0      
79.3        71.637      149.743     2.196       3.995       33.118      115.608     53.362      1.075       1963.42     1669.248    1460.388    31.585      9.606       10.487      8.777       9.325       9.419       3.491       2.278       7.771       16800.0     24200.0     15120.0     3840.0      
79.4        67.005      149.42      2.211       4.01        33.0        119.659     53.97       1.075       2302.655    1960.928    1708.813    31.659      9.321       10.414      9.277       9.425       9.619       3.439       2.27        7.971       16080.0     24400.0     15360.0     3840.0      
79.5        58.622      149.205     2.221       4.169       32.964      123.09      54.219      1.075       2735.732    2348.806    2053.338    32.415      8.417       10.004      9.477       9.525       9.619       3.313       2.231       8.171       14520.0     23720.0     15220.0     3560.0      
79.6        54.295      149.105     2.228       4.324       32.883      125.764     53.876      1.065       3139.891    2717.643    2386.973    33.097      8.24        9.908       9.577       9.625       9.719       3.168       2.185       8.271       16320.0     23780.0     15100.0     3520.0      
79.7        54.614      149.044     2.22        4.41        32.883      127.585     52.799      1.065       3410.026    2969.681    2619.608    33.37       8.395       9.932       9.777       9.625       9.819       3.104       2.16        8.471       17400.0     23600.0     15060.0     3360.0      
79.8        56.823      149.041     2.223       4.553       32.919      128.618     52.002      1.065       3510.688    3072.405    2721.631    33.428      8.243       9.982       9.877       9.625       9.919       3.113       2.152       8.471       18360.0     23160.0     15020.0     3420.0      
79.9        58.623      149.09      2.216       4.645       32.964      129.083     51.47       1.065       3431.39     2984.261    2631.534    32.944      8.19        9.981       9.777       9.725       10.019      3.164       2.142       8.571       16440.0     23120.0     14600.0     3340.0      
80.0        59.041      149.042     2.2         4.581       33.237      129.037     50.932      1.065       3195.526    2725.152    2365.422    32.659      8.313       10.126      9.877       9.825       10.019      3.189       2.14        8.571       15000.0     23200.0     14480.0     3480.0      
80.1        60.684      149.061     2.201       4.466       33.0        128.937     50.441      1.065       2897.447    2407.271    2043.74     32.387      8.663       10.585      9.977       9.925       10.019      3.228       2.147       8.571       16560.0     22620.0     14100.0     3520.0      
80.2        64.076      149.114     2.207       4.388       33.118      129.003     49.779      1.065       2630.79     2129.73     1766.576    32.343      9.355       11.166      9.877       9.925       10.019      3.273       2.16        8.571       16320.0     22300.0     14200.0     3620.0      
80.3        65.233      149.077     2.21        4.514       33.082      129.43      49.296      1.055       2407.718    1904.373    1545.626    32.632      9.666       11.599      9.877       10.125      10.019      3.312       2.176       8.471       14640.0     22140.0     14100.0     3580.0      
80.4        61.621      149.1       2.22        4.563       32.766      130.262     48.756      1.055       2208.404    1722.227    1379.956    32.729      8.736       10.972      9.777       10.225      10.019      3.33        2.193       8.471       15960.0     21880.0     13860.0     3760.0      
80.5        56.874      149.151     2.225       4.61        32.73       131.326     47.924      1.045       2033.137    1605.925    1306.74     32.492      8.627       10.972      9.677       10.325      10.019      3.347       2.206       8.371       15000.0     21740.0     14240.0     3700.0      
80.6        54.577      149.721     2.232       4.666       32.615      132.367     47.011      1.035       1883.579    1530.76     1286.629    32.043      8.492       10.85       9.677       10.425      10.119      3.311       2.21        8.371       14160.0     22360.0     14760.0     3680.0      
80.7        57.141      149.645     2.246       4.691       32.421      133.491     46.11       1.035       1761.902    1484.449    1298.932    31.502      8.629       10.899      9.577       10.425      10.119      3.244       2.207       8.371       14040.0     22380.0     14560.0     3600.0      
80.8        60.004      149.678     2.242       4.739       32.386      134.398     45.282      1.035       1642.958    1421.121    1282.148    31.519      9.115       11.165      9.577       10.525      10.219      3.215       2.206       8.471       13080.0     22220.0     14340.0     3680.0      
80.9        60.772      149.64      2.234       4.664       32.386      135.017     44.581      1.035       1544.339    1345.698    1229.926    31.316      8.98        11.166      9.577       10.525      10.319      3.272       2.211       8.471       14400.0     22420.0     14620.0     3600.0      
