~Version Information Section
VERS.                                         2.0:CWLS log ASCII Standart – VERSION 2.0
WRAP.                                          NO:One line per depth step
~Well Information Section
STRT.M                                        0.6:Начальная глубина
STOP.M                                      143.2:Конечная глубина
STEP.M                                          0:Шаг квантования по глубине
NULL.                                    -9999.25:Признак "Нет данных"
WELL.                                       116Мх:Скважина
~Parameter Information Section
~Curve Information Section
DEPTH.M                                          :Глубина
BK.lgОмм                                         :BK     (БК)
ПРОФ_СР.мм                                       :DS  (ДС)
ГК.мкР/час                                       :GK          (ГК)
ГЗ1.Омм                                          :GZ1   ГЗ1(A0.4M0.1N)
ГЗ2.Омм                                          :GZ2   ГЗ2(A1.0M0.1N)
ГЗ3.Омм                                          :GZ3   ГЗ3(A2.0M0.5N)
ГЗ4.Oмм                                          :GZ4   ГЗ4(A4.0M0.5N)
ГЗ5.Oмм                                          :GZ5   ГЗ5(A8.0M0.5N)
ГЗК.Омм                                          :GZK   ГЗK(N0.5M2.0A)
ИК.мСм/м                                         :IK
НГК.усл.ед.                                      :NGK     (НГК)
ПС.мВ                                            :PS       (ПС)
PZ.Омм                                           :PZ    (КС)
RIS.Омм                                          :RS (Резистивиметр)
U1.мВ                                            :U1
U2.mV                                            :U2
U3.мВ                                            :U3
W.г/см3                                          :ГГКп
П.%                                              :п
ННКМ.усл.ед                                      :ННКм
~ASCII LOG DATA
# ...
135.0       73.79       162.182     6.918       152.596     179.43      180.155     -9999.25    141.029     -9999.25    18.024      1.239       77.913      191.763     -9999.25    748.079     810.341     764.137     2.401       28.422      2.23        
135.1       98.855      153.786     6.61        150.546     178.58      179.051     -9999.25    138.891     -9999.25    18.457      1.238       79.281      191.304     -9999.25    638.948     778.316     778.05      2.406       29.072      2.262       
135.2       98.855      150.99      6.547       148.237     177.399     177.435     -9999.25    136.689     -9999.25    18.932      1.235       81.107      190.844     -9999.25    553.782     757.017     783.769     2.397       30.097      2.247       
135.3       146.893     150.619     6.517       145.77      175.412     175.163     -9999.25    134.561     -9999.25    19.492      1.224       83.16       190.4       -9999.25    534.104     749.027     788.05      2.37        31.122      2.217       
135.4       177.011     150.606     6.17        143.268     172.633     172.091     -9999.25    132.617     -9999.25    20.0        1.221       85.213      189.941     -9999.25    512.061     742.863     772.795     2.35        31.911      2.225       
135.5       200.909     150.542     5.692       140.852     169.047     168.315     -9999.25    130.928     -9999.25    20.512      1.226       87.039      189.422     -9999.25    512.061     742.498     770.068     2.317       32.004      2.252       
135.6       164.437     150.513     5.235       138.619     165.059     164.731     -9999.25    129.523     -9999.25    21.126      1.253       88.407      188.178     -9999.25    511.011     744.647     770.068     2.296       31.87       2.328       
135.7       144.544     150.527     4.888       136.589     160.955     161.371     -9999.25    128.393     -9999.25    21.647      1.297       89.092      185.541     -9999.25    511.011     746.629     784.948     2.28        31.189      2.395       
135.8       153.815     150.568     4.647       134.824     157.7       158.443     -9999.25    127.48      -9999.25    22.193      1.336       89.32       180.933     -9999.25    503.383     746.421     786.292     2.265       30.349      2.407       
135.9       184.077     150.679     4.437       133.0       155.31      156.299     -9999.25    126.73      -9999.25    22.654      1.333       89.32       175.704     -9999.25    499.581     745.938     786.292     2.249       29.183      2.413       
136.0       207.491     150.911     4.336       131.8       153.783     154.891     -9999.25    126.097     -9999.25    22.993      1.304       89.434      171.215     -9999.25    501.746     739.757     771.148     2.245       28.946      2.41        
136.1       211.349     151.118     4.231       131.8       152.905     153.787     -9999.25    125.544     -9999.25    23.375      1.294       89.89       168.756     -9999.25    496.699     717.917     737.117     2.255       28.881      2.445       
136.2       211.836     151.263     4.165       131.6       152.559     153.035     -9999.25    125.037     -9999.25    23.685      1.332       90.917      167.63      -9999.25    496.459     694.868     699.396     2.266       28.382      2.489       
136.3       216.77      151.423     4.188       -9999.25    152.257     152.571     -9999.25    124.554     -9999.25    23.834      1.354       92.4        167.2       -9999.25    496.459     691.219     683.27      2.279       28.009      2.506       
136.4       239.883     152.14      4.299       -9999.25    152.027     152.203     -9999.25    124.073     -9999.25    24.021      1.36        93.883      166.83      -9999.25    506.328     691.219     683.27      2.286       27.634      2.498       
136.5       239.883     152.109     4.323       -9999.25    151.739     151.947     -9999.25    123.578     -9999.25    24.021      1.352       95.024      166.563     -9999.25    506.328     697.023     695.302     2.293       27.081      2.435       
136.6       308.319     151.308     4.281       -9999.25    151.739     151.803     -9999.25    123.057     -9999.25    24.058      1.367       95.822      166.311     -9999.25    501.423     702.695     718.593     2.307       26.475      2.405       
136.7       219.281     151.076     4.258       -9999.25    151.739     151.723     -9999.25    122.506     -9999.25    23.922      1.404       96.621      166.0       -9999.25    502.015     702.695     719.006     2.332       25.366      2.427       
136.8       135.831     151.075     4.338       -9999.25    151.739     151.675     -9999.25    121.929     -9999.25    23.711      1.457       97.419      165.6       -9999.25    504.332     697.541     719.006     2.378       24.105      2.511       
136.9       135.831     151.112     4.415       -9999.25    -9999.25    151.643     -9999.25    121.335     -9999.25    23.41       1.491       97.761      165.2       -9999.25    516.555     688.45      691.094     2.396       24.148      2.604       
137.0       124.165     151.33      4.425       -9999.25    -9999.25    151.595     -9999.25    120.725     -9999.25    23.025      1.46        97.761      164.8       -9999.25    554.938     688.45      663.952     2.394       24.505      2.694       
137.1       113.501     151.462     4.546       -9999.25    -9999.25    151.515     -9999.25    120.124     -9999.25    22.629      1.398       96.963      164.8       -9999.25    580.415     692.166     660.536     2.375       25.536      2.756       
137.2       121.899     151.005     4.82        -9999.25    -9999.25    151.403     -9999.25    119.497     -9999.25    22.169      1.33        94.681      164.8       -9999.25    593.152     703.962     660.536     2.348       26.296      2.676       
137.3       75.858      150.973     5.31        -9999.25    -9999.25    151.243     -9999.25    118.952     -9999.25    21.675      1.292       91.601      164.8       -9999.25    603.544     729.899     687.328     2.36        26.614      2.587       
137.4       64.269      151.165     5.915       -9999.25    -9999.25    151.067     -9999.25    118.207     -9999.25    21.296      1.265       88.864      164.8       -9999.25    605.729     762.816     732.13      2.373       27.36       2.543       
137.5       78.524      151.447     6.293       -9999.25    -9999.25    150.875     -9999.25    118.0       -9999.25    20.884      1.226       87.609      164.8       -9999.25    600.943     775.976     773.026     2.389       28.451      2.465       
137.6       101.391     151.884     6.308       -9999.25    -9999.25    150.715     -9999.25    116.4       -9999.25    20.512      1.193       87.609      163.6       -9999.25    581.049     775.976     787.335     2.421       28.055      2.382       
137.7       94.189      151.908     6.058       -9999.25    -9999.25    150.459     -9999.25    113.2       -9999.25    20.219      1.175       88.065      163.6       -9999.25    518.443     752.082     787.335     2.41        27.276      2.362       
137.8       85.704      152.132     5.939       -9999.25    -9999.25    150.459     -9999.25    112.0       -9999.25    20.219      1.198       89.89       162.4       -9999.25    444.266     705.16      767.652     2.399       26.87       2.372       
137.9       96.161      151.686     6.03        -9999.25    -9999.25    150.459     -9999.25    -9999.25    -9999.25    19.554      1.256       92.4        162.4       -9999.25    397.276     661.029     724.364     2.408       26.794      2.383       
138.0       143.88      151.241     5.963       -9999.25    -9999.25    150.459     -9999.25    -9999.25    -9999.25    19.186      1.312       95.48       162.0       -9999.25    386.696     640.828     690.28      2.41        27.351      2.392       
138.1       180.717     150.824     5.753       -9999.25    -9999.25    -9999.25    -9999.25    -9999.25    -9999.25    18.699      1.34        95.48       162.0       -9999.25    381.384     630.527     672.796     2.432       27.108      2.394       
