~Version Information Section
VERS.                                         2.0:CWLS log ASCII Standart – VERSION 2.0
WRAP.                                          NO:One line per depth step
~Well Information Section
STRT.M                                        1.0:Начальная глубина
STOP.M                                      208.3:Конечная глубина
STEP.M                                          0:Шаг квантования по глубине
NULL.                                    -9999.25:Признак "Нет данных"
WELL.                                       131Мх:Скважина
~Parameter Information Section
~Curve Information Section
DEPTH.M                                          :Глубина
БК.Омм                                           :BK     (БК)
DСР.мм                                           :DS  (ДС)
ГК.гамма                                         :GK          (ГК)
А0.4М0.1N.Омм.ohmm                               :GZ1   ГЗ1(A0.4M0.1N)
А1.0М0.1N.Омм.ohmm                               :GZ2   ГЗ2(A1.0M0.1N)
А2.0М0.5N.Омм.ohmm                               :GZ3   ГЗ3(A2.0M0.5N)
А4.0М0.5N.Oмм.ohmm                               :GZ4   ГЗ4(A4.0M0.5N)
А8.0М1.0N.Омм.ohmm                               :GZ5   ГЗ5(A8.0M0.5N)
N0.5M2.0A.Омм.ohmm                               :GZK   ГЗK(N0.5M2.0A)
ИК.мСм/м                                         :IK
НГК.усл.ед                                       :NGK     (НГК)
ПС.mv                                            :PS       (ПС)
П.%                                              :п
PZ.Омм                                           :PZ    (КС)
R.Омм                                            :RS (Резистивиметр)
U1.мВ                                            :U1
U2.mV                                            :U2
U3.мВ                                            :U3
W.г/см3                                          :ГГКп
~ASCII LOG DATA
# ...
60.9        60.021      133.239     3.876       -9999.25    -9999.25    -9999.25    -9999.25    -9999.25    -9999.25    27.597      1.911       134.598     10.983      53.667      1.12        1339.871    1381.045    1441.246    2.371       
60.95       -9999.25    -9999.25    -9999.25    79.643      36.47       23.606      13.059      24.279      153.55      -9999.25    -9999.25    -9999.25    -9999.25    -9999.25    -9999.25    -9999.25    -9999.25    -9999.25    -9999.25    
61.0        54.153      132.804     3.98        -9999.25    -9999.25    -9999.25    -9999.25    -9999.25    -9999.25    29.684      2.016       124.408     10.533      64.592      1.12        1316.208    1362.003    1429.212    2.297       
61.05       -9999.25    -9999.25    -9999.25    88.94       44.256      27.02       13.597      24.932      149.352     -9999.25    -9999.25    -9999.25    -9999.25    -9999.25    -9999.25    -9999.25    -9999.25    -9999.25    -9999.25    
61.1        61.719      132.706     3.917       -9999.25    -9999.25    -9999.25    -9999.25    -9999.25    -9999.25    31.175      2.129       114.952     10.382      75.684      1.12        1301.106    1347.022    1414.169    2.242       
61.15       -9999.25    -9999.25    -9999.25    96.122      53.629      29.873      13.85       25.06       143.587     -9999.25    -9999.25    -9999.25    -9999.25    -9999.25    -9999.25    -9999.25    -9999.25    -9999.25    -9999.25    
61.2        80.857      132.565     3.963       -9999.25    -9999.25    -9999.25    -9999.25    -9999.25    -9999.25    32.497      2.176       106.877     9.904       86.45       1.12        1301.106    1345.649    1405.11     2.203       
61.25       -9999.25    -9999.25    -9999.25    99.903      63.517      31.549      13.94       25.06       136.738     -9999.25    -9999.25    -9999.25    -9999.25    -9999.25    -9999.25    -9999.25    -9999.25    -9999.25    -9999.25    
61.3        107.581     132.339     3.807       -9999.25    -9999.25    -9999.25    -9999.25    -9999.25    -9999.25    33.881      2.306       100.597     9.379       95.476      1.12        1307.037    1345.649    1398.104    2.199       
61.35       -9999.25    -9999.25    -9999.25    99.903      71.448      32.116      13.94       24.94       129.889     -9999.25    -9999.25    -9999.25    -9999.25    -9999.25    -9999.25    -9999.25    -9999.25    -9999.25    -9999.25    
61.4        129.854     132.297     3.706       -9999.25    -9999.25    -9999.25    -9999.25    -9999.25    -9999.25    35.451      2.478       96.161      8.564       101.167     1.12        1338.715    1358.342    1393.983    2.195       
61.45       -9999.25    -9999.25    -9999.25    99.903      76.42       32.116      13.94       24.572      124.635     -9999.25    -9999.25    -9999.25    -9999.25    -9999.25    -9999.25    -9999.25    -9999.25    -9999.25    -9999.25    
61.5        131.229     132.552     3.67        -9999.25    -9999.25    -9999.25    -9999.25    -9999.25    -9999.25    37.103      2.546       93.389      8.302       104.848     1.12        1363.835    1369.147    1388.312    2.171       
61.55       -9999.25    -9999.25    -9999.25    99.679      79.802      32.116      13.887      24.012      123.648     -9999.25    -9999.25    -9999.25    -9999.25    -9999.25    -9999.25    -9999.25    -9999.25    -9999.25    -9999.25    
61.6        121.736     132.799     3.738       -9999.25    -9999.25    -9999.25    -9999.25    -9999.25    -9999.25    38.719      2.554       92.013      8.704       107.473     1.12        1369.481    1369.194    1375.282    2.143       
61.65       -9999.25    -9999.25    -9999.25    95.968      81.743      31.792      13.696      23.569      123.648     -9999.25    -9999.25    -9999.25    -9999.25    -9999.25    -9999.25    -9999.25    -9999.25    -9999.25    -9999.25    
61.7        120.023     132.411     3.751       -9999.25    -9999.25    -9999.25    -9999.25    -9999.25    -9999.25    40.136      2.569       91.577      9.347       109.241     1.12        1384.847    1370.293    1360.586    2.142       
61.75       -9999.25    -9999.25    -9999.25    90.656      82.65       31.654      13.491      23.438      123.648     -9999.25    -9999.25    -9999.25    -9999.25    -9999.25    -9999.25    -9999.25    -9999.25    -9999.25    -9999.25    
61.8        119.911     132.23      3.807       -9999.25    -9999.25    -9999.25    -9999.25    -9999.25    -9999.25    41.316      2.48        91.518      10.7        111.142     1.12        1415.709    1378.02     1349.674    2.137       
61.85       -9999.25    -9999.25    -9999.25    86.18       83.557      31.654      13.491      23.438      123.648     -9999.25    -9999.25    -9999.25    -9999.25    -9999.25    -9999.25    -9999.25    -9999.25    -9999.25    -9999.25    
61.9        99.425      132.55      3.841       -9999.25    -9999.25    -9999.25    -9999.25    -9999.25    -9999.25    42.229      2.305       91.518      11.99       113.803     1.12        1454.805    1391.283    1348.858    2.148       
61.95       -9999.25    -9999.25    -9999.25    84.69       84.4        31.654      13.491      23.438      127.928     -9999.25    -9999.25    -9999.25    -9999.25    -9999.25    -9999.25    -9999.25    -9999.25    -9999.25    -9999.25    
62.0        68.603      131.993     3.821       -9999.25    -9999.25    -9999.25    -9999.25    -9999.25    -9999.25    42.715      2.191       91.63       12.561      117.185     1.12        1432.075    1386.507    1348.858    2.155       
62.05       -9999.25    -9999.25    -9999.25    84.69       85.395      31.654      13.491      23.486      135.774     -9999.25    -9999.25    -9999.25    -9999.25    -9999.25    -9999.25    -9999.25    -9999.25    -9999.25    -9999.25    
62.1        53.756      131.747     3.85        -9999.25    -9999.25    -9999.25    -9999.25    -9999.25    -9999.25    42.858      2.106       92.05       12.985      121.345     1.12        1384.378    1374.004    1362.168    2.156       
62.15       -9999.25    -9999.25    -9999.25    84.69       87.701      33.351      13.737      23.709      145.142     -9999.25    -9999.25    -9999.25    -9999.25    -9999.25    -9999.25    -9999.25    -9999.25    -9999.25    -9999.25    
62.2        52.975      131.832     3.822       -9999.25    -9999.25    -9999.25    -9999.25    -9999.25    -9999.25    42.832      1.977       92.858      13.054      126.494     1.12        1355.446    1368.119    1383.428    2.175       
62.25       -9999.25    -9999.25    -9999.25    84.69       91.625      37.788      14.508      24.131      154.55      -9999.25    -9999.25    -9999.25    -9999.25    -9999.25    -9999.25    -9999.25    -9999.25    -9999.25    -9999.25    
62.3        53.181      131.938     3.901       -9999.25    -9999.25    -9999.25    -9999.25    -9999.25    -9999.25    42.826      1.945       94.049      12.404      132.058     1.12        1341.787    1364.056    1400.446    2.182       
62.35       -9999.25    -9999.25    -9999.25    87.046      96.581      44.843      15.595      24.658      161.871     -9999.25    -9999.25    -9999.25    -9999.25    -9999.25    -9999.25    -9999.25    -9999.25    -9999.25    -9999.25    
62.4        53.913      131.988     4.094       -9999.25    -9999.25    -9999.25    -9999.25    -9999.25    -9999.25    43.022      1.979       95.563      11.453      137.77      1.12        1339.427    1362.363    1405.215    2.181       
62.45       -9999.25    -9999.25    -9999.25    92.795      102.651     54.285      16.969      25.235      166.009     -9999.25    -9999.25    -9999.25    -9999.25    -9999.25    -9999.25    -9999.25    -9999.25    -9999.25    -9999.25    
62.5        66.724      132.072     4.166       -9999.25    -9999.25    -9999.25    -9999.25    -9999.25    -9999.25    43.618      2.023       97.284      10.435      143.323     1.12        1339.427    1362.363    1400.973    2.193       
62.55       -9999.25    -9999.25    -9999.25    100.968     108.912     64.899      18.532      25.835      167.258     -9999.25    -9999.25    -9999.25    -9999.25    -9999.25    -9999.25    -9999.25    -9999.25    -9999.25    -9999.25    
