~Version Information Section
VERS.                                         2.0:CWLS log ASCII Standart – VERSION 2.0
WRAP.                                          NO:One line per depth step
~Well Information Section
STRT.M                                        0.4:Начальная глубина
STOP.M                                      170.2:Конечная глубина
STEP.M                                          0:Шаг квантования по глубине
NULL.                                    -9999.25:Признак "Нет данных"
WELL.                                       121Мх:Скважина
~Parameter Information Section
~Curve Information Section
DEPTH.M                                          :Глубина
BK.Ohm*M                                         :BK     (БК)
DS.mm                                            :DS  (ДС)
GGK.g/cm3                                        :GGKp
ГК.mcr/h                                         :GK          (ГК)
GZ1.Ohm*M                                        :GZ1   ГЗ1(A0.4M0.1N)
GZ2.Ohm*M                                        :GZ2   ГЗ2(A1.0M0.1N)
GZ3.Ohm*M                                        :GZ3   ГЗ3(A2.0M0.5N)
GZ4.Ohm*M                                        :GZ4   ГЗ4(A4.0M0.5N)
GZ5.Ohm*M                                        :GZ5   ГЗ5(A8.0M0.5N)
GZR.Ohm*M                                        :GZK   ГЗK(N0.5M2.0A)
ИК.Ohm*M                                         :IK
НГК.u.e.                                         :NGK
NNKM.                                            :NNKm  (ННКм)
PS.mv                                            :PS       (ПС)
PZ.Ohm*M                                         :PZ    (КС)
RS.Ohm*M                                         :RS (Резистивиметр)
U1.mV                                            :U1
U2.mV                                            :U2
U3.mV                                            :U3
КП.%                                             :Кп
~ASCII LOG DATA
# ...
109.2       38.548      134.849     2.513       6.074       44.307      20.768      24.248      47.243      49.915      39.923      10.498      1.094       2.093       468.752     50.408      1.06        149.716     154.467     109.967     36.521      
109.4       29.58       135.353     2.504       6.117       45.275      21.649      23.35       46.928      48.56       40.686      10.642      1.177       2.124       467.088     49.76       1.06        162.954     168.106     118.893     35.239      
109.6       43.251      134.411     2.456       5.807       45.569      22.57       22.177      46.925      46.904      40.883      10.894      1.152       2.089       465.824     49.622      1.06        161.587     165.271     146.979     33.657      
109.8       82.224      134.579     2.497       6.099       45.264      22.821      20.515      46.712      45.744      41.095      11.065      1.103       2.184       464.912     49.622      1.06        164.812     168.602     165.919     35.04       
110.0       35.563      134.774     2.523       6.117       44.978      23.418      19.542      46.255      45.482      41.918      11.117      1.152       2.098       464.32      49.715      1.06        168.762     165.519     176.605     36.266      
110.2       36.898      134.908     2.482       6.47        45.12       24.88       19.909      46.052      45.833      43.69       11.181      1.086       2.026       464.064     49.991      1.06        159.625     149.122     173.602     35.828      
110.4       39.719      134.515     2.476       7.275       46.818      27.024      21.09       45.817      46.987      45.863      11.343      1.126       2.037       464.0       50.371      1.06        134.808     132.792     165.874     37.394      
110.6       38.107      134.475     2.49        6.7         49.577      29.648      23.08       45.68       47.988      47.978      11.532      1.215       2.043       464.0       50.839      1.06        141.95      133.852     167.686     37.052      
110.8       39.355      134.425     2.512       6.073       53.922      32.977      24.893      45.476      48.445      48.876      11.65       1.234       2.068       464.016     51.496      1.06        175.518     136.067     156.271     34.261      
111.0       46.774      134.153     2.512       5.751       58.165      35.63       26.139      45.558      48.198      48.555      11.815      1.221       2.134       464.224     52.369      1.06        178.982     134.711     141.359     33.704      
111.2       48.978      134.548     2.556       5.092       62.119      38.106      26.766      46.072      47.746      47.365      11.938      1.199       2.197       465.024     53.417      1.06        147.207     133.041     104.466     32.674      
111.4       87.7        134.15      2.562       5.139       63.764      39.584      27.325      47.034      46.972      46.132      12.069      1.296       2.318       466.864     54.704      1.06        136.239     144.384     108.173     32.318      
111.6       79.433      134.385     2.553       5.724       63.537      40.478      27.543      47.922      46.715      44.618      12.083      1.294       2.372       469.744     56.215      1.06        157.96      155.969     132.15      31.732      
111.8       88.105      134.489     2.586       5.477       60.603      40.026      27.973      48.952      47.084      43.737      12.005      1.214       2.335       473.152     57.251      1.06        176.27      154.593     151.38      31.535      
112.0       53.211      134.636     2.537       5.174       56.665      38.922      28.6        49.617      47.279      43.225      11.93       1.254       2.296       476.64      57.366      1.06        178.426     154.194     149.891     32.311      
112.2       49.431      134.727     2.529       5.719       52.225      36.667      28.711      49.463      47.291      42.958      11.78       1.233       2.243       479.936     57.024      1.06        166.686     150.56      143.481     33.145      
112.4       39.174      135.052     2.501       6.081       48.938      34.544      28.703      49.21       46.844      42.926      11.668      1.231       2.171       482.96      55.866      1.06        149.655     154.688     137.956     36.912      
112.6       40.926      134.977     2.483       6.143       46.974      33.105      28.573      48.755      46.153      43.26       11.632      1.208       2.067       485.6       54.891      1.06        151.685     144.592     145.267     36.823      
112.8       41.02       134.987     2.52        6.158       46.584      32.854      28.579      48.682      45.052      43.886      11.622      1.113       2.099       488.176     54.501      1.06        152.076     131.656     172.594     37.056      
113.0       38.371      135.009     2.506       5.953       47.141      33.2        28.484      48.662      44.526      44.245      11.662      1.127       2.038       491.008     54.454      1.06        128.591     118.702     161.859     38.931      
113.2       41.495      135.212     2.526       5.963       48.432      34.072      29.091      49.402      44.095      44.381      11.699      1.066       1.955       494.16      54.454      1.06        117.387     118.42      131.544     38.22       
113.4       41.687      134.651     2.46        6.064       49.835      34.698      29.713      49.822      43.842      43.813      11.807      1.052       1.993       497.28      54.539      1.06        136.358     143.862     128.859     36.782      
113.6       46.774      134.664     2.444       5.843       50.991      34.901      30.367      50.173      43.645      43.021      11.876      1.07        2.039       499.904     54.773      1.06        150.726     145.512     129.074     36.43       
113.8       47.315      134.665     2.407       5.895       51.567      34.603      30.884      49.988      43.738      41.765      11.94       1.14        2.057       501.936     55.132      1.06        135.239     142.432     121.782     36.356      
114.0       48.084      134.665     2.424       6.05        51.688      34.323      31.548      49.975      43.657      40.627      11.94       1.161       2.088       503.712     55.628      1.06        128.074     141.906     145.169     33.14       
114.2       46.881      134.653     2.448       6.128       51.454      33.886      31.908      50.128      43.48       39.798      11.921      1.132       2.105       505.536     56.282      1.06        156.815     156.855     158.882     37.072      
114.4       44.055      134.654     2.465       6.241       51.299      33.916      32.1        50.906      43.253      39.679      11.928      1.105       2.078       507.44      57.072      1.06        172.687     161.471     156.768     38.91       
114.6       45.29       134.586     2.457       6.403       51.416      34.49       32.361      51.519      43.16       39.365      11.988      1.126       2.122       509.568     57.819      1.06        170.078     173.282     155.375     34.19       
114.8       48.417      134.568     2.493       6.612       51.96       36.126      32.972      52.42       43.018      39.069      11.972      1.161       2.117       512.144     58.373      1.06        186.727     186.762     148.689     31.423      
115.0       47.315      134.561     2.512       5.939       52.436      37.557      33.563      54.071      42.991      39.352      11.95       1.128       2.105       514.816     58.722      1.06        195.255     176.245     166.57      36.27       
115.2       46.452      134.585     2.486       6.158       52.47       38.28       33.995      55.786      42.827      39.556      11.93       1.077       2.102       516.496     58.978      1.06        178.742     157.72      183.356     38.49       
115.4       46.132      134.591     2.508       6.192       52.664      39.04       34.139      57.006      42.986      39.236      11.902      1.183       2.143       516.624     59.082      1.06        167.765     158.743     173.542     36.009      
