~Version Information Section
VERS.                                         2.0:CWLS log ASCII Standart – VERSION 2.0
WRAP.                                          NO:One line per depth step
~Well Information Section
STRT.M                                        1.0:Начальная глубина
STOP.M                                      192.9:Конечная глубина
STEP.M                                          0:Шаг квантования по глубине
NULL.                                    -9999.25:Признак "Нет данных"
WELL.                                       123Мх:Скважина
~Parameter Information Section
~Curve Information Section
DEPTH.M                                          :Глубина
BK.lgОмм                                         :BK     (БК)
ПРОФ_СР.мм                                       :DS  (ДС)
ГК.мкР/час                                       :GK          (ГК)
ГЗ1.Омм                                          :GZ1   ГЗ1(A0.4M0.1N)
ГЗ2.Омм                                          :GZ2   ГЗ2(A1.0M0.1N)
ГЗ3.Омм                                          :GZ3   ГЗ3(A2.0M0.5N)
ГЗ4.Oмм                                          :GZ4   ГЗ4(A4.0M0.5N)
ГЗ5.Oмм                                          :GZ5   ГЗ5(A8.0M0.5N)
ГЗК.Омм                                          :GZK   ГЗK(N0.5M2.0A)
ИК.мСм/м                                         :IK
НГК.усл.ед.                                      :NGK     (НГК)
PS.мВ                                            :PS       (ПС)
PZ.Омм                                           :PZ    (КС)
RIS.Омм                                          :RS (Резистивиметр)
U1.мВ                                            :U1
U2.мВ                                            :U2
U3.mv                                            :U3
W.                                               :W
П.%                                              :п
ННКМ.усл.ед                                      :ННКм
~ASCII LOG DATA
# ...
148.2       16.331      122.971     7.765       47.52       13.94       22.801      19.869      14.001      20.453      7.602       1.062       284.515     9.831       1.455       524.521     405.392     385.48      2.412       28.813      0.202       
148.3       16.672      123.053     7.866       47.16       13.6        23.468      19.203      13.001      18.453      7.624       1.044       284.137     9.831       1.454       538.541     392.491     373.159     2.408       29.37       0.199       
148.4       16.982      123.127     7.895       46.8        13.6        24.134      18.536      12.667      16.453      7.636       1.031       283.76      9.831       1.453       575.93      422.594     381.373     2.407       28.761      0.199       
148.5       17.539      123.289     7.635       46.44       13.26       25.468      19.203      12.001      14.453      7.639       1.026       283.383     9.831       1.449       617.985     487.086     389.585     2.407       28.782      0.201       
148.6       16.904      123.391     7.399       46.44       12.92       26.134      19.869      11.667      13.119      7.633       1.06        283.006     9.831       1.441       664.723     555.894     377.264     2.399       28.332      0.197       
148.7       16.558      123.262     7.591       46.44       12.24       27.468      20.869      11.334      12.786      7.619       1.059       283.006     9.831       1.431       678.741     564.492     344.415     2.387       28.817      0.2         
148.8       16.293      123.336     7.952       46.44       11.9        28.801      21.536      11.334      12.786      7.591       1.046       283.006     9.831       1.421       655.375     517.191     295.132     2.382       28.523      0.203       
148.9       15.996      123.32      8.094       46.44       11.56       32.135      22.203      11.334      12.786      7.577       1.04        282.629     9.831       1.412       589.944     478.49      258.17      2.387       29.024      0.203       
149.0       16.144      123.316     7.663       46.44       11.56       37.467      22.869      11.001      12.786      7.582       1.032       281.875     9.455       1.406       533.87      461.29      237.639     2.394       29.006      0.195       
149.1       16.406      123.378     7.025       46.08       11.22       41.731      23.203      10.667      12.786      7.599       1.1         281.12      8.703       1.404       510.502     465.59      237.64      2.397       29.012      0.19        
149.2       16.634      123.589     6.583       45.72       10.88       43.993      23.869      10.334      12.786      7.61        1.12        280.366     7.951       1.403       524.52      448.392     254.065     2.405       28.084      0.194       
149.3       17.14       123.776     6.333       45.36       10.54       43.589      24.536      10.334      12.786      7.635       1.146       279.612     6.823       1.403       547.888     431.191     270.492     2.411       27.637      0.191       
149.4       17.62       124.37      6.67        45.36       10.54       43.589      25.536      10.001      12.786      7.652       1.058       278.857     5.695       1.403       575.929     418.29      286.92      2.414       27.693      0.196       
149.5       18.155      125.501     7.257       45.36       10.54       43.589      26.203      9.667       12.786      7.65        1.048       277.726     4.567       1.404       599.294     401.092     299.238     2.42        28.511      0.2         
149.6       18.155      125.67      7.521       45.36       10.54       43.589      26.203      9.334       12.786      7.663       1.08        276.972     3.439       1.406       594.62      383.89      299.239     2.429       29.348      0.198       
149.7       17.62       124.861     7.498       45.36       10.54       43.589      25.536      9.334       12.786      7.619       1.135       276.595     2.311       1.41        575.93      362.392     295.133     2.43        29.802      0.205       
149.8       16.596      125.638     7.007       45.36       10.54       43.993      24.536      9.334       12.786      7.599       1.132       276.217     1.559       1.417       547.888     349.491     286.919     2.421       30.106      0.21        
149.9       16.032      126.033     6.935       45.36       10.54       43.73       23.869      9.334       12.786      7.577       1.105       275.84      0.431       1.425       533.867     340.891     286.919     2.413       29.734      0.206       
150.0       15.959      126.623     6.635       45.36       10.54       43.468      23.536      9.334       12.786      7.574       1.054       275.463     -0.697      1.433       519.849     340.891     286.919     2.41        29.349      0.206       
150.1       16.144      126.582     6.75        45.36       10.54       42.134      23.536      9.334       12.786      7.557       1.033       275.086     -1.449      1.441       505.827     349.492     289.077     2.399       28.407      0.205       
150.2       16.672      126.406     6.778       45.36       10.54       41.468      23.536      9.334       12.453      7.53        1.046       274.709     -2.201      1.447       491.809     362.39      271.232     2.384       28.406      0.203       
150.3       16.069      124.151     6.816       45.36       10.54       40.801      23.869      9.334       11.786      7.544       1.059       273.955     -2.953      1.451       482.461     375.291     232.527     2.379       28.326      0.201       
150.4       15.996      122.214     6.785       45.36       10.54       40.801      24.536      9.334       11.119      7.525       1.044       272.823     -2.953      1.454       491.809     388.192     268.885     2.38        28.548      0.199       
150.5       15.453      122.216     6.961       45.36       10.54       40.801      25.536      9.334       10.786      7.544       1.014       271.692     -2.577      1.454       529.192     401.09      426.682     2.376       28.401      0.199       
150.6       14.997      122.06      7.234       45.36       10.54       40.801      26.869      9.334       10.786      7.541       0.972       270.56      -2.201      1.454       545.984     447.719     579.152     2.383       28.32       0.2         
150.7       15.704      122.059     7.029       45.36       11.22       40.801      27.536      9.334       10.786      7.547       0.992       269.429     -1.825      1.454       445.121     396.275     600.446     2.39        28.125      0.201       
150.8       16.444      122.07      6.448       45.36       12.24       40.134      27.203      9.334       10.786      7.591       1.018       268.297     -1.449      1.454       308.939     327.032     498.662     2.397       27.759      0.201       
150.9       17.061      122.146     6.251       45.36       13.26       38.801      25.869      9.667       10.786      7.624       1.042       266.789     -1.073      1.454       198.712     224.895     407.583     2.403       27.521      0.197       
151.0       17.061      122.089     6.655       45.36       13.6        37.468      24.536      10.001      10.786      7.635       1.054       265.657     -0.697      1.454       252.149     255.834     391.395     2.404       27.596      0.194       
151.1       16.866      121.931     7.197       45.36       13.6        36.801      23.536      10.667      10.786      7.635       1.089       264.903     -0.321      1.454       386.374     350.776     423.636     2.415       28.063      0.203       
151.2       16.406      122.333     7.467       45.36       13.26       36.801      22.869      11.001      10.786      7.633       1.085       264.149     0.055       1.454       584.048     495.365     498.202     2.42        28.333      0.207       
151.3       16.106      122.003     7.392       45.36       12.92       36.801      22.203      11.001      10.786      7.633       1.07        263.395     0.431       1.454       793.366     614.894     538.169     2.41        28.419      0.201       
