~Version Information Section
VERS.                                         2.0:CWLS log ASCII Standart – VERSION 2.0
WRAP.                                          NO:One line per depth step
~Well Information Section
STRT.M                                        0.0:Начальная глубина
STOP.M                                      211.0:Конечная глубина
STEP.M                                          0:Шаг квантования по глубине
NULL.                                    -9999.25:Признак "Нет данных"
WELL.                                       125Мх:Скважина
~Parameter Information Section
~Curve Information Section
DEPTH.M                                          :Глубина
BK.lgОмм                                         :BK
D.                                               :D sr
GGKP.g/sm3                                       :GGKp
ГК.гамма                                         :GK
ИК.мСм/м                                         :IK
KP.%                                             :Kp
PS.                                              :PS       (ПС)
PZ.Омм                                           :PZ
RIS.Омм                                          :RIS
U1.                                              :U1
U2.                                              :U2
U3.                                              :U3
БЗ.                                              :БЗ (ГГК-1)
ГЗ1.Омм                                          :ГЗ1
ГЗ2.Омм                                          :ГЗ2
ГЗ3.Омм                                          :ГЗ3
ГЗ4.Oмм                                          :ГЗ4
ГЗ5.Oмм                                          :ГЗ5
ГЗК.Омм                                          :ГЗК
ИКБ.мСм/м                                        :ИКБ
МЗ.                                              :МЗ жесткий (ГГК-4)
ННКМ.усл.ед                                      :ННКм
ИКМ.мСм/м                                        :ИКМ
НГК.усл.ед                                       :ННКб
~ASCII LOG DATA
# ...
110.7       12.05       134.679     2.396       8.967       16.428      28.494      172.087     25.059      1.107       540.195     174.512     329.48      10825.333   31.282      27.935      33.036      34.37       49.001      31.572      17.072      15957.333   0.886       11.431      2.063       
110.8       20.941      131.151     2.461       8.034       16.259      26.885      171.207     26.485      1.107       567.888     174.381     348.164     8971.429    34.02       27.48       32.719      31.651      46.788      36.235      17.001      15198.571   0.987       11.623      2.371       
110.9       41.115      129.918     2.514       7.024       16.135      25.762      170.386     28.424      1.107       575.692     167.139     359.986     7834.667    36.611      26.338      31.521      28.263      45.226      40.051      17.047      15494.667   1.171       12.012      2.839       
111.0       54.828      129.57      2.545       5.927       16.201      25.359      169.623     30.911      1.107       567.484     159.065     362.339     7795.714    39.711      23.841      29.614      24.807      43.824      42.983      17.229      16278.571   1.27        12.485      3.218       
111.1       42.17       129.815     2.546       5.098       16.42       25.532      168.912     33.812      1.107       557.456     155.222     359.583     8724.615    43.989      22.037      26.883      22.694      43.165      44.942      17.546      17241.539   1.396       13.018      3.261       
111.2       29.992      129.995     2.514       4.931       16.718      25.894      168.243     36.817      1.108       545.705     152.281     354.887     9735.0      47.959      21.125      23.914      23.5        42.571      45.582      17.984      18062.5     1.278       13.56       2.897       
111.3       27.29       130.903     2.469       5.074       17.092      26.589      167.607     39.601      1.107       534.82      148.956     348.275     10877.143   50.305      20.993      21.765      26.396      41.804      44.481      18.548      18487.143   1.192       14.331      2.707       
111.4       29.242      131.452     2.429       5.112       17.549      27.292      166.993     41.857      1.107       526.21      144.801     339.951     11824.0     52.071      24.231      20.898      30.198      41.589      41.926      19.246      18446.666   1.105       15.389      2.408       
111.5       36.898      131.127     2.396       5.108       18.182      27.268      166.388     43.462      1.107       517.599     140.645     331.392     12552.0     54.594      32.818      21.609      33.037      42.349      38.178      20.048      18844.0     1.079       16.676      2.442       
111.6       46.559      130.066     2.37        5.033       18.957      26.795      165.782     44.401      1.107       508.988     136.49      322.833     13058.571   60.357      46.434      23.397      34.766      43.836      34.214      20.877      19164.285   1.092       17.639      2.562       
111.7       51.88       127.611     2.356       4.923       19.796      26.251      165.168     44.728      1.107       500.376     132.334     314.274     13287.692   65.456      59.388      25.877      34.605      45.929      32.125      21.646      19172.309   1.098       18.105      2.681       
111.8       42.855      126.582     2.354       4.965       20.588      25.499      164.541     44.526      1.108       479.115     125.787     296.602     12965.333   65.589      63.738      28.17       33.722      47.7        32.702      22.292      18400.0     1.133       18.204      2.804       
111.9       31.261      126.594     2.367       5.144       21.115      24.934      163.9       43.787      1.108       443.562     116.108     271.1       12054.667   62.997      65.198      29.657      32.591      47.944      36.6        22.757      17184.0     1.121       18.204      2.741       
112.0       25.763      127.779     2.403       5.102       21.38       24.736      163.246     42.491      1.107       392.072     102.557     239.049     10671.429   59.647      65.541      29.582      31.205      46.272      41.987      23.051      15738.571   1.098       18.192      2.718       
112.1       30.69       130.417     2.449       4.948       21.547      24.942      162.582     40.827      1.107       342.303     89.836      208.71      9512.0      56.555      64.569      29.221      28.105      43.535      47.633      23.218      15589.333   1.156       18.12       2.797       
112.2       42.756      131.364     2.485       4.794       21.615      25.365      161.917     39.161      1.107       305.362     83.545      188.379     8808.571    55.228      63.358      28.386      24.06       40.497      52.329      23.3        16648.572   1.226       17.903      2.896       
112.3       41.115      131.354     2.504       4.691       21.634      26.089      161.256     37.872      1.107       306.674     98.462      195.869     8986.25     55.641      60.581      26.934      19.854      37.577      55.838      23.31       17916.25    1.32        17.662      3.053       
112.4       28.379      130.709     2.501       4.999       21.585      26.689      160.61      37.099      1.107       353.337     134.237     233.033     10143.077   54.211      53.795      25.077      16.677      34.485      57.776      23.273      19026.154   1.368       17.374      2.992       
112.5       19.861      130.284     2.474       5.307       21.457      27.117      159.987     36.796      1.107       446.572     174.714     295.833     10953.75    48.661      41.835      23.236      14.545      31.226      59.152      23.214      18735.0     1.172       17.159      2.64        
112.6       19.999      131.48      2.446       5.664       21.284      27.476      159.397     36.81       1.107       539.808     213.313     358.634     11270.0     43.83       31.036      21.491      14.175      28.029      59.615      23.157      18105.715   1.109       17.053      2.51        
112.7       24.155      133.227     2.436       5.793       21.206      27.226      158.849     36.977      1.107       615.0       237.012     402.414     11091.429   43.717      29.318      20.074      14.255      24.679      58.539      23.135      17194.285   1.036       17.125      2.317       
112.8       31.477      130.547     2.44        5.475       21.163      26.329      158.35      37.234      1.107       645.296     232.47      409.844     10253.846   45.301      30.272      19.504      14.006      21.744      54.968      23.166      16692.309   1.058       17.304      2.545       
112.9       42.462      127.1       2.453       4.816       21.173      25.897      157.908     37.668      1.107       636.621     206.331     390.589     9752.5      46.799      31.675      20.444      13.276      19.757      50.634      23.242      17053.75    1.156       17.404      2.911       
113.0       44.259      126.4       2.465       4.491       21.242      26.038      157.53      38.299      1.107       586.354     177.597     348.416     9634.286    48.395      33.26       21.412      12.456      18.853      46.204      23.357      17087.143   1.192       17.401      2.872       
113.1       34.754      126.445     2.461       4.372       21.32       26.19       157.222     38.99       1.107       531.878     149.626     306.242     10178.667   48.799      34.232      22.215      11.731      18.227      42.491      23.522      17950.666   1.26        17.489      2.793       
113.2       27.04       126.428     2.441       4.375       21.461      26.598      156.987     39.564      1.107       484.341     130.957     279.27      11147.143   46.559      34.205      22.805      11.284      17.622      39.959      23.725      18771.428   1.197       17.649      2.618       
113.3       27.861      126.845     2.411       4.574       21.6        27.23       156.831     39.957      1.108       466.154     123.877     280.096     11888.571   44.486      34.745      22.838      11.22       17.037      38.929      23.944      18705.715   1.127       17.814      2.545       
