~Version Information Section
VERS.                                         2.0:CWLS log ASCII Standart – VERSION 2.0
WRAP.                                          NO:One line per depth step
~Well Information Section
STRT.M                                       -0.5:Начальная глубина
STOP.M                                      184.3:Конечная глубина
STEP.M                                          0:Шаг квантования по глубине
NULL.                                    -9999.25:Признак "Нет данных"
WELL.                                       133Мх:Скважина
~Parameter Information Section
~Curve Information Section
DEPTH.M                                          :Глубина
DS.mm                                            :DS  (ДС)
GGK.g/cm3                                        :GGKp
ГК.mcr/h                                         :GK          (ГК)
GZ1.Ohm*M                                        :GZ1   ГЗ1(A0.4M0.1N)
GZ2.Ohm*M                                        :GZ2   ГЗ2(A1.0M0.1N)
GZ3.Ohm*M                                        :GZ3   ГЗ3(A2.0M0.5N)
GZ4.Ohm*M                                        :GZ4   ГЗ4(A4.0M0.5N)
GZ5.Ohm*M                                        :GZ5   ГЗ5(A8.0M0.5N)
GZR.Ohm*M                                        :GZK   ГЗK(N0.5M2.0A)
ИК.Ohm*M                                         :IK
НГК.ue                                           :NGK     (НГК)
NNKM.                                            :NNKm  (ННКм)
PS.mv                                            :PS       (ПС)
PZ.Ohm*M                                         :PZ    (КС)
RS.Ohm*M                                         :RS (Резистивиметр)
U1.mV                                            :U1
U2.mV                                            :U2
U3.mV                                            :U3
BK.Ohm*M                                         :БК
ПОРИСТОСТЬ.                                      :Пористость ННК
~ASCII LOG DATA
# ...
76.3        132.621     2.302       4.461       204.087     249.802     218.441     42.26       32.5        332.725     41.49       1.87        2.813       128.711     73.664      1.206       521.964     1252.084    2102.322    109.236     27.938      
76.4        132.604     2.285       4.659       203.387     250.962     222.043     44.116      32.337      329.458     41.59       1.891       2.769       126.508     74.972      1.206       537.733     1280.104    2096.107    35.101      27.693      
76.5        132.347     2.288       4.972       200.594     252.162     224.303     48.576      32.171      329.464     41.691      1.901       2.761       124.446     76.028      1.206       539.042     1308.039    2104.687    34.67       27.091      
76.6        132.051     2.295       5.134       198.16      254.108     225.998     54.513      31.994      330.579     41.769      1.906       2.788       122.523     77.036      1.21        529.467     1316.625    2116.662    28.352      25.774      
76.7        132.074     2.294       5.022       195.736     255.583     227.487     61.181      31.585      329.799     41.845      1.906       2.831       120.724     78.2        1.21        523.975     1312.839    2120.645    28.285      24.871      
76.8        132.431     2.303       4.781       193.77      257.301     229.373     69.088      31.072      329.799     41.908      1.917       2.856       119.025     79.064      1.21        530.007     1313.978    2115.485    157.468     24.614      
76.9        132.815     2.314       4.649       193.383     259.886     231.898     76.934      30.574      331.7       41.987      1.906       2.846       117.411     79.7        1.21        532.341     1329.888    2106.7      147.296     24.808      
77.0        133.057     2.317       4.596       194.82      263.03      234.461     84.223      29.716      335.387     42.059      1.883       2.825       115.87      80.636      1.21        522.068     1344.233    2100.719    121.401     24.968      
77.1        133.127     2.317       4.756       194.396     265.095     235.739     91.851      28.638      335.543     42.118      1.864       2.794       114.406     81.128      1.21        511.275     1333.947    2098.021    126.467     25.135      
77.2        133.174     2.305       4.943       192.038     265.548     235.739     100.391     27.537      334.683     42.159      1.873       2.782       113.027     81.2        1.206       512.657     1302.001    2098.737    142.37      25.194      
77.3        133.401     2.282       5.167       191.27      269.296     237.117     109.578     27.537      336.8       42.21       1.891       2.805       111.748     81.2        1.206       522.444     1273.496    2104.362    141.236     25.315      
77.4        133.761     2.262       5.145       191.602     278.57      241.447     118.983     26.312      339.627     42.256      1.916       2.822       110.584     81.2        1.206       526.324     1271.684    2108.231    138.111     25.712      
77.5        133.949     2.254       4.92        193.043     289.36      247.891     129.237     24.779      342.263     42.324      1.92        2.849       109.545     81.2        1.206       523.215     1288.121    2102.613    137.142     25.972      
77.6        133.853     2.26        4.813       196.233     298.176     254.222     138.57      23.207      344.553     42.409      1.936       2.885       108.636     80.864      1.206       523.612     1290.156    2092.551    139.992     25.812      
77.7        133.677     2.283       4.691       196.445     301.73      258.986     145.182     21.749      346.359     42.495      1.956       2.913       107.867     80.636      1.206       528.075     1272.085    2094.484    128.389     25.317      
77.8        133.543     2.309       4.705       195.236     301.73      262.367     150.358     20.405      347.106     42.573      2.002       2.921       107.243     79.592      1.206       525.941     1252.818    2110.021    98.174      25.028      
77.9        133.475     2.322       4.746       195.967     302.417     264.831     154.617     19.959      347.184     42.615      2.023       2.918       106.771     78.236      1.206       515.829     1253.114    2109.483    82.198      25.003      
78.0        133.49      2.316       4.802       194.514     300.811     266.366     157.281     19.655      347.729     42.642      2.002       2.922       106.461     77.0        1.206       508.863     1269.515    2084.277    56.74       25.228      
78.1        133.563     2.293       4.654       195.016     295.082     267.238     158.952     19.655      350.831     42.644      1.975       2.925       106.326     75.464      1.206       515.515     1274.411    2062.621    31.239      25.217      
78.2        133.615     2.276       4.379       197.043     286.865     268.026     159.736     19.655      356.885     42.648      1.955       2.924       106.369     73.7        1.206       527.65      1261.683    2070.379    50.057      24.712      
78.3        133.628     2.269       4.222       194.26      273.11      268.472     160.978     19.655      365.843     42.653      1.978       2.921       106.598     71.9        1.206       529.893     1248.718    2087.588    29.346      24.25       
78.4        133.655     2.263       4.474       188.788     262.305     268.476     165.277     19.914      400.6       42.689      2.061       2.93        107.016     68.756      1.206       522.433     1252.872    2078.459    22.925      23.574      
78.5        133.693     2.261       4.934       184.65      260.472     268.938     172.491     20.662      462.951     42.755      2.139       2.949       107.619     65.372      1.206       514.725     1268.556    2052.561    31.115      23.268      
78.6        133.756     2.315       5.299       181.176     260.472     270.068     180.733     21.926      531.338     42.816      2.224       2.984       108.4       62.3        1.206       515.953     1277.111    2040.84     19.529      23.375      
78.7        133.85      2.378       5.18        179.107     266.517     272.39      189.007     21.926      601.236     42.847      2.249       3.022       109.335     59.636      1.206       521.393     1276.408    2047.376    12.734      23.731      
78.8        133.914     2.404       4.892       179.065     273.004     277.488     197.9       21.926      667.424     42.852      2.243       3.033       110.385     57.536      1.206       517.367     1274.585    2047.984    12.692      24.103      
78.9        133.875     2.401       4.824       179.065     273.445     280.932     206.989     22.963      699.04      42.867      2.227       3.036       111.502     55.7        1.206       503.838     1271.055    2037.653    12.84       24.453      
79.0        133.802     2.39        4.887       179.068     274.521     280.726     215.342     24.833      699.04      42.898      2.238       3.083       112.619     53.564      1.206       493.862     1262.165    2032.661    17.085      23.652      
79.1        133.801     2.388       5.002       180.797     277.996     286.117     223.994     26.713      676.802     42.952      2.342       3.183       113.633     51.536      1.206       500.347     1253.313    2040.725    23.484      18.959      
79.2        133.856     2.398       4.893       188.122     280.088     297.938     233.92      28.237      626.675     43.04       2.465       3.483       114.414     49.7        1.206       513.151     1252.542    2049.223    22.268      16.651      
79.3        133.905     2.408       4.635       201.286     286.649     311.216     243.391     26.923      563.976     43.185      2.554       3.608       114.814     48.236      1.206       512.603     1258.13     2048.592    116.348     15.603      
79.4        133.947     2.421       4.424       219.255     300.615     327.155     251.193     26.987      492.07      43.311      2.597       3.648       114.669     47.672      1.206       500.692     1258.681    2047.029    170.049     14.947      
