~Version Information Section
VERS.                                         2.0:CWLS log ASCII Standart – VERSION 2.0
WRAP.                                          NO:One line per depth step
~Well Information Section
STRT.M                                        0.6:Начальная глубина
STOP.M                                      202.6:Конечная глубина
STEP.M                                          0:Шаг квантования по глубине
NULL.                                    -9999.25:Признак "Нет данных"
WELL.                                       130Мх:Скважина
~Parameter Information Section
~Curve Information Section
DEPTH.M                                          :Глубина
БК.Омм                                           :BK     (БК)
DСР.мм                                           :DS  (ДС)
W.g/cm3                                          :GGKp
ГК.гамма                                         :GK          (ГК)
А0.4М0.1N.Омм.ohmm                               :GZ1   ГЗ1(A0.4M0.1N)
А1.0М0.1N.Омм.ohmm                               :GZ2   ГЗ2(A1.0M0.1N)
А2.0М0.5N.Омм.ohmm                               :GZ3   ГЗ3(A2.0M0.5N)
А4.0М0.5N.Oмм.ohmm                               :GZ4   ГЗ4(A4.0M0.5N)
А8.0М1.0N.Омм.ohmm                               :GZ5   ГЗ5(A8.0M0.5N)
N0.5M2.0A.Омм.ohmm                               :GZK   ГЗK(N0.5M2.0A)
ИК.мСм/м                                         :IK
НГК.усл.ед                                       :NNKb  (ННКб)
ННКМ.усл.ед                                      :NNKm  (ННКм)
ПС.мВ                                            :PS       (ПС)
КС.Омм                                           :PZ    (КС)
R.Омм                                            :RS (Резистивиметр)
U1.мВ                                            :U1
U2.mV                                            :U2
U3.мВ                                            :U3
КП.%                                             :Кп
~ASCII LOG DATA
# ...
157.4       26.107      128.264     2.278       6.436       26.034      25.649      26.219      19.787      14.57       18.671      16.11       2.439       1.581       262.074     59.226      1.099       275.14      379.828     520.956     31.822      
157.5       26.718      128.33      2.284       6.452       25.81       25.354      26.066      19.668      14.437      18.625      15.935      2.433       1.589       262.975     60.207      1.1         292.985     396.186     519.35      34.34       
157.6       26.94       128.3       2.29        6.382       25.417      24.942      25.883      19.548      14.243      18.62       15.766      2.386       1.611       263.62      61.106      1.1         322.322     407.303     509.332     33.268      
157.7       26.717      129.033     2.292       6.22        24.794      24.471      25.599      19.429      14.097      18.642      15.602      2.353       1.622       263.947     61.857      1.1         362.135     420.665     488.639     32.711      
157.8       26.461      128.852     2.291       6.06        24.189      24.239      25.274      19.316      13.98       18.706      15.426      2.296       1.625       263.947     62.409      1.1         428.948     461.687     486.569     32.137      
157.9       25.326      128.571     2.288       6.26        23.545      24.046      24.984      19.207      13.823      18.845      15.237      2.347       1.585       263.947     62.744      1.1         571.432     512.92      471.852     29.991      
158.0       23.537      128.356     2.283       6.462       22.752      23.569      24.76       19.145      13.628      19.137      15.011      2.491       1.545       263.934     62.896      1.1         604.37      519.707     478.213     28.01       
158.1       22.825      128.692     2.276       6.801       22.09       23.082      24.586      19.133      13.442      19.556      14.785      2.395       1.529       263.586     62.921      1.1         573.691     503.417     477.509     27.821      
158.2       22.34       129.067     2.269       6.929       21.632      22.7        24.432      19.107      13.272      20.123      14.593      2.177       1.514       262.935     62.921      1.1         523.573     471.057     460.726     29.057      
158.3       22.521      129.152     2.266       6.827       21.34       22.353      24.29       19.061      13.151      20.871      14.441      2.224       1.559       262.059     62.871      1.1         449.106     406.134     413.241     29.902      
158.4       23.604      128.263     2.269       6.321       21.174      21.996      24.159      19.025      13.084      21.607      14.325      2.294       1.604       261.057     62.792      1.1         298.98      336.35      397.838     30.03       
158.5       23.419      128.573     2.275       6.327       20.975      21.609      24.032      19.01       13.063      22.211      14.25       2.273       1.602       260.009     62.713      1.1         255.857     309.579     365.062     30.054      
158.6       23.081      128.58      2.285       6.24        20.782      21.239      23.894      18.96       13.015      22.765      14.182      2.294       1.6         258.988     62.616      1.1         305.981     305.889     337.585     29.175      
158.7       24.823      128.492     2.291       6.343       20.694      20.826      23.67       18.813      12.94       23.324      14.101      2.452       1.603       258.058     62.472      1.1         383.322     317.989     317.714     27.747      
158.8       25.848      128.507     2.295       6.298       20.573      20.305      23.287      18.629      12.856      23.929      14.014      2.575       1.61        257.263     62.25       1.1         423.963     354.064     348.244     27.102      
158.9       25.12       128.66      2.292       6.118       20.319      19.775      22.837      18.409      12.762      24.571      13.907      2.497       1.621       256.633     61.919      1.1         416.812     344.52      337.187     27.674      
159.0       23.892      128.604     2.291       6.269       20.174      19.306      22.35       18.081      12.615      25.183      13.78       2.426       1.627       256.172     61.46       1.1         388.747     330.751     348.534     28.855      
159.1       22.925      128.638     2.29        6.24        20.094      18.824      21.804      17.678      12.46       25.71       13.652      2.424       1.624       255.861     60.872      1.1         316.579     316.979     375.239     29.367      
159.2       22.819      128.661     2.289       6.471       19.811      18.341      21.185      17.218      12.283      26.095      13.534      2.418       1.624       255.67      60.179      1.1         222.074     306.573     452.871     30.872      
159.3       23.313      128.791     2.287       6.407       19.374      17.961      20.474      16.656      12.05       26.305      13.454      2.407       1.628       255.569     59.429      1.1         161.515     280.052     503.288     32.676      
159.4       23.208      128.838     2.287       6.167       18.909      17.629      19.701      16.002      11.758      26.482      13.371      2.421       1.626       255.522     58.689      1.1         165.207     299.919     533.355     33.491      
159.5       22.296      128.721     2.281       6.136       18.49       17.299      18.894      15.303      11.437      26.823      13.29       2.481       1.617       255.5       58.024      1.1         265.873     340.338     523.563     32.758      
159.6       21.282      128.683     2.27        6.308       18.119      16.942      18.09       14.593      11.049      27.291      13.232      2.487       1.598       255.478     57.489      1.1         355.467     382.813     500.179     30.623      
159.7       20.82       128.93      2.256       6.32        17.703      16.559      17.341      13.894      10.553      27.807      13.169      2.413       1.576       255.431     57.116      1.1         414.905     400.233     438.838     29.24       
159.8       20.341      128.678     2.243       6.226       17.235      16.173      16.673      13.202      10.125      28.438      13.118      2.37        1.57        255.33      56.89       1.1         466.208     403.337     350.589     28.982      
159.9       19.643      128.821     2.233       6.123       16.778      15.784      16.067      12.601      9.759       29.317      13.101      2.333       1.576       255.139     56.776      1.1         501.042     402.829     317.154     29.677      
160.0       18.467      129.202     2.233       6.406       16.489      15.552      15.574      12.162      9.457       30.325      13.108      2.268       1.567       254.828     56.724      1.1         457.902     390.422     323.57      30.192      
160.1       18.37       128.383     2.244       6.42        16.424      15.516      15.261      11.835      9.219       31.292      13.154      2.147       1.55        254.369     56.704      1.1         433.813     386.746     345.086     30.175      
160.2       18.949      127.224     2.26        6.413       16.424      15.516      15.086      11.616      9.076       32.339      13.262      2.165       1.542       253.748     56.561      1.1         449.287     409.984     385.995     31.11       
160.3       18.961      126.949     2.276       6.235       16.384      15.421      14.96       11.474      8.866       32.986      13.436      2.279       1.542       252.971     56.177      1.1         492.805     408.716     379.972     33.543      
160.4       18.393      127.001     2.288       6.235       16.215      15.239      14.836      11.329      8.591       33.059      13.698      2.368       1.56        252.066     55.429      1.1         522.908     408.851     376.783     37.829      
160.5       18.384      127.216     2.292       6.011       16.019      15.113      14.655      11.057      8.349       33.059      14.034      2.542       1.581       251.069     54.225      1.1         514.564     412.009     408.299     39.078      
