~Version Information Section
VERS.                                         2.0:CWLS log ASCII Standart – VERSION 2.0
WRAP.                                          NO:One line per depth step
~Well Information Section
STRT.M                                       -0.1:Начальная глубина
STOP.M                                      197.8:Конечная глубина
STEP.M                                          0:Шаг квантования по глубине
NULL.                                    -9999.25:Признак "Нет данных"
WELL.                                       134Мх:Скважина
~Parameter Information Section
~Curve Information Section
DEPTH.M                                          :Глубина
BK.Ohm*M                                         :BK     (БК)
DS.mm                                            :DS  (ДС)
GGK.g/cm3                                        :GGKp
ГК.mcr/h                                         :GK          (ГК)
GZ1.Ohm*M                                        :GZ1   ГЗ1(A0.4M0.1N)
GZ2.Ohm*M                                        :GZ2   ГЗ2(A1.0M0.1N)
GZ3.Ohm*M                                        :GZ3   ГЗ3(A2.0M0.5N)
GZ4.Ohm*M                                        :GZ4   ГЗ4(A4.0M0.5N)
GZ5.Ohm*M                                        :GZ5   ГЗ5(A8.0M0.5N)
GZR.Ohm*M                                        :GZK   ГЗK(N0.5M2.0A)
ИК.Ohm*M                                         :IK
КП.%                                             :Кп
НГК.ue                                           :NGK     (НГК)
NNKM.                                            :NNKm  (ННКм)
PS.mv                                            :PS       (ПС)
PZ.Ohm*M                                         :PZ    (КС)
RS.Ohm*M                                         :RS (Резистивиметр)
U1.mV                                            :U1
U2.mV                                            :U2
U3.mV                                            :U3
~ASCII LOG DATA
# ...
115.1       30.249      134.402     2.433       4.089       33.93       27.819      40.682      33.084      14.133      39.537      22.485      32.216      1.242       2.338       405.63      47.245      1.06        328.857     289.359     302.819     
115.2       31.889      134.283     2.451       3.622       36.71       28.549      41.282      36.258      15.524      39.537      22.933      30.246      1.26        2.415       405.094     47.861      1.06        338.092     288.215     289.225     
115.3       34.991      134.167     2.468       3.951       40.258      29.165      41.282      37.779      16.598      39.174      23.483      28.151      1.259       2.511       404.421     48.565      1.06        324.675     264.545     220.566     
115.4       49.827      134.162     2.477       3.824       44.001      29.637      41.24       38.003      17.312      37.307      23.851      24.187      1.273       2.623       403.589     49.322      1.06        292.366     240.071     151.922     
115.5       73.27       134.249     2.474       3.868       47.103      30.019      40.231      38.003      17.669      33.727      23.926      22.743      1.328       2.718       402.57      50.09       1.06        253.018     250.674     236.479     
115.6       69.96       134.408     2.468       3.704       49.222      30.181      37.682      37.301      17.759      29.642      23.786      22.729      1.325       2.782       401.341     50.821      1.06        220.424     273.193     538.358     
115.7       51.526      134.522     2.447       3.83        50.339      30.184      34.372      35.404      17.75       25.856      23.347      24.73       1.335       2.743       399.885     51.468      1.06        205.646     283.606     826.467     
115.8       48.191      134.6       2.427       4.022       50.622      30.159      31.092      32.738      17.604      22.796      22.829      25.902      1.287       2.62        398.2       51.997      1.06        205.179     297.231     813.02      
115.9       44.149      134.741     2.411       4.211       50.622      30.032      28.373      30.013      17.126      20.51       22.461      27.291      1.279       2.535       396.293     52.39       1.06        212.101     302.015     534.456     
116.0       36.133      134.854     2.398       4.491       50.294      29.713      26.312      27.743      16.286      18.675      22.291      29.087      1.267       2.487       394.195     52.65       1.06        232.379     277.466     307.532     
116.1       37.264      134.862     2.388       4.473       49.081      29.161      24.379      25.541      15.238      17.139      22.348      28.678      1.255       2.442       391.938     52.798      1.06        263.369     249.594     258.747     
116.2       49.381      135.096     2.376       4.32        46.835      28.318      22.116      22.824      14.207      16.251      22.569      26.629      1.273       2.452       389.562     52.873      1.06        284.532     240.88      248.255     
116.3       57.714      135.382     2.371       4.019       43.383      27.209      19.656      19.552      13.41       16.067      22.836      24.111      1.321       2.534       387.107     52.905      1.06        285.849     235.807     201.717     
116.4       54.683      135.499     2.372       3.743       38.886      26.057      17.38       16.031      12.989      16.067      22.89       24.511      1.339       2.561       384.627     52.915      1.06        275.765     220.979     166.467     
116.5       47.676      135.281     2.373       3.605       34.246      25.024      15.607      12.545      12.884      16.067      22.641      27.139      1.304       2.481       382.15      53.293      1.06        252.094     202.151     166.43      
116.6       36.289      135.117     2.373       3.907       30.137      24.124      14.761      9.533       12.884      16.853      22.28       29.738      1.309       2.386       379.702     54.43       1.06        210.89      190.857     180.891     
116.7       24.336      135.194     2.36        4.444       27.009      23.667      14.648      7.352       12.968      19.625      21.882      31.583      1.294       2.31        377.288     56.717      1.06        170.879     195.598     213.989     
116.8       18.889      135.176     2.344       4.915       25.755      23.63       14.648      5.988       13.493      25.03       21.689      32.098      1.297       2.254       374.896     60.6        1.06        148.67      213.296     305.69      
116.9       17.743      135.031     2.334       5.004       25.755      23.63       14.648      5.353       14.977      33.672      21.967      32.905      1.175       2.214       372.474     66.558      1.06        142.164     240.019     442.765     
117.0       17.997      134.51      2.343       5.339       25.755      23.63       15.379      5.206       17.833      45.898      22.899      31.478      1.14        2.185       370.01      73.964      1.06        158.503     271.416     570.75      
117.1       19.993      134.036     2.367       5.637       25.857      24.418      17.751      5.206       22.304      61.533      24.428      29.193      1.177       2.225       367.528     82.293      1.06        203.987     293.857     600.26      
117.2       29.543      133.775     2.397       5.49        27.878      26.937      21.986      5.206       28.277      79.616      26.618      24.661      1.275       2.366       365.096     91.118      1.06        228.295     303.827     486.165     
117.3       62.814      133.667     2.425       5.245       34.986      31.243      28.572      5.673       35.267      98.288      29.244      22.456      1.403       2.538       362.822     100.043     1.06        249.611     305.664     395.912     
117.4       101.155     134.035     2.435       5.029       49.765      37.254      37.92       7.547       42.565      114.667     32.035      21.051      1.531       2.675       360.862     108.611     1.06        324.748     310.096     359.594     
117.5       113.129     134.646     2.436       5.06        74.104      44.962      49.486      11.767      49.194      125.397     34.707      20.229      1.699       2.779       359.322     117.463     1.06        420.144     318.468     372.343     
117.6       124.476     135.574     2.441       4.721       109.477     54.087      62.11       18.859      54.149      128.969     36.967      17.645      1.845       2.892       358.245     126.872     1.06        444.094     326.447     311.714     
117.7       230.667     136.253     2.45        4.097       153.936     64.872      74.152      28.503      56.881      128.969     38.885      14.253      1.941       3.08        357.59      136.808     1.06        449.16      327.893     255.646     
117.8       626.625     136.413     2.459       3.828       200.008     79.09       82.986      39.537      57.737      128.69      40.191      11.866      2.032       3.313       357.283     146.864     1.06        452.045     319.016     262.816     
117.9       964.916     136.232     2.456       3.607       238.503     98.01       86.599      49.169      57.816      124.761     41.014      11.596      2.134       3.42        357.222     156.224     1.06        395.547     295.504     280.132     
118.0       905.973     136.029     2.443       3.413       262.435     121.099     87.005      54.776      57.313      114.773     41.425      11.926      2.174       3.402       357.222     162.76      1.06        310.826     277.536     256.921     
118.1       840.148     135.949     2.416       3.233       270.112     146.91      87.005      56.418      55.317      100.901     40.925      12.697      2.151       3.341       357.222     165.448     1.06        280.692     276.858     240.58      
118.2       864.615     135.853     2.397       3.111       270.112     171.513     84.886      56.418      51.527      86.018      39.887      12.812      2.04        3.291       357.222     165.448     1.06        302.941     290.672     268.119     
