~Version Information Section
VERS.                                         2.0:CWLS log ASCII Standart – VERSION 2.0
WRAP.                                          NO:One line per depth step
~Well Information Section
STRT.M                                        0.6:Начальная глубина
STOP.M                                      143.2:Конечная глубина
STEP.M                                          0:Шаг квантования по глубине
NULL.                                    -9999.25:Признак "Нет данных"
WELL.                                       116Мх:Скважина
~Parameter Information Section
~Curve Information Section
DEPTH.M                                          :Глубина
BK.lgОмм                                         :BK     (БК)
ПРОФ_СР.мм                                       :DS  (ДС)
ГК.мкР/час                                       :GK          (ГК)
ГЗ1.Омм                                          :GZ1   ГЗ1(A0.4M0.1N)
ГЗ2.Омм                                          :GZ2   ГЗ2(A1.0M0.1N)
ГЗ3.Омм                                          :GZ3   ГЗ3(A2.0M0.5N)
ГЗ4.Oмм                                          :GZ4   ГЗ4(A4.0M0.5N)
ГЗ5.Oмм                                          :GZ5   ГЗ5(A8.0M0.5N)
ГЗК.Омм                                          :GZK   ГЗK(N0.5M2.0A)
ИК.мСм/м                                         :IK
НГК.усл.ед.                                      :NGK     (НГК)
ПС.мВ                                            :PS       (ПС)
PZ.Омм                                           :PZ    (КС)
RIS.Омм                                          :RS (Резистивиметр)
U1.мВ                                            :U1
U2.mV                                            :U2
U3.мВ                                            :U3
W.г/см3                                          :ГГКп
П.%                                              :п
ННКМ.усл.ед                                      :ННКм
~ASCII LOG DATA
# ...
119.0       272.898     148.848     3.63        53.945      75.98       77.979      71.802      50.04       98.23       47.865      1.262       362.071     126.815     1.125       980.0       1120.0      1360.0      2.275       27.501      2.545       
119.1       205.589     148.833     3.627       53.544      75.779      77.643      71.677      49.864      98.084      47.669      1.265       366.292     126.919     1.125       980.0       1110.0      1360.0      2.287       27.109      2.485       
119.2       208.93      148.915     3.502       53.169      75.663      77.339      71.635      49.715      97.961      47.371      1.279       370.513     127.126     1.125       990.0       1100.0      1360.0      2.3         26.88       2.56        
119.3       214.783     148.939     3.471       52.835      75.649      77.115      71.635      49.589      97.866      47.179      1.338       375.418     127.437     1.125       1020.0      1070.0      1360.0      2.297       27.092      2.642       
119.4       125.314     148.91      3.529       52.554      75.649      76.971      71.635      49.485      97.802      46.701      1.404       381.121     127.852     1.125       1020.0      1080.0      1360.0      2.312       27.7        2.637       
119.5       72.611      148.896     3.587       52.337      75.649      76.891      71.635      49.399      97.766      46.464      1.448       387.282     128.281     1.125       990.0       1080.0      1340.0      2.304       28.861      2.624       
119.6       85.704      148.923     3.638       52.185      75.649      76.875      71.712      49.332      97.757      46.516      1.427       393.441     128.696     1.125       980.0       1090.0      1330.0      2.293       29.094      2.603       
119.7       132.13      149.035     3.727       52.091      75.793      76.875      71.958      49.281      97.757      46.701      1.412       398.689     129.037     1.125       970.0       1100.0      1330.0      2.293       28.665      2.604       
119.8       162.93      149.077     3.618       52.047      76.081      76.875      72.406      49.246      97.757      46.516      1.419       402.796     129.363     1.125       970.0       1100.0      1340.0      2.278       28.405      2.621       
119.9       158.855     149.04      3.684       52.046      76.513      76.875      73.075      49.224      97.757      46.516      1.437       405.419     129.719     1.125       970.0       1110.0      1350.0      2.294       28.131      2.602       
120.0       133.968     148.72      3.773       52.046      77.089      76.939      73.949      49.214      97.777      46.516      1.441       407.244     130.163     1.125       970.0       1130.0      1350.0      2.31        27.834      2.589       
120.1       142.233     148.668     4.057       52.046      77.795      77.083      75.005      49.214      97.833      46.516      1.398       408.385     130.667     1.125       970.0       1130.0      1310.0      2.31        27.378      2.666       
120.2       158.125     148.765     4.077       52.046      78.543      77.323      76.144      49.214      97.932      46.281      1.37        409.184     131.2       1.125       970.0       1110.0      1300.0      2.317       26.541      2.721       
120.3       116.413     148.969     3.985       52.084      79.508      77.691      77.267      49.214      98.088      46.751      1.359       409.526     131.748     1.125       970.0       1090.0      1300.0      2.307       26.458      2.694       
120.4       111.944     149.2       3.713       52.158      80.689      78.187      78.346      49.215      98.309      46.801      1.411       409.64      132.37      1.125       980.0       1090.0      1310.0      2.306       27.47       2.673       
120.5       111.944     149.375     3.584       52.274      82.071      78.779      79.344      49.231      98.598      47.23       1.416       409.64      133.141     1.125       980.0       1070.0      1270.0      2.296       28.319      2.665       
120.6       129.122     150.094     3.645       52.444      83.641      79.435      80.224      49.269      98.949      47.281      1.383       409.64      134.222     1.125       980.0       1070.0      1250.0      2.238       28.992      2.62        
120.7       141.579     150.049     3.879       52.681      85.556      80.155      81.037      49.347      99.356      47.423      1.336       409.64      135.644     1.125       990.0       1070.0      1250.0      2.22        29.297      2.577       
120.8       152.757     149.65      3.919       53.016      87.414      80.939      81.818      49.502      99.807      47.969      1.345       409.526     137.407     1.125       1010.0      1070.0      1250.0      2.202       29.579      2.561       
120.9       171.791     148.999     3.762       53.499      89.315      81.787      82.566      49.8        100.29      47.916      1.332       409.07      139.289     1.125       1040.0      1070.0      1260.0      2.206       29.965      2.537       
121.0       179.887     148.848     3.605       54.196      91.316      82.747      83.309      50.334      100.807     47.969      1.258       407.929     141.185     1.125       1030.0      1090.0      1280.0      2.238       29.967      2.475       
121.1       188.365     148.543     3.621       55.192      93.39       83.835      84.093      51.213      101.365     48.473      1.216       406.104     143.17      1.125       1030.0      1100.0      1290.0      2.249       29.144      2.439       
121.2       181.552     148.563     3.563       56.58       95.435      85.067      84.928      52.561      101.981     48.579      1.263       403.822     145.437     1.125       950.0       1100.0      1290.0      2.246       28.622      2.485       
121.3       167.494     149.051     3.658       58.43       97.667      86.491      85.856      54.454      102.683     48.624      1.305       401.541     148.178     1.125       960.0       1120.0      1310.0      2.242       28.238      2.519       
121.4       155.239     149.932     3.511       60.769      99.855      88.379      86.938      56.9        103.491     48.936      1.29        399.373     151.096     1.125       980.0       1120.0      1310.0      2.233       28.679      2.524       
121.5       161.808     149.772     3.484       63.561      101.9       90.651      88.182      59.823      104.411     48.883      1.306       397.206     153.778     1.125       990.0       1120.0      1330.0      2.226       29.402      2.49        
121.6       161.436     150.386     3.206       66.7        103.873     93.275      89.571      63.096      105.444     48.936      1.35        394.81      155.778     1.125       1000.0      1120.0      1350.0      2.244       29.273      2.447       
121.7       168.267     150.485     3.136       70.002      105.587     96.235      91.056      66.524      106.565     48.936      1.362       391.73      157.156     1.125       1020.0      1120.0      1350.0      2.268       29.237      2.506       
121.8       85.114      150.569     3.148       73.256      107.084     99.723      92.566      69.933      107.729     48.624      1.313       387.852     158.222     1.125       1030.0      1120.0      1360.0      2.288       29.59       2.572       
121.9       186.209     150.861     3.298       76.263      108.611     103.419     94.026      73.21       108.897     48.421      1.262       382.947     159.467     1.125       1050.0      1120.0      1390.0      2.272       30.133      2.572       
122.0       204.174     150.703     3.685       78.867      110.223     107.419     95.414      76.288      110.034     48.678      1.302       377.585     161.185     1.125       1050.0      1140.0      1390.0      2.259       30.363      2.543       
122.1       188.799     150.111     3.796       80.987      111.894     111.947     96.755      79.128      111.103     48.624      1.33        371.767     163.704     1.125       1050.0      1150.0      1400.0      2.251       29.796      2.487       
