~Version Information Section
VERS.                                         2.0:CWLS log ASCII Standart – VERSION 2.0
WRAP.                                          NO:One line per depth step
~Well Information Section
STRT.M                                        0.8:Начальная глубина
STOP.M                                      209.6:Конечная глубина
STEP.M                                          0:Шаг квантования по глубине
NULL.                                    -9999.25:Признак "Нет данных"
WELL.                                         5Мх:Скважина
~Parameter Information Section
~Curve Information Section
DEPTH.M                                          :Глубина
BK.Ohm*M                                         :BK     (БК)
DS.mm                                            :DS  (ДС)
ГК.mcr/h                                         :GK          (ГК)
GZ1.Ohm*M                                        :GZ1   ГЗ1(A0.4M0.1N)
GZ2.Ohm*M                                        :GZ2   ГЗ2(A1.0M0.1N)
GZ3.Ohm*M                                        :GZ3   ГЗ3(A2.0M0.5N)
GZ4.Ohm*M                                        :GZ4   ГЗ4(A4.0M0.5N)
GZ5.Ohm*M                                        :GZ5   ГЗ5(A8.0M0.5N)
GZR.Ohm*M                                        :GZK   ГЗK(N0.5M2.0A)
ИК.Ohm*M                                         :IK
НГК.                                             :NNKb  (ННКб)
NNKM.                                            :NNKm  (ННКм)
PS.mv                                            :PS       (ПС)
PZ.Ohm*M                                         :PZ    (КС)
RS.Ohm*M                                         :RS (Резистивиметр)
W.%                                              :W
ГГК.g/cm3                                        :ГГК
SGDT1.1/min                                      :ПЛ1
SGDT2.1/min                                      :ПЛ2
SGDT3.1/min                                      :ПЛ3
SGDT4.1/min                                      :ПЛ4
~ASCII LOG DATA
# ...
124.8       35.645      152.459     4.739       4.297       8.509       7.774       4.964       22.462      22.824      23.704      3.073       2.101       934.081     44.221      0.946       34.102      2.232       15320.0     21320.0     15420.0     4460.0      
125.0       40.738      153.94      4.405       5.012       6.449       8.134       5.204       21.382      22.41       25.473      3.196       2.165       924.961     48.064      0.946       33.294      2.19        16440.0     22540.0     16440.0     4400.0      
125.2       43.451      153.519     4.16        5.471       6.492       8.674       5.364       22.102      21.317      26.505      3.37        2.178       921.332     48.674      0.946       32.094      2.161       18840.02    23840.0     17460.0     4660.0      
125.4       46.345      152.311     4.368       5.72        7.69        9.034       5.684       22.822      20.855      27.192      3.267       2.145       923.997     50.154      0.946       32.892      2.166       18680.0     23960.0     17380.0     4900.0      
125.6       50.003      153.738     4.407       5.939       8.098       9.754       5.844       23.722      20.837      27.653      3.281       2.215       930.514     53.212      0.946       33.643      2.165       18080.008   23580.0     17140.0     4760.0      
125.8       42.954      154.185     4.239       6.423       8.394       9.934       6.084       24.262      21.871      28.456      3.118       2.198       932.895     56.394      0.946       35.304      2.131       17000.0     23140.0     16580.0     4540.0      
126.0       45.709      153.478     4.273       6.311       8.143       10.654      6.324       25.702      23.189      28.758      3.148       2.128       931.892     55.8        0.946       34.255      2.092       18520.0     22660.0     15819.999   4420.0      
126.2       39.084      152.225     4.439       6.368       9.078       11.014      6.484       25.522      25.256      28.741      3.121       2.131       929.988     52.457      0.946       34.077      2.095       19840.008   22300.0     15000.0     4220.0      
126.4       40.551      152.273     4.163       6.618       9.751       11.194      6.484       24.622      26.208      28.858      3.143       2.095       930.394     51.593      0.946       33.092      2.117       19080.0     22480.0     15459.999   4600.0      
126.6       46.238      152.218     3.852       5.871       8.827       11.014      6.724       24.262      24.338      29.155      3.231       2.133       931.442     53.738      0.946       32.67       2.136       18240.008   22360.0     15999.999   4360.0      
126.8       48.417      152.462     3.873       5.993       8.849       11.014      6.964       24.262      22.051      29.598      3.328       2.211       937.205     56.852      0.946       33.581      2.164       17960.0     22460.0     15579.999   4320.0      
127.0       54.075      152.78      4.009       6.137       9.031       11.194      7.124       24.982      22.382      30.065      3.286       2.261       943.113     59.711      0.946       33.896      2.211       16760.0     22260.0     15020.0     4620.0      
127.2       60.534      152.321     4.094       6.525       9.466       11.374      7.284       26.062      22.751      30.589      3.553       2.27        944.906     64.838      0.946       31.503      2.221       15999.971   21800.0     15340.0     4580.0      
127.4       72.111      152.967     4.067       6.513       9.448       12.274      7.924       26.782      21.036      30.924      3.593       2.337       945.008     64.6        0.946       32.081      2.175       15080.0     22040.0     15860.001   4440.0      
127.6       48.529      152.742     4.183       7.663       10.521      13.354      8.084       26.422      19.752      30.751      3.164       2.256       943.643     62.16       0.946       36.175      2.145       18359.939   22000.0     15440.001   4400.0      
127.8       46.881      152.561     4.414       7.505       10.831      14.254      8.084       26.062      20.663      30.758      3.173       2.138       941.73      61.056      0.946       34.832      2.178       19040.0     22160.0     15360.0     4780.0      
128.0       52.966      152.621     4.223       6.718       10.123      13.534      7.844       25.882      20.669      30.98       3.291       2.183       939.91      62.411      0.946       32.798      2.202       17200.014   23320.0     15860.001   4660.0      
128.2       56.624      152.046     4.225       6.859       9.734       12.994      7.764       25.702      19.616      31.192      3.145       2.152       934.407     62.757      0.946       34.123      2.184       17279.957   24360.0     16359.999   4680.0      
128.4       54.2        152.643     4.217       6.954       10.377      12.814      7.604       25.342      18.792      31.07       3.158       2.143       933.37      60.217      0.946       34.179      2.15        18479.996   24140.0     16520.0     5280.0      
128.6       52.723      153.229     4.069       6.81        10.679      12.454      7.524       25.342      19.739      30.939      3.148       2.147       935.557     58.852      0.946       34.119      2.128       19520.088   23620.0     16980.0     5280.0      
128.8       56.105      154.284     4.034       6.721       11.241      12.454      7.604       25.882      20.827      31.208      3.212       2.167       939.566     58.839      0.946       33.837      2.105       19840.0     23960.0     16580.0     4960.0      
129.0       56.234      152.904     3.817       6.817       11.401      11.374      7.604       25.162      20.966      31.47       3.27        2.214       940.552     58.233      0.946       33.908      2.085       19359.951   23420.0     16400.0     4460.0      
129.2       53.827      153.828     3.972       7.056       12.03       11.554      7.524       24.982      19.943      31.062      3.238       2.167       941.367     55.523      0.943       33.523      2.085       19840.018   22740.0     15920.001   4220.0      
129.4       52.0        152.324     3.943       6.661       12.231      11.554      7.444       24.442      19.493      30.921      3.222       2.135       939.87      54.867      0.94        32.882      2.121       19519.979   22640.0     15240.0     4220.0      
129.6       54.576      152.671     4.246       6.478       12.066      11.554      7.444       23.902      18.201      31.044      3.275       2.202       937.605     56.462      0.94        33.508      2.163       17399.979   22380.0     14540.0     4320.0      
129.8       59.02       151.441     4.022       6.353       11.856      11.554      7.604       23.902      17.464      31.025      3.345       2.252       934.196     59.076      0.937       33.51       2.171       16560.0     21500.0     14840.0     4320.0      
130.0       66.988      152.822     3.959       6.313       11.824      11.554      7.604       24.082      18.024      31.055      3.342       2.277       930.762     60.206      0.934       34.121      2.19        17639.877   21580.0     15380.001   4860.0      
130.2       58.479      154.298     4.332       6.526       12.118      11.734      7.604       24.442      19.788      31.01       3.353       2.257       928.966     57.906      0.934       34.033      2.209       18720.088   22100.0     16280.001   5460.0      
130.4       57.016      154.818     4.043       6.755       12.277      11.914      7.444       25.162      21.13       30.95       3.261       2.256       927.603     55.018      0.931       34.713      2.191       17760.059   24100.0     17660.0     5620.0      
130.6       51.761      155.189     4.239       6.81        12.078      11.554      7.284       25.342      21.352      30.493      3.179       2.24        927.221     51.329      0.925       35.901      2.154       20800.125   25480.0     18320.0     5440.0      
130.8       50.582      155.699     4.461       6.373       11.933      12.454      7.204       25.162      21.238      30.128      3.004       2.17        924.713     49.241      0.922       36.311      2.147       21680.0     25940.0     18640.0     5560.0      
