~Version Information Section
VERS.                                         2.0:CWLS log ASCII Standart – VERSION 2.0
WRAP.                                          NO:One line per depth step
~Well Information Section
STRT.M                                        0.0:Начальная глубина
STOP.M                                      211.0:Конечная глубина
STEP.M                                          0:Шаг квантования по глубине
NULL.                                    -9999.25:Признак "Нет данных"
WELL.                                       125Мх:Скважина
~Parameter Information Section
~Curve Information Section
DEPTH.M                                          :Глубина
BK.lgОмм                                         :BK
D.                                               :D sr
GGKP.g/sm3                                       :GGKp
ГК.гамма                                         :GK
ИК.мСм/м                                         :IK
KP.%                                             :Kp
PS.                                              :PS       (ПС)
PZ.Омм                                           :PZ
RIS.Омм                                          :RIS
U1.                                              :U1
U2.                                              :U2
U3.                                              :U3
БЗ.                                              :БЗ (ГГК-1)
ГЗ1.Омм                                          :ГЗ1
ГЗ2.Омм                                          :ГЗ2
ГЗ3.Омм                                          :ГЗ3
ГЗ4.Oмм                                          :ГЗ4
ГЗ5.Oмм                                          :ГЗ5
ГЗК.Омм                                          :ГЗК
ИКБ.мСм/м                                        :ИКБ
МЗ.                                              :МЗ жесткий (ГГК-4)
ННКМ.усл.ед                                      :ННКм
ИКМ.мСм/м                                        :ИКМ
НГК.усл.ед                                       :ННКб
~ASCII LOG DATA
# ...
164.7       21.135      133.774     2.365       6.557       18.305      28.99       138.606     26.941      1.105       463.004     112.695     275.027     11477.5     30.161      28.063      24.739      22.481      25.048      24.827      19.547      17403.75    0.949       15.622      2.016       
164.8       21.429      133.835     2.364       6.417       18.351      29.178      138.799     26.985      1.105       464.315     111.507     280.712     11548.571   30.417      28.123      25.45       22.509      24.943      24.861      19.658      16964.285   0.986       15.571      1.998       
164.9       21.827      133.4       2.369       6.384       18.395      29.053      138.97      27.042      1.105       469.824     107.422     286.522     11506.667   30.651      28.158      26.1        22.479      24.753      24.912      19.766      17009.334   0.989       15.482      2.128       
165.0       22.131      133.451     2.378       6.339       18.434      28.697      139.123     27.104      1.105       480.226     103.971     291.772     11108.571   30.844      28.135      26.677      22.364      24.538      24.977      19.858      16785.715   0.984       15.455      2.229       
165.1       22.542      133.06      2.395       6.367       18.47       28.069      139.258     27.167      1.105       491.162     101.188     296.747     10830.667   31.047      28.113      27.156      22.182      24.286      25.027      19.939      16849.334   0.973       15.474      2.246       
165.2       23.014      133.544     2.41        6.392       18.492      27.167      139.376     27.224      1.105       499.788     101.481     299.953     10795.714   31.321      28.168      27.459      21.986      24.031      25.038      20.017      17194.285   0.961       15.501      2.24        
165.3       23.227      134.643     2.414       6.406       18.511      26.746      139.479     27.275      1.105       499.154     105.891     302.442     10421.333   31.541      28.157      27.49       21.82       23.773      24.965      20.076      17260.0     0.95        15.493      2.192       
165.4       23.014      133.72      2.414       6.393       18.526      26.873      139.567     27.315      1.105       491.935     113.2       304.429     10504.0     31.611      28.045      27.266      21.725      23.527      24.791      20.098      17038.666   0.945       15.471      2.166       
165.5       22.542      134.595     2.411       6.397       18.527      27.086      139.643     27.339      1.105       479.41      116.553     305.755     10691.429   31.516      27.895      26.984      21.717      23.364      24.557      20.074      16501.428   0.968       15.429      2.151       
165.6       22.233      133.786     2.406       6.405       18.542      27.083      139.713     27.337      1.105       457.235     116.292     302.221     10475.714   31.375      27.862      26.736      21.788      23.261      24.232      20.008      16067.143   0.974       15.396      2.177       
165.7       22.284      133.354     2.407       6.274       18.535      27.077      139.786     27.297      1.105       431.054     113.053     294.751     10605.0     31.289      28.024      26.57       21.943      23.135      23.829      19.894      16041.25    0.962       15.34       2.243       
165.8       22.491      132.692     2.413       6.277       18.477      27.333      139.876     27.217      1.104       407.009     109.831     282.285     10482.857   31.204      28.279      26.492      22.097      23.018      23.375      19.749      16440.0     0.964       15.307      2.226       
165.9       22.439      133.199     2.419       6.24        18.412      27.6        139.999     27.097      1.104       386.247     107.414     267.474     10248.0     31.129      28.584      26.489      22.278      22.943      22.933      19.595      16734.666   0.988       15.258      2.179       
166.0       22.029      133.793     2.427       6.223       18.342      28.145      140.174     26.939      1.104       374.821     108.952     253.323     10375.714   31.038      28.884      26.537      22.443      22.877      22.545      19.429      16892.857   0.988       15.187      2.113       
166.1       21.577      133.2       2.435       6.276       18.267      28.974      140.424     26.743      1.104       379.573     113.761     244.593     10431.429   30.854      29.049      26.616      22.588      22.817      22.256      19.247      16842.857   0.984       15.092      2.034       
166.2       21.38       133.723     2.438       6.45        18.178      29.531      140.767     26.512      1.104       394.133     118.571     242.388     10258.667   30.61       29.12       26.688      22.82       22.744      22.082      19.053      16622.666   0.981       15.006      2.026       
166.3       21.528      132.666     2.44        6.536       18.068      29.236      141.221     26.258      1.104       408.69      120.809     243.19      10172.0     30.388      29.131      26.708      23.038      22.695      22.036      18.853      16597.334   0.978       14.935      2.08        
166.4       21.528      133.363     2.438       6.577       17.972      28.632      141.796     25.997      1.104       421.045     122.241     244.729     10218.462   30.13       28.966      26.661      23.276      22.578      22.056      18.652      16741.539   0.987       14.856      2.275       
166.5       21.281      133.376     2.429       6.508       17.867      28.359      142.495     25.741      1.104       429.061     122.022     243.408     10338.667   29.797      28.568      26.552      23.519      22.361      22.147      18.459      16909.334   0.993       14.752      2.324       
166.6       21.038      134.044     2.415       6.297       17.738      28.357      143.311     25.5        1.104       430.615     118.807     241.531     10644.0     29.334      27.948      26.392      23.712      22.164      22.253      18.273      16982.666   0.997       14.638      2.142       
166.7       20.845      133.317     2.403       6.238       17.644      28.528      144.23      25.276      1.104       428.678     115.592     237.929     11056.0     28.913      27.365      26.205      23.842      21.922      22.337      18.099      17045.334   0.996       14.519      2.059       
166.8       20.654      133.091     2.392       6.283       17.548      29.313      145.227     25.069      1.104       425.472     111.719     236.03      11178.571   28.642      26.955      26.028      23.899      21.655      22.342      17.929      16877.143   0.98        14.404      2.036       
166.9       20.464      133.764     2.388       6.336       17.443      30.252      146.274     24.883      1.104       421.509     109.188     237.35      10950.667   28.391      26.559      25.892      23.896      21.458      22.356      17.773      16685.334   0.974       14.316      2.004       
167.0       20.184      133.62      2.391       6.439       17.343      30.371      147.335     24.723      1.105       417.757     108.309     244.352     11021.429   28.229      26.282      25.772      23.831      21.198      22.388      17.625      16622.857   0.96        14.274      1.959       
167.1       19.907      133.761     2.394       6.601       17.217      29.954      148.379     24.584      1.104       414.331     107.658     252.744     10969.333   28.074      26.029      25.641      23.615      20.993      22.47       17.493      16830.666   0.963       14.248      2.034       
167.2       19.634      132.858     2.398       6.705       17.107      29.814      149.375     24.457      1.104       414.722     107.007     262.468     10797.333   27.899      25.752      25.52       23.308      20.802      22.561      17.371      16837.334   0.98        14.155      2.149       
167.3       19.679      132.73      2.404       6.737       17.004      29.655      150.298     24.329      1.104       422.533     107.715     273.489     10928.0     27.793      25.584      25.401      22.884      20.552      22.705      17.252      17006.666   0.98        14.073      2.076       
