~Version Information Section
VERS.                                         2.0:CWLS log ASCII Standart – VERSION 2.0
WRAP.                                          NO:One line per depth step
~Well Information Section
STRT.M                                       -0.3:Начальная глубина
STOP.M                                      200.8:Конечная глубина
STEP.M                                          0:Шаг квантования по глубине
NULL.                                    -9999.25:Признак "Нет данных"
WELL.                                       124Мх:Скважина
~Parameter Information Section
~Curve Information Section
DEPTH.M                                          :Глубина
U1.мВ                                            :U1
U2.                                              :U2
U3.мВ                                            :U3
БЗ.имп/мин                                       :БЗ
ГГКП.имп/мин                                     :ГГКп
ГЗ1.Омм                                          :ГЗ1
ГЗ2.Омм                                          :ГЗ2
ГЗ3.Омм                                          :ГЗ3
ГЗ4.Oмм                                          :ГЗ4
ГЗ5.Oмм                                          :ГЗ5
ГЗК.Омм                                          :ГЗК
КП.%                                             :Кп
МЗ.                                              :МЗ жесткий
НГК.усл.ед                                       :ННКб
ННКМ.усл.ед                                      :ННКм
ПРОФ_СР.мм                                       :ПРОФ_СР
ПС.мВ                                            :ПС
BK.lgОмм                                         :BK
ГК.имп/мин                                       :GK
ИК.мСм/м                                         :IK
PZ.Омм                                           :PZ
RIS.Омм                                          :RIS
~ASCII LOG DATA
# ...
83.8        1235.964722 3279.174316 1246.021729 20570.6660162.280921    7.881       12.478      25.1        23.048      25.808001   23.238001   26.714647   28306.6660162.687198    1.85557     161.645004  375.76001   23.878115   5.541       14.19124    88.800003   1.06        
83.9        1206.281006 3248.575439 1218.808716 21082.8574222.295302    7.881       12.462      25.1        23.08       25.823999   23.226999   26.201202   28842.8574222.709439    1.94171     156.751007  375.76001   25.644842   5.587       14.184397   88.800003   1.06        
84.0        1184.385986 3241.843262 1235.268677 21113.8457032.31317     7.889       12.454      25.1        23.120001   25.848      23.226999   27.115309   28958.4609382.530353    2.012713    156.255005  375.76001   27.925438   5.53        14.182385   88.720001   1.06        
84.1        1174.041016 3249.893311 1269.168335 20715.7148442.330485    7.907       12.453      25.120001   23.152      25.888      23.226999   27.907515   28145.7148442.428246    2.002411    161.880997  375.76001   31.260794   5.414       14.172135   88.639999   1.06        
84.2        1183.388062 3256.820068 1272.35376  20077.1425782.341761    7.93        12.452      25.16       23.176001   25.952      23.226999   28.63209    27912.8574222.494148    1.95379     167.947006  375.76001   31.332861   5.691       14.149075   88.559998   1.06        
84.3        1207.635864 3263.264893 1252.691772 19291.4277342.342739    7.951       12.451      25.200001   23.191999   26.024      23.257999   29.42705    27671.4277342.418017    1.873711    170.656006  375.76001   27.101913   6.106       14.132078   88.480003   1.06        
84.4        1229.78064  3270.992432 1237.549683 19241.5390632.344442    7.961       12.45       25.24       23.208      26.104      23.315001   30.105446   27670.7695312.178909    1.815914    172.434006  375.76001   24.547089   6.131       14.098208   88.400002   1.06        
84.5        1236.735596 3280.749756 1247.339966 19610.6660162.342649    7.961       12.449      25.280001   23.224001   26.191999   23.368999   29.476583   28506.6660162.18697     1.789286    174.582001  375.76001   22.961483   6.144       14.045339   88.400002   1.06        
84.6        1236.859619 3291.348389 1269.365601 20007.1425782.336824    7.961       12.449      25.299999   23.247999   26.271999   23.391001   28.669861   29675.7148442.208913    1.775246    174.764999  375.76001   22.029268   5.791       14.010704   88.400002   1.06        
84.7        1249.449829 3300.030762 1274.505493 20697.1425782.336536    7.958       12.449      25.299999   23.280001   26.351999   23.391001   27.776424   29480.0     2.253105    1.78004     171.475998  376.376007  21.037783   5.702       13.947974   88.400002   1.06        
84.8        1278.59436  3313.852783 1272.731812 20257.1425782.336635    7.943       12.441      25.299999   23.32       26.440001   23.391001   27.164732   28442.8574222.324975    1.811638    170.591995  376.992004  20.796965   6.286       13.844279   88.400002   1.06        
84.9        1331.981689 3352.799316 1296.35437  19791.4277342.337615    7.919       12.426      25.32       23.351999   26.535999   23.358999   26.95657    27441.4277342.440964    1.816951    171.593002  378.223999  20.653805   6.432       13.758376   88.400002   1.06        
85.0        1390.870361 3407.241699 1345.556274 19342.8574222.347399    7.886       12.404      25.34       23.375999   26.648001   23.264      26.949541   25855.7148442.515467    1.784297    172.490997  380.071991  20.653805   5.914       13.683821   88.400002   1.06        
85.1        1421.091919 3436.515381 1374.081299 18894.2851562.363741    7.859       12.376      25.360001   23.392      26.792      23.115999   26.911068   25031.4277342.592069    1.791814    170.031006  382.536011  20.892963   5.859       13.621565   88.239998   1.06        
85.2        1411.389038 3421.182617 1354.45105  19061.4277342.383172    7.845       12.343      25.379999   23.4        26.927999   22.948      26.661533   25290.0     2.669363    1.827577    168.681     384.384003  21.134893   5.587       13.616001   88.0        1.06        
85.3        1376.102417 3376.893311 1303.312744 19232.0     2.402232    7.844       12.312      25.4        23.4        27.063999   22.796      26.154306   25570.6660162.78504     1.880702    169.576996  386.847992  21.727013   5.478       13.655793   87.68       1.06        
85.4        1361.567017 3354.070313 1274.208008 19332.0     2.41471     7.844       12.287      25.4        23.4        27.208      22.683001   25.421761   26302.6660162.864595    1.935776    164.772995  388.696014  23.988329   4.934       13.696754   87.360001   1.06        
85.5        1366.822388 3350.577881 1264.591309 19508.0     2.42        7.844       12.275      25.4        23.4        27.344      22.615      24.641064   27052.0     2.98972     2.01897     161.207001  390.544006  29.308933   4.806       13.749674   87.040001   1.06        
85.6        1383.473755 3353.086426 1259.342651 19402.6660162.415898    7.844       12.275      25.42       23.4        27.455999   22.597      24.582529   27197.3339843.023989    2.098708    160.108002  391.776001  31.988951   4.55        13.857901   86.800003   1.06        
85.7        1395.273804 3344.789795 1241.212402 18862.8574222.407868    7.856       12.275      25.459999   23.4        27.576      22.597      25.024004   27625.7148443.0207      2.150795    158.699005  393.623993  34.514374   4.919       13.977413   86.639999   1.06        
85.8        1403.15686  3329.918945 1215.678467 18709.3339842.401357    7.88        12.275      25.52       23.4        27.688      22.597      26.604898   27228.0     2.900126    2.180032    157.132996  394.855988  35.974934   5.165       14.126688   86.559998   1.06        
85.9        1410.901367 3327.585449 1207.682007 18700.0     2.395769    7.908       12.278      25.58       23.4        27.775999   22.597      28.54414    26684.0     2.737112    2.142711    156.768005  396.70401   36.057869   5.318       14.261877   86.480003   1.06        
86.0        1418.570679 3338.523926 1218.618042 18977.3339842.387678    7.936       12.294      25.639999   23.4        27.848      22.625      29.865351   26717.3339842.452435    2.05392     160.591003  398.552002  35.809647   5.395       14.353792   86.32       1.06        
86.1        1426.552979 3364.877686 1253.593994 19802.8574222.379644    7.955       12.323      25.700001   23.4        27.912001   22.694      30.44759    27301.4277342.276038    1.947412    165.919998  400.399994  36.140984   5.235       14.454      86.239998   1.06        
86.2        1434.962769 3396.211426 1298.012329 20290.6660162.369049    7.961       12.36       25.76       23.4        27.959999   22.789      30.637636   27361.3339842.12318     1.865158    170.251007  402.247986  34.119289   5.261       14.472618   86.080002   1.06        
86.3        1446.174683 3429.069824 1344.99353  20088.5722662.358508    7.961       12.398      25.799999   23.408001   28.0        22.9        30.016497   26970.0     2.145602    1.80568     174.535004  404.712006  29.853828   5.549       14.445648   85.919998   1.06        
86.4        1477.973389 3438.925293 1345.59668  20096.0     2.348821    7.961       12.436      25.84       23.424      28.048      22.992001   29.359295   26053.3339842.292692    1.801715    174.460007  407.175995  29.716663   5.629       14.426891   85.760002   1.06        
86.5        1526.054321 3426.049072 1302.390015 19206.6660162.345521    7.952       12.471      25.9        23.448      28.104      23.044001   29.196402   24670.6660162.34963     1.821539    173.651993  409.023987  30.831877   6.029       14.365958   85.599998   1.06        
86.6        1548.626953 3395.609619 1244.285645 18405.7148442.348373    7.932       12.495      25.940001   23.48       28.152      23.047001   28.243612   24175.7148442.408708    1.828148    172.119995  411.488007  31.188892   5.818       14.323774   85.360001   1.06        
