~Version Information Section
VERS.                                         2.0:CWLS log ASCII Standart – VERSION 2.0
WRAP.                                          NO:One line per depth step
~Well Information Section
STRT.M                                       -0.1:Начальная глубина
STOP.M                                      197.8:Конечная глубина
STEP.M                                          0:Шаг квантования по глубине
NULL.                                    -9999.25:Признак "Нет данных"
WELL.                                       134Мх:Скважина
~Parameter Information Section
~Curve Information Section
DEPTH.M                                          :Глубина
BK.Ohm*M                                         :BK     (БК)
DS.mm                                            :DS  (ДС)
GGK.g/cm3                                        :GGKp
ГК.mcr/h                                         :GK          (ГК)
GZ1.Ohm*M                                        :GZ1   ГЗ1(A0.4M0.1N)
GZ2.Ohm*M                                        :GZ2   ГЗ2(A1.0M0.1N)
GZ3.Ohm*M                                        :GZ3   ГЗ3(A2.0M0.5N)
GZ4.Ohm*M                                        :GZ4   ГЗ4(A4.0M0.5N)
GZ5.Ohm*M                                        :GZ5   ГЗ5(A8.0M0.5N)
GZR.Ohm*M                                        :GZK   ГЗK(N0.5M2.0A)
ИК.Ohm*M                                         :IK
КП.%                                             :Кп
НГК.ue                                           :NGK     (НГК)
NNKM.                                            :NNKm  (ННКм)
PS.mv                                            :PS       (ПС)
PZ.Ohm*M                                         :PZ    (КС)
RS.Ohm*M                                         :RS (Резистивиметр)
U1.mV                                            :U1
U2.mV                                            :U2
U3.mV                                            :U3
~ASCII LOG DATA
# ...
131.1       69.225      133.814     2.259       4.208       59.965      55.221      51.003      46.513      20.876      55.696      40.435      31.021      1.32        2.214       320.03      60.252      1.06        801.089     630.862     933.621     
131.2       72.689      135.701     2.259       4.119       59.965      57.101      52.292      48.365      22.605      55.819      40.75       28.913      1.323       2.229       327.85      60.14       1.06        794.99      628.325     944.64      
131.3       76.647      136.298     2.26        3.924       59.965      58.618      54.031      50.095      24.598      55.819      40.958      28.299      1.325       2.262       334.248     60.095      1.06        779.74      630.861     961.169     
131.4       76.891      136.214     2.265       3.907       60.425      59.749      56.173      51.435      26.924      55.785      41.085      28.72       1.292       2.307       339.024     60.095      1.06        764.494     633.4       972.189     
131.5       75.005      135.171     2.269       4.093       61.91       60.486      58.466      52.057      29.639      55.32       41.247      29.614      1.287       2.329       342.267     60.095      1.06        752.294     635.938     944.639     
131.6       78.415      134.229     2.272       3.953       64.518      60.905      60.646      52.15       32.831      53.943      41.186      29.974      1.301       2.321       344.019     60.095      1.06        761.443     643.549     911.582     
131.7       94.82       134.375     2.27        3.564       68.034      61.205      62.572      52.15       36.46       51.419      41.031      28.658      1.336       2.295       344.448     60.101      1.06        773.642     648.625     895.054     
131.8       115.167     134.288     2.264       3.306       71.904      61.566      64.066      51.742      40.06       47.675      40.614      27.639      1.344       2.277       344.448     60.156      1.06        788.892     653.699     878.525     
131.9       121.104     134.003     2.251       3.251       76.609      61.964      64.912      50.437      42.92       42.973      40.154      27.264      1.347       2.291       344.448     60.263      1.06        798.04      648.625     861.996     
132.0       114.156     134.423     2.233       3.513       81.8        62.359      65.148      48.27       44.484      37.924      39.248      28.17       1.337       2.299       343.536     60.441      1.06        807.189     643.55      856.486     
132.1       106.472     133.187     2.215       3.598       85.067      62.716      65.148      45.579      44.892      33.184      38.442      30.357      1.332       2.285       341.043     60.704      1.06        807.189     642.002     884.036     
132.2       96.548      131.508     2.206       3.799       86.203      63.08       65.076      42.798      44.829      29.278      37.601      31.628      1.348       2.3         336.704     61.067      1.06        804.139     648.067     911.581     
132.3       84.576      131.183     2.207       3.748       86.498      63.285      64.551      40.202      44.209      26.446      36.631      32.497      1.356       2.347       330.544     61.541      1.06        804.139     656.669     1010.755    
132.4       78.793      131.598     2.213       3.854       86.498      63.285      63.247      37.859      42.403      24.587      35.872      31.289      1.382       2.355       322.702     62.133      1.06        819.387     655.121     1076.875    
132.5       76.277      131.992     2.217       4.049       85.881      63.246      61.071      35.735      39.585      23.443      35.245      29.942      1.374       2.33        313.544     62.848      1.06        834.636     646.955     1098.264    
132.6       73.958      131.09      2.225       4.138       82.814      62.893      58.037      33.813      36.469      22.735      34.454      28.47       1.369       2.325       303.749     63.687      1.06        811.233     631.26      1031.32     
132.7       73.93       130.156     2.234       4.25        77.176      61.901      54.431      32.105      33.684      22.272      33.54       27.734      1.31        2.329       293.91      64.647      1.06        787.734     601.175     932.812     
132.8       73.643      130.1       2.248       4.236       71.389      60.32       50.618      30.686      31.571      21.973      32.672      27.125      1.301       2.318       284.435     65.727      1.06        746.846     568.472     878.848     
132.9       67.802      130.323     2.268       4.421       65.934      58.197      46.936      29.618      30.062      21.824      31.633      27.077      1.321       2.288       275.558     66.92       1.06        700.151     533.16      793.645     
133.0       60.671      130.417     2.28        4.24        60.694      55.707      43.773      28.858      28.971      21.784      30.424      28.508      1.314       2.243       267.376     68.212      1.06        650.304     505.69      739.692     
133.1       51.117      130.736     2.289       4.387       56.427      53.254      41.415      28.334      28.215      21.784      29.477      30.648      1.337       2.189       259.768     69.577      1.06        629.87      484.764     685.727     
133.2       39.3        131.59      2.285       4.464       53.245      51.05       39.761      27.92       27.74       21.784      28.847      33.471      1.258       2.132       252.67      70.963      1.06        611.005     479.531     657.329     
133.3       40.006      131.094     2.28        4.827       51.015      49.035      38.64       27.508      27.504      21.84       28.548      33.35       1.252       2.119       246.115     72.259      1.06        612.576     470.375     637.448     
133.4       50.063      130.306     2.274       4.789       49.352      46.824      37.991      27.117      27.444      22.004      28.523      31.475      1.215       2.148       240.219     73.252      1.06        604.717     462.527     620.408     
133.5       52.026      130.46      2.27        4.903       47.861      44.647      37.664      26.803      27.444      22.271      28.773      29.921      1.258       2.181       235.122     73.751      1.06        599.667     452.063     614.728     
133.6       47.582      130.66      2.274       4.889       46.531      42.915      37.555      26.67       27.497      22.678      29.064      31.45       1.281       2.211       230.976     73.751      1.06        576.415     442.908     592.006     
133.7       50.458      130.689     2.285       4.927       45.486      41.616      37.555      26.67       27.821      23.441      29.209      32.152      1.295       2.233       227.856     73.751      1.06        554.733     429.827     566.45      
133.8       54.315      130.869     2.299       5.104       44.87       40.705      37.555      26.67       28.717      25.038      29.209      31.2        1.282       2.241       225.754     73.66       1.06        542.199     423.287     526.688     
133.9       49.896      131.806     2.308       4.998       44.731      40.209      37.784      26.743      30.308      28.259      29.001      29.686      1.268       2.235       224.499     72.973      1.06        523.569     418.055     472.724     
134.0       42.47       133.236     2.32        5.031       44.731      40.097      38.903      27.346      32.517      33.324      28.645      30.516      1.225       2.211       223.942     71.778      1.06        502.221     426.091     430.13      
134.1       35.577      133.911     2.322       5.033       44.731      40.097      41.108      28.823      35.111      39.563      28.375      32.704      1.173       2.174       223.942     70.295      1.06        496.122     409.981     334.632     
134.2       31.668      133.601     2.324       5.353       44.982      40.164      43.949      30.944      37.639      45.764      28.389      33.783      1.128       2.14        223.942     68.738      1.06        486.972     393.949     283.191     
