~Version Information Section
VERS.                                         2.0:CWLS log ASCII Standart – VERSION 2.0
WRAP.                                          NO:One line per depth step
~Well Information Section
STRT.M                                        0.6:Начальная глубина
STOP.M                                      202.6:Конечная глубина
STEP.M                                          0:Шаг квантования по глубине
NULL.                                    -9999.25:Признак "Нет данных"
WELL.                                       130Мх:Скважина
~Parameter Information Section
~Curve Information Section
DEPTH.M                                          :Глубина
БК.Омм                                           :BK     (БК)
DСР.мм                                           :DS  (ДС)
W.g/cm3                                          :GGKp
ГК.гамма                                         :GK          (ГК)
А0.4М0.1N.Омм.ohmm                               :GZ1   ГЗ1(A0.4M0.1N)
А1.0М0.1N.Омм.ohmm                               :GZ2   ГЗ2(A1.0M0.1N)
А2.0М0.5N.Омм.ohmm                               :GZ3   ГЗ3(A2.0M0.5N)
А4.0М0.5N.Oмм.ohmm                               :GZ4   ГЗ4(A4.0M0.5N)
А8.0М1.0N.Омм.ohmm                               :GZ5   ГЗ5(A8.0M0.5N)
N0.5M2.0A.Омм.ohmm                               :GZK   ГЗK(N0.5M2.0A)
ИК.мСм/м                                         :IK
НГК.усл.ед                                       :NNKb  (ННКб)
ННКМ.усл.ед                                      :NNKm  (ННКм)
ПС.мВ                                            :PS       (ПС)
КС.Омм                                           :PZ    (КС)
R.Омм                                            :RS (Резистивиметр)
U1.мВ                                            :U1
U2.mV                                            :U2
U3.мВ                                            :U3
КП.%                                             :Кп
~ASCII LOG DATA
# ...
45.4        65.162      132.959     2.214       4.121       33.25       37.413      45.477      43.542      5.636       29.503      26.102      3.758       1.989       291.04      98.24       1.08        2210.819    1531.047    1082.985    24.801      
45.5        80.27       133.34      2.228       4.09        43.304      41.321      55.372      56.486      6.758       36.647      26.63       3.858       2.04        291.04      105.552     1.08        2405.407    1609.469    1090.986    24.256      
45.6        126.752     133.686     2.239       3.93        58.644      46.255      68.241      72.854      8.013       44.488      26.746      3.952       2.111       291.076     113.248     1.08        2509.227    1692.052    1155.623    23.21       
45.7        183.151     133.878     2.242       4.0         79.881      53.08       84.369      92.855      9.566       51.827      26.395      3.896       2.195       291.224     119.696     1.08        2520.453    1735.234    1210.235    21.754      
45.8        235.944     133.669     2.239       3.938       106.53      62.96       104.174     118.901     10.907      56.3        25.8        3.766       2.214       291.468     123.392     1.08        2486.725    1774.808    1263.432    22.148      
45.9        286.315     133.688     2.237       3.753       139.384     77.413      126.987     150.369     11.704      57.503      25.043      3.501       2.106       291.815     123.8       1.08        2493.294    1796.948    1277.522    23.738      
46.0        321.68      133.465     2.238       3.401       181.357     99.45       145.397     173.252     12.044      57.503      24.047      3.252       2.031       292.252     123.8       1.08        2497.96     1788.347    1269.422    26.715      
46.1        443.677     133.56      2.246       3.183       208.14      116.633     151.917     179.582     12.044      56.745      22.913      3.228       2.025       292.76      121.144     1.08        2522.69     1688.241    1141.169    28.456      
46.2        747.776     133.812     2.262       2.994       211.116     120.854     151.917     179.582     12.044      53.407      21.714      3.205       2.008       293.325     116.168     1.08        2547.418    1497.978    909.605     29.611      
46.3        975.707     134.256     2.277       3.067       211.116     121.369     150.811     178.241     11.81       46.475      20.412      3.184       1.981       293.954     110.512     1.08        2570.485    1294.036    708.801     30.0        
46.4        502.425     134.375     2.285       3.382       204.222     121.369     141.113     167.18      10.572      37.157      18.975      3.16        1.949       294.664     105.312     1.08        2404.542    1112.189    552.736     30.321      
46.5        105.675     134.735     2.285       3.862       183.06      115.538     118.652     139.452     8.863       28.096      17.554      3.131       1.912       295.466     100.72      1.08        2211.995    961.09      436.079     30.828      
46.6        32.015      135.137     2.274       4.507       147.324     99.253      87.431      99.23       7.037       21.08       16.295      2.987       1.852       296.378     96.72       1.08        2022.509    872.219     385.681     33.759      
46.7        24.495      135.618     2.263       5.151       96.047      72.331      55.779      61.947      5.169       16.225      15.204      2.636       1.767       297.417     93.088      1.08        1807.409    809.381     369.312     36.32       
46.8        24.69       134.857     2.255       5.773       53.562      48.164      32.215      36.778      3.51        13.274      14.301      2.47        1.687       298.571     89.416      1.08        1524.335    764.132     380.951     38.171      
46.9        20.123      135.241     2.253       5.881       35.226      34.711      18.474      21.501      2.329       12.027      13.633      2.411       1.611       299.821     85.664      1.08        1308.494    724.581     394.45      37.601      
47.0        18.299      135.158     2.256       5.637       26.993      27.032      12.004      14.375      1.53        11.789      13.131      2.367       1.583       301.158     81.832      1.08        1099.997    679.181     430.612     37.946      
47.1        17.809      136.648     2.26        5.384       23.003      24.439      9.146       11.246      1.113       11.78       12.797      2.312       1.599       302.562     78.008      1.08        856.742     595.259     459.703     38.821      
47.2        16.921      138.676     2.26        5.351       20.471      23.272      7.989       9.284       1.039       11.78       12.574      2.249       1.582       304.012     74.272      1.08        639.122     547.702     501.777     40.001      
47.3        16.548      138.988     2.256       5.787       18.225      22.209      7.541       7.892       1.039       11.981      12.422      2.137       1.549       305.512     70.8        1.08        508.493     519.449     509.725     39.887      
47.4        14.993      139.7       2.251       5.94        15.887      20.89       7.35        6.719       1.039       12.372      12.297      2.018       1.506       307.069     67.696      1.08        558.602     502.102     479.585     38.035      
47.5        13.776      140.591     2.246       6.089       13.81       19.223      7.312       5.605       1.039       12.773      12.193      1.849       1.457       308.675     65.016      1.08        730.474     490.606     409.572     35.497      
47.6        13.301      140.754     2.245       6.014       12.632      17.638      7.312       4.521       1.088       13.329      12.126      1.872       1.436       310.324     62.696      1.08        955.727     512.42      333.754     32.021      
47.7        13.075      137.354     2.252       6.154       12.327      16.532      7.312       3.542       1.268       14.303      12.09       1.925       1.429       311.993     60.696      1.08        1180.602    600.954     338.069     30.015      
47.8        12.84       134.455     2.269       6.111       12.327      16.103      7.415       2.99        1.616       15.938      12.142      1.974       1.44        313.612     58.936      1.08        1335.731    695.928     396.241     27.073      
47.9        13.342      134.011     2.292       5.702       12.327      16.103      7.796       2.883       2.134       18.399      12.332      2.087       1.451       315.079     57.368      1.08        1343.394    761.62      487.977     24.745      
48.0        15.107      133.95      2.32        5.031       12.469      16.103      8.641       2.883       2.862       21.683      12.701      2.167       1.544       316.233     55.944      1.08        1239.834    809.712     579.708     22.503      
48.1        20.435      133.978     2.346       4.593       13.208      16.144      10.146      2.883       4.016       25.386      13.151      2.378       1.637       316.887     54.648      1.08        1105.914    846.639     660.906     22.497      
48.2        30.969      134.067     2.364       4.22        15.314      16.807      12.349      3.249       5.963       28.325      13.685      2.558       1.754       316.961     53.448      1.08        972.366     820.804     695.513     24.934      
48.3        42.036      134.256     2.369       3.582       19.448      18.136      15.22       4.425       7.828       29.39       14.269      2.864       1.886       316.961     52.312      1.08        891.833     807.814     721.568     28.453      
48.4        51.041      134.481     2.359       2.66        25.205      19.325      18.434      5.895       9.294       29.39       14.732      2.988       1.974       316.961     51.208      1.08        867.286     796.009     709.316     32.525      
48.5        64.486      134.44      2.338       1.993       29.733      19.806      20.927      7.046       10.302      29.136      15.0        3.175       2.052       316.439     50.112      1.08        907.191     801.798     676.173     34.214      
