~Version Information Section
VERS.                                         2.0:CWLS log ASCII Standart – VERSION 2.0
WRAP.                                          NO:One line per depth step
~Well Information Section
STRT.M                                        0.4:Начальная глубина
STOP.M                                      203.0:Конечная глубина
STEP.M                                          0:Шаг квантования по глубине
NULL.                                    -9999.25:Признак "Нет данных"
WELL.                                       128Мх:Скважина
~Parameter Information Section
~Curve Information Section
DEPTH.M                                          :Глубина
BK.Ohm*M                                         :BK     (БК)
DS.mm                                            :DS  (ДС)
GGK.g/cm3                                        :GGKp
ГК.mcr/h                                         :GK          (ГК)
ИК.Ohm*M                                         :IK
НГК.mcR/H                                        :NGK
NNKM.                                            :NNKm  (ННКм)
PS.mv                                            :PS       (ПС)
PZ.Ohm*M                                         :PZ    (КС)
RS.Ohm*M                                         :RS (Резистивиметр)
U1.mV                                            :U1
U2.mV                                            :U2
U3.mV                                            :U3
W.%                                              :W
~ASCII LOG DATA
# ...
162.4       132.13      126.878     2.399       4.497       19.35       1.328       2.79        323.991     40.283      1.1         299.531     331.147     113.27      29.107      
162.6       114.288     127.504     2.465       5.124       22.246      1.427       2.79        320.837     40.315      1.1         262.645     340.877     136.97      28.6        
162.8       59.156      127.336     2.389       4.294       25.357      1.504       2.748       318.299     40.6        1.1         245.811     312.643     107.598     23.272      
163.0       115.345     126.38      2.316       4.24        28.37       1.536       2.938       315.86      41.394      1.1         174.992     285.35      106.714     23.237      
163.2       261.216     126.167     2.32        4.413       29.519      1.521       2.951       313.224     42.797      1.1         155.031     293.372     133.92      22.006      
163.4       382.825     127.238     2.369       5.156       29.87       1.519       3.072       310.365     44.526      1.1         313.737     375.572     165.77      21.068      
163.6       272.898     127.939     2.36        5.841       29.935      1.678       3.155       307.556     45.96       1.1         219.852     319.059     132.003     21.485      
163.8       201.837     127.503     2.375       5.357       29.489      1.83        3.213       304.945     46.545      1.1         91.926      250.709     108.254     20.796      
164.0       1383.567    130.806     2.403       4.61        27.771      1.758       3.334       302.456     46.545      1.1         89.492      245.899     101.55      21.782      
164.2       184.077     132.829     2.329       4.639       25.164      1.344       3.217       299.992     46.349      1.1         105.879     271.315     146.428     28.839      
164.4       39.994      132.78      2.294       5.702       22.935      1.14        2.727       297.528     45.833      1.1         187.246     298.82      135.472     33.805      
164.6       27.542      132.556     2.273       6.203       20.58       1.121       2.266       295.089     45.382      1.1         249.81      380.874     223.681     32.766      
164.8       28.054      132.298     2.263       6.334       18.568      1.188       2.175       292.748     45.043      1.1         182.702     370.287     265.937     32.238      
165.0       30.62       132.71      2.251       6.123       16.158      1.1         2.177       290.506     44.782      1.1         134.073     316.935     210.526     33.626      
165.2       27.164      133.192     2.233       6.021       14.596      1.096       2.161       288.14      44.55       1.1         96.928      303.487     265.89      35.824      
165.4       25.763      133.548     2.259       6.075       13.599      1.03        2.1         285.602     44.328      1.1         70.91       277.08      230.4       36.977      
165.6       26.853      133.197     2.268       6.783       13.134      1.009       2.087       283.064     44.119      1.1         86.66       257.45      133.292     34.226      
165.8       27.542      133.097     2.253       6.833       12.752      1.053       2.1         280.822     43.936      1.1         94.286      260.877     126.504     33.835      
166.0       28.907      133.392     2.26        6.543       12.379      1.074       2.116       278.752     43.776      1.1         106.954     277.544     152.325     33.712      
166.2       29.174      133.315     2.247       6.706       12.247      1.076       2.136       276.781     43.618      1.1         211.429     309.979     132.718     34.472      
166.4       28.314      133.015     2.21        7.525       12.199      1.157       2.117       275.229     43.428      1.1         283.712     306.29      85.4        34.191      
166.6       27.669      132.981     2.216       6.925       12.241      1.042       2.088       274.391     43.203      1.1         253.852     272.792     63.731      34.605      
166.8       27.164      133.135     2.224       7.051       12.274      1.0         2.109       274.145     42.975      1.1         134.891     259.922     154.65      33.888      
167.0       26.915      132.824     2.231       7.276       12.296      1.101       2.128       274.12      42.752      1.1         147.543     304.668     194.882     34.354      
167.2       29.512      132.943     2.262       6.981       12.332      1.137       2.178       274.12      42.458      1.1         283.677     332.818     123.787     35.949      
167.4       29.717      132.789     2.263       6.554       12.359      0.97        2.206       274.12      41.984      1.1         240.121     289.888     81.279      35.978      
167.6       28.642      133.102     2.253       6.395       12.443      1.102       2.165       274.12      41.308      1.1         231.937     275.025     68.411      36.845      
167.8       28.314      132.646     2.235       6.351       12.527      1.069       2.156       274.12      40.546      1.1         190.918     256.869     62.266      35.037      
168.0       28.708      133.316     2.249       6.78        12.524      1.089       2.186       274.219     39.893      1.1         111.587     249.489     85.888      35.482      
168.2       29.992      133.499     2.264       6.493       12.48       1.042       2.17        274.613     39.473      1.1         188.989     293.923     109.657     38.698      
168.4       28.708      137.612     2.225       6.797       12.507      1.155       2.072       275.426     39.285      1.1         196.789     304.361     121.959     34.096      
168.6       28.973      130.549     2.243       6.898       12.476      1.04        2.129       276.461     39.234      1.1         225.526     308.68      115.705     31.44       
168.8       29.923      130.361     2.276       6.944       12.456      1.097       2.135       277.717     39.234      1.1         240.588     326.589     126.439     32.808      
169.0       31.117      130.8       2.277       6.897       12.426      1.04        2.247       279.615     39.235      1.1         141.247     346.667     144.0       37.67       
169.2       27.102      130.417     2.295       6.869       12.446      0.964       2.126       282.325     39.264      1.1         146.49      354.667     144.0       34.931      
169.4       27.925      130.403     2.277       6.616       12.486      1.053       2.106       285.504     39.316      1.1         173.579     365.333     144.0       34.485      
169.6       27.416      130.537     2.262       6.409       12.512      1.154       2.115       288.559     39.379      1.1         216.244     376.0       165.332     30.815      
169.8       26.607      130.194     2.26        7.01        12.48       1.028       2.108       291.294     39.463      1.1         184.846     378.667     205.334     33.186      
170.0       28.51       130.518     2.285       6.812       12.476      1.124       2.135       293.807     39.596      1.1         75.611      405.334     216.0       33.473      
170.2       29.107      130.176     2.283       6.529       12.514      1.022       2.177       296.05      39.783      1.1         94.354      400.0       216.0       34.364      
170.4       28.445      130.266     2.256       6.802       12.63       1.054       2.214       297.996     39.988      1.1         218.468     376.0       144.018     35.749      
170.6       27.797      130.274     2.247       6.563       12.721      1.051       2.117       299.967     40.179      1.1         206.431     368.0       118.158     33.504      
170.8       26.915      130.188     2.259       6.931       12.855      1.148       2.134       302.579     40.357      1.1         295.935     368.0       183.379     37.044      
171.0       26.792      130.334     2.273       7.185       12.903      1.126       2.117       306.004     40.547      1.1         316.2       368.0       126.095     35.162      
171.2       27.227      129.896     2.293       6.358       12.95       1.019       2.127       309.725     40.752      1.1         325.333     370.667     141.111     35.646      
