~Version Information Section
VERS.                                         2.0:CWLS log ASCII Standart – VERSION 2.0
WRAP.                                          NO:One line per depth step
~Well Information Section
STRT.M                                        1.6:Начальная глубина
STOP.M                                      209.3:Конечная глубина
STEP.M                                          0:Шаг квантования по глубине
NULL.                                    -9999.25:Признак "Нет данных"
WELL.                                       132Мх:Скважина
~Parameter Information Section
~Curve Information Section
DEPTH.M                                          :Глубина
BК.                                              :BК (Омм)
DS.mm                                            :DS
GGK.g/cm3                                        :GGKp
IК.                                              :IК (Омм)
NGК.                                             :NGК (усл.ед.)
PS.mV                                            :PS
PZ.                                              :PZ (Омм)
REZ.                                             :REZ (Омм)
U1.                                              :U1 (ue)
U2.                                              :U2 (ue)
U3.                                              :U3 (ue)
ГК.mcr/h                                         :ГКканаломНГК
~ASCII LOG DATA
# ...
149.5       30.355      125.026     2.405       22.83       1.262       261.315     36.788      2.416       749.592     712.614     676.134     8.897       
149.6       30.245      125.882     2.434       22.566      1.216       261.455     36.539      2.416       715.95      680.992     646.436     9.113       
149.7       30.847      126.754     2.47        22.438      1.171       261.551     36.185      2.415       678.082     645.336     612.885     9.189       
149.8       31.74       127.113     2.452       22.245      1.173       261.595     35.716      2.416       666.348     633.04      600.181     9.063       
149.9       31.103      126.445     2.422       22.054      1.179       261.574     35.242      2.415       676.68      641.359     606.74      8.946       
150.0       31.347      125.422     2.385       21.927      1.156       261.431     34.786      2.415       690.138     655.215     620.89      8.955       
150.1       31.377      124.977     2.37        21.742      1.124       261.159     33.884      2.415       706.282     673.584     641.072     8.972       
150.2       29.936      125.443     2.377       21.5        1.115       260.822     32.7        2.414       727.092     695.444     663.69      9.053       
150.3       27.704      126.541     2.414       21.091      1.119       260.409     31.269      2.414       745.651     713.729     681.625     9.471       
150.4       21.134      127.071     2.417       20.86       1.12        259.936     30.195      2.415       742.035     710.9       679.482     9.389       
150.5       20.873      126.827     2.441       20.637      1.147       259.331     29.26       2.415       736.186     705.535     674.539     9.337       
150.6       25.484      125.419     2.466       20.421      1.181       258.593     28.282      2.416       743.119     709.293     675.521     9.269       
150.7       24.622      126.522     2.502       20.419      1.173       257.808     27.445      2.415       753.367     714.311     676.032     9.698       
150.8       24.042      127.555     2.511       20.421      1.126       257.026     26.933      2.415       748.039     705.805     664.9       9.958       
150.9       19.338      126.73      2.466       20.367      1.099       256.248     26.818      2.415       724.316     681.265     639.861     9.9         
151.0       20.109      125.952     2.437       20.421      1.121       255.491     26.895      2.414       713.014     669.774     628.316     9.884       
151.1       23.9        126.068     2.393       20.422      1.126       254.775     27.118      2.414       712.416     669.23      627.833     9.912       
151.2       24.289      126.531     2.408       20.584      1.107       254.151     27.925      2.414       701.292     658.979     618.372     9.882       
151.3       24.267      125.442     2.389       20.864      1.126       253.63      29.183      2.414       685.671     645.024     605.908     9.768       
151.4       26.606      126.34      2.39        21.033      1.176       253.125     30.347      2.413       685.962     645.197     605.985     9.611       
151.5       27.435      126.228     2.38        21.093      1.203       252.688     30.843      2.415       708.082     665.753     625.078     9.535       
151.6       27.663      125.915     2.407       21.208      1.183       252.287     31.032      2.415       724.152     680.523     638.63      9.573       
151.7       26.349      126.131     2.436       21.208      1.136       251.97      31.245      2.415       718.294     673.585     630.808     9.615       
151.8       25.439      126.348     2.423       21.151      1.105       251.766     31.67       2.415       710.287     665.172     622.108     9.477       
151.9       28.748      126.642     2.397       21.038      1.067       251.617     32.12       2.415       705.531     659.823     616.324     9.227       
152.0       29.884      125.87      2.364       20.87       1.058       251.501     32.725      2.414       701.492     654.663     610.318     9.041       
152.1       29.158      127.07      2.414       20.706      1.088       251.417     33.333      2.415       694.396     647.15      602.534     9.147       
152.2       29.258      126.561     2.438       20.651      1.159       251.333     33.834      2.415       691.129     645.458     602.281     9.543       
152.3       29.577      126.604     2.458       20.6        1.218       251.237     34.029      2.415       696.142     654.912     615.604     9.913       
152.4       29.269      125.685     2.41        20.493      1.218       251.076     33.779      2.415       712.977     673.801     636.218     9.977       
152.5       29.788      125.843     2.391       20.387      1.192       250.788     33.084      2.415       736.327     697.044     659.193     9.699       
152.6       29.996      126.527     2.395       20.07       1.192       250.377     31.145      2.416       745.107     709.136     673.921     9.374       
152.7       28.538      125.528     2.423       19.764      1.211       249.988     28.805      2.414       741.853     710.804     679.718     9.249       
152.8       26.353      126.071     2.46        19.367      1.209       249.624     26.656      2.414       751.93      719.474     687.046     9.349       
152.9       15.01       125.226     2.474       18.896      1.195       249.311     25.764      2.415       762.281     722.028     682.913     9.533       
153.0       15.675      125.211     2.474       18.579      1.202       249.042     25.483      2.415       767.274     718.537     672.371     9.587       
153.1       24.491      126.658     2.475       18.577      1.214       248.838     25.085      2.416       750.839     698.721     649.987     9.566       
153.2       27.968      124.633     2.467       18.755      1.199       248.718     24.792      2.416       729.813     675.016     624.279     9.743       
153.3       27.516      124.783     2.453       18.98       1.154       248.678     25.196      2.415       730.453     672.579     619.303     10.016      
153.4       25.099      124.736     2.443       19.359      1.109       248.679     26.013      2.415       724.378     669.012     617.916     10.024      
153.5       21.277      124.927     2.437       19.455      1.084       248.727     26.849      2.416       708.797     660.044     614.562     9.743       
153.6       21.285      125.277     2.415       19.408      1.076       248.86      27.32       2.417       685.295     646.901     610.136     9.473       
153.7       23.36       124.79      2.361       19.507      1.081       249.145     27.601      2.416       683.392     655.344     627.328     9.408       
153.8       24.303      126.262     2.339       19.508      1.084       249.584     27.87       2.416       689.307     667.161     644.064     9.389       
153.9       24.656      127.541     2.364       19.557      1.076       250.009     27.997      2.416       679.852     658.924     636.833     9.385       
154.0       22.972      127.482     2.391       19.509      1.058       250.43      28.258      2.416       655.805     631.811     607.405     9.491       
154.1       22.64       126.874     2.384       19.605      1.053       250.821     28.393      2.417       631.017     600.919     571.784     9.716       
154.2       23.947      125.107     2.35        19.757      1.076       251.155     28.438      2.417       623.931     586.426     551.257     10.065      
154.3       24.71       124.791     2.356       19.804      1.114       251.354     28.266      2.418       620.774     573.917     530.824     10.266      
154.4       25.083      125.103     2.4         19.852      1.134       251.385     28.146      2.418       614.483     564.465     518.639     9.996       
154.5       24.929      125.199     2.389       19.852      1.139       251.286     27.822      2.417       614.025     564.011     518.187     9.555       
