~Version Information Section
VERS.                                         2.0:CWLS log ASCII Standart – VERSION 2.0
WRAP.                                          NO:One line per depth step
~Well Information Section
STRT.M                                       -0.1:Начальная глубина
STOP.M                                      197.8:Конечная глубина
STEP.M                                          0:Шаг квантования по глубине
NULL.                                    -9999.25:Признак "Нет данных"
WELL.                                       134Мх:Скважина
~Parameter Information Section
~Curve Information Section
DEPTH.M                                          :Глубина
BK.Ohm*M                                         :BK     (БК)
DS.mm                                            :DS  (ДС)
GGK.g/cm3                                        :GGKp
ГК.mcr/h                                         :GK          (ГК)
GZ1.Ohm*M                                        :GZ1   ГЗ1(A0.4M0.1N)
GZ2.Ohm*M                                        :GZ2   ГЗ2(A1.0M0.1N)
GZ3.Ohm*M                                        :GZ3   ГЗ3(A2.0M0.5N)
GZ4.Ohm*M                                        :GZ4   ГЗ4(A4.0M0.5N)
GZ5.Ohm*M                                        :GZ5   ГЗ5(A8.0M0.5N)
GZR.Ohm*M                                        :GZK   ГЗK(N0.5M2.0A)
ИК.Ohm*M                                         :IK
КП.%                                             :Кп
НГК.ue                                           :NGK     (НГК)
NNKM.                                            :NNKm  (ННКм)
PS.mv                                            :PS       (ПС)
PZ.Ohm*M                                         :PZ    (КС)
RS.Ohm*M                                         :RS (Резистивиметр)
U1.mV                                            :U1
U2.mV                                            :U2
U3.mV                                            :U3
~ASCII LOG DATA
# ...
124.7       153.545     138.09      2.322       3.159       182.643     66.719      35.166      11.345      3.471       55.489      46.749      23.231      1.462       2.656       344.73      221.594     1.06        197.535     392.335     473.755     
124.8       104.296     139.09      2.29        3.329       183.31      67.785      35.166      11.246      3.437       54.998      46.973      27.615      1.405       2.423       345.656     221.594     1.06        189.868     392.335     397.875     
124.9       89.685      139.4       2.249       3.476       183.31      68.56       35.166      11.274      3.428       54.998      47.074      30.653      1.374       2.274       346.566     221.594     1.06        163.863     392.336     289.492     
125.0       87.69       140.126     2.216       3.38        180.022     69.261      35.33       11.315      3.427       54.998      47.012      32.021      1.308       2.2         347.445     220.982     1.06        193.139     394.873     250.521     
125.1       87.038      141.379     2.206       3.199       171.211     70.09       36.128      11.315      3.427       55.044      47.54       30.781      1.229       2.17        348.314     218.624     1.06        220.88      392.336     276.637     
125.2       87.96       141.599     2.212       2.995       161.515     71.397      37.966      11.315      3.428       55.513      47.948      29.988      1.217       2.174       349.211     215.012     1.06        247.083     394.873     298.424     
125.3       88.837      142.173     2.218       3.078       154.068     73.372      41.015      11.412      3.441       56.646      48.515      30.536      1.266       2.191       350.17      210.918     1.06        294.856     399.948     407.62      
125.4       88.105      143.404     2.215       3.213       148.85      75.969      45.534      11.867      3.497       58.513      48.974      31.65       1.315       2.197       351.21      206.52      1.06        400.356     410.099     505.483     
125.5       87.807      143.426     2.201       3.144       146.298     79.118      51.956      12.85       3.636       61.569      49.456      31.289      1.341       2.191       352.334     201.772     1.06        438.036     410.098     619.574     
125.6       90.402      143.444     2.184       3.016       145.691     82.562      60.735      14.553      3.892       66.581      50.013      30.036      1.322       2.22        353.522     196.545     1.06        475.807     445.624     636.102     
125.7       94.896      142.326     2.179       2.911       145.691     86.708      72.057      17.181      4.293       74.218      50.335      29.297      1.356       2.27        354.744     190.769     1.06        513.672     481.149     718.746     
125.8       95.995      141.393     2.189       3.347       145.691     92.616      85.785      20.692      4.856       83.99       50.492      30.304      1.325       2.265       355.995     184.496     1.06        540.628     524.286     762.823     
125.9       93.019      141.827     2.212       3.565       145.719     100.501     101.122     25.197      5.58        94.152      50.741      31.363      1.332       2.224       357.278     177.918     1.06        541.866     572.498     834.447     
126.0       91.047      141.762     2.227       3.532       146.801     109.973     115.907     30.938      6.449       101.887     50.653      31.275      1.321       2.221       358.613     171.367     1.06        541.867     618.175     850.978     
126.1       92.374      140.52      2.25        3.276       150.077     119.566     127.079     37.344      7.467       104.708     50.922      30.302      1.393       2.282       360.018     165.247     1.06        584.563     635.938     884.034     
126.2       104.346     138.616     2.283       3.21        154.001     126.112     132.441     43.412      8.646       104.708     51.253      27.395      1.479       2.401       361.499     159.918     1.06        618.108     635.937     884.034     
126.3       151.417     136.886     2.322       3.334       156.202     128.158     133.516     48.257      9.965       104.459     51.765      25.03       1.563       2.529       363.035     155.626     1.06        651.655     628.325     861.996     
126.4       189.628     136.234     2.362       3.254       156.697     128.158     133.516     50.847      11.34       100.98      52.127      21.289      1.59        2.633       364.592     152.459     1.06        673.002     635.938     839.958     
126.5       197.662     136.471     2.386       3.102       156.697     127.46      131.349     51.453      12.649      92.43       52.263      19.349      1.596       2.712       366.106     150.353     1.06        721.798     641.013     812.409     
126.6       217.029     135.923     2.387       2.987       155.912     123.729     124.353     51.453      13.773      81.049      52.353      18.811      1.62        2.768       367.51      149.119     1.06        721.796     638.474     795.881     
126.7       212.44      135.812     2.369       3.147       152.425     115.908     113.308     50.924      14.623      69.876      51.964      20.224      1.64        2.742       368.75      148.508     1.06        730.947     638.475     779.352     
126.8       167.311     136.04      2.348       3.413       145.663     106.587     101.081     49.396      15.208      61.293      51.372      22.328      1.598       2.627       369.782     148.342     1.06        755.345     663.85      845.467     
126.9       124.848     136.391     2.321       3.547       137.651     99.18       90.223      47.37       15.61       55.651      50.559      23.797      1.476       2.497       370.573     148.342     1.06        773.642     656.238     900.561     
127.0       101.278     137.91      2.292       3.52        130.529     95.384      81.988      46.18       15.899      52.305      49.547      25.996      1.361       2.369       371.109     148.342     1.06        779.742     653.7       972.188     
127.1       89.071      139.337     2.259       3.511       125.292     94.465      76.563      46.015      16.121      50.499      48.478      27.5        1.261       2.26        371.394     148.342     1.06        804.137     658.775     994.226     
127.2       86.042      139.723     2.236       3.644       122.831     94.465      73.669      46.015      16.319      49.465      48.202      28.704      1.237       2.174       371.456     148.502     1.06        834.636     676.538     1054.832    
127.3       86.033      140.584     2.221       3.522       122.436     94.465      72.753      46.015      16.528      48.722      47.671      30.08       1.191       2.123       371.456     148.953     1.06        852.935     679.076     1087.889    
127.4       84.71       142.01      2.219       3.595       122.436     95.144      72.697      47.259      16.792      48.087      47.03       31.84       1.217       2.107       371.456     149.747     1.06        868.182     696.837     1093.4      
127.5       83.669      142.203     2.229       3.353       122.436     97.495      72.697      50.438      17.179      47.467      46.466      32.868      1.244       2.107       371.328     151.028     1.06        868.182     699.376     1049.321    
127.6       84.701      142.009     2.243       3.475       123.387     100.748     72.697      54.416      17.708      46.701      46.147      32.695      1.311       2.138       371.04      152.929     1.06        859.034     719.675     999.736     
127.7       91.232      139.583     2.254       3.254       127.047     103.583     72.947      58.112      18.332      45.717      45.888      30.65       1.385       2.198       370.629     155.607     1.06        837.685     729.826     917.092     
127.8       102.785     136.599     2.262       3.234       133.599     105.447     73.549      60.611      18.948      44.528      45.424      29.338      1.389       2.275       370.122     159.173     1.06        816.336     704.449     856.486     
