~Version Information Section
VERS.                                         2.0:CWLS log ASCII Standart – VERSION 2.0
WRAP.                                          NO:One line per depth step
~Well Information Section
STRT.M                                        2.1:Начальная глубина
STOP.M                                      196.8:Конечная глубина
STEP.M                                          0:Шаг квантования по глубине
NULL.                                    -9999.25:Признак "Нет данных"
WELL.                                       154Мх:Скважина
~Parameter Information Section
~Curve Information Section
DEPTH.M                                          :Глубина
BK.lgОмм                                         :BK     (БК)
DСР.мм                                           :DS  (ДС)
ГГКП.g/cm3                                       :GGKp
ГК.мкР/час                                       :GK          (ГК)
ГЗ1.Омм                                          :GZ1   ГЗ1(A0.4M0.1N)
ГЗ2.Омм                                          :GZ2   ГЗ2(A1.0M0.1N)
ГЗ3.Омм                                          :GZ3   ГЗ3(A2.0M0.5N)
ГЗ4.Oмм                                          :GZ4   ГЗ4(A4.0M0.5N)
ГЗ5.Oмм                                          :GZ5   ГЗ5(A8.0M0.5N)
ГЗК.Омм                                          :GZR   ГЗK(N0.5M2.0A)
ИК.мСм/м                                         :IK
НГК.усл.ед.                                      :NGK     (НГК)
РЕЗ.Омм                                          :RS (Резистивиметр)
W.                                               :W
ННКМ.усл.ед                                      :NNKm  (ННКм)
PS.мB                                            :PS       (ПС)
~ASCII LOG DATA
# ...
110.1       52.886      150.764     2.321       4.352       90.69       29.714      48.502      13.583      14.33       44.12       22.795      1.359       1.0         27.411      1.374       55.42       
110.2       59.689      151.2       2.311       4.488       90.69       29.714      48.502      13.583      14.33       44.12       23.363      1.342       1.0         27.222      1.371       55.084      
110.3       64.444      149.916     2.317       4.569       91.11       29.714      48.502      13.583      14.47       44.12       24.062      1.339       1.0         27.167      1.371       54.773      
110.4       66.095      149.689     2.32        4.619       91.11       29.714      48.502      13.583      14.47       44.12       24.062      1.343       1.0         27.251      1.369       54.413      
110.5       60.781      149.606     2.329       4.578       91.11       29.714      48.502      13.583      14.47       44.12       24.584      1.342       1.0         27.259      1.368       54.103      
110.6       55.864      149.474     2.334       4.549       91.53       29.714      48.942      13.583      14.47       44.12       25.064      1.334       1.0         26.95       1.37        53.845      
110.7       58.062      149.667     2.338       4.566       91.95       29.714      49.382      13.583      14.47       44.12       25.51       1.321       1.0         26.349      1.374       53.589      
110.8       65.436      149.655     2.305       4.636       91.95       29.714      49.822      13.583      14.47       44.12       25.51       1.264       1.0         26.054      1.381       53.408      
110.9       68.062      149.762     2.302       4.739       91.95       29.714      49.822      13.583      14.47       44.12       25.796      1.256       1.0         26.19       1.391       53.176      
111.0       66.678      149.973     2.303       5.018       92.37       29.714      51.142      13.583      14.47       44.12       26.138      1.233       1.0         26.416      1.397       52.995      
111.1       54.265      150.22      2.297       5.37        92.37       29.714      51.142      13.703      14.47       44.12       26.266      1.21        1.0         27.014      1.394       52.865      
111.2       50.291      150.509     2.29        5.495       92.79       30.234      50.702      13.823      14.47       43.08       26.336      1.189       1.0         28.043      1.386       52.736      
111.3       46.317      149.846     2.29        5.599       93.21       30.754      50.702      13.943      14.47       42.04       26.336      1.226       1.0         29.089      1.373       52.633      
111.4       42.867      150.043     2.286       5.686       93.63       30.754      50.262      13.943      14.47       42.04       26.216      1.232       1.0         29.588      1.353       52.58       
111.5       36.617      150.777     2.294       5.559       94.05       30.754      50.262      13.943      14.47       41.0        26.148      1.259       1.0         29.8        1.333       52.504      
111.6       29.299      152.128     2.328       5.19        94.47       30.754      50.262      13.943      14.47       39.96       26.148      1.301       1.0         29.677      1.321       52.478      
111.7       27.31       156.901     2.356       4.969       94.47       30.754      50.262      13.943      14.47       39.96       25.854      1.343       1.0         29.365      1.321       52.452      
111.8       27.749      158.773     2.375       4.726       94.89       31.274      50.262      13.943      14.47       39.96       25.567      1.333       1.0         28.832      1.327       52.401      
111.9       32.612      151.227     2.409       4.473       96.57       31.274      50.262      13.943      14.47       39.96       25.389      1.33        1.0         28.377      1.341       52.349      
112.0       37.475      151.33      2.42        4.418       95.73       31.274      50.262      13.943      14.47       39.96       25.389      1.324       1.0         28.062      1.36        52.272      
112.1       39.807      151.28      2.413       4.489       93.21       31.794      50.262      13.943      14.47       39.96       25.119      1.332       1.0         28.039      1.377       52.145      
112.2       38.782      151.211     2.416       4.499       91.53       31.794      50.262      13.943      14.47       39.96       24.947      1.322       1.0         28.165      1.383       52.041      
112.3       46.35       151.627     2.418       4.763       90.27       31.794      50.262      13.943      14.47       39.96       24.684      1.309       1.0         28.252      1.378       51.86       
112.4       45.838      151.999     2.407       4.996       89.43       31.794      50.262      13.943      14.47       41.0        24.372      1.27        1.0         28.3        1.366       51.604      
112.5       41.341      152.2       2.41        5.177       89.43       32.314      50.262      13.943      14.47       42.04       24.372      1.241       1.0         28.386      1.344       51.32       
112.6       28.252      152.396     2.396       5.173       89.43       32.314      50.262      13.943      14.61       43.08       24.097      1.189       1.0         28.381      1.31        51.036      
112.7       24.1        152.63      2.403       5.158       89.43       32.314      50.262      13.943      14.75       44.12       23.559      1.173       1.0         28.112      1.282       50.701      
112.8       24.719      152.515     2.378       4.876       89.43       32.314      50.262      13.943      14.89       45.16       23.559      1.174       1.0         28.053      1.265       50.341      
112.9       25.337      152.696     2.354       4.653       89.43       32.314      50.262      13.943      15.17       46.2        23.254      1.149       1.0         28.232      1.249       49.98       
113.0       26.574      152.778     2.336       4.538       90.27       32.834      50.262      13.943      15.31       47.24       22.838      1.144       1.0         28.565      1.24        49.619      
113.1       25.227      152.601     2.319       4.455       90.69       32.834      50.702      13.943      15.45       47.24       22.467      1.158       1.0         28.914      1.243       49.281      
113.2       23.88       152.43      2.293       4.574       91.11       32.834      51.142      13.943      15.45       47.24       22.467      1.138       1.0         29.356      1.247       48.997      
113.3       23.427      152.012     2.32        4.635       91.53       32.834      51.142      14.063      15.45       47.24       22.24       1.122       1.0         29.502      1.25        48.636      
113.4       24.175      151.212     2.34        4.804       91.53       33.354      51.582      14.183      15.59       47.24       22.023      1.14        1.0         29.717      1.254       48.301      
113.5       26.253      150.773     2.349       4.796       92.79       33.354      52.462      14.303      15.59       47.24       21.848      1.136       1.0         30.21       1.261       48.04       
113.6       26.394      150.51      2.378       4.891       93.21       33.354      52.902      14.423      15.59       47.24       21.762      1.129       1.0         30.856      1.257       47.705      
113.7       27.135      150.26      2.387       4.865       93.63       33.874      53.782      14.543      15.59       47.24       21.762      1.126       1.0         31.807      1.242       47.372      
113.8       25.861      150.262     2.378       4.939       96.99       34.914      53.782      14.543      15.73       47.24       21.719      1.129       1.0         32.546      1.224       47.088      
113.9       23.663      150.119     2.373       4.92        99.51       35.954      54.222      14.663      15.87       48.28       21.676      1.144       1.0         32.613      1.204       46.753      
114.0       21.465      150.306     2.374       4.955       99.93       36.474      54.662      14.903      15.87       49.32       21.678      1.14        1.0         31.812      1.188       46.417      
