~Version Information Section
VERS.                                         2.0:CWLS log ASCII Standart – VERSION 2.0
WRAP.                                          NO:One line per depth step
~Well Information Section
STRT.M                                        1.2:Начальная глубина
STOP.M                                      208.4:Конечная глубина
STEP.M                                          0:Шаг квантования по глубине
NULL.                                    -9999.25:Признак "Нет данных"
WELL.                                       109Мх:Скважина
~Parameter Information Section
~Curve Information Section
DEPTH.M                                          :Глубина
BK.Ohm*M                                         :BK     (БК)
DS.mm                                            :DS  (ДС)
GGK.g/cm3                                        :GGKp
ГК.mcr/h                                         :GK          (ГК)
GZ1.Ohm*M                                        :GZ1   ГЗ1(A0.4M0.1N)
GZ2.Ohm*M                                        :GZ2   ГЗ2(A1.0M0.1N)
GZ3.Ohm*M                                        :GZ3   ГЗ3(A2.0M0.5N)
GZ4.Ohm*M                                        :GZ4   ГЗ4(A4.0M0.5N)
GZ5.Ohm*M                                        :GZ5   ГЗ5(A8.0M0.5N)
GZR.Ohm*M                                        :GZK   ГЗK(N0.5M2.0A)
ИК.Ohm*M                                         :IK
НГК.u.e.                                         :NGK
NNKM.                                            :NNKm  (ННКм)
U1.mV                                            :U1
U2.mV                                            :U2
U3.mV                                            :U3
КП.%                                             :Кп
PS.mv                                            :PS       (ПС)
PZ.Ohm*M                                         :PZ    (КС)
RS.Ohm*M                                         :RS (Резистивиметр)
~ASCII LOG DATA
# ...
119.6       -9999.25    -9999.25    -9999.25    5.021       -9999.25    -9999.25    -9999.25    -9999.25    -9999.25    -9999.25    -9999.25    1.151       2.891       1841.079    1307.372    1072.757    17.87       1028.441    -9999.25    -9999.25    
119.7       -9999.25    -9999.25    -9999.25    5.639       -9999.25    -9999.25    -9999.25    -9999.25    -9999.25    -9999.25    13.237      1.135       2.725       2422.66     1651.884    1263.198    19.302      1029.194    -9999.25    -9999.25    
119.8       -9999.25    -9999.25    -9999.25    6.114       -9999.25    -9999.25    -9999.25    -9999.25    -9999.25    -9999.25    13.444      1.08        2.667       2994.335    2135.006    1671.532    20.178      1029.936    -9999.25    1.0         
119.9       -9999.25    -9999.25    -9999.25    6.111       -9999.25    -9999.25    -9999.25    -9999.25    -9999.25    -9999.25    13.444      1.076       2.589       3478.459    2697.911    2252.741    20.954      1030.684    -9999.25    1.0         
120.0       -9999.25    -9999.25    -9999.25    5.59        -9999.25    -9999.25    -9999.25    -9999.25    -9999.25    -9999.25    13.757      1.125       2.585       3802.222    3165.554    2780.969    22.151      1031.447    -9999.25    1.0         
120.1       -9999.25    -9999.25    -9999.25    4.463       -9999.25    -9999.25    -9999.25    -9999.25    -9999.25    -9999.25    13.757      1.16        2.616       3941.475    3369.426    3010.711    23.008      1032.205    -9999.25    1.0         
120.2       -9999.25    -9999.25    -9999.25    3.707       -9999.25    -9999.25    -9999.25    -9999.25    -9999.25    -9999.25    13.848      1.161       2.668       3825.637    3205.568    2819.834    23.388      1032.972    -9999.25    1.0         
120.3       -9999.25    -9999.25    -9999.25    3.095       -9999.25    -9999.25    -9999.25    -9999.25    -9999.25    -9999.25    13.931      1.157       2.811       3537.357    2829.338    2399.179    23.08       1033.751    -9999.25    1.0         
120.4       -9999.25    -9999.25    -9999.25    2.935       -9999.25    -9999.25    -9999.25    -9999.25    -9999.25    -9999.25    13.931      1.193       2.928       3193.089    2428.148    1974.055    22.857      1034.548    -9999.25    1.0         
120.5       -9999.25    -9999.25    -9999.25    2.677       -9999.25    -9999.25    -9999.25    -9999.25    -9999.25    -9999.25    14.0        1.23        2.973       2918.619    2165.265    1726.399    22.877      1035.365    -9999.25    1.0         
120.6       442.588     99.719      -9999.25    2.667       -9999.25    -9999.25    -9999.25    -9999.25    -9999.25    -9999.25    13.96       1.216       3.009       2759.343    2071.349    1676.526    21.362      1036.207    -9999.25    1.0         
120.7       498.884     99.725      -9999.25    2.896       -9999.25    -9999.25    -9999.25    -9999.25    -9999.25    -9999.25    13.96       1.162       3.013       2749.435    2129.065    1774.927    19.826      1037.062    -9999.25    1.0         
120.8       539.511     99.798      -9999.25    3.163       -9999.25    -9999.25    -9999.25    -9999.25    -9999.25    -9999.25    13.876      1.114       3.017       2844.921    2278.837    1954.057    18.759      1037.934    -9999.25    1.0         
120.9       539.511     99.823      -9999.25    3.305       -9999.25    -9999.25    -9999.25    -9999.25    -9999.25    -9999.25    13.738      1.077       3.045       2898.389    2368.446    2063.79     19.367      1038.822    -9999.25    1.0         
121.0       298.538     99.76       -9999.25    3.482       -9999.25    -9999.25    -9999.25    -9999.25    -9999.25    -9999.25    13.738      1.07        3.072       2759.231    2266.831    1991.486    19.888      1039.719    -9999.25    1.0         
121.1       209.411     99.731      -9999.25    3.483       -9999.25    -9999.25    -9999.25    -9999.25    -9999.25    -9999.25    13.516      1.076       2.936       2382.123    1962.282    1750.473    20.495      1040.624    -9999.25    1.0         
121.2       209.411     99.728      -9999.25    3.71        -9999.25    -9999.25    -9999.25    -9999.25    -9999.25    -9999.25    13.263      1.083       2.766       1902.788    1579.077    1453.124    21.663      1041.537    -9999.25    1.0         
121.3       145.546     99.984      -9999.25    3.676       -9999.25    -9999.25    -9999.25    -9999.25    -9999.25    -9999.25    13.263      1.075       2.634       1473.605    1208.385    1144.584    24.257      1042.451    -9999.25    1.0         
121.4       152.405     100.016     -9999.25    3.942       -9999.25    -9999.25    -9999.25    -9999.25    -9999.25    -9999.25    12.983      1.103       2.471       1187.53     907.464     853.372     26.179      1043.356    -9999.25    1.0         
121.5       152.405     99.998      -9999.25    4.24        93.21       39.594      56.422      16.823      16.43       60.76       12.568      1.137       2.376       1022.877    690.873     614.558     27.428      1044.253    -9999.25    1.0         
121.6       95.28       99.976      -9999.25    4.926       93.63       39.594      55.982      16.703      16.29       57.64       12.123      1.212       2.302       906.047     561.658     478.045     27.24       1045.133    -9999.25    1.0         
121.7       80.91       99.99       -9999.25    5.587       93.63       40.114      55.542      16.583      16.15       56.6        12.123      1.313       2.239       821.352     510.492     440.738     26.886      1045.988    35.584      1.0         
121.8       45.604      100.007     -9999.25    5.979       93.63       40.634      55.542      16.583      16.15       56.6        11.692      1.392       2.194       763.156     501.444     454.287     26.526      1046.809    35.32       1.0         
121.9       45.604      99.985      -9999.25    5.964       93.63       40.634      55.102      16.463      16.15       56.6        11.363      1.369       2.168       721.696     494.476     465.595     26.361      1047.589    35.079      1.0         
122.0       19.32       99.982      -9999.25    5.675       94.05       41.674      54.662      16.343      16.15       55.56       11.363      1.292       2.17        701.106     497.66      484.369     26.481      1048.309    34.863      1.0         
122.1       27.925      100.058     -9999.25    5.58        94.47       42.714      54.662      16.223      16.15       54.52       11.019      1.196       2.162       695.886     517.519     521.852     26.798      1048.963    34.743      1.0         
122.2       27.925      99.992      -9999.25    5.42        95.31       44.274      54.662      16.223      16.15       54.52       10.714      1.145       2.114       693.579     540.893     564.545     27.017      1049.558    34.719      1.0         
122.3       36.728      99.98       -9999.25    5.892       95.73       44.794      54.662      16.223      16.29       54.52       10.714      1.119       2.076       681.471     552.649     596.586     27.276      1050.086    34.791      1.0         
122.4       22.387      99.918      -9999.25    6.191       97.83       45.834      54.662      16.223      16.57       55.56       10.485      1.143       2.06        648.956     546.137     617.071     27.324      1050.547    35.296      1.0         
122.5       21.627      99.884      -9999.25    6.783       103.71      46.354      54.662      16.223      16.71       61.8        10.298      1.155       2.043       591.735     518.49      626.79      27.929      1050.941    35.945      1.0         
122.6       21.627      99.988      -9999.25    6.934       111.27      46.354      54.662      16.223      17.13       71.16       10.298      1.122       2.063       549.133     481.456     611.109     28.889      1051.268    36.882      1.0         
122.7       24.155      99.98       -9999.25    6.888       113.37      46.874      54.662      16.223      17.69       84.68       10.162      1.08        2.087       581.652     459.277     556.324     29.808      1051.527    37.963      1.0         
