~Version Information Section
VERS.                                         2.0:CWLS log ASCII Standart – VERSION 2.0
WRAP.                                          NO:One line per depth step
~Well Information Section
STRT.M                                        0.0:Начальная глубина
STOP.M                                      166.2:Конечная глубина
STEP.M                                          0:Шаг квантования по глубине
NULL.                                    -9999.25:Признак "Нет данных"
WELL.                                         1Мх:Скважина
~Parameter Information Section
~Curve Information Section
DEPTH.M                                          :Глубина
BK.lgОмм                                         :BK
ПРОФ_СР.мм                                       :ПРОФ_СР
GGKP.имп/мин                                     :GGKp
ГК.мкР/час                                       :GK
ИК.мСм/м                                         :IK
PS.мВ                                            :PS
PZ.Омм                                           :PZ
RIS.Омм                                          :RIS
U1.мВ                                            :U1
U2.мВ                                            :U2
U3.mv                                            :U3
WS.%                                             :WS
ГЗ1.Омм                                          :ГЗ1
ГЗ2.Омм                                          :ГЗ2
ГЗ3.Омм                                          :ГЗ3
ГЗ4.Oмм                                          :ГЗ4
ГЗК.Омм                                          :ГЗК
НГК.усл.ед                                       :ННКб
ННКМ.усл.ед                                      :ННКм
ГЗ5.Oмм                                          :ГЗ5
ПЛ1.имп/мин                                      :ПЛ1
ПЛ2.имп/мин                                      :ПЛ2
ПЛ3.имп/мин                                      :ПЛ3
ПЛ4.имп/мин                                      :ПЛ4
~ASCII LOG DATA
# ...
129.6       139.376     148.049     2.092       3.726       44.541      133.751     164.144     1.045       1144.927    686.071     475.108     34.597      36.432      42.661      40.177      42.925      38.319      3.351       2.292       37.771      15720.0     23940.0     14660.0     2920.0      
129.7       136.774     148.009     2.091       3.748       44.211      133.538     160.92      1.045       1137.505    635.521     391.003     34.366      35.851      40.631      39.277      42.125      39.619      3.313       2.291       37.671      15720.0     24580.0     14320.0     3020.0      
129.8       138.372     147.977     2.094       3.75        44.211      133.463     158.063     1.055       1113.31     645.47      410.838     34.109      36.727      41.179      38.877      41.625      41.019      3.257       2.295       37.571      18000.0     24740.0     14180.0     2920.0      
129.9       137.337     148.059     2.091       3.798       44.472      133.48      156.122     1.055       1135.479    712.269     495.328     34.077      36.547      40.236      37.977      36.425      42.619      3.257       2.306       37.471      19680.0     24820.0     14320.0     2880.0      
130.0       133.985     147.762     2.087       3.833       44.162      133.461     154.684     1.055       1220.983    827.191     622.601     33.785      35.701      38.069      37.477      36.325      42.819      3.343       2.322       37.171      19680.0     25160.0     15180.0     3160.0      
130.1       131.866     147.905     2.092       3.765       44.423      133.424     154.445     1.055       1344.062    948.349     737.223     32.628      35.63       36.884      41.077      36.325      43.619      3.472       2.337       36.971      18480.0     25000.0     15500.001   3000.0      
130.2       136.379     148.176     2.098       3.707       44.541      133.507     154.103     1.055       1492.275    1060.009    819.767     31.823      36.999      37.464      41.077      36.225      44.219      3.554       2.345       36.771      17760.0     25060.0     15500.001   2940.0      
130.3       139.521     147.96      2.111       3.698       44.211      133.702     154.253     1.055       1583.887    1113.969    845.271     31.111      36.775      36.287      41.177      36.125      45.019      3.577       2.35        36.671      20400.0     25120.0     15360.0     3000.0      
130.4       139.625     147.803     2.104       3.538       44.805      133.904     155.486     1.055       1587.083    1090.862    803.318     30.556      36.229      35.313      41.177      36.025      45.119      3.588       2.357       37.271      19560.0     25060.0     15240.0     2880.0      
130.5       143.979     148.162     2.107       3.428       44.589      134.007     156.447     1.055       1531.893    1006.065    701.872     29.988      37.97       36.843      41.177      35.925      45.219      3.646       2.375       39.171      17760.0     25020.0     14820.0     2860.0      
130.6       159.046     147.885     2.11        3.352       44.307      133.99      156.757     1.055       1442.845    925.007     624.714     29.296      40.377      39.334      41.277      36.125      45.319      3.744       2.399       39.871      19560.0     25060.0     15140.0     2860.0      
130.7       172.707     147.807     2.12        3.239       45.025      133.985     157.138     1.055       1346.285    897.285     632.765     28.7        43.022      41.598      42.777      36.225      44.819      3.891       2.41        40.071      17040.0     25020.0     14760.0     2800.0      
130.8       173.699     147.814     2.111       3.153       44.589      133.965     157.034     1.055       1300.465    928.792     705.646     28.62       43.723      42.499      43.577      44.325      44.719      3.978       2.402       43.071      21000.0     24620.0     14340.0     2800.0      
130.9       165.994     147.853     2.097       3.227       44.805      133.795     156.925     1.055       1330.244    1013.275    820.727     28.505      44.664      43.918      44.277      45.425      44.419      4.015       2.399       45.271      18120.0     23920.0     14020.0     2780.0      
131.0       159.97      147.727     2.098       3.345       44.903      133.488     156.013     1.055       1424.157    1115.711    926.482     28.661      45.133      45.635      45.577      44.825      44.319      3.961       2.419       45.471      20880.0     23260.0     13760.0     2660.0      
131.1       156.932     148.129     2.129       3.458       44.375      133.095     154.304     1.055       1559.848    1209.363    992.593     28.903      45.966      46.916      46.977      44.325      44.419      3.905       2.436       45.771      16200.0     22760.0     13520.0     2580.0      
131.2       150.419     148.067     2.148       3.476       45.025      132.593     152.632     1.055       1623.197    1230.828    988.048     28.684      46.129      47.176      46.677      48.825      46.219      3.907       2.428       46.071      16920.0     22620.0     13940.0     2520.0      
131.3       141.753     147.923     2.156       3.573       44.637      132.118     151.474     1.055       1565.242    1154.54     901.985     28.258      46.639      47.941      46.377      48.125      47.219      3.961       2.406       45.371      16800.0     22280.0     14380.0     2500.0      
131.4       131.115     148.243     2.146       3.621       44.211      131.595     150.105     1.055       1470.35     1042.068    779.902     28.316      45.741      46.867      46.177      47.025      47.619      4.003       2.404       45.171      17640.0     22780.0     14460.0     2680.0      
131.5       122.772     148.149     2.154       3.565       44.001      131.016     149.096     1.055       1363.325    941.276     683.323     28.536      45.227      44.175      45.677      45.925      48.019      4.016       2.433       44.771      15960.0     23080.0     14880.0     2940.0      
131.6       120.308     148.062     2.174       3.633       44.326      130.488     148.164     1.055       1194.832    831.76      611.771     28.273      46.228      44.272      44.777      45.025      52.619      4.068       2.471       44.271      15840.0     22740.0     14960.0     3020.0      
131.7       124.537     147.899     2.175       3.863       44.162      129.923     148.138     1.055       1036.545    736.911     558.634     28.03       47.861      45.393      44.577      45.525      54.819      4.12        2.495       50.571      17160.0     23140.0     14400.0     3140.0      
131.8       127.83      147.868     2.154       3.969       43.745      129.366     149.064     1.055       998.836     711.156     542.363     28.033      47.936      44.586      44.577      47.425      55.719      4.072       2.485       50.171      14520.0     22380.0     14180.0     3160.0      
131.9       127.449     147.933     2.135       3.997       43.792      128.916     150.647     1.055       1074.414    754.787     567.265     28.584      49.483      45.302      44.577      51.625      56.019      3.954       2.457       48.871      13440.0     22040.0     13740.0     2880.0      
132.0       130.657     147.699     2.138       4.075       44.589      128.497     151.009     1.065       1154.967    799.354     590.863     29.465      53.778      48.926      45.477      51.825      56.719      3.885       2.439       53.271      13080.0     21600.0     13560.0     2840.0      
132.1       138.009     148.354     2.141       4.018       44.541      128.208     150.654     1.065       1219.008    831.215     603.97      29.849      49.758      46.805      45.677      53.625      58.919      3.875       2.438       53.971      11760.0     20800.0     13380.0     2720.0      
132.2       138.486     148.801     2.154       3.929       44.162      128.111     150.521     1.065       1289.99     869.752     622.174     30.356      50.585      48.255      53.477      53.925      59.219      3.813       2.43        54.171      12360.0     20520.0     13360.0     2680.0      
