~Version Information Section
VERS.                                         2.0:CWLS log ASCII Standart – VERSION 2.0
WRAP.                                          NO:One line per depth step
~Well Information Section
STRT.M                                        1.0:Начальная глубина
STOP.M                                      151.7:Конечная глубина
STEP.M                                          0:Шаг квантования по глубине
NULL.                                    -9999.25:Признак "Нет данных"
WELL.                                       117Мх:Скважина
~Parameter Information Section
~Curve Information Section
DEPTH.M                                          :Глубина
DСР.мм                                           :Dср
ГК.гамма                                         :GK
ИК.мСм/м                                         :IK
N0.5M2.0A.Омм.                                   :N0.5M2.0A.Омм
R.Омм                                            :R
U1.                                              :U1
U2.                                              :U2
U3.                                              :U3
W.имп/1,25с                                      :W
А0.4М0.1N.Омм.                                   :А0.4М0.1N.Омм
А1.0М0.1N.Омм.                                   :А1.0М0.1N.Омм
А2.0М0.5N.Омм.                                   :А2.0М0.5N.Омм
А4.0М0.5N.Oмм.                                   :А4.0М0.5N.Oмм
А8.0М1.0N.Омм.                                   :А8.0М1.0N.Омм
БЗ.имп/мин                                       :БЗ
БК.Омм                                           :БК
КС.Омм                                           :КС
ПС.                                              :ПС
МЗ.имп/мин                                       :МЗ
НГК.имп/1,25с                                    :ННКб
ННКМ.имп/1,25с                                   :ННКм
ПЛОТНОСТЬГГК.г/см3                               :плотностьГГК
~ASCII LOG DATA
# ...
117.0       123.884     5.222       56.216      181.573     1.408       127.32      39.404      81.671      21.898      132.043     179.206     180.544     38.455      36.81       15580.0     231.41      165.267     88.943      6240.0      4.424       2.197       2.165       
117.1       123.813     5.331       56.441      166.522     1.416       130.188     40.442      82.629      22.068      135.368     187.575     181.078     33.754      36.8        15200.0     201.924     162.65      88.511      6300.0      4.298       2.217       2.154       
117.2       123.591     5.431       56.704      158.651     1.414       132.642     40.747      83.594      22.259      139.93      192.185     179.281     32.89       36.547      15900.0     191.309     159.967     87.966      6440.0      4.267       2.186       2.142       
117.3       123.546     5.457       56.901      152.657     1.413       129.822     39.807      82.55       22.413      135.349     179.986     175.073     30.099      36.325      17520.0     173.47      157.814     87.305      6620.0      4.274       2.139       2.13        
117.4       123.733     5.426       57.237      150.697     1.412       125.268     38.818      80.832      22.468      124.755     167.971     169.938     26.158      36.231      18300.0     140.053     156.825     86.533      6800.0      4.225       2.065       2.118       
117.5       123.833     5.35        57.415      155.104     1.403       118.884     37.427      76.734      22.43       118.516     164.452     167.34      27.878      36.149      19220.0     117.377     156.717     85.669      6800.0      4.143       2.032       2.113       
117.6       123.975     5.289       57.466      157.262     1.405       111.78      35.779      72.345      22.415      115.993     162.641     166.909     33.785      35.988      19260.0     112.774     156.845     84.736      6780.0      4.077       2.017       2.106       
117.7       123.883     5.256       57.537      156.072     1.409       105.127     33.264      67.452      22.476      114.516     160.081     168.21      39.859      35.722      19040.0     114.793     157.06      83.779      6780.0      4.039       2.036       2.103       
117.8       123.854     5.235       57.554      154.704     1.417       103.747     31.995      64.567      22.595      118.824     162.326     170.845     46.279      35.481      18280.0     118.016     157.42      82.852      6720.0      4.004       2.045       2.099       
117.9       124.084     5.242       57.554      150.309     1.426       100.171     29.736      61.154      22.663      121.051     165.555     172.743     51.689      35.29       18420.0     120.525     158.143     82.008      6620.0      3.975       2.029       2.096       
118.0       124.411     5.308       57.445      144.763     1.443       98.425      27.881      60.121      22.643      118.231     163.708     172.764     53.594      35.135      18740.0     120.428     158.891     81.294      6720.0      3.94        2.003       2.096       
118.1       124.414     5.374       57.4        140.08      1.454       99.402      28.015      61.848      22.53       118.51      161.822     170.59      55.13       35.086      19660.0     118.671     159.305     80.75       6860.0      3.903       1.969       2.102       
118.2       124.345     5.413       57.414      137.71      1.456       99.927      29.016      64.079      22.432      118.854     162.737     168.655     61.251      35.139      20220.0     117.01      159.968     80.393      6900.0      3.889       1.943       2.109       
118.3       124.263     5.407       57.318      137.971     1.445       93.64       25.843      61.529      22.487      116.72      162.122     168.346     70.99       35.155      20300.0     115.994     161.228     80.215      6900.0      3.906       1.922       2.121       
118.4       124.014     5.334       57.208      139.479     1.424       89.55       23.657      59.508      22.8        116.193     161.65      168.495     82.789      34.989      19880.0     119.846     162.645     80.18       6840.0      3.928       1.921       2.134       
118.5       123.608     5.234       57.014      140.08      1.364       87.024      23.145      57.569      23.397      115.891     162.56      169.887     94.803      34.781      19020.0     132.196     163.557     80.25       7040.0      3.922       1.952       2.147       
118.6       123.345     5.073       56.94       140.487     1.376       81.775      20.642      52.871      24.275      115.958     166.299     173.553     107.001     34.683      18340.0     150.258     163.429     80.4        6980.0      3.84        1.988       2.156       
118.7       123.512     4.901       57.079      142.772     1.417       77.1        18.713      48.783      25.363      122.108     172.066     180.411     116.243     34.589      17640.0     169.742     161.31      80.618      6780.0      3.644       2.004       2.16        
118.8       124.074     4.799       57.416      147.763     1.429       79.236      20.959      49.476      26.512      132.087     178.68      186.025     115.031     34.312      17140.0     182.092     157.032     80.896      6740.0      3.384       1.974       2.162       
118.9       124.901     4.797       57.923      156.039     1.447       80.847      23.584      50.542      27.535      145.007     192.033     188.737     95.743      33.752      17420.0     175.803     151.99      81.24       6780.0      3.119       1.92        2.161       
119.0       124.881     4.838       58.342      161.44      1.446       80.896      24.536      51.526      28.366      159.446     206.948     187.91      67.223      33.086      17700.0     151.873     147.171     81.676      6820.0      2.923       1.859       2.159       
119.1       124.97      4.966       59.074      156.432     1.435       77.234      23.95       50.129      28.998      175.517     220.833     182.352     63.267      32.645      17940.0     125.007     143.186     82.245      6740.0      2.824       1.81        2.159       
119.2       124.517     5.085       59.755      148.585     1.426       72.998      22.791      48.122      29.438      165.895     213.165     170.842     92.588      32.479      17540.0     106.881     140.851     82.975      6780.0      2.803       1.774       2.157       
119.3       124.393     5.142       59.543      145.655     1.44        70.972      21.448      46.866      29.576      111.894     160.679     159.98      129.374     32.451      17340.0     104.342     140.848     83.871      6720.0      2.814       1.766       2.156       
119.4       123.715     5.157       58.629      147.358     1.447       69.47       19.727      45.236      29.446      83.544      126.825     152.173     152.738     32.546      17720.0     119.576     142.979     84.932      6760.0      2.782       1.762       2.152       
119.5       124.126     5.139       57.928      154.158     1.453       63.867      17.322      41.048      29.299      91.809      133.156     146.675     156.165     32.853      17320.0     141.605     146.686     86.165      6680.0      2.752       1.766       2.146       
119.6       125.223     5.079       57.586      163.421     1.476       61.975      16.455      39.241      29.391      99.185      137.854     149.232     135.766     33.378      17140.0     154.472     150.87      87.565      6680.0      2.781       1.762       2.142       
119.7       125.603     4.996       57.506      170.262     1.487       51.587      13.159      32.376      29.7        117.646     139.891     152.391     113.08      33.904      17560.0     153.304     154.6       89.106      6580.0      2.835       1.754       2.138       
119.8       125.516     4.913       58.063      173.229     1.491       38.99       10.046      24.761      30.005      133.699     137.8       152.539     105.346     34.335      17740.0     143.542     158.244     90.744      6660.0      2.825       1.756       2.132       
