~Version Information Section
VERS.                                         2.0:CWLS log ASCII Standart – VERSION 2.0
WRAP.                                          NO:One line per depth step
~Well Information Section
STRT.M                                        1.6:Начальная глубина
STOP.M                                      209.3:Конечная глубина
STEP.M                                          0:Шаг квантования по глубине
NULL.                                    -9999.25:Признак "Нет данных"
WELL.                                       132Мх:Скважина
~Parameter Information Section
~Curve Information Section
DEPTH.M                                          :Глубина
BК.                                              :BК (Омм)
DS.mm                                            :DS
GGK.g/cm3                                        :GGKp
IК.                                              :IК (Омм)
NGК.                                             :NGК (усл.ед.)
PS.mV                                            :PS
PZ.                                              :PZ (Омм)
REZ.                                             :REZ (Омм)
U1.                                              :U1 (ue)
U2.                                              :U2 (ue)
U3.                                              :U3 (ue)
ГК.mcr/h                                         :ГКканаломНГК
~ASCII LOG DATA
# ...
185.2       225.33      125.741     2.253       56.984      1.361       300.88      248.218     2.971       128.933     100.555     68.504      5.766       
185.3       298.446     125.428     2.295       57.202      1.353       301.719     248.22      3.001       143.188     117.848     88.758      5.988       
185.4       302.005     125.636     2.285       57.191      1.321       302.545     248.637     2.952       159.624     136.685     109.966     6.263       
185.5       186.145     125.508     2.267       56.758      1.296       303.365     249.471     2.94        170.598     150.199     125.446     6.384       
185.6       150.019     128.229     2.236       55.9        1.298       304.171     250.722     2.933       174.08      157.828     136.479     6.377       
185.7       144.052     127.829     2.234       55.163      1.298       304.964     251.973     2.922       164.4       150.597     131.64      6.474       
185.8       129.707     127.481     2.236       54.344      1.264       305.746     252.807     2.917       151.39      138.163     120.112     6.652       
185.9       113.44      126.169     2.259       53.44       1.251       306.531     253.224     2.908       145.009     132.132     114.712     6.656       
186.0       109.502     126.47      2.278       53.141      1.301       307.312     253.224     2.891       150.016     134.509     114.74      6.517       
186.1       116.239     126.169     2.271       52.496      1.394       307.938     253.016     2.88        164.691     145.054     121.505     6.493       
186.2       118.82      126.255     2.269       52.074      1.463       308.377     252.601     2.846       171.703     148.001     120.52      6.565       
186.3       119.611     126.709     2.303       51.646      1.462       308.598     251.771     2.808       178.026     151.304     120.514     6.519       
186.4       119.859     126.751     2.351       51.163      1.424       308.606     250.941     2.694       176.241     146.989     113.446     6.318       
186.5       118.057     126.3       2.354       50.608      1.391       308.446     250.113     2.575       171.377     137.015     99.094      6.151       
186.6       120.334     126.102     2.324       49.962      1.391       308.082     249.493     2.51        159.843     121.811     81.459      6.168       
186.7       121.127     126.217     2.295       49.123      1.403       307.514     249.012     2.507       149.046     112.002     72.968      6.321       
186.8       118.016     126.393     2.263       48.412      1.392       306.725     248.669     2.508       150.489     116.124     79.849      6.36        
186.9       113.257     126.426     2.258       47.618      1.354       305.715     248.769     2.561       141.996     110.995     79.538      6.136       
187.0       112.086     126.432     2.272       46.752      1.311       304.46      249.17      2.601       146.951     118.016     89.175      5.808       
187.1       127.857     126.427     2.268       45.917      1.285       302.913     249.873     2.614       155.245     130.769     105.384     5.646       
187.2       217.118     126.486     2.26        44.935      1.287       301.117     250.577     2.588       154.908     136.36      115.404     5.735       
187.3       231.689     126.361     2.259       44.094      1.309       299.209     252.048     2.507       147.05      131.732     113.401     5.875       
187.4       212.262     126.312     2.27        42.495      1.344       297.262     254.286     2.46        148.592     132.813     113.614     5.897       
187.5       132.772     126.424     2.261       41.029      1.398       295.278     259.291     2.48        170.114     150.484     125.886     5.81        
187.6       165.242     126.357     2.256       38.87       1.455       293.27      255.63      2.505       179.791     156.319     127.297     5.811       
187.7       152.691     126.471     2.279       36.929      1.49        291.238     251.97      2.444       176.706     150.105     118.003     5.963       
187.8       146.697     126.463     2.331       35.256      1.489       289.217     246.308     2.352       168.029     140.055     106.554     6.326       
187.9       156.453     126.438     2.345       32.938      1.465       287.207     249.314     2.338       161.574     133.711     100.429     6.661       
188.0       174.606     126.403     2.354       31.006      1.452       285.247     251.319     2.427       149.925     123.702     92.225      6.86        
188.1       186.078     126.299     2.368       28.753      1.466       283.375     252.102     2.414       140.032     115.655     86.037      6.86        
188.2       164.861     126.345     2.325       27.123      1.504       281.663     251.662     2.413       135.56      113.76      86.713      6.672       
188.3       159.101     126.425     2.305       25.77       1.542       280.112     250.999     2.413       136.496     118.814     96.255      6.512       
188.4       185.166     126.985     2.299       23.918      1.564       278.698     245.556     2.412       140.823     125.622     106.036     6.804       
188.5       237.378     128.236     2.359       22.635      1.573       277.445     235.336     2.412       136.345     120.963     101.269     7.289       
188.6       327.2       128.208     2.379       21.212      1.558       276.335     220.335     2.412       132.715     116.867     96.631      8.211       
188.7       159.531     127.997     2.341       20.165      1.518       275.422     169.183     2.413       126.588     110.821     90.648      8.844       
188.8       24.813      127.533     2.35        18.619      1.43        274.876     122.202     2.411       121.746     105.25      84.238      9.759       
188.9       18.223      132.07      2.406       17.515      1.317       274.73      79.402      2.413       118.132     98.34       73.741      10.374      
189.0       17.821      128.549     2.461       16.638      1.208       275.003     75.291      2.412       115.431     91.503      62.882      10.59       
189.1       16.597      127.71      2.458       15.51       1.141       275.624     69.535      2.413       134.066     106.635     74.853      10.376      
189.2       13.963      127.796     2.402       14.946      1.144       276.514     62.136      2.414       161.981     130.902     95.556      10.046      
189.3       13.78       128.596     2.376       14.371      1.183       277.592     56.502      2.414       174.891     141.445     103.8       9.952       
189.4       14.249      128.267     2.369       14.132      1.214       278.775     52.636      2.413       181.809     146.679     107.446     9.677       
189.5       14.41       128.396     2.395       14.047      1.207       280.13      50.536      2.41        197.346     160.437     119.417     9.387       
189.6       14.408      127.871     2.423       14.116      1.169       281.643     48.903      2.415       223.933     185.719     142.978     9.161       
189.7       14.2        129.42      2.415       14.295      1.135       283.29      47.737      2.414       238.005     199.413     155.955     9.181       
189.8       14.522      134.905     2.417       14.642      1.123       285.086     47.037      2.413       243.216     204.372     160.679     9.438       
189.9       14.864      131.669     2.48        14.874      1.134       287.017     46.571      2.414       266.301     226.318     181.542     9.682       
190.0       14.347      133.529     2.498       15.403      1.167       288.862     46.338      2.416       295.22      255.019     209.993     9.867       
190.1       14.562      136.462     2.458       15.785      1.192       290.551     46.34       2.417       321.387     281.571     236.837     9.794       
190.2       15.162      130.225     2.4         16.179      1.234       292.066     46.343      2.416       350.669     310.036     264.478     9.484       
