~Version Information Section
VERS.                                         2.0:CWLS log ASCII Standart – VERSION 2.0
WRAP.                                          NO:One line per depth step
~Well Information Section
STRT.M                                        0.0:Начальная глубина
STOP.M                                      133.6:Конечная глубина
STEP.M                                          0:Шаг квантования по глубине
NULL.                                    -9999.25:Признак "Нет данных"
WELL.                                       118Мх:Скважина
~Parameter Information Section
~Curve Information Section
DEPTH.M                                          :Глубина
BK.Ohm*M                                         :BK     (БК)
DS.mm                                            :DS  (ДС)
GGK.g/cm3                                        :GGKp
ГК.mcr/h                                         :GK          (ГК)
GZ1.Ohm*M                                        :GZ1   ГЗ1(A0.4M0.1N)
GZ2.Ohm*M                                        :GZ2   ГЗ2(A1.0M0.1N)
GZ3.Ohm*M                                        :GZ3   ГЗ3(A2.0M0.5N)
GZ4.Ohm*M                                        :GZ4   ГЗ4(A4.0M0.5N)
GZ5.Ohm*M                                        :GZ5   ГЗ5(A8.0M0.5N)
GZR.Ohm*M                                        :GZK   ГЗK(N0.5M2.0A)
ИК.Ohm*M                                         :IK
НГК.усл.ед                                       :NGK
NNKM.                                            :NNKm  (ННКм)
PS.mv                                            :PS       (ПС)
PZ.Ohm*M                                         :PZ    (КС)
RS.Ohm*M                                         :RS (Резистивиметр)
U1.mV                                            :U1
U2.mV                                            :U2
U3.mV                                            :U3
W.%                                              :W
~ASCII LOG DATA
# ...
57.6        165.959     152.196     2.423       2.337       117.523     89.43       53.829      146.24      32.358      142.931     15.835      1.615       3.14        1133.926    278.868     1.019       2105.173    1796.105    1579.718    20.571      
57.8        158.125     152.242     2.442       2.271       123.666     178.698     54.334      147.44      28.787      132.431     15.995      1.671       3.135       1130.566    330.837     1.015       2345.48     1890.002    1561.096    20.799      
58.0        159.956     153.071     2.466       2.052       130.295     265.933     56.959      150.44      27.698      115.931     16.221      1.542       3.165       1126.726    380.388     1.012       2408.396    1966.215    1644.999    21.112      
58.2        134.896     153.872     2.438       2.047       130.137     285.994     57.633      151.64      30.022      108.431     16.221      1.442       3.068       1122.646    409.985     1.009       2332.445    1954.818    1678.62     22.937      
58.4        106.414     154.119     2.399       2.502       116.266     266.648     66.903      137.24      37.011      118.238     16.244      1.343       2.96        1118.806    401.202     1.005       2221.843    1768.487    1447.771    25.349      
58.6        85.114      152.248     2.428       3.087       111.999     288.47      100.037     133.64      44.463      139.236     16.033      1.527       2.799       1114.726    358.231     1.002       2060.113    1582.222    1261.717    25.943      
58.8        99.312      154.23      2.514       2.99        128.788     352.593     164.97      130.64      50.923      117.39      15.634      1.835       2.955       1111.126    299.494     0.999       1538.596    1302.124    1173.425    19.688      
59.0        937.562     156.326     2.543       2.392       164.826     421.735     303.88      119.84      55.877      90.009      15.39       1.928       3.494       1108.246    248.761     0.996       1231.506    1169.073    1184.959    14.376      
59.2        176.604     155.722     2.448       2.07        178.401     342.548     394.03      104.24      58.542      71.594      15.011      1.607       3.612       1106.326    216.587     0.995       1469.151    1291.21     1250.915    14.044      
59.4        103.039     152.632     2.387       2.131       151.183     272.389     343.491     103.04      55.624      57.644      14.447      1.247       3.012       1105.366    199.801     0.995       1692.651    1308.395    1200.472    21.983      
59.6        73.282      152.111     2.411       2.673       114.179     239.989     278.045     100.04      43.937      44.034      13.73       1.1         2.698       1104.646    187.473     0.994       1696.969    1281.725    1085.076    28.661      
59.8        87.096      153.154     2.48        3.773       95.319      165.469     226.623     97.64       32.239      39.791      13.013      1.114       2.599       1104.886    176.569     0.994       1217.03     841.843     642.747     28.16       
60.0        42.855      154.626     2.474       5.009       88.759      129.829     154.459     94.04       22.929      43.438      12.469      1.117       2.638       1106.086    166.444     0.995       825.664     486.017     323.538     26.15       
60.2        27.99       157.524     2.421       6.047       72.359      121.729     95.224      91.64       16.545      58.933      11.928      1.089       2.412       1107.526    157.098     0.996       796.443     573.601     465.938     28.923      
60.4        31.769      158.545     2.35        6.134       63.339      116.869     68.476      90.44       10.539      76.696      11.55       1.082       2.22        1109.686    149.605     0.998       954.89      778.716     694.317     30.868      
60.6        16.634      158.889     2.293       6.023       60.879      105.529     47.715      82.04       8.282       99.254      11.179      0.999       2.247       1112.566    144.26      1.0         1133.271    862.874     706.442     31.276      
60.8        18.707      159.155     2.271       5.918       60.879      65.029      42.268      83.24       7.78        108.431     11.019      1.056       1.987       1115.446    141.037     1.001       1181.401    919.806     761.616     33.542      
61.0        20.23       158.186     2.293       6.167       62.519      63.409      44.478      84.44       7.892       114.431     11.232      1.151       2.028       1117.846    139.533     1.003       832.596     599.195     476.146     31.526      
61.2        33.729      150.544     2.305       5.141       63.339      65.029      51.679      86.24       8.84        117.431     11.789      1.237       1.995       1120.246    139.453     1.005       533.015     337.963     250.69      29.225      
61.4        58.21       151.616     2.223       3.815       63.339      71.509      59.25       87.44       25.06       124.931     12.744      1.266       2.35        1122.646    140.258     1.007       475.036     376.819     366.263     26.923      
61.6        63.096      151.589     2.205       3.644       64.979      74.749      64.202      88.04       32.76       130.931     13.669      1.227       2.364       1125.046    141.44      1.009       1026.038    924.7       899.432     29.413      
61.8        59.02       151.401     2.208       3.503       69.899      74.749      64.202      90.44       33.46       135.431     14.348      1.217       2.401       1128.166    142.81      1.01        1618.909    1348.709    1176.885    29.105      
62.0        80.353      151.489     2.237       3.436       73.179      77.989      64.202      92.24       35.56       139.931     14.661      1.218       2.496       1131.526    144.421     1.01        1361.841    952.784     713.603     31.328      
62.2        60.954      151.146     2.224       3.849       73.999      79.609      64.202      95.84       36.96       144.431     14.978      1.245       2.532       1136.566    146.624     1.011       1252.043    738.879     462.111     32.716      
62.4        59.841      151.218     2.228       3.929       75.639      86.952      64.202      97.04       39.76       147.431     15.087      1.209       2.415       1144.486    150.008     1.011       1528.972    1009.85     724.903     30.004      
62.6        53.211      151.971     2.22        4.123       76.459      92.954      64.202      100.64      43.96       148.931     15.087      1.268       2.421       1152.646    155.218     1.012       1585.78     1314.652    1179.09     26.533      
62.8        60.256      152.86      2.205       4.249       77.279      85.909      64.202      102.44      46.76       153.431     15.142      1.228       2.322       1161.526    161.932     1.013       2047.963    1733.202    1525.806    26.455      
63.0        57.412      152.249     2.24        3.918       79.739      95.675      64.202      103.64      48.86       127.931     15.242      1.174       2.35        1169.926    169.049     1.013       2653.234    2285.016    2018.138    25.547      
63.2        60.814      151.603     2.222       4.015       83.019      109.452     66.617      104.84      50.26       127.931     15.288      1.121       2.362       1178.806    175.307     1.014       3145.242    2601.143    2193.751    30.839      
63.4        62.517      152.068     2.185       4.242       83.839      94.425      74.185      104.24      49.56       126.431     15.412      1.207       2.417       1184.086    179.926     1.015       2592.633    2094.305    1726.965    29.009      
63.6        58.749      152.818     2.165       4.336       86.299      96.141      79.515      104.24      49.56       123.431     15.459      1.277       2.42        1188.166    182.746     1.015       1849.736    1545.604    1333.915    27.513      
63.8        58.345      151.935     2.246       4.415       85.479      107.162     88.686      104.24      49.56       123.431     15.469      1.342       2.45        1188.166    184.17      1.015       1657.841    1417.286    1255.84     29.635      
