~Version Information Section
VERS.                                         2.0:CWLS log ASCII Standart – VERSION 2.0
WRAP.                                          NO:One line per depth step
~Well Information Section
STRT.M                                       0.67:Начальная глубина
STOP.M                                     204.27:Конечная глубина
STEP.M                                          0:Шаг квантования по глубине
NULL.                                    -9999.25:Признак "Нет данных"
WELL.                                       110Мх:Скважина
~Parameter Information Section
~Curve Information Section
DEPTH.M                                          :Глубина
БК.Омм                                           :BK     (БК)
DСР.мм                                           :DS  (ДС)
ГК.гамма                                         :GK          (ГК)
А0.4М0.1N.Омм.ohmm                               :GZ1   ГЗ1(A0.4M0.1N)
А1.0М0.1N.Омм.ohmm                               :GZ2   ГЗ2(A1.0M0.1N)
А2.0М0.5N.Омм.ohmm                               :GZ3   ГЗ3(A2.0M0.5N)
А4.0М0.5N.Oмм.ohmm                               :GZ4   ГЗ4(A4.0M0.5N)
А8.0М1.0N.Омм.ohmm                               :GZ5   ГЗ5(A8.0M0.5N)
N0.5M2.0A.Омм.ohmm                               :GZK   ГЗK(N0.5M2.0A)
ИК.мСм/м                                         :IK
НГК.усл.ед                                       :NGK     (НГК)
ПС.mv                                            :PS       (ПС)
КС.Омм                                           :PZ    (КС)
R.Омм                                            :RS (Резистивиметр)
W_SI.%                                           :п
ННКМ.имп/1,25с                                   :ННКм
ПЛОТНОСТЬГГК.г/см3                               :плотностьГГК
~ASCII LOG DATA
# ...
142.67      109.225     125.718     6.393       -9999.25    -9999.25    -9999.25    -9999.25    -9999.25    -9999.25    25.473      1.687       337.446     51.22       0.96        21.636      2.046       2.529       
142.7       -9999.25    -9999.25    -9999.25    90.297      44.935      43.753      31.835      49.245      36.525      -9999.25    -9999.25    -9999.25    -9999.25    -9999.25    -9999.25    -9999.25    -9999.25    
142.77      56.666      125.657     6.75        -9999.25    -9999.25    -9999.25    -9999.25    -9999.25    -9999.25    25.058      1.599       338.201     50.069      0.96        22.816      2.015       2.519       
142.8       -9999.25    -9999.25    -9999.25    72.987      35.201      33.517      27.987      43.124      28.442      -9999.25    -9999.25    -9999.25    -9999.25    -9999.25    -9999.25    -9999.25    -9999.25    
142.87      31.748      124.958     7.774       -9999.25    -9999.25    -9999.25    -9999.25    -9999.25    -9999.25    24.566      1.434       338.647     50.505      0.96        24.695      1.933       2.506       
142.9       -9999.25    -9999.25    -9999.25    60.79       30.342      26.894      24.537      34.15       22.542      -9999.25    -9999.25    -9999.25    -9999.25    -9999.25    -9999.25    -9999.25    -9999.25    
142.97      26.484      124.503     8.427       -9999.25    -9999.25    -9999.25    -9999.25    -9999.25    -9999.25    24.12       1.3         338.768     50.741      0.959       26.304      1.885       2.492       
143.0       -9999.25    -9999.25    -9999.25    51.279      32.552      22.688      23.239      28.445      21.198      -9999.25    -9999.25    -9999.25    -9999.25    -9999.25    -9999.25    -9999.25    -9999.25    
143.07      25.615      126.406     8.944       -9999.25    -9999.25    -9999.25    -9999.25    -9999.25    -9999.25    23.831      1.274       338.61      48.688      0.958       27.506      1.657       2.477       
143.1       -9999.25    -9999.25    -9999.25    43.889      35.546      20.653      24.392      24.97       20.758      -9999.25    -9999.25    -9999.25    -9999.25    -9999.25    -9999.25    -9999.25    -9999.25    
143.17      25.316      129.988     8.934       -9999.25    -9999.25    -9999.25    -9999.25    -9999.25    -9999.25    23.531      1.253       338.375     45.637      0.959       28.48       1.563       2.463       
143.2       -9999.25    -9999.25    -9999.25    39.647      36.708      19.693      27.132      24.226      20.939      -9999.25    -9999.25    -9999.25    -9999.25    -9999.25    -9999.25    -9999.25    -9999.25    
143.27      23.654      133.002     9.225       -9999.25    -9999.25    -9999.25    -9999.25    -9999.25    -9999.25    23.23       1.244       338.231     43.656      0.959       29.618      1.545       2.448       
143.3       -9999.25    -9999.25    -9999.25    37.202      37.552      19.615      31.697      26.884      21.845      -9999.25    -9999.25    -9999.25    -9999.25    -9999.25    -9999.25    -9999.25    -9999.25    
143.37      22.827      134.501     9.464       -9999.25    -9999.25    -9999.25    -9999.25    -9999.25    -9999.25    23.069      1.236       338.171     43.514      0.959       30.866      1.536       2.438       
143.4       -9999.25    -9999.25    -9999.25    36.555      38.67       20.765      38.243      29.701      25.148      -9999.25    -9999.25    -9999.25    -9999.25    -9999.25    -9999.25    -9999.25    -9999.25    
143.47      23.639      133.352     9.434       -9999.25    -9999.25    -9999.25    -9999.25    -9999.25    -9999.25    23.029      1.228       338.151     43.549      0.959       31.189      1.522       2.431       
143.5       -9999.25    -9999.25    -9999.25    37.555      41.85       24.401      45.225      30.964      29.203      -9999.25    -9999.25    -9999.25    -9999.25    -9999.25    -9999.25    -9999.25    -9999.25    
143.57      25.221      131.297     9.017       -9999.25    -9999.25    -9999.25    -9999.25    -9999.25    -9999.25    23.091      1.224       338.129     42.535      0.959       30.819      1.513       2.428       
143.6       -9999.25    -9999.25    -9999.25    37.613      48.437      30.065      51.161      32.227      35.723      -9999.25    -9999.25    -9999.25    -9999.25    -9999.25    -9999.25    -9999.25    -9999.25    
143.67      27.573      130.894     8.657       -9999.25    -9999.25    -9999.25    -9999.25    -9999.25    -9999.25    23.219      1.243       338.113     41.092      0.958       29.629      1.535       2.427       
143.7       -9999.25    -9999.25    -9999.25    37.58       63.959      34.19       55.84       33.552      40.814      -9999.25    -9999.25    -9999.25    -9999.25    -9999.25    -9999.25    -9999.25    -9999.25    
143.77      27.29       129.507     8.536       -9999.25    -9999.25    -9999.25    -9999.25    -9999.25    -9999.25    23.449      1.284       338.05      40.065      0.959       28.104      1.545       2.433       
143.8       -9999.25    -9999.25    -9999.25    49.844      75.021      38.044      58.992      34.647      40.695      -9999.25    -9999.25    -9999.25    -9999.25    -9999.25    -9999.25    -9999.25    -9999.25    
143.87      30.927      129.327     8.602       -9999.25    -9999.25    -9999.25    -9999.25    -9999.25    -9999.25    23.72       1.337       337.874     39.565      0.96        27.446      1.589       2.446       
143.9       -9999.25    -9999.25    -9999.25    63.536      71.125      41.749      58.862      36.281      40.117      -9999.25    -9999.25    -9999.25    -9999.25    -9999.25    -9999.25    -9999.25    -9999.25    
143.97      56.083      129.062     8.504       -9999.25    -9999.25    -9999.25    -9999.25    -9999.25    -9999.25    23.912      1.374       337.656     39.374      0.96        27.168      1.657       2.464       
144.0       -9999.25    -9999.25    -9999.25    59.784      55.564      40.795      55.7        38.533      38.14       -9999.25    -9999.25    -9999.25    -9999.25    -9999.25    -9999.25    -9999.25    -9999.25    
144.07      79.771      128.551     8.264       -9999.25    -9999.25    -9999.25    -9999.25    -9999.25    -9999.25    24.05       1.392       337.473     39.745      0.96        26.528      1.738       2.484       
144.1       -9999.25    -9999.25    -9999.25    52.545      39.037      37.599      52.165      39.711      35.267      -9999.25    -9999.25    -9999.25    -9999.25    -9999.25    -9999.25    -9999.25    -9999.25    
144.17      61.942      128.628     8.225       -9999.25    -9999.25    -9999.25    -9999.25    -9999.25    -9999.25    24.085      1.387       337.374     40.509      0.96        25.829      1.875       2.504       
144.2       -9999.25    -9999.25    -9999.25    51.983      35.255      36.504      49.231      39.689      32.663      -9999.25    -9999.25    -9999.25    -9999.25    -9999.25    -9999.25    -9999.25    -9999.25    
144.27      37.267      128.838     8.448       -9999.25    -9999.25    -9999.25    -9999.25    -9999.25    -9999.25    24.115      1.359       337.372     40.182      0.96        24.964      1.888       2.521       
144.3       -9999.25    -9999.25    -9999.25    59.938      37.298      37.397      44.116      37.354      32.74       -9999.25    -9999.25    -9999.25    -9999.25    -9999.25    -9999.25    -9999.25    -9999.25    
144.37      32.612      127.986     8.478       -9999.25    -9999.25    -9999.25    -9999.25    -9999.25    -9999.25    24.155      1.341       337.533     38.536      0.96        23.891      1.77        2.537       
144.4       -9999.25    -9999.25    -9999.25    74.061      44.749      40.368      34.512      34.627      35.535      -9999.25    -9999.25    -9999.25    -9999.25    -9999.25    -9999.25    -9999.25    -9999.25    
144.47      57.173      126.918     8.218       -9999.25    -9999.25    -9999.25    -9999.25    -9999.25    -9999.25    24.15       1.352       337.968     36.95       0.96        23.225      1.726       2.545       
