~Version Information Section
VERS.                                         2.0:CWLS log ASCII Standart – VERSION 2.0
WRAP.                                          NO:One line per depth step
~Well Information Section
STRT.M                                        0.6:Начальная глубина
STOP.M                                      143.2:Конечная глубина
STEP.M                                          0:Шаг квантования по глубине
NULL.                                    -9999.25:Признак "Нет данных"
WELL.                                       116Мх:Скважина
~Parameter Information Section
~Curve Information Section
DEPTH.M                                          :Глубина
BK.lgОмм                                         :BK     (БК)
ПРОФ_СР.мм                                       :DS  (ДС)
ГК.мкР/час                                       :GK          (ГК)
ГЗ1.Омм                                          :GZ1   ГЗ1(A0.4M0.1N)
ГЗ2.Омм                                          :GZ2   ГЗ2(A1.0M0.1N)
ГЗ3.Омм                                          :GZ3   ГЗ3(A2.0M0.5N)
ГЗ4.Oмм                                          :GZ4   ГЗ4(A4.0M0.5N)
ГЗ5.Oмм                                          :GZ5   ГЗ5(A8.0M0.5N)
ГЗК.Омм                                          :GZK   ГЗK(N0.5M2.0A)
ИК.мСм/м                                         :IK
НГК.усл.ед.                                      :NGK     (НГК)
ПС.мВ                                            :PS       (ПС)
PZ.Омм                                           :PZ    (КС)
RIS.Омм                                          :RS (Резистивиметр)
U1.мВ                                            :U1
U2.mV                                            :U2
U3.мВ                                            :U3
W.г/см3                                          :ГГКп
П.%                                              :п
ННКМ.усл.ед                                      :ННКм
~ASCII LOG DATA
# ...
58.2        55.847      163.768     4.179       40.062      51.875      48.283      45.542      35.306      87.704      30.131      1.269       508.2       111.585     1.125       680.0       910.0       960.0       2.474       27.003      2.656       
58.3        35.975      162.729     4.561       37.121      50.852      47.051      44.435      33.801      85.725      28.84       1.271       506.261     110.919     1.125       690.0       910.0       953.333     2.461       27.51       2.612       
58.4        32.734      162.694     5.214       34.645      49.916      45.947      43.616      32.357      83.921      27.734      1.262       504.436     110.178     1.125       700.0       920.0       950.0       2.453       27.168      2.55        
58.5        36.728      162.953     5.505       32.736      49.225      45.131      43.075      31.081      82.388      26.929      1.29        502.724     109.363     1.125       720.0       920.0       950.0       2.428       27.246      2.484       
58.6        43.451      163.712     5.38        31.393      48.779      44.587      42.774      30.039      81.179      25.979      1.307       500.785     108.563     1.125       730.0       920.0       953.333     2.424       29.335      2.436       
58.7        44.566      165.441     5.153       30.544      48.548      44.299      42.669      29.256      80.285      25.961      1.291       498.618     107.778     1.125       750.0       930.0       960.0       2.41        31.102      2.406       
58.8        41.21       167.073     5.534       30.073      48.433      44.251      42.669      28.714      79.671      24.946      1.222       496.108     107.037     1.125       760.0       930.0       970.0       2.398       32.152      2.397       
58.9        23.768      167.411     6.035       29.851      48.419      44.251      42.669      28.354      79.289      23.827      1.188       493.484     106.326     1.125       780.0       930.0       976.667     2.396       32.527      2.405       
59.0        18.408      167.023     6.521       29.784      48.419      44.251      42.669      28.121      79.078      22.991      1.161       490.519     105.704     1.125       780.0       930.0       980.0       2.372       32.255      2.374       
59.1        17.824      166.213     6.658       29.784      48.419      44.251      42.701      27.973      78.987      22.943      1.166       487.324     105.2       1.125       770.0       940.0       986.667     2.375       32.228      2.333       
59.2        22.909      165.404     6.515       29.784      48.419      44.363      42.829      27.877      78.98       22.558      1.195       484.016     104.83      1.125       770.0       940.0       996.667     2.374       31.84       2.152       
59.3        35.563      165.93      6.195       29.784      48.433      44.507      43.021      27.813      78.98       22.325      1.239       481.164     104.548     1.125       770.0       940.0       1010.0      2.377       30.2        1.995       
59.4        39.537      166.92      5.88        29.808      48.491      44.667      43.286      27.775      78.98       22.328      1.275       478.883     104.326     1.125       770.0       950.0       1023.333    2.404       28.616      2.097       
59.5        46.666      167.148     5.753       29.887      48.591      44.859      43.603      27.754      78.98       22.33       1.261       476.944     104.178     1.125       770.0       950.0       1033.333    2.393       27.193      2.204       
59.6        41.305      167.473     5.744       30.011      48.779      45.131      43.946      27.749      79.034      22.453      1.221       474.662     104.133     1.125       780.0       950.0       1043.333    2.398       26.955      2.341       
59.7        37.325      167.745     5.718       30.186      49.081      45.467      44.31       27.749      79.129      22.469      1.18        471.924     104.133     1.125       780.0       950.0       1053.333    2.387       27.816      2.445       
59.8        29.717      167.626     5.85        30.417      49.556      45.963      44.698      27.749      79.267      22.543      1.176       469.073     104.252     1.125       790.0       950.0       1066.667    2.395       29.096      2.424       
59.9        27.416      167.347     6.079       30.718      50.161      46.635      45.11       27.749      79.44       22.623      1.178       466.791     104.533     1.125       790.0       950.0       1076.667    2.407       30.567      2.374       
60.0        24.774      167.287     6.287       31.119      50.924      47.467      45.565      27.757      79.642      22.636      1.183       465.08      105.037     1.125       790.0       950.0       1080.0      2.423       30.489      2.32        
60.1        23.388      166.858     6.332       31.668      51.774      48.331      46.102      27.781      79.869      22.775      1.155       463.597     105.733     1.125       790.0       950.0       1080.0      2.435       29.964      2.272       
60.2        25.003      166.679     6.16        32.431      52.71       49.243      46.752      27.824      80.117      23.038      1.161       462.0       106.637     1.125       790.0       960.0       1069.229    2.442       28.993      2.231       
60.3        25.882      166.643     5.905       33.487      53.603      50.107      47.542      27.892      80.387      23.619      1.181       460.517     107.541     1.125       790.0       960.0       1039.54     2.459       27.253      2.177       
60.4        30.62       166.13      5.286       34.911      54.567      50.907      48.458      27.99       80.684      23.747      1.256       459.262     108.385     1.125       670.937     922.341     994.212     2.466       24.408      2.157       
60.5        35.318      165.431     4.64        36.747      55.676      51.691      49.472      28.122      81.025      24.415      1.372       458.007     109.067     1.125       523.563     821.639     947.146     2.493       21.43       2.205       
60.6        36.392      162.613     3.837       38.997      57.044      52.523      50.531      28.294      81.428      25.35       1.524       456.068     109.748     1.125       454.829     760.419     907.081     2.524       18.645      2.328       
60.7        90.782      160.733     3.141       41.597      58.614      53.387      51.587      28.512      81.911      25.571      1.693       453.444     110.415     1.125       443.806     734.66      871.406     2.544       17.031      2.475       
60.8        281.838     160.176     2.516       44.422      60.486      54.315      52.576      28.784      82.489      26.606      1.794       450.25      111.111     1.125       443.806     733.48      836.991     2.548       16.266      2.762       
60.9        404.576     160.0       2.097       47.31       62.473      55.387      53.498      29.121      83.162      27.869      1.809       447.056     111.807     1.125       465.043     733.48      810.735     2.526       16.405      3.047       
61.0        220.293     160.03      2.02        50.089      64.374      56.523      54.355      29.534      83.917      29.092      1.748       443.406     112.593     1.125       497.135     747.48      810.735     2.511       16.91       3.262       
61.1        149.279     159.976     2.165       52.608      66.059      57.755      55.19       30.027      84.73       30.297      1.704       439.413     113.511     1.125       516.185     776.474     841.374     2.489       17.829      3.377       
61.2        146.218     159.956     2.331       54.773      67.657      59.147      56.035      30.599      85.578      30.633      1.68        434.736     114.489     1.125       516.819     834.552     1003.555    2.454       18.551      3.219       
61.3        146.218     159.999     2.336       56.55       69.083      60.747      56.941      31.243      86.434      31.529      1.652       429.717     115.393     1.125       516.819     869.717     1145.377    2.451       18.958      3.086       
