~Version Information Section
VERS.                                         2.0:CWLS log ASCII Standart – VERSION 2.0
WRAP.                                          NO:One line per depth step
~Well Information Section
STRT.M                                      -0.07:Начальная глубина
STOP.M                                     189.23:Конечная глубина
STEP.M                                          0:Шаг квантования по глубине
NULL.                                    -9999.25:Признак "Нет данных"
WELL.                                       127Мх:Скважина
~Parameter Information Section
~Curve Information Section
DEPTH.M                                          :Глубина
BK.                                              :BK
ГК.гамма                                         :GK
ИК.                                              :IK
НГК.усл.ед                                       :NGK
PSЭ3.                                            :PSэ3
PZЭ3.                                            :PZэ3
U1.                                              :U1
U2.                                              :U2
U3.                                              :U3
W.усл.ед                                         :W
ГЗ1.                                             :ГЗ1
ГЗ2.                                             :ГЗ2
ГЗ3.                                             :ГЗ3
ГЗ4.                                             :ГЗ4
ГЗ5.                                             :ГЗ5
ГЗК.                                             :ГЗК
ННКМ.усл.ед                                      :ННКм
PL.g/cm3                                         :Плотность
ПРОФ_СР.                                         :ПРОФ_СР
IS.                                              :РЕЗ
~ASCII LOG DATA
# ...
115.13      1.597       3.596       28.253      0.986       -8.106      0.577       -9999.25    -9999.25    -9999.25    42.133      0.044       19.957      10.054      20.42       21.355      10.07       1.341       1.936       101.106     1.085       
115.23      1.616       3.55        28.28       0.886       -2.867      0.572       -9999.25    -9999.25    -9999.25    40.74       0.046       19.954      10.051      20.41       21.331      10.07       1.335       1.937       101.121     1.084       
115.33      1.621       3.432       28.295      0.973       0.722       0.574       -9999.25    -9999.25    -9999.25    40.587      0.049       19.954      10.048      20.402      21.28       10.069      1.344       1.943       101.154     1.083       
115.43      1.633       3.31        28.287      1.182       0.811       0.572       -9999.25    -9999.25    -9999.25    40.815      0.052       19.956      10.047      20.4        21.231      10.072      1.361       1.956       101.13      1.082       
115.53      1.607       3.185       28.222      1.217       -0.439      0.543       -9999.25    -9999.25    -9999.25    40.829      0.053       19.963      10.051      20.4        21.224      10.078      1.368       1.975       101.151     1.082       
115.63      1.412       3.074       28.299      1.085       -2.472      0.539       -9999.25    -9999.25    -9999.25    40.202      0.053       19.965      10.05       20.405      21.239      10.079      1.369       2.001       101.15      1.083       
115.73      1.236       2.97        28.269      1.081       -5.522      0.584       -9999.25    -9999.25    -9999.25    38.97       0.053       19.957      10.045      20.415      21.226      10.081      1.389       2.023       101.085     1.083       
115.83      1.188       3.039       28.286      1.01        -10.656     0.567       -9999.25    -9999.25    -9999.25    38.027      0.051       19.95       10.042      20.414      21.183      10.081      1.439       2.037       101.104     1.084       
115.93      1.148       3.055       28.32       0.947       -18.039     0.618       -9999.25    -9999.25    -9999.25    37.476      0.048       19.944      10.035      20.409      21.275      10.083      1.48        2.039       101.104     1.084       
116.03      1.089       3.001       28.371      0.998       -26.55      0.671       -9999.25    -9999.25    -9999.25    36.408      0.045       19.939      10.032      20.403      21.418      10.082      1.516       2.024       101.077     1.085       
116.13      1.038       2.843       28.376      1.129       -35.422     0.677       -9999.25    -9999.25    -9999.25    36.766      0.042       19.929      10.026      20.412      21.564      10.072      1.539       1.992       101.061     1.085       
116.23      0.964       2.837       28.142      1.133       -42.95      0.677       -9999.25    -9999.25    -9999.25    36.292      0.041       19.931      10.021      20.42       21.714      10.069      1.533       1.952       101.076     1.084       
116.33      0.88        2.842       28.02       1.279       -48.389     0.687       -9999.25    -9999.25    -9999.25    36.7        0.04        19.944      10.02       20.428      21.951      10.063      1.516       1.908       101.103     1.084       
116.43      0.821       2.804       28.2        1.365       -53.894     0.719       -9999.25    -9999.25    -9999.25    37.641      0.039       19.957      10.021      20.439      22.319      10.057      1.466       1.871       101.072     1.084       
116.53      0.693       2.772       28.238      1.233       -58.65      0.722       -9999.25    -9999.25    -9999.25    37.88       0.037       19.963      10.029      20.456      22.63       10.058      1.388       1.847       101.073     1.084       
116.63      0.438       2.758       28.322      1.225       -61.078     0.672       -9999.25    -9999.25    -9999.25    38.342      0.037       19.963      10.034      20.462      22.929      10.057      1.334       1.832       101.083     1.084       
116.73      0.458       2.704       28.256      1.189       -61.339     0.651       -9999.25    -9999.25    -9999.25    39.3        0.036       19.963      10.043      20.457      23.194      10.061      1.306       1.832       101.075     1.083       
116.83      0.599       2.681       28.324      1.137       -61.189     0.611       -9999.25    -9999.25    -9999.25    40.857      0.036       19.956      10.045      20.45       23.472      10.067      1.294       1.844       101.1       1.083       
116.93      0.655       2.808       28.103      1.092       -61.044     0.574       -9999.25    -9999.25    -9999.25    43.679      0.037       19.95       10.041      20.436      23.603      10.077      1.298       1.866       101.108     1.084       
117.03      0.666       2.867       28.064      1.026       -60.922     0.58        -9999.25    -9999.25    -9999.25    44.862      0.037       19.947      10.034      20.435      23.557      10.078      1.3         1.891       101.113     1.083       
117.13      0.68        2.837       28.182      1.039       -60.983     0.582       -9999.25    -9999.25    -9999.25    45.646      0.038       19.943      10.025      20.434      23.393      10.062      1.296       1.914       101.079     1.083       
117.23      0.7         2.663       28.254      1.078       -60.694     0.59        -9999.25    -9999.25    -9999.25    43.888      0.039       19.948      10.019      20.438      23.126      10.049      1.298       1.93        101.062     1.083       
117.33      0.708       2.621       28.293      1.063       -60.011     0.598       -9999.25    -9999.25    -9999.25    42.246      0.038       19.961      10.015      20.437      22.822      10.038      1.315       1.938       101.071     1.084       
117.43      0.715       2.739       28.253      1.027       -60.044     0.602       -9999.25    -9999.25    -9999.25    41.71       0.037       19.969      10.018      20.442      22.46       10.026      1.333       1.936       101.084     1.085       
117.53      0.748       2.72        28.194      1.0         -61.4       0.596       -9999.25    -9999.25    -9999.25    40.386      0.037       19.968      10.027      20.449      22.189      10.021      1.343       1.926       101.099     1.085       
117.63      0.824       2.767       28.226      1.036       -63.928     0.598       -9999.25    -9999.25    -9999.25    40.407      0.037       19.968      10.042      20.451      21.968      10.023      1.349       1.913       101.081     1.086       
117.73      0.888       2.863       28.233      1.126       -66.65      0.604       -9999.25    -9999.25    -9999.25    41.374      0.038       19.971      10.052      20.447      21.822      10.036      1.356       1.901       101.108     1.086       
117.83      0.894       3.034       28.112      1.083       -69.756     0.604       -9999.25    -9999.25    -9999.25    42.622      0.039       19.972      10.05       20.448      21.739      10.046      1.357       1.894       101.11      1.087       
117.93      0.866       3.078       28.137      1.02        -73.756     0.604       -9999.25    -9999.25    -9999.25    43.761      0.04        19.971      10.044      20.449      21.684      10.058      1.333       1.896       101.106     1.087       
118.03      0.83        3.0         28.168      1.163       -77.472     0.606       -9999.25    -9999.25    -9999.25    43.159      0.042       19.973      10.042      20.449      21.636      10.067      1.293       1.907       101.083     1.087       
118.13      0.836       2.879       28.113      1.101       -80.928     0.614       -9999.25    -9999.25    -9999.25    41.155      0.042       19.976      10.041      20.453      21.592      10.067      1.282       1.924       101.095     1.088       
118.23      0.815       2.762       28.127      1.036       -90.233     0.62        -9999.25    -9999.25    -9999.25    40.113      0.041       19.979      10.034      20.452      21.606      10.065      1.303       1.942       101.074     1.088       
