~Version Information Section
VERS.                                         2.0:CWLS log ASCII Standart – VERSION 2.0
WRAP.                                          NO:One line per depth step
~Well Information Section
STRT.M                                        1.2:Начальная глубина
STOP.M                                      169.7:Конечная глубина
STEP.M                                          0:Шаг квантования по глубине
NULL.                                    -9999.25:Признак "Нет данных"
WELL.                                       115Мх:Скважина
~Parameter Information Section
~Curve Information Section
DEPTH.M                                          :Глубина
BK.Ohm*M                                         :BK     (БК)
DS.mm                                            :DS  (ДС)
GGK.g/cm3                                        :GGKp
ГК.mcr/h                                         :GK          (ГК)
GZ1.Ohm*M                                        :GZ1   ГЗ1(A0.4M0.1N)
GZ2.Ohm*M                                        :GZ2   ГЗ2(A1.0M0.1N)
GZ3.Ohm*M                                        :GZ3   ГЗ3(A2.0M0.5N)
GZ4.Ohm*M                                        :GZ4   ГЗ4(A4.0M0.5N)
GZ5.Ohm*M                                        :GZ5   ГЗ5(A8.0M0.5N)
GZR.Ohm*M                                        :GZK   ГЗK(N0.5M2.0A)
ИК.Ohm*M                                         :IK
НГК.ue                                           :NGK     (НГК)
NNKM.                                            :NNKm  (ННКм)
PS.mv                                            :PS       (ПС)
PZ.Ohm*M                                         :PZ    (КС)
RS.Ohm*M                                         :RS (Резистивиметр)
U1.mV                                            :U1
U2.mV                                            :U2
U3.mV                                            :U3
КП.%                                             :Кп
~ASCII LOG DATA
# ...
84.4        45.604      135.897     2.306       6.207       6.039       0.895       17.277      2.525       1.271       0.519       35.019      1.137       2.02        970.329     179.693     0.999       2774.988    2111.96     1594.811    33.233      
84.5        32.885      138.424     2.247       6.807       7.139       1.403       17.577      6.525       0.771       0.419       34.57       1.044       1.899       968.389     182.816     0.999       2606.887    2020.645    1554.723    33.918      
84.6        44.668      137.851     2.194       6.818       10.23       3.216       18.777      6.725       0.471       0.319       34.662      1.014       1.95        968.539     184.541     0.999       2603.031    2084.976    1659.887    33.607      
84.7        55.847      136.311     2.173       6.42        14.581      7.422       18.877      8.725       5.171       0.319       34.607      1.002       1.976       970.567     184.883     0.999       2725.548    2263.549    1868.002    34.522      
84.8        82.035      132.689     2.176       6.121       16.203      9.211       19.677      14.825      7.571       6.019       35.306      1.001       1.984       973.982     183.981     0.999       2805.476    2376.365    1997.896    35.881      
84.9        113.24      131.605     2.203       6.281       16.464      10.732      20.577      15.125      7.871       7.419       36.093      1.023       1.99        977.672     181.9       0.999       2677.505    2278.449    1923.631    35.371      
85.0        159.221     132.955     2.232       6.534       16.796      12.859      20.977      15.725      9.971       9.119       36.378      1.054       1.995       982.116     178.823     0.999       2271.756    1946.749    1657.499    33.152      
85.1        281.838     132.969     2.267       6.684       15.366      15.497      21.677      17.725      10.171      10.519      36.812      1.09        2.096       987.354     174.752     0.999       1767.354    1550.93     1356.564    29.775      
85.2        326.588     132.843     2.293       6.609       14.196      17.402      22.277      17.925      12.371      11.619      36.812      1.14        2.196       993.193     169.687     0.999       1320.931    1169.926    1043.228    28.425      
85.3        339.625     133.489     2.322       6.498       14.381      20.575      22.577      18.825      20.771      13.819      36.482      1.199       2.295       999.361     164.607     0.999       1040.204    868.162     747.468     27.599      
85.4        334.195     133.687     2.339       6.498       14.771      23.42       22.677      20.525      22.171      15.819      34.44       1.216       2.381       1006.345    159.526     0.999       891.672     650.835     497.655     28.218      
85.5        315.501     133.582     2.344       6.625       15.145      24.821      18.777      21.525      15.271      19.619      33.478      1.169       2.303       1014.155    154.088     0.999       774.558     522.533     362.499     29.396      
85.6        285.102     133.867     2.338       6.741       7.808       16.126      17.377      23.425      17.271      18.519      32.249      1.12        2.228       1021.94     148.386     0.999       690.654     477.525     333.52      30.481      
85.7        313.329     134.136     2.322       6.919       4.347       9.863       15.677      17.525      20.371      17.319      30.895      1.123       2.164       1029.692    142.326     0.999       635.007     477.313     358.654     31.675      
85.8        257.632     134.317     2.317       6.97        3.889       9.428       14.277      11.725      22.571      16.719      29.375      1.165       2.115       1037.928    135.863     0.999       591.683     466.677     365.491     32.931      
85.9        137.404     134.217     2.297       7.141       3.923       9.078       11.877      11.025      5.991       15.019      28.495      1.204       2.127       1046.409    128.98      0.999       572.321     468.537     381.971     34.56       
86.0        126.183     133.929     2.272       7.235       4.766       9.378       8.677       10.725      7.071       12.519      27.265      1.214       2.129       1054.887    121.786     0.999       569.238     491.158     422.434     33.821      
86.1        137.404     134.111     2.285       7.261       5.425       9.478       8.677       10.125      7.571       8.119       26.015      1.236       2.113       1063.21     114.235     0.999       569.078     517.281     468.241     31.585      
86.2        103.276     133.637     2.291       6.927       6.063       9.578       8.977       9.725       8.171       8.119       24.787      1.297       2.267       1070.676    106.42      0.999       558.424     529.726     499.938     26.469      
86.3        70.958      133.118     2.317       5.914       6.587       9.678       9.077       10.125      8.371       8.219       23.874      1.415       2.598       1077.451    98.543      1.003       528.192     524.187     519.675     22.477      
86.4        54.828      132.582     2.381       4.45        6.817       9.878       9.377       10.325      8.371       8.319       22.571      1.573       2.999       1083.96     90.588      1.003       464.122     494.59      532.132     19.169      
86.5        32.961      131.005     2.446       3.09        6.94        10.078      9.377       10.425      8.571       8.519       21.379      1.721       3.392       1089.792    82.601      1.008       409.015     453.127     520.201     18.106      
86.6        25.177      129.999     2.464       2.272       6.875       10.178      9.377       10.725      8.571       8.719       20.652      1.829       3.544       1094.448    75.33       1.008       441.019     427.474     460.461     18.755      
86.7        23.823      130.155     2.48        1.962       6.78        10.178      9.377       10.625      8.471       8.719       19.728      1.868       3.538       1098.716    68.727      1.008       563.326     439.337     383.885     19.777      
86.8        24.547      130.749     2.464       1.821       6.928       10.278      9.277       10.425      8.371       9.219       19.297      1.868       3.431       1102.377    62.978      1.008       707.904     485.942     344.782     20.872      
86.9        23.605      130.45      2.425       1.802       6.832       10.378      9.177       10.025      8.071       9.219       18.875      1.858       3.274       1104.465    58.27       1.008       788.168     541.21      372.44      21.104      
87.0        20.37       130.264     2.39        1.828       6.687       10.478      9.077       9.925       7.971       8.519       18.64       1.866       3.284       1105.329    54.588      1.012       794.629     588.811     444.484     20.66       
87.1        20.37       130.878     2.37        1.858       6.706       10.378      8.877       9.825       7.771       8.519       18.532      1.871       3.361       1105.816    51.838      1.012       752.533     619.329     523.706     20.218      
87.2        22.131      130.63      2.364       1.914       6.803       9.978       8.977       9.525       7.071       7.319       18.486      1.852       3.374       1105.594    50.066      1.012       743.322     680.488     631.581     20.132      
87.3        22.284      130.166     2.359       2.076       6.875       9.978       8.477       9.425       6.171       6.219       18.678      1.831       3.371       1105.433    49.227      1.016       863.88      828.341     792.392     20.478      
87.4        22.336      129.431     2.353       2.28        6.764       9.778       7.777       9.125       4.071       5.419       18.909      1.764       3.381       1105.117    49.212      1.016       1127.212    1058.947    989.733     20.784      
87.5        21.727      129.221     2.356       2.297       6.808       9.278       7.077       8.525       3.671       4.519       19.142      1.735       3.391       1104.597    50.035      1.016       1486.864    1327.862    1181.601    20.716      
