~Version Information Section
VERS.                                         2.0:CWLS log ASCII Standart – VERSION 2.0
WRAP.                                          NO:One line per depth step
~Well Information Section
STRT.M                                        0.1:Начальная глубина
STOP.M                                      153.3:Конечная глубина
STEP.M                                          0:Шаг квантования по глубине
NULL.                                    -9999.25:Признак "Нет данных"
WELL.                                        144К:Скважина
~Parameter Information Section
~Curve Information Section
DEPTH.M                                          :Глубина
БК.Омм                                           :BK     (БК)
DСР.мм                                           :DS  (ДС)
ПЛОТНОСТЬ.г/см^3                                 :GGKp
ГК.мкР/ч                                         :GK          (ГК)
А0.4М0.1N.Омм                                    :GZ1   ГЗ1(A0.4M0.1N)
А1.0М0.1N.Омм                                    :GZ2   ГЗ2(A1.0M0.1N)
А2.0М0.5N.Омм                                    :GZ3   ГЗ3(A2.0M0.5N)
А4.0М0.5N.Oмм                                    :GZ4   ГЗ4(A4.0M0.5N)
А8.0М1.0N.Омм                                    :GZ5   ГЗ5(A8.0M0.5N)
N0.5M2.0A.Омм                                    :GZR   ГЗK(N0.5M2.0A)
ИК.мСм/м                                         :IK
БЗ.ue                                            :NNKb  (ННКб)
МЗ.ue                                            :NNKm  (ННКм)
ПС.mv                                            :PS       (ПС)
N11.0M0.5A.Омм                                   :PZ    (КС)
R.Омм                                            :RS (Резистивиметр)
ПОРИСТОСТЬ.                                      :W
~ASCII LOG DATA
# ...
29.7        -9999.25    230.235     1.767       3.305       -9999.25    -9999.25    -9999.25    -0.141      -9999.25    -0.07       -9999.25    1.175       1.109       -9999.25    -9999.25    1.101       51.379      
29.8        -9999.25    230.234     1.801       3.341       -9999.25    -9999.25    -9999.25    -0.143      -9999.25    -0.072      -9999.25    1.193       1.115       -9999.25    -9999.25    1.101       50.837      
29.9        -9999.25    230.198     1.839       3.385       0.899       -9999.25    -9999.25    -0.138      -9999.25    -0.071      -9999.25    1.234       1.125       -9999.25    -9999.25    1.101       49.939      
30.0        -9999.25    230.221     1.868       3.391       0.902       -9999.25    -9999.25    -0.13       -9999.25    -0.07       -9999.25    1.303       1.132       -9999.25    -9999.25    1.101       48.806      
30.1        -9999.25    230.268     1.883       3.336       0.885       -9999.25    -9999.25    -0.075      -9999.25    -0.067      -9999.25    1.37        1.145       -9999.25    -9999.25    1.101       47.56       
30.2        -9999.25    230.268     1.886       3.291       0.886       -9999.25    -9999.25    -0.024      -9999.25    -0.064      -9999.25    1.416       1.146       -9999.25    -9999.25    1.101       46.486      
30.3        -9999.25    230.471     1.882       3.24        0.885       -9999.25    -9999.25    -0.024      -9999.25    -0.07       -9999.25    1.43        1.162       -9999.25    -9999.25    1.101       45.796      
30.4        -9999.25    230.577     1.873       3.184       0.885       -9999.25    -9999.25    -0.018      -9999.25    -0.071      -9999.25    1.44        1.186       -9999.25    -9999.25    1.101       45.351      
30.5        -9999.25    230.683     1.862       3.189       0.891       -0.044      -9999.25    -0.052      -9999.25    -0.055      -9999.25    1.449       1.202       -9999.25    -9999.25    1.101       45.231      
30.6        -9999.25    230.823     1.845       3.289       0.901       -0.042      -9999.25    -0.093      -9999.25    -0.045      -9999.25    1.46        1.208       -9999.25    -9999.25    1.101       45.433      
30.7        -9999.25    230.967     1.82        3.433       0.91        -0.061      -9999.25    -0.086      -9999.25    -0.045      -9999.25    1.432       1.194       -9999.25    -9999.25    1.101       45.831      
30.8        -9999.25    231.044     1.791       3.543       0.915       -0.061      -9999.25    -0.062      -9999.25    -0.034      -9999.25    1.399       1.178       -9999.25    -9999.25    1.101       46.499      
30.9        -9999.25    231.044     1.769       3.63        0.912       -0.062      -9999.25    -0.047      -9999.25    -0.034      -9999.25    1.358       1.15        -9999.25    -9999.25    1.101       47.265      
31.0        -9999.25    231.008     1.76        3.68        0.908       -0.061      -9999.25    -0.057      -9999.25    -0.049      -9999.25    1.304       1.125       -9999.25    -9999.25    1.101       47.842      
31.1        -9999.25    231.008     1.761       3.695       0.907       -0.062      -9999.25    -0.079      -9999.25    -0.062      -9999.25    1.27        1.108       -9999.25    -9999.25    1.101       48.214      
31.2        -9999.25    230.761     1.769       3.677       0.908       -0.062      -9999.25    -0.104      -9999.25    -0.071      -9999.25    1.241       1.103       -9999.25    -9999.25    1.101       48.33       
31.3        -9999.25    230.729     1.785       3.666       0.916       -0.063      -9999.25    -0.119      -9999.25    -0.076      -9999.25    1.269       1.106       -9999.25    -9999.25    1.101       48.116      
31.4        -9999.25    230.621     1.811       3.641       0.925       -0.064      -9999.25    -0.098      0.802       -0.093      -9999.25    1.318       1.11        -9999.25    -9999.25    1.101       47.613      
31.5        -9999.25    230.498     1.847       3.589       0.927       -0.064      -9999.25    0.079       0.907       -0.137      -9999.25    1.381       1.114       -9999.25    -9999.25    1.101       46.856      
31.6        -9999.25    230.436     1.886       3.509       0.923       -0.067      -9999.25    0.386       0.867       -0.237      -9999.25    1.424       1.125       -9999.25    -9999.25    1.101       46.109      
31.7        -9999.25    230.453     1.917       3.438       0.917       -0.071      -0.017      0.665       0.867       -0.366      -9999.25    1.461       1.154       -9999.25    -9999.25    1.101       45.552      
31.8        -9999.25    230.429     1.932       3.406       0.914       -0.069      -0.016      0.811       0.831       -0.453      -9999.25    1.487       1.192       -9999.25    -9999.25    1.101       45.109      
31.9        -9999.25    230.418     1.927       3.435       0.911       -0.068      -0.03       0.851       0.715       -0.48       -9999.25    1.491       1.227       -9999.25    -9999.25    1.101       44.701      
32.0        -9999.25    230.418     1.91        3.491       0.907       -0.07       -0.03       0.864       0.689       -0.454      -9999.25    1.472       1.24        80.98       -9999.25    1.101       44.366      
32.1        -9999.25    230.461     1.898       3.538       0.904       -0.069      -0.032      0.832       0.689       -0.433      -9999.25    1.439       1.223       81.124      -9999.25    1.101       44.475      
32.2        -9999.25    230.476     1.897       3.561       0.9         -0.069      -0.031      0.81        0.675       -0.414      -9999.25    1.448       1.184       81.27       -9999.25    1.101       44.978      
32.3        -9999.25    230.489     1.898       3.596       0.897       -0.068      -0.031      0.791       0.715       -0.381      -9999.25    1.448       1.161       81.42       -9999.25    1.101       45.92       
32.4        -9999.25    230.531     1.893       3.664       0.897       -0.066      -0.033      0.76        0.82        -0.371      -9999.25    1.459       1.155       81.58       -9999.25    1.101       46.857      
32.5        -9999.25    230.554     1.881       3.757       0.897       -0.064      -0.035      0.651       0.859       -0.318      -9999.25    1.422       1.157       81.738      -9999.25    1.101       47.705      
32.6        -9999.25    230.572     1.873       3.853       0.897       -0.062      -0.035      0.413       0.803       -0.216      -9999.25    1.362       1.162       81.885      -9999.25    1.101       48.182      
32.7        -9999.25    230.616     1.88        3.916       0.892       -0.06       -0.036      0.127       0.856       -0.12       -9999.25    1.311       1.164       82.01       -9999.25    1.101       48.398      
32.8        -9999.25    230.73      1.904       3.914       0.879       -0.059      -0.039      -0.076      1.022       -0.069      -9999.25    1.318       1.171       82.092      -9999.25    1.101       48.176      
32.9        -9999.25    230.73      1.933       3.839       0.87        -0.058      -0.04       -0.151      1.119       -0.066      -9999.25    1.373       1.176       82.109      -9999.25    1.101       47.55       
33.0        -9999.25    230.989     1.952       3.714       0.873       -0.059      -0.038      -0.173      1.064       -0.069      -9999.25    1.452       1.189       82.048      -9999.25    1.101       46.408      
33.1        -9999.25    231.072     1.954       3.616       0.87        -0.061      -0.038      -0.181      1.088       -0.069      -9999.25    1.495       1.208       81.9        -9999.25    1.101       45.276      
33.2        -9999.25    231.095     1.943       3.604       0.864       -0.061      -0.038      -0.188      0.976       -0.069      -9999.25    1.531       1.224       81.671      -9999.25    1.101       44.349      
33.3        -9999.25    231.146     1.923       3.672       0.864       -0.062      -0.035      -0.194      0.846       -0.07       -9999.25    1.536       1.244       81.375      -9999.25    1.101       43.763      
