~Version Information Section
VERS.                                         2.0:CWLS log ASCII Standart – VERSION 2.0
WRAP.                                          NO:One line per depth step
~Well Information Section
STRT.M                                        7.7:Начальная глубина
STOP.M                                      168.6:Конечная глубина
STEP.M                                          0:Шаг квантования по глубине
NULL.                                    -9999.25:Признак "Нет данных"
WELL.                                       137Мх:Скважина
~Parameter Information Section
~Curve Information Section
DEPTH.M                                          :Глубина
ГК.мкР/ч                                         :GK
U1.                                              :U1
U12.                                             :U12
U2.                                              :U2
W.усл.ед                                         :W
ЗОНД.                                            :Зонд N0
НГК.                                             :НГК
ННКМ.усл.ед                                      :ННКм
ПЛОТНОСТЬ.г/см3                                  :плотность
РЕЗИСТИВИМЕТР.Ом                                 :Резистивиметр
~ASCII LOG DATA
# ...
135.8       11.035      138.985     150.726     163.573     28.911      13.89       1.115       1.281       2.379       0.62        
135.9       11.644      143.297     163.939     188.161     28.912      14.253      1.123       1.257       2.375       0.615       
136.0       11.79       156.48      177.621     203.33      28.997      14.616      1.143       1.248       2.386       0.61        
136.1       11.003      178.535     191.77      209.079     28.602      14.979      1.155       1.315       2.406       0.607       
136.2       10.61       195.44      191.588     189.818     28.206      15.342      1.145       1.326       2.426       0.607       
136.3       10.567      201.048     184.131     169.089     28.113      15.705      1.118       1.342       2.437       0.611       
136.4       10.686      190.464     174.533     160.423     28.211      16.18       1.122       1.323       2.431       0.62        
136.5       10.91       180.721     170.374     161.266     28.335      16.768      1.137       1.287       2.411       0.631       
136.6       11.686      171.819     171.653     171.619     28.997      17.356      1.158       1.278       2.389       0.635       
136.7       12.095      166.887     162.991     160.69      29.806      17.943      1.161       1.263       2.369       0.632       
136.8       11.663      160.193     144.083     132.5       30.123      18.531      1.152       1.268       2.365       0.63        
136.9       11.693      150.22      131.504     117.299     29.975      19.119      1.128       1.271       2.351       0.63        
137.0       11.949      137.143     127.065     120.842     29.893      19.706      1.091       1.226       2.331       0.633       
137.1       12.205      120.963     130.764     143.13      29.721      21.163      1.078       1.214       2.323       0.636       
137.2       11.597      139.417     146.188     155.758     29.462      22.95       1.042       1.25        2.321       0.632       
137.3       11.139      164.395     158.6       156.473     29.612      24.748      1.022       1.245       2.324       0.626       
137.4       11.284      195.895     167.999     145.274     29.908      28.177      1.034       1.234       2.319       0.625       
137.5       11.795      196.108     170.009     151.174     29.928      33.601      1.083       1.248       2.308       0.625       
137.6       12.095      194.732     187.8       187.932     29.894      41.911      1.168       1.266       2.302       0.626       
137.7       11.786      190.812     197.794     210.428     29.891      52.705      1.251       1.268       2.306       0.633       
137.8       11.626      185.935     184.209     187.803     29.693      63.253      1.291       1.269       2.329       0.65        
137.9       11.579      185.659     163.93      147.61      28.773      75.531      1.285       1.306       2.363       0.656       
138.0       11.479      187.811     160.002     136.715     27.612      97.856      1.29        1.313       2.389       0.65        
138.1       11.371      192.391     172.426     155.117     26.493      144.529     1.321       1.436       2.412       0.65        
138.2       11.108      185.997     177.133     169.649     25.626      216.737     1.403       1.436       2.415       0.652       
138.3       11.233      171.761     174.655     178.566     24.404      289.88      1.49        1.475       2.415       0.658       
138.4       11.542      185.587     171.195     163.002     23.795      346.485     1.553       1.468       2.406       0.66        
138.5       12.022      243.975     181.343     145.196     23.527      374.839     1.646       1.441       2.397       0.66        
138.6       11.43       346.925     205.098     125.151     22.871      369.521     1.765       1.588       2.386       0.66        
138.7       9.724       370.149     217.998     131.711     21.971      352.485     1.831       1.809       2.385       0.66        
138.8       7.677       354.56      225.162     147.356     20.773      339.909     1.87        2.166       2.392       0.66        
138.9       6.316       300.159     226.591     172.087     19.602      329.834     1.897       2.255       2.409       0.66        
139.0       5.72        286.889     234.934     194.415     18.536      318.214     1.886       2.306       2.428       0.66        
139.1       5.107       265.182     237.668     215.236     17.949      301.202     1.892       2.306       2.449       0.66        
139.2       4.527       275.387     237.898     209.44      17.358      279.353     1.93        2.28        2.464       0.66        
139.3       4.409       261.047     224.478     200.662     17.265      259.721     2.006       2.283       2.47        0.658       
139.4       4.435       222.162     197.409     188.899     17.089      245.392     2.056       2.306       2.473       0.65        
139.5       4.505       173.119     177.062     189.913     16.867      230.91      2.081       2.365       2.471       0.642       
139.6       4.468       145.508     160.309     178.945     16.821      214.66      2.109       2.443       2.484       0.64        
139.7       4.358       139.331     147.151     155.994     16.78       200.274     2.138       2.471       2.502       0.64        
139.8       4.482       130.452     132.208     137.193     16.713      189.197     2.15        2.5         2.532       0.64        
139.9       4.788       152.18      135.365     125.176     16.702      179.936     2.158       2.429       2.554       0.64        
140.0       5.026       172.844     153.968     148.647     16.494      170.883     2.159       2.394       2.561       0.64        
140.1       4.826       161.84      169.92      200.822     16.129      160.474     2.145       2.428       2.561       0.64        
140.2       4.539       128.523     173.066     248.747     15.805      147.267     2.128       2.442       2.557       0.64        
140.3       4.471       124.862     169.212     244.947     15.426      132.283     2.155       2.511       2.554       0.64        
140.4       4.497       150.857     158.358     189.423     15.058      117.551     2.247       2.527       2.555       0.64        
140.5       4.714       163.959     165.151     182.051     14.846      105.344     2.359       2.607       2.549       0.64        
140.6       4.769       168.065     174.449     190.797     14.655      97.51       2.397       2.607       2.535       0.64        
140.7       4.526       163.175     186.252     215.661     14.265      92.641      2.385       2.607       2.522       0.64        
140.8       4.192       180.881     183.105     188.97      13.899      89.008      2.396       2.645       2.513       0.64        
140.9       4.069       196.987     176.997     161.529     13.52       86.549      2.424       2.671       2.526       0.64        
141.0       3.952       191.394     160.675     136.209     13.14       85.629      2.409       2.793       2.548       0.64        
141.1       4.02        165.7       137.1       113.762     12.844      86.223      2.325       2.854       2.582       0.64        
141.2       4.291       127.737     138.016     168.799     12.77       89.97       2.266       2.866       2.61        0.64        
141.3       4.569       104.009     146.134     222.869     12.947      95.148      2.193       2.869       2.624       0.64        
141.4       4.566       94.515      161.455     275.97      13.393      95.305      2.088       2.716       2.623       0.64        
141.5       4.452       104.89      165.361     264.085     14.03       89.894      2.01        2.618       2.623       0.64        
141.6       4.476       128.729     182.392     262.794     14.871      80.129      1.981       2.372       2.614       0.64        
141.7       4.731       131.081     190.055     282.223     15.505      66.839      1.988       2.309       2.592       0.64        
141.8       5.256       141.039     191.728     276.943     16.028      55.019      2.025       2.246       2.572       0.64        
