~Version Information Section
VERS.                                         2.0:CWLS log ASCII Standart – VERSION 2.0
WRAP.                                          NO:One line per depth step
~Well Information Section
STRT.M                                        0.5:Начальная глубина
STOP.M                                      201.9:Конечная глубина
STEP.M                                          0:Шаг квантования по глубине
NULL.                                    -9999.25:Признак "Нет данных"
WELL.                                       138Мх:Скважина
~Parameter Information Section
~Curve Information Section
DEPTH.M                                          :Глубина
БК.Омм                                           :BK     (БК)
DСР.мм                                           :DS  (ДС)
W.g/cm3                                          :GGKp
ГК.гамма                                         :GK          (ГК)
А0.4М0.1N.Омм.ohmm                               :GZ1   ГЗ1(A0.4M0.1N)
А1.0М0.1N.Омм.ohmm                               :GZ2   ГЗ2(A1.0M0.1N)
А2.0М0.5N.Омм.ohmm                               :GZ3   ГЗ3(A2.0M0.5N)
А4.0М0.5N.Oмм.ohmm                               :GZ4   ГЗ4(A4.0M0.5N)
А8.0М1.0N.Омм.ohmm                               :GZ5   ГЗ5(A8.0M0.5N)
N0.5M2.0A.Омм.ohmm                               :GZK   ГЗK(N0.5M2.0A)
ИК.мСм/м                                         :IK
ННКМ.усл.ед                                      :NNKm  (ННКм)
ПС.мВ                                            :PS       (ПС)
КС.Омм                                           :PZ    (КС)
R.Омм                                            :RS (Резистивиметр)
U1.мВ                                            :U1
U2.mV                                            :U2
U3.мВ                                            :U3
КП.%                                             :Кп
НГК.усл.ед                                       :NGK
~ASCII LOG DATA
# ...
35.7        472.538     139.143     2.1         2.429       128.928     453.812     5751.411    1872.344    -27.739     -6.216      27.996      4.517       179.512     428.36      1.1         -9999.25    -9999.25    -9999.25    -3.304      4.449       
35.8        215.175     138.589     2.074       2.071       124.688     441.411     5751.411    1860.434    -27.734     -4.977      28.183      4.601       179.272     428.36      1.1         -9999.25    -9999.25    -9999.25    -3.357      4.587       
35.9        238.332     138.42      2.054       1.788       121.293     433.828     5751.411    1772.006    -27.726     -0.016      28.309      4.607       178.936     428.36      1.1         -9999.25    -9999.25    -9999.25    -2.907      4.814       
36.0        235.458     139.649     2.041       1.779       116.995     431.32      5762.064    1644.385    -27.716     9.945       28.345      4.545       178.488     428.36      1.1         -9999.25    -9999.25    -9999.25    -2.25       5.009       
36.1        226.404     140.597     2.035       1.895       111.872     431.32      5798.018    1427.678    -27.705     25.462      28.498      4.522       177.944     428.6       1.1         -9999.25    -9999.25    -9999.25    -2.182      5.062       
36.2        495.651     141.01      2.035       2.01        108.308     431.32      5861.598    1158.567    -27.694     47.575      28.699      4.534       177.352     429.76      1.1         -9999.25    -9999.25    -9999.25    -2.432      4.943       
36.3        1336.411    140.441     2.036       2.225       106.105     431.32      5968.461    884.947     -27.689     147.035     28.838      4.516       176.536     429.76      1.1         -9999.25    -9999.25    -9999.25    -2.429      4.759       
36.4        784.669     138.905     2.03        2.312       104.222     432.645     6140.159    611.573     -27.689     375.895     29.002      4.473       175.592     429.76      1.1         -9999.25    -9999.25    -9999.25    -2.071      4.575       
36.5        249.099     138.292     2.026       2.378       103.409     435.942     6369.597    382.416     -27.69      706.56      29.125      4.364       174.504     429.72      1.1         -9999.25    -9999.25    -9999.25    -1.563      4.575       
36.6        224.66      137.912     2.022       2.358       103.409     440.554     6570.122    245.343     -27.696     1152.076    29.12       4.293       173.192     428.32      1.1         -9999.25    -9999.25    -9999.25    -1.073      4.614       
36.7        230.785     137.246     2.014       2.469       103.409     446.406     6656.221    201.21      -27.709     1731.175    29.087      4.345       171.656     425.72      1.1         -9999.25    -9999.25    -9999.25    -0.93       4.667       
36.8        249.02      137.137     2.008       2.567       103.409     454.189     6668.104    201.21      -27.721     2303.284    29.039      4.353       170.168     422.08      1.1         -9999.25    -9999.25    -9999.25    -0.933      4.448       
36.9        204.529     136.449     2.002       2.447       106.203     461.911     6625.519    201.21      -27.732     2720.991    29.007      4.301       168.728     417.84      1.1         -9999.25    -9999.25    -9999.25    -1.016      4.231       
37.0        194.559     136.133     1.986       2.425       113.971     467.655     6467.017    201.21      -27.74      2933.978    29.008      4.264       167.368     414.56      1.1         -9999.25    -9999.25    -9999.25    -0.989      4.123       
37.1        188.548     136.87      1.966       2.476       126.635     474.714     6212.734    292.704     -27.748     2979.352    28.918      4.249       166.168     412.08      1.1         -9999.25    -9999.25    -9999.25    -0.804      4.085       
37.2        267.867     137.819     1.958       2.704       144.797     482.77      5984.257    522.125     -27.748     2897.671    28.647      4.185       165.112     409.0       1.1         -9999.25    -9999.25    -9999.25    -0.559      4.062       
37.3        1260.338    139.007     1.961       2.88        168.556     488.5       5861.321    832.75      -27.748     2612.945    28.474      4.111       164.12      405.12      1.1         -9999.25    -9999.25    -9999.25    -0.151      4.072       
37.4        3852.71     138.208     1.974       2.78        192.885     493.52      5828.491    1206.723    -27.748     2142.111    28.345      4.081       163.16      400.0       1.1         -9999.25    -9999.25    -9999.25    -0.056      4.178       
37.5        3836.204    139.003     2.001       2.993       213.636     512.142     5828.491    1647.714    -27.748     1573.228    28.08       4.072       162.28      393.44      1.1         -9999.25    -9999.25    -9999.25    -0.33       4.252       
37.6        2744.213    137.594     2.034       2.797       232.125     556.465     5828.491    2049.195    -27.747     1045.441    27.836      4.092       161.464     385.28      1.1         -9999.25    -9999.25    -9999.25    -0.894      4.207       
37.7        1394.444    135.186     2.065       2.743       249.126     629.599     5828.491    2332.45     -27.739     641.892     27.603      4.11        160.776     378.0       1.1         -9999.25    -9999.25    -9999.25    -1.312      4.111       
37.8        1713.341    135.055     2.089       2.461       264.969     734.991     5854.506    2562.041    -27.725     340.482     27.31       4.122       160.184     371.72      1.1         -9999.25    -9999.25    -9999.25    -1.622      4.034       
37.9        7981.103    136.995     2.105       2.64        283.368     873.747     5987.199    2751.444    -27.701     157.008     26.908      4.152       159.688     366.52      1.1         -9999.25    -9999.25    -9999.25    -1.873      4.047       
38.0        19287.4     138.061     2.114       2.767       306.001     1016.552    6225.388    2888.035    -27.675     98.117      26.561      4.185       159.24      362.44      1.1         -9999.25    -9999.25    -9999.25    -3.146      4.156       
38.1        859.983     138.48      2.119       2.533       331.931     1139.095    6502.854    2984.515    -27.652     98.117      26.276      4.277       158.904     359.76      1.1         -9999.25    -9999.25    -9999.25    -4.251      4.317       
38.2        826.423     139.689     2.121       2.204       361.607     1246.454    6815.857    3104.844    -27.635     98.117      25.801      4.379       158.648     357.36      1.1         -9999.25    -9999.25    -9999.25    -5.302      4.458       
38.3        1208.445    138.833     2.124       1.989       394.531     1338.073    7123.543    3286.196    -27.633     98.117      25.397      4.233       158.472     355.52      1.1         -9999.25    -9999.25    -9999.25    -4.986      4.659       
38.4        522.806     141.034     2.128       2.609       430.228     1416.521    7383.847    3529.286    -27.633     99.846      24.925      4.027       158.408     354.24      1.1         -9999.25    -9999.25    -9999.25    -4.349      4.773       
38.5        665.526     143.447     2.13        3.264       468.597     1507.443    7609.977    3862.072    -27.653     108.159     24.548      3.752       158.408     353.72      1.1         -9999.25    -9999.25    -9999.25    -3.188      4.792       
38.6        1427.519    141.852     2.129       4.12        507.849     1621.845    7823.012    4343.477    -27.682     128.629     24.165      3.526       158.408     353.72      1.1         -9999.25    -9999.25    -9999.25    -1.825      4.518       
38.7        1429.097    140.235     2.117       4.451       546.675     1759.098    8026.61     4979.964    -27.717     158.941     23.824      3.543       158.408     353.72      1.1         -9999.25    -9999.25    -9999.25    5.584       4.298       
38.8        1241.722    140.905     2.104       4.822       587.719     1930.75     8232.404    5798.385    -27.756     193.661     23.31       3.089       158.504     353.72      1.1         997.474     1057.474    871.474     16.691      4.127       
