~Version Information Section
VERS.                                         2.0:CWLS log ASCII Standart – VERSION 2.0
WRAP.                                          NO:One line per depth step
~Well Information Section
STRT.M                                        0.5:Начальная глубина
STOP.M                                      158.2:Конечная глубина
STEP.M                                          0:Шаг квантования по глубине
NULL.                                    -9999.25:Признак "Нет данных"
WELL.                                       136Мх:Скважина
~Parameter Information Section
~Curve Information Section
DEPTH.M                                          :Глубина
BK.Ohm*M                                         :BK     (БК)
DS.mm                                            :DS  (ДС)
GGK.g/cm3                                        :GGKp
ГК.mcr/h                                         :GK          (ГК)
GZ1.Ohm*M                                        :GZ1   ГЗ1(A0.4M0.1N)
GZ2.Ohm*M                                        :GZ2   ГЗ2(A1.0M0.1N)
GZ3.Ohm*M                                        :GZ3   ГЗ3(A2.0M0.5N)
GZ4.Ohm*M                                        :GZ4   ГЗ4(A4.0M0.5N)
GZ5.Ohm*M                                        :GZ5   ГЗ5(A8.0M0.5N)
GZR.Ohm*M                                        :GZK   ГЗK(N0.5M2.0A)
ИК.Ohm*M                                         :IK
НГК.ue                                           :NGK     (НГК)
NNKM.                                            :NNKm  (ННКм)
PS.mv                                            :PS       (ПС)
PZ.Ohm*M                                         :PZ    (КС)
RS.Ohm*M                                         :RS (Резистивиметр)
U1.mV                                            :U1
U2.mV                                            :U2
U3.mV                                            :U3
КП.%                                             :Кп
~ASCII LOG DATA
# ...
106.1       47.523      137.106     2.262       6.035       26.75       20.444      21.959      14.514      14.829      32.124      29.054      1.142       2.066       88.659      50.966      1.087       -2168.24    67.499      -2223.77    34.76       
106.2       55.521      137.155     2.253       6.023       28.847      20.659      22.589      14.514      15.58       33.842      30.117      1.198       2.091       88.246      51.85       1.087       -2171.53    83.494      -2174.17    35.679      
106.3       125.126     136.851     2.244       5.888       32.38       22.546      23.917      14.868      16.483      35.749      31.176      1.221       2.162       87.926      52.808      1.087       -2190.51    92.695      -2127.11    36.81       
106.4       57.702      136.736     2.261       5.633       35.888      24.517      26.04       15.739      17.505      38.983      32.135      1.245       2.206       87.703      53.788      1.087       -2212.63    87.541      -2126.49    37.561      
106.5       53.061      136.781     2.236       5.499       39.149      26.52       28.598      16.833      18.846      42.016      33.095      1.268       2.198       87.559      54.779      1.087       -2225.72    78.45       -2168.36    37.451      
106.6       64.289      136.839     2.201       5.414       42.245      29.262      30.81       17.897      20.561      44.189      33.769      1.221       2.191       87.481      55.815      1.087       -2202.88    75.683      -2224.27    38.104      
106.7       67.061      136.929     2.191       5.461       44.909      31.596      32.674      19.145      22.655      46.738      34.211      1.239       2.187       87.443      56.896      1.087       -2157.22    74.064      -2260.51    38.42       
106.8       62.998      137.011     2.167       5.493       46.434      32.947      34.853      21.104      25.018      49.912      34.648      1.245       2.208       87.43       57.994      1.087       -2103.81    80.076      -2261.89    37.879      
106.9       72.696      136.852     2.17        5.501       47.868      35.194      37.341      23.54       27.372      52.43       35.147      1.271       2.229       87.42       59.114      1.087       -2073.24    93.491      -2230.77    35.152      
107.0       164.421     136.72      2.181       5.498       50.929      39.594      40.649      26.751      29.51       53.697      35.644      1.289       2.207       87.397      60.206      1.087       -2065.5     119.899     -2174.0     31.997      
107.1       172.882     136.719     2.192       5.441       55.458      44.472      44.438      29.825      30.913      53.697      36.005      1.26        2.192       87.337      61.219      1.087       -2057.95    152.816     -2106.8     31.322      
107.2       196.644     136.698     2.215       5.408       60.802      48.789      46.436      31.243      31.439      53.663      36.227      1.309       2.24        87.211      62.138      1.087       -2081.83    165.976     -2045.46    32.37       
107.3       186.126     136.744     2.215       5.414       61.35       49.683      46.469      31.243      31.439      53.604      36.287      1.337       2.3         86.984      62.961      1.087       -2149.41    142.08      -2023.99    35.971      
107.4       64.587      136.791     2.225       5.587       61.35       49.914      46.469      31.243      31.439      51.552      35.868      1.356       2.339       86.631      63.666      1.087       -2230.88    95.16       -2053.52    37.834      
107.5       43.452      136.934     2.23        5.856       61.35       50.435      46.469      30.509      31.058      47.788      34.815      1.33        2.327       86.154      64.277      1.087       -2287.26    51.029      -2118.45    38.289      
107.6       40.681      136.929     2.216       5.892       61.236      50.793      44.951      28.157      29.808      43.913      33.943      1.31        2.264       85.56       64.809      1.087       -2299.96    30.828      -2169.58    37.257      
107.7       56.613      137.166     2.205       5.764       59.799      49.719      42.129      25.786      28.017      41.368      33.205      1.288       2.18        84.887      65.268      1.087       -2306.33    20.527      -2195.8     35.733      
107.8       68.182      137.182     2.193       5.547       58.836      49.952      39.084      24.123      26.42       40.095      32.831      1.311       2.117       84.191      65.643      1.087       -2306.39    20.124      -2197.12    33.873      
107.9       68.95       137.259     2.192       5.474       58.836      49.952      37.812      24.042      24.963      39.997      32.842      1.289       2.164       83.509      65.822      1.087       -2306.42    19.854      -2198.01    30.897      
108.0       72.366      137.398     2.219       5.167       58.359      49.732      37.812      24.042      23.891      39.953      33.148      1.323       2.243       82.859      65.822      1.087       -2306.44    35.683      -2195.85    29.579      
108.1       181.346     137.411     2.247       4.884       56.76       49.732      37.812      24.042      23.359      39.573      33.329      1.322       2.316       82.256      65.822      1.087       -2265.15    62.55       -2205.76    30.234      
108.2       194.389     137.072     2.282       4.729       56.76       50.299      37.332      24.042      23.256      38.759      33.333      1.346       2.383       81.676      65.733      1.087       -2180.26    81.651      -2232.39    32.271      
108.3       69.048      137.193     2.285       4.909       60.751      53.644      37.007      25.163      23.216      38.674      33.219      1.348       2.466       81.096      65.29       1.087       -2108.08    78.759      -2261.62    33.112      
108.4       63.264      137.382     2.278       5.088       62.212      54.87       37.474      26.344      23.085      38.674      32.804      1.376       2.478       80.511      64.422      1.087       -2107.65    59.116      -2274.12    33.285      
108.5       72.384      137.188     2.271       5.152       62.212      54.87       37.474      26.344      23.042      38.63       32.382      1.409       2.372       79.917      63.174      1.087       -2181.31    41.386      -2263.55    33.917      
108.6       54.859      137.339     2.246       5.146       62.212      54.87       37.474      26.344      23.01       37.612      31.558      1.455       2.345       79.314      61.701      1.087       -2245.01    29.685      -2246.62    35.813      
108.7       34.203      137.449     2.249       5.237       59.766      53.408      37.337      26.032      22.814      36.034      30.683      1.429       2.386       78.743      60.116      1.087       -2278.25    28.362      -2216.94    37.234      
108.8       38.563      137.517     2.235       5.397       56.335      49.479      37.004      25.402      22.586      34.778      30.117      1.409       2.349       78.228      58.565      1.087       -2281.01    38.865      -2191.49    37.805      
108.9       54.916      137.518     2.235       5.628       51.837      45.522      36.85       24.227      22.27       33.987      29.581      1.412       2.288       77.778      57.176      1.087       -2279.92    51.305      -2194.46    36.636      
109.0       59.931      137.687     2.232       5.724       49.036      42.115      36.85       23.119      21.787      33.067      29.283      1.39        2.215       77.416      55.95       1.087       -2257.55    58.698      -2223.36    35.836      
109.1       62.422      137.948     2.221       5.865       47.656      40.685      36.85       22.822      21.258      32.497      29.329      1.373       2.164       77.166      54.891      1.087       -2210.56    57.736      -2260.84    34.865      
109.2       62.086      138.001     2.223       5.945       47.656      40.582      37.115      22.822      20.798      32.025      29.117      1.31        2.2         77.003      54.006      1.087       -2156.47    52.453      -2282.7     34.539      
