~Version Information Section
VERS.                                         2.0:CWLS log ASCII Standart – VERSION 2.0
WRAP.                                          NO:One line per depth step
~Well Information Section
STRT.M                                      -0.07:Начальная глубина
STOP.M                                     189.23:Конечная глубина
STEP.M                                          0:Шаг квантования по глубине
NULL.                                    -9999.25:Признак "Нет данных"
WELL.                                       127Мх:Скважина
~Parameter Information Section
~Curve Information Section
DEPTH.M                                          :Глубина
BK.                                              :BK
ГК.гамма                                         :GK
ИК.                                              :IK
НГК.усл.ед                                       :NGK
PSЭ3.                                            :PSэ3
PZЭ3.                                            :PZэ3
U1.                                              :U1
U2.                                              :U2
U3.                                              :U3
W.усл.ед                                         :W
ГЗ1.                                             :ГЗ1
ГЗ2.                                             :ГЗ2
ГЗ3.                                             :ГЗ3
ГЗ4.                                             :ГЗ4
ГЗ5.                                             :ГЗ5
ГЗК.                                             :ГЗК
ННКМ.усл.ед                                      :ННКм
PL.g/cm3                                         :Плотность
ПРОФ_СР.                                         :ПРОФ_СР
IS.                                              :РЕЗ
~ASCII LOG DATA
# ...
137.53      41.009      5.571       23.241      1.136       148.172     45.384      925.547     458.521     229.548     39.697      42.474      32.319      45.789      54.583      41.19       37.006      1.699       2.288       131.887     1.081       
137.63      45.212      5.389       22.895      1.174       147.45      45.663      935.009     461.818     231.378     40.34       42.961      30.113      42.632      52.57       40.76       35.722      1.694       2.273       132.117     1.081       
137.73      38.339      5.323       22.852      1.195       146.811     46.083      939.527     471.865     241.06      39.459      43.657      27.944      39.994      50.302      40.212      34.109      1.68        2.258       132.809     1.08        
137.83      32.257      5.317       22.935      1.166       146.333     46.622      934.434     473.09      243.628     38.335      44.119      26.275      37.935      48.219      39.613      32.662      1.642       2.247       133.264     1.08        
137.93      31.479      5.378       22.909      1.273       145.728     47.255      956.264     489.304     253.938     40.211      43.605      25.867      36.532      46.54       38.966      31.596      1.606       2.242       133.568     1.08        
138.03      33.632      5.246       23.051      1.224       144.989     47.924      993.517     511.36      265.823     43.696      42.498      26.61       35.863      45.545      38.225      30.963      1.588       2.243       133.796     1.08        
138.13      36.018      5.278       23.102      1.33        144.228     48.524      1019.363    517.914     264.885     42.53       40.722      28.139      35.864      45.591      37.569      30.514      1.58        2.247       133.676     1.08        
138.23      36.412      5.593       22.912      1.178       143.606     49.038      1037.669    516.068     257.567     39.877      38.403      30.033      35.998      46.173      37.38       30.287      1.588       2.256       133.539     1.081       
138.33      36.355      5.953       22.783      1.105       143.233     49.377      1043.862    515.509     255.168     39.51       36.172      31.753      35.993      47.06       37.63       30.068      1.605       2.266       133.875     1.082       
138.43      36.28       6.083       22.637      1.018       142.8       49.386      1011.797    503.162     250.573     40.495      34.773      32.756      35.872      47.886      38.748      29.713      1.63        2.274       134.587     1.082       
138.53      35.926      5.922       22.621      1.187       142.117     49.171      962.786     486.476     245.938     40.464      34.394      33.003      35.429      48.381      40.193      29.218      1.64        2.278       134.501     1.081       
138.63      34.691      5.668       22.643      1.294       141.378     48.852      921.532     469.712     239.428     39.707      34.336      32.447      34.628      48.291      41.493      28.783      1.627       2.281       133.813     1.081       
138.73      30.64       5.69        22.599      1.234       140.667     48.48       905.295     464.107     237.977     39.65       34.705      31.293      33.612      47.493      42.46       28.622      1.61        2.282       133.206     1.08        
138.83      25.49       5.753       22.497      1.172       140.161     48.088      917.3       474.664     245.71      39.858      35.534      29.767      32.65       46.562      42.946      28.585      1.594       2.279       133.117     1.079       
138.93      26.885      6.127       22.453      1.129       139.822     47.701      933.132     488.579     255.957     39.624      36.341      28.347      31.912      45.583      43.152      28.743      1.581       2.279       133.108     1.078       
139.03      27.47       6.09        22.23       1.117       139.65      47.355      941.113     498.878     264.6       39.531      37.073      27.507      31.327      44.753      42.654      29.124      1.577       2.283       133.18      1.078       
139.13      26.207      6.156       22.04       1.118       139.594     47.082      939.023     502.414     268.905     39.748      38.088      27.051      31.129      44.189      42.129      29.64       1.575       2.288       133.363     1.077       
139.23      28.311      5.95        21.875      1.083       139.539     46.915      926.373     501.141     271.251     40.454      38.889      26.814      31.391      43.868      41.951      30.189      1.58        2.294       133.481     1.078       
139.33      30.785      5.847       21.752      1.061       139.517     46.889      920.958     504.375     276.943     41.276      39.196      26.868      31.988      43.789      41.8        30.732      1.589       2.301       133.636     1.078       
139.43      32.829      5.73        21.816      1.1         139.556     46.964      899.373     483.509     262.37      42.149      39.336      27.074      32.752      43.852      41.796      31.191      1.602       2.303       133.191     1.08        
139.53      33.525      5.616       21.834      1.154       139.489     47.061      878.791     453.101     237.743     42.454      39.215      27.098      33.526      43.933      41.802      31.502      1.627       2.301       133.224     1.081       
139.63      32.297      5.552       21.947      1.15        139.233     47.149      899.286     447.12      226.893     39.406      38.768      27.057      34.129      43.917      41.825      31.671      1.658       2.294       133.307     1.08        
139.73      32.329      5.595       22.197      1.083       138.917     47.201      934.025     450.64      221.445     36.599      38.358      27.024      34.457      43.768      41.785      31.776      1.698       2.286       133.067     1.079       
139.83      35.286      5.778       22.437      1.1         138.622     47.211      938.51      445.301     214.157     38.581      39.126      27.025      34.527      43.497      41.674      31.864      1.716       2.278       133.008     1.078       
139.93      35.533      5.876       22.585      1.263       138.206     47.165      966.2       474.373     235.965     39.914      41.699      26.837      34.569      43.122      41.781      31.971      1.681       2.273       133.073     1.077       
140.03      31.359      5.719       22.777      1.201       137.561     47.046      1024.756    534.623     282.298     40.203      45.028      26.621      34.799      42.839      42.068      32.264      1.651       2.274       132.765     1.076       
140.13      29.084      5.496       23.029      1.149       136.889     46.871      1055.744    584.482     326.769     41.131      47.543      26.788      35.411      42.952      42.582      32.857      1.648       2.282       132.75      1.076       
140.23      30.491      5.513       23.017      1.207       136.367     46.662      1049.25     610.513     357.773     41.665      48.969      27.427      36.465      43.706      43.367      33.727      1.663       2.3         133.187     1.077       
140.33      33.051      5.604       22.952      1.18        135.939     46.381      1065.224    622.851     367.162     42.105      48.292      28.914      37.759      44.97       44.146      34.583      1.707       2.322       133.6       1.077       
140.43      35.369      5.727       22.825      1.056       135.583     46.024      1086.391    615.017     353.694     41.768      46.574      31.348      38.967      46.594      44.709      35.183      1.764       2.34        133.346     1.077       
140.53      37.901      5.576       22.729      1.023       135.306     45.594      1072.447    571.891     314.467     39.904      43.306      33.669      39.526      48.188      44.938      35.33       1.816       2.353       133.071     1.077       
140.63      40.415      5.591       22.677      1.078       135.011     45.119      1040.742    515.792     267.661     39.236      39.276      35.098      38.894      49.121      44.744      34.761      1.865       2.356       132.363     1.078       
