~Version Information Section
VERS.                                         2.0:CWLS log ASCII Standart – VERSION 2.0
WRAP.                                          NO:One line per depth step
~Well Information Section
STRT.M                                        0.4:Начальная глубина
STOP.M                                      203.0:Конечная глубина
STEP.M                                          0:Шаг квантования по глубине
NULL.                                    -9999.25:Признак "Нет данных"
WELL.                                       128Мх:Скважина
~Parameter Information Section
~Curve Information Section
DEPTH.M                                          :Глубина
BK.Ohm*M                                         :BK     (БК)
DS.mm                                            :DS  (ДС)
GGK.g/cm3                                        :GGKp
ГК.mcr/h                                         :GK          (ГК)
ИК.Ohm*M                                         :IK
НГК.mcR/H                                        :NGK
NNKM.                                            :NNKm  (ННКм)
PS.mv                                            :PS       (ПС)
PZ.Ohm*M                                         :PZ    (КС)
RS.Ohm*M                                         :RS (Резистивиметр)
U1.mV                                            :U1
U2.mV                                            :U2
U3.mV                                            :U3
W.%                                              :W
~ASCII LOG DATA
# ...
180.4       275.423     122.709     1.982       3.578       46.331      2.088       3.131       348.656     73.156      1.12        677.332     829.334     637.336     16.632      
180.6       255.859     122.519     2.002       3.698       47.281      1.882       3.046       345.231     73.161      1.12        722.666     834.666     578.667     23.242      
180.8       201.372     122.475     2.003       3.504       48.022      1.746       2.8         342.619     73.103      1.12        754.668     853.334     597.334     24.94       
181.0       146.893     122.57      1.976       3.253       48.272      1.936       2.751       340.328     72.782      1.12        762.666     885.333     640.001     21.593      
181.2       133.968     122.595     1.982       3.708       48.126      1.934       2.857       337.839     72.243      1.12        773.333     858.667     658.667     20.33       
181.4       146.893     122.813     2.041       3.531       48.473      2.033       2.881       335.055     71.568      1.12        773.333     770.667     677.332     19.348      
181.6       172.187     122.999     2.065       3.849       47.969      2.008       3.017       332.344     70.887      1.12        791.999     765.334     725.333     20.666      
181.8       185.353     122.772     2.063       3.832       47.771      1.998       2.984       329.806     70.303      1.12        808.0       778.668     703.999     20.836      
182.0       189.671     122.869     2.045       3.751       47.628      2.027       3.01        327.86      69.818      1.12        781.331     818.667     682.667     21.769      
182.2       102.802     122.764     2.015       3.657       47.578      2.128       3.023       326.8       69.295      1.12        757.333     768.0       714.667     18.972      
182.4       155.597     122.712     2.059       3.919       47.771      2.3         3.069       326.258     68.572      1.12        776.001     767.999     730.667     17.681      
182.6       142.233     122.567     2.073       4.343       47.143      2.188       3.085       325.618     67.448      1.12        768.0       770.667     613.337     18.19       
182.8       98.628      122.59      2.047       4.185       46.904      2.121       3.006       324.706     65.385      1.12        727.998     738.666     581.334     21.919      
183.0       123.027     122.751     2.062       3.909       46.481      1.784       2.884       323.893     61.464      1.12        621.332     701.332     557.332     26.024      
183.2       115.878     123.09      2.083       3.844       46.2        1.39        2.778       323.499     55.473      1.12        581.333     624.0       464.0       32.191      
183.4       111.944     123.702     2.1         3.842       45.245      1.406       2.71        323.449     48.609      1.12        464.005     560.001     360.32      34.467      
183.6       156.315     123.327     2.131       3.828       45.025      1.288       2.598       323.449     42.806      1.12        373.333     541.333     261.651     29.185      
183.8       164.816     123.092     2.113       3.657       44.637      1.355       2.648       323.745     39.029      1.12        354.666     455.997     242.666     29.614      
184.0       90.991      123.134     2.098       3.818       44.423      1.477       2.68        324.755     36.993      1.12        346.666     429.334     245.334     31.578      
184.2       106.17      122.818     2.082       3.603       44.589      1.352       2.63        326.505     36.0        1.12        344.0       448.0       253.333     33.385      
184.4       133.352     123.073     2.106       3.597       43.745      1.291       2.553       328.451     35.506      1.12        354.666     453.333     218.667     34.312      
184.6       105.682     123.272     2.136       3.868       43.286      1.391       2.581       330.077     35.211      1.12        338.667     482.666     181.335     31.103      
184.8       80.723      123.566     2.122       3.753       43.037      1.272       2.599       331.309     34.987      1.12        333.333     504.001     168.001     29.854      
185.0       113.24      123.852     2.127       3.726       43.085      1.235       2.537       332.172     34.801      1.12        341.334     498.666     200.001     33.143      
185.2       83.753      123.517     2.111       4.019       42.535      1.367       2.582       332.813     34.639      1.12        362.667     426.667     240.0       31.271      
185.4       124.451     123.082     2.104       3.571       42.146      1.375       2.553       333.773     34.48       1.12        391.999     386.667     232.001     31.353      
185.6       121.339     123.334     2.141       3.989       41.909      1.375       2.582       335.646     34.324      1.12        405.334     365.333     229.333     33.377      
185.8       104.232     123.39      2.197       4.197       41.577      1.509       2.541       338.628     34.176      1.12        373.333     333.332     194.665     31.172      
186.0       83.753      123.445     2.178       3.861       41.345      1.529       2.683       342.397     34.046      1.12        381.333     381.337     205.335     30.822      
186.2       116.95      123.391     2.142       3.481       40.885      1.462       2.687       346.143     33.943      1.12        389.333     469.333     218.667     30.842      
186.4       155.955     123.315     2.189       3.456       40.306      1.416       2.677       349.075     33.875      1.12        413.333     496.0       247.999     30.761      
186.6       67.143      123.192     2.239       3.503       39.613      1.438       2.666       350.997     33.847      1.12        432.0       498.667     269.333     28.806      
186.8       116.681     123.045     2.258       3.234       39.234      1.438       2.655       352.377     33.847      1.12        362.664     472.0       277.334     29.165      
187.0       74.302      123.417     2.211       3.208       38.945      1.581       2.762       353.855     33.847      1.12        333.334     450.665     269.333     28.393      
187.2       125.893     123.416     2.172       3.554       37.984      1.602       2.764       355.949     33.882      -9999.25    357.333     434.667     266.667     27.712      
187.4       124.451     124.727     2.187       3.672       36.547      1.428       2.756       358.857     33.967      -9999.25    358.202     424.0       256.0       29.147      
187.6       121.339     124.141     2.224       3.52        35.599      1.447       2.79        362.257     34.125      -9999.25    363.354     424.0       258.667     30.611      
187.8       112.202     124.774     2.233       3.235       34.148      1.433       2.793       365.411     34.393      -9999.25    367.557     453.335     258.667     28.569      
188.0       105.682     124.845     2.273       2.96        32.928      1.569       2.782       367.974     34.812      -9999.25    311.999     485.334     280.001     25.041      
188.2       124.738     125.149     2.292       3.157       30.87       1.61        2.925       370.241     35.387      -9999.25    293.333     461.333     296.0       23.998      
188.4       132.434     125.197     2.251       3.59        28.025      1.568       3.012       372.902     36.071      -9999.25    306.667     479.998     301.333     22.529      
188.6       152.055     126.103     2.245       3.703       24.986      1.869       3.045       376.499     36.813      -9999.25    303.999     480.001     269.335     20.247      
188.8       187.068     125.47      2.349       3.489       21.342      2.022       3.223       380.984     37.595      -9999.25    279.998     429.332     215.998     17.987      
189.0       179.061     124.757     2.436       3.177       17.629      2.263       3.463       386.577     38.444      -9999.25    282.667     375.998     157.333     14.01       
189.2       177.419     125.093     2.471       3.492       14.744      2.275       3.729       393.944     39.436      -9999.25    306.667     378.667     173.333     15.455      
