~Version Information Section
VERS.                                         2.0:CWLS log ASCII Standart – VERSION 2.0
WRAP.                                          NO:One line per depth step
~Well Information Section
STRT.M                                        0.0:Начальная глубина
STOP.M                                      180.0:Конечная глубина
STEP.M                                          0:Шаг квантования по глубине
NULL.                                    -9999.25:Признак "Нет данных"
WELL.                                       120Мх:Скважина
~Parameter Information Section
~Curve Information Section
DEPTH.M                                          :Глубина
BK.Ohm*M                                         :BK     (БК)
DS.mm                                            :DS  (ДС)
GGK.g/cm3                                        :GGKp
ГК.mcr/h                                         :GK          (ГК)
GZ1.Ohm*M                                        :GZ1   ГЗ1(A0.4M0.1N)
GZ2.Ohm*M                                        :GZ2   ГЗ2(A1.0M0.1N)
GZ3.Ohm*M                                        :GZ3   ГЗ3(A2.0M0.5N)
GZ4.Ohm*M                                        :GZ4   ГЗ4(A4.0M0.5N)
GZ5.Ohm*M                                        :GZ5   ГЗ5(A8.0M0.5N)
GZR.Ohm*M                                        :GZK   ГЗK(N0.5M2.0A)
ИК.Ohm*M                                         :IK
НГК.u.e.                                         :NGK
NNKM.                                            :NNKm  (ННКм)
PS.mv                                            :PS       (ПС)
PZ.Ohm*M                                         :PZ    (КС)
RS.Ohm*M                                         :RS (Резистивиметр)
U1.mV                                            :U1
U2.mV                                            :U2
U3.mV                                            :U3
КП.%                                             :Кп
~ASCII LOG DATA
# ...
102.4       68.865      125.374     2.311       4.92        114.836     86.689      81.294      115.29      85.922      61.232      13.292      1.287       2.284       564.924     142.183     1.23        1287.37     1055.215    912.856     30.989      
102.6       64.417      124.743     2.388       4.887       75.051      72.223      71.873      96.776      82.275      61.232      13.25       1.344       2.404       566.806     130.527     1.203       1302.507    984.082     787.124     25.98       
102.8       65.464      124.857     2.343       4.654       77.749      68.282      71.494      93.68       77.897      65.232      13.204      1.402       2.465       569.206     122.756     1.18        1234.837    1042.046    936.503     24.864      
103.0       81.47       123.839     2.319       4.717       79.776      72.314      73.852      101.993     77.202      69.232      13.187      1.341       2.347       571.606     120.25      1.165       1127.346    984.567     910.845     24.864      
103.2       48.978      125.081     2.31        5.04        88.884      79.652      72.458      113.472     88.516      71.899      13.11       1.318       2.293       574.006     133.034     1.162       1401.286    1113.607    926.618     27.779      
103.4       59.979      125.559     2.279       5.008       116.847     94.513      82.228      129.703     97.515      71.899      12.995      1.285       2.332       575.888     143.311     1.168       1733.148    1422.559    1211.213    28.564      
103.6       61.518      125.642     2.261       4.318       179.176     122.983     91.32       134.663     92.324      69.237      12.992      1.283       2.373       576.646     141.055     1.176       1402.482    1227.434    1121.911    27.578      
103.8       63.68       125.711     2.324       4.527       115.312     93.167      79.404      113.309     85.104      62.566      12.895      1.324       2.404       577.126     135.916     1.18        1086.33     844.892     722.091     28.189      
104.0       79.068      126.217     2.461       4.327       66.763      65.085      55.404      87.177      75.985      52.566      12.81       1.255       2.418       578.124     121.378     1.18        1088.868    630.195     403.686     27.919      
104.2       67.764      124.716     2.396       4.518       62.475      54.695      38.737      80.489      61.255      45.899      12.716      1.199       2.493       580.16      97.063      1.18        1092.942    481.072     228.289     21.553      
104.4       79.068      125.564     2.34        4.809       56.616      48.211      37.404      73.669      50.613      44.566      12.523      1.208       2.365       584.163     89.167      1.18        1211.58     561.1       284.208     23.077      
104.6       41.976      125.094     2.329       4.944       57.594      46.554      38.071      72.527      46.76       47.899      12.29       1.19        2.184       589.923     87.036      1.18        1118.209    758.639     578.767     34.02       
104.8       36.813      125.456     2.324       5.184       53.719      46.125      39.404      74.332      46.41       49.899      11.976      1.161       2.257       596.844     90.546      1.184       1114.198    984.024     937.604     24.557      
105.0       41.879      125.158     2.308       5.188       53.673      46.792      40.071      76.605      48.824      51.232      11.876      1.19        2.231       603.929     94.18       1.193       1163.291    940.073     807.479     32.908      
105.2       39.902      126.204     2.284       5.529       55.244      49.458      42.737      75.305      52.803      53.899      11.89       1.259       2.277       609.727     89.794      1.199       1007.068    801.535     680.597     25.102      
105.4       35.81       126.912     2.316       6.068       58.491      37.458      46.737      83.036      56.382      58.566      11.884      1.267       2.223       613.289     84.53       1.2         700.438     576.748     525.852     30.621      
105.6       35.727      127.5       2.369       5.376       61.012      32.125      66.07       87.145      58.806      59.899      11.951      1.26        2.243       614.249     89.543      1.211       673.227     655.455     710.557     28.951      
105.8       40.458      126.799     2.341       5.467       67.218      43.458      82.071      91.365      64.799      58.566      12.075      1.258       2.254       613.366     95.308      1.237       763.969     745.732     800.909     28.431      
106.0       40.272      126.697     2.318       5.345       79.006      58.125      68.071      95.172      70.835      55.232      12.174      1.245       2.243       611.686     96.311      1.256       1115.529    891.571     767.016     26.742      
106.2       44.771      126.596     2.308       5.782       80.305      60.792      55.404      92.748      69.975      53.899      12.282      1.27        2.31        609.804     98.818      1.26        1148.645    866.866     691.306     25.715      
106.4       48.978      126.157     2.299       5.52        69.986      60.125      48.737      88.073      65.488      58.566      12.36       1.243       2.329       608.883     106.087     1.26        891.557     681.084     560.088     26.74       
106.6       72.277      126.819     2.327       5.206       68.81       62.792      45.404      90.266      65.16       64.566      12.455      1.295       2.393       609.603     107.34      1.26        1218.771    910.008     717.415     25.978      
106.8       78.163      125.829     2.277       4.951       69.502      68.792      45.404      92.526      65.178      65.899      12.503      1.257       2.371       612.08      105.711     1.26        1702.372    1306.267    1059.305    24.334      
107.0       44.259      125.881     2.288       5.28        70.593      73.458      47.404      93.951      66.984      66.566      12.461      1.212       2.221       617.004     106.463     1.253       1211.506    1041.45     981.108     28.459      
107.2       48.417      127.45      2.307       6.087       74.089      66.791      48.737      95.002      68.902      67.232      12.383      1.22        2.249       623.244     106.588     1.23        1305.687    938.68      743.072     29.403      
107.4       49.317      131.686     2.283       5.484       73.709      56.792      47.404      93.205      67.195      65.232      12.326      1.199       2.264       630.646     99.946      1.2         1053.139    816.439     718.828     29.322      
107.6       51.761      133.807     2.354       5.024       65.824      56.125      49.404      90.061      64.878      61.899      12.294      1.261       2.266       638.086     93.428      1.162       1487.13     1118.308    908.771     28.583      
107.8       71.779      134.258     2.4         5.829       60.261      52.792      53.404      87.306      61.771      59.899      12.279      1.289       2.332       644.729     89.919      1.121       1828.783    1405.904    1123.67     26.86       
108.0       49.204      133.454     2.362       5.836       58.624      50.125      58.737      85.109      58.798      61.232      12.223      1.209       2.356       649.088     91.924      1.091       1397.244    1126.418    948.567     28.335      
108.2       40.272      133.314     2.328       5.974       54.874      50.125      62.737      83.475      56.916      61.899      12.162      1.155       2.289       651.689     96.938      1.071       1231.532    1008.653    870.118     29.389      
108.4       35.975      131.961     2.301       5.889       52.59       48.125      63.404      87.09       58.477      61.899      12.082      1.162       2.219       652.889     92.3        1.061       1386.213    1041.601    842.189     29.655      
108.6       36.392      130.196     2.367       5.878       54.189      44.125      60.737      81.478      59.899      61.899      11.955      1.212       2.225       652.611     84.028      1.06        1300.033    815.623     545.815     29.354      
