~Version Information Section
VERS.                                         2.0:CWLS log ASCII Standart – VERSION 2.0
WRAP.                                          NO:One line per depth step
~Well Information Section
STRT.M                                       -0.3:Начальная глубина
STOP.M                                      200.8:Конечная глубина
STEP.M                                          0:Шаг квантования по глубине
NULL.                                    -9999.25:Признак "Нет данных"
WELL.                                       124Мх:Скважина
~Parameter Information Section
~Curve Information Section
DEPTH.M                                          :Глубина
U1.мВ                                            :U1
U2.                                              :U2
U3.мВ                                            :U3
БЗ.имп/мин                                       :БЗ
ГГКП.имп/мин                                     :ГГКп
ГЗ1.Омм                                          :ГЗ1
ГЗ2.Омм                                          :ГЗ2
ГЗ3.Омм                                          :ГЗ3
ГЗ4.Oмм                                          :ГЗ4
ГЗ5.Oмм                                          :ГЗ5
ГЗК.Омм                                          :ГЗК
КП.%                                             :Кп
МЗ.                                              :МЗ жесткий
НГК.усл.ед                                       :ННКб
ННКМ.усл.ед                                      :ННКм
ПРОФ_СР.мм                                       :ПРОФ_СР
ПС.мВ                                            :ПС
BK.lgОмм                                         :BK
ГК.имп/мин                                       :GK
ИК.мСм/м                                         :IK
PZ.Омм                                           :PZ
RIS.Омм                                          :RIS
~ASCII LOG DATA
# ...
185.3       1486.666626 3690.0      1600.0      15350.6669922.548247    15.233      20.775999   32.200001   35.832001   41.664001   42.896999   14.4773     18062.6660166.445779    3.136127    148.434006  463.847992  187.931656  2.88        39.240311   95.68       1.02        
185.4       1496.668213 3710.0      1610.0      14734.2861332.545927    15.119      20.722      32.200001   34.832001   41.647999   47.186001   15.890243   18175.7148446.192268    3.180576    148.934006  444.135986  200.44722   2.88        38.834953   97.279999   1.02        
185.5       1506.665649 3706.666992 1610.0      14208.5712892.53083     14.958      20.653999   32.200001   33.967999   41.647999   52.676998   17.316113   18168.5722665.724041    3.124401    149.354996  425.040009  230.674667  2.88        38.46154    98.400002   1.02        
185.6       1516.665649 3703.333008 1610.0      14334.2861332.503514    14.738      20.608      32.200001   33.16       41.647999   59.261002   18.377174   18464.2851564.987491    2.98538     149.580994  415.18399   158.489334  2.861       38.083633   100.400002  1.02        
185.7       1500.000488 3700.0      1606.66687  15005.7138672.479817    14.446      20.509001   32.040001   32.464001   41.528      66.709999   18.252905   19130.0     4.822538    2.782281    149.891006  404.712006  86.099365   2.842       37.515007   102.559998  1.02        
185.8       1493.333374 3693.333252 1603.333374 16457.1425782.470973    14.09       20.355      31.860001   31.728001   41.240002   74.700996   17.672256   19522.8574224.794855    2.70178     149.061005  399.783997  78.52356    3.302       36.835125   104.0       1.02        
185.9       1483.332886 3686.66626  1620.001587 17625.7148442.474851    13.724      20.108      31.24       30.927999   40.703999   82.819      16.268452   19595.7148445.093325    2.727047    148.406006  394.23999   94.40609    3.533       35.95829    105.519997  1.02        
186.0       1473.334106 3593.339844 1643.331543 17890.0     2.493371    13.364      19.76       30.6        30.056      39.855999   90.536003   14.554644   19418.5722665.670563    2.826888    148.401993  388.079987  109.144058  3.36        35.139503   106.959999  1.02        
186.1       1456.665894 3503.326416 1526.65625  17708.0     2.519511    13.034      19.374001   29.92       29.128      38.736      97.224998   13.316157   18770.6660166.114113    2.935056    148.621994  379.455994  130.617065  3.21        33.88567    108.160004  1.02        
186.2       1436.667969 3371.374023 1413.342285 16688.5722662.539034    12.73       18.952      29.299999   28.176001   37.52       101.803001  12.287066   18472.8574226.645202    3.010274    149.056     372.063995  153.108719  2.458       32.690422   109.440002  1.02        
186.3       1410.0      3325.95874  1293.333374 15344.0     2.549752    12.461      18.535999   28.66       27.360001   36.296001   103.733002  12.263386   18362.6660166.850635    3.094176    149.662994  365.287994  177.010864  2.637       31.535793   110.720001  1.02        
186.4       1389.999268 3283.492432 1313.33313  14238.5712892.553064    12.233      18.132999   28.459999   26.719999   35.216      103.733002  12.755945   17978.5722666.919584    3.221472    150.957001  359.743988  205.116241  2.995       30.540878   112.080002  1.02        
186.5       1376.66687  3272.122559 1303.333862 13608.0     2.547805    12.024      17.721001   28.18       26.232      34.391998   103.733002  13.65876    18162.6660166.524162    3.269114    151.005005  355.432007  184.07724   3.418       29.44034    113.760002  1.02        
186.6       1356.665161 3247.531738 1286.665405 13588.5712892.538909    11.822      17.339001   27.940001   25.896      33.792      102.818001  14.686423   18142.8574225.98096     3.122936    150.841995  352.35199   130.316681  4.262       28.705111   114.800003  1.02        
186.7       1320.002563 3216.668213 1263.334595 13954.6669922.530439    11.631      17.018      27.68       25.68       33.383999   99.191002   16.021519   18052.0     5.297632    2.938941    150.610001  348.656006  50.234257   4.096       27.931402   115.68      -9999.25    
186.8       1280.0      3193.333252 1253.333374 14648.5712892.526652    11.425      16.716      27.4        25.496      33.119999   93.247002   16.800999   18788.5722665.100242    2.746323    151.041     345.575989  30.549212   4.013       27.137779   116.959999  -9999.25    
186.9       1239.998169 3183.333008 1236.665894 15092.8574222.524374    11.188      16.42       27.120001   25.304001   32.928001   85.987      17.607233   19260.0     4.911657    2.67152     149.479004  342.496002  37.931499   4.157       25.880587   118.239998  -9999.25    
187.0       1216.667969 3180.0      1220.001831 15840.0     2.526571    10.916      16.136      26.92       25.120001   32.743999   78.022003   18.598314   19650.6660164.593655    2.695347    149.625     338.18399   54.075436   4.186       24.800972   119.199997  -9999.25    
187.1       1179.998535 3180.0      1193.33252  16161.3330082.532467    10.59       15.832      26.639999   24.952      32.543999   69.804001   19.609488   20170.6660164.181267    2.647007    149.707001  334.488007  50.003452   5.184       23.615538   120.32      -9999.25    
187.2       1180.0      3180.0      1196.665894 16118.5712892.53512     10.205      15.482      26.48       24.784      32.296001   61.678001   20.175062   20038.5722664.085924    2.560937    151.514999  330.175995  32.583672   5.056       22.852442   121.440002  -9999.25    
187.3       1170.0      3203.333252 1200.0      15720.0     2.524578    9.779       15.082      26.34       24.639999   32.007999   53.939999   20.552141   19422.8574223.972647    2.43693     152.257004  325.247986  25.234804   4.8         22.245457   122.160004  -9999.25    
187.4       1176.665649 3220.001221 1199.999023 14637.3330082.503804    9.366       14.675      26.1        24.52       31.664      46.855      20.879545   18968.0     3.840847    2.368371    151.526993  320.320007  20.511623   4.947       21.588015   123.360001  -9999.25    
187.5       1163.333618 3236.667236 1183.334106 13805.7138672.475298    9.006       14.31       25.860001   24.416      31.247999   40.629002   20.778282   18492.8574223.881476    2.408414    151.225998  316.007996  21.232445   5.242       21.113974   124.720001  -9999.25    
187.6       1163.333618 3213.332031 1173.33313  13810.6669922.442455    8.719       14.003      25.66       24.327999   30.832001   35.400002   20.084066   18221.3339844.104759    2.413692    148.873001  311.696014  23.988329   4.752       20.539785   126.0       -9999.25    
187.7       1173.33252  3196.667969 1170.0      14127.1425782.421098    8.51        13.762      25.200001   24.271999   30.4        31.216999   19.52669    18668.5722664.118402    2.396007    148.444     308.0       26.061537   4.262       20.060986   127.360001  -9999.25    
187.8       1196.666626 3180.0      1203.333374 14778.5712892.414175    8.374       13.601      24.76       24.232      29.959999   28.045      18.891533   19108.5722664.177792    2.457006    148.595001  304.920013  28.313921   4.006       19.681164   129.119995  -9999.25    
187.9       1216.667725 3180.0      1226.668457 14753.3330082.41753     8.277       13.497      24.34       24.208      29.552      25.778      18.429682   19017.3339844.341062    2.530638    148.690002  301.839996  31.188892   4.048       19.462069   130.320007  -9999.25    
188.0       1223.333862 3183.333008 1243.334595 13969.3330082.422945    8.205       13.411      23.940001   24.200001   29.232      24.268      18.427027   18753.3339844.495278    2.588755    148.947006  298.76001   33.036957   5.069       19.361834   131.520004  -9999.25    
188.1       1213.33252  3186.666992 1223.33252  12861.3330082.4183      8.153       13.345      23.559999   24.200001   28.952      23.353001   19.268387   17788.0     4.423166    2.621115    149.091003  294.447998  42.756294   4.96        19.470783   132.639999  -9999.25    
