~Version Information Section
VERS.                                         2.0:CWLS log ASCII Standart – VERSION 2.0
WRAP.                                          NO:One line per depth step
~Well Information Section
STRT.M                                        0.0:Начальная глубина
STOP.M                                      180.0:Конечная глубина
STEP.M                                          0:Шаг квантования по глубине
NULL.                                    -9999.25:Признак "Нет данных"
WELL.                                       120Мх:Скважина
~Parameter Information Section
~Curve Information Section
DEPTH.M                                          :Глубина
BK.Ohm*M                                         :BK     (БК)
DS.mm                                            :DS  (ДС)
GGK.g/cm3                                        :GGKp
ГК.mcr/h                                         :GK          (ГК)
GZ1.Ohm*M                                        :GZ1   ГЗ1(A0.4M0.1N)
GZ2.Ohm*M                                        :GZ2   ГЗ2(A1.0M0.1N)
GZ3.Ohm*M                                        :GZ3   ГЗ3(A2.0M0.5N)
GZ4.Ohm*M                                        :GZ4   ГЗ4(A4.0M0.5N)
GZ5.Ohm*M                                        :GZ5   ГЗ5(A8.0M0.5N)
GZR.Ohm*M                                        :GZK   ГЗK(N0.5M2.0A)
ИК.Ohm*M                                         :IK
НГК.u.e.                                         :NGK
NNKM.                                            :NNKm  (ННКм)
PS.mv                                            :PS       (ПС)
PZ.Ohm*M                                         :PZ    (КС)
RS.Ohm*M                                         :RS (Резистивиметр)
U1.mV                                            :U1
U2.mV                                            :U2
U3.mV                                            :U3
КП.%                                             :Кп
~ASCII LOG DATA
# ...
96.0        94.842      127.828     2.257       4.429       88.917      55.792      48.296      76.492      37.691      73.899      12.335      1.212       2.343       547.683     93.052      1.336       3734.761    3294.263    2937.046    32.443      
96.2        99.77       127.547     2.168       4.11        91.264      72.069      48.796      73.244      35.049      74.566      12.823      1.191       2.289       552.886     104.834     1.34        2991.517    2530.457    2182.779    31.22       
96.4        102.329     126.137     2.193       3.897       94.418      76.439      53.414      72.146      33.456      73.899      13.073      1.205       2.197       559.203     117.743     1.34        2389.781    1826.253    1431.183    36.157      
96.6        85.704      125.548     2.162       3.811       94.638      83.531      54.998      68.777      40.168      67.232      13.147      1.215       2.185       566.806     132.532     1.34        2120.473    1677.861    1363.979    36.18       
96.8        67.92       127.095     2.146       3.855       92.22       81.737      55.545      67.802      57.205      66.566      13.119      1.128       2.269       574.448     145.066     1.34        1680.879    1399.683    1209.684    33.922      
97.0        81.096      127.801     2.163       4.378       83.211      79.153      58.681      76.016      64.4        70.566      13.152      1.106       2.24        581.168     154.34      1.34        1565.501    1413.314    1333.07     34.794      
97.2        70.958      127.594     2.314       4.811       89.938      93.104      64.141      92.451      63.166      72.566      13.038      1.195       2.294       586.448     153.714     1.34        1393.89     1149.246    1012.46     31.036      
97.4        68.865      127.271     2.334       4.302       85.805      81.496      70.789      95.677      63.845      70.566      12.864      1.245       2.288       590.768     132.532     1.34        953.205     631.645     456.565     32.984      
97.6        49.545      128.584     2.252       4.381       79.077      69.2        72.755      90.572      67.783      81.232      12.697      1.19        2.306       594.128     110.975     1.339       657.702     385.404     254.223     30.337      
97.8        60.814      128.879     2.239       4.109       64.465      67.678      72.158      85.436      66.155      109.045     12.607      1.203       2.289       596.528     103.831     1.325       560.539     376.824     302.728     31.603      
98.0        89.536      126.504     2.186       4.121       66.358      71.672      65.196      90.05       62.719      115.481     12.64       1.15        2.18        598.246     103.831     1.299       265.527     256.329     367.398     34.122      
98.2        48.195      126.174     2.272       4.377       65.223      60.241      70.05       85.376      62.493      98.833      12.63       1.173       2.085       599.446     103.956     1.283       294.116     369.683     633.533     37.058      
98.4        34.674      127.413     2.299       4.423       87.134      58.697      62.866      84.288      60.684      83.014      12.451      1.258       2.063       599.888     107.716     1.28        452.477     414.3       501.272     36.432      
98.6        41.495      127.359     2.266       4.233       108.947     61.368      57.986      86.822      53.107      74.961      12.336      1.275       2.294       599.129     117.116     1.28        830.92      650.081     552.474     29.257      
98.8        118.85      127.441     2.25        4.593       88.169      53.144      53.411      73.839      49.294      69.298      12.663      1.222       2.364       597.046     125.012     1.28        1103.269    880.475     749.677     27.191      
99.0        90.573      125.907     2.256       5.198       82.942      61.844      49.62       66.995      47.609      67.762      13.081      1.216       2.37        594.166     131.154     1.28        1313.42     1065.426    915.905     26.304      
99.2        100.462     125.887     2.262       5.255       81.539      67.715      50.576      77.558      45.635      69.509      13.311      1.318       2.369       590.806     135.415     1.28        1171.019    848.376     668.276     25.541      
99.4        83.176      127.462     2.266       5.171       83.711      73.867      52.967      86.746      46.218      69.899      13.42       1.233       2.298       587.244     137.671     1.28        982.788     722.691     580.592     28.847      
99.6        63.096      126.889     2.244       4.866       87.001      79.281      61.947      88.153      47.376      69.899      13.438      1.154       2.298       584.086     138.423     1.28        1257.448    1037.225    898.643     30.54       
99.8        62.373      126.336     2.212       4.724       125.022     91.024      66.056      84.445      54.39       69.899      13.484      1.253       2.308       581.724     140.428     1.28        1601.683    1326.198    1138.91     32.78       
100.0       67.764      125.083     2.208       4.592       144.076     91.37       71.155      90.214      65.492      71.232      13.546      1.382       2.359       580.323     143.812     1.283       1531.928    1254.574    1067.84     29.524      
100.2       69.183      126.576     2.281       4.534       141.147     98.881      72.639      90.185      77.153      71.899      13.566      1.378       2.447       579.766     150.956     1.295       1099.766    910.338     801.901     29.025      
100.4       101.859     127.891     2.342       4.703       166.389     99.058      79.343      84.636      79.799      70.566      13.62       1.372       2.479       579.324     156.346     1.314       812.252     754.017     775.211     27.098      
100.6       130.317     127.815     2.323       4.112       143.193     85.146      74.296      89.551      76.479      69.899      13.648      1.353       2.496       579.286     153.338     1.332       567.079     601.006     749.746     24.1        
100.8       97.949      127.231     2.231       4.227       97.833      76.784      65.585      92.302      71.85       70.566      13.622      1.363       2.429       579.008     147.322     1.356       679.711     581.905     597.514     24.344      
101.0       103.039     125.885     2.193       4.58        83.24       69.343      67.898      84.752      69.465      74.566      13.626      1.324       2.376       577.808     145.191     1.375       1016.147    690.122     502.405     26.653      
101.2       70.632      124.499     2.25        4.569       74.733      67.513      66.659      83.317      70.028      76.566      13.606      1.196       2.32        575.686     145.316     1.375       1161.896    743.304     504.005     29.161      
101.4       60.674      124.641     2.278       4.764       81.3        79.743      68.646      91.05       70.642      71.899      13.497      1.165       2.267       573.248     148.7       1.356       719.785     500.591     405.008     29.19       
101.6       57.148      125.219     2.229       5.098       83.456      77.845      69.637      97.422      71.699      62.566      13.358      1.178       2.282       570.406     149.828     1.324       459.238     381.066     374.795     29.342      
101.8       48.529      125.35      2.254       4.752       86.607      73.431      66.017      101.621     78.325      61.232      13.277      1.249       2.32        567.564     147.071     1.302       625.722     494.784     438.279     30.118      
102.0       64.417      125.246     2.234       4.746       89.386      72.928      68.316      109.697     82.489      67.232      13.242      1.345       2.316       565.404     147.823     1.287       685.367     552.432     494.376     29.752      
102.2       68.391      125.417     2.248       4.889       158.537     94.403      79.692      118.875     83.789      67.232      13.304      1.316       2.269       564.281     148.7       1.261       881.614     769.943     727.805     30.468      
