~Version Information Section
VERS.                                         2.0:CWLS log ASCII Standart – VERSION 2.0
WRAP.                                          NO:One line per depth step
~Well Information Section
STRT.M                                        0.6:Начальная глубина
STOP.M                                      209.2:Конечная глубина
STEP.M                                          0:Шаг квантования по глубине
NULL.                                    -9999.25:Признак "Нет данных"
WELL.                                       107Мх:Скважина
~Parameter Information Section
~Curve Information Section
DEPTH.M                                          :Глубина
PS.mv                                            :PS       (ПС)
PZ.Ohm*M                                         :PZ    (КС)
RS.Ohm*M                                         :RS (Резистивиметр)
U1.mV                                            :U1
U2.mV                                            :U2
U3.mV                                            :U3
КП.%                                             :Кп
BK.Ohm*M                                         :BK     (БК)
DS.mm                                            :DS  (ДС)
GGK.g/cm3                                        :GGKp
ГК.mcr/h                                         :GK          (ГК)
GZ1.Ohm*M                                        :GZ1   ГЗ1(A0.4M0.1N)
GZ2.Ohm*M                                        :GZ2   ГЗ2(A1.0M0.1N)
GZ3.Ohm*M                                        :GZ3   ГЗ3(A2.0M0.5N)
GZ4.Ohm*M                                        :GZ4   ГЗ4(A4.0M0.5N)
GZ5.Ohm*M                                        :GZ5   ГЗ5(A8.0M0.5N)
GZR.Ohm*M                                        :GZK   ГЗK(N0.5M2.0A)
ИК.Ohm*M                                         :IK
НГК.u.e.                                         :NGK
NNKM.                                            :NNKm  (ННКм)
~ASCII LOG DATA
# ...
170.2       1051.569    30.887      1.066       632.37      444.513     476.141     29.16       14.655      150.589     2.335       6.964       84.39       28.154      45.422      12.983      13.07       31.64       6.689       1.129       15.168      
170.3       1051.393    32.391      1.068       674.18      460.038     475.126     30.608      14.093      150.497     2.364       6.632       84.39       28.154      45.422      12.983      13.07       32.68       6.683       1.095       15.024      
170.4       1051.142    33.895      1.069       702.005     486.971     502.868     31.999      14.158      150.523     2.372       6.716       83.97       28.674      45.422      12.983      13.07       33.72       6.676       1.012       14.932      
170.5       1050.815    34.647      1.07        729.678     516.029     530.125     32.379      14.158      150.576     2.382       6.588       83.97       28.674      45.422      12.983      13.07       34.76       6.68        0.975       14.84       
170.6       1050.438    34.647      1.07        745.869     536.972     548.041     31.6        14.093      150.623     2.392       6.789       83.55       29.194      45.422      12.863      13.07       34.76       6.686       0.992       14.646      
170.7       1049.985    33.895      1.07        736.504     552.519     571.681     30.649      13.804      151.66      2.391       6.842       83.13       29.194      45.862      12.743      13.07       34.76       6.689       1.024       14.403      
170.8       1049.457    32.391      1.071       710.97      554.177     583.108     30.088      12.942      151.823     2.384       6.967       82.71       29.194      45.862      12.743      12.93       34.76       6.689       1.03        14.587      
170.9       1048.879    30.887      1.073       685.378     534.418     561.849     30.436      13.964      151.77      2.399       6.97        82.29       29.194      45.862      12.623      13.21       34.76       6.709       1.031       14.975      
171.0       1048.251    29.759      1.075       669.411     510.86      530.409     31.233      14.028      151.479     2.43        6.946       81.87       29.194      45.862      12.623      13.49       34.76       6.709       0.994       15.155      
171.1       1047.597    29.007      1.077       672.665     510.517     526.256     30.898      13.804      151.255     2.447       7.083       81.87       30.234      45.862      12.623      13.63       34.76       6.738       0.968       15.22       
171.2       1046.918    28.631      1.079       683.537     528.14      549.628     29.768      13.804      151.277     2.395       7.044       81.87       30.234      45.862      12.623      13.77       34.76       6.751       0.983       15.283      
171.3       1046.214    28.631      1.082       675.82      539.68      580.365     29.428      15.596      151.003     2.347       6.679       81.87       30.234      45.862      12.743      14.05       34.76       6.751       1.039       15.343      
171.4       1045.535    28.631      1.084       650.836     532.875     595.579     30.429      14.689      150.933     2.332       6.29        81.87       30.754      45.862      12.863      14.19       35.8        6.785       1.07        15.338      
171.5       1044.881    29.007      1.085       621.816     498.43      567.605     30.742      13.868      151.161     2.388       6.17        81.87       31.274      46.302      13.103      14.19       34.76       6.811       1.057       15.133      
171.6       1044.253    29.383      1.086       592.907     438.51      496.918     29.593      13.646      151.399     2.381       6.484       81.87       31.794      46.302      13.583      14.33       38.92       6.866       1.074       14.97       
171.7       1043.675    29.759      1.087       597.65      390.087     422.088     28.599      14.125      151.074     2.377       7.189       81.87       32.834      45.862      14.423      14.47       38.92       6.914       1.11        14.742      
171.8       1043.147    30.511      1.087       650.171     373.796     365.085     28.545      14.388      150.958     2.342       7.582       82.29       33.354      45.862      15.143      14.61       39.96       6.977       1.112       14.515      
171.9       1042.694    31.639      1.087       700.945     377.727     339.133     29.236      14.555      151.192     2.365       7.297       82.71       34.394      45.862      15.503      14.75       41.0        7.042       1.06        14.885      
172.0       1042.317    32.391      1.087       719.926     399.83      364.013     29.791      14.757      150.67      2.371       6.901       82.71       34.914      45.862      15.743      14.89       42.04       7.042       1.062       15.254      
172.1       1041.99     33.143      1.087       707.777     429.885     422.796     30.094      15.311      150.546     2.383       6.72        82.71       35.954      45.862      15.863      15.03       44.12       7.146       1.072       15.374      
172.2       1041.739    33.895      1.087       691.436     443.025     455.764     30.212      15.276      150.343     2.38        6.829       83.55       38.554      45.862      16.103      15.45       45.16       7.237       1.124       15.524      
172.3       1041.563    34.271      1.087       678.949     438.874     456.8       30.102      15.031      150.637     2.382       6.752       83.97       43.234      46.302      16.223      15.59       46.2        7.364       1.126       15.337      
172.4       1041.437    34.647      1.087       658.09      430.623     455.479     30.583      15.066      150.55      2.38        6.688       83.97       48.954      46.302      16.703      16.15       49.32       7.519       1.099       14.974      
172.5       1041.361    35.399      1.087       630.097     419.215     452.242     31.174      14.859      150.413     2.377       6.876       84.39       53.114      46.742      16.943      16.57       55.56       7.661       1.079       14.887      
172.6       1041.311    36.151      1.087       602.284     395.103     425.439     30.403      14.322      150.423     2.398       7.06        84.81       56.234      47.182      17.183      16.85       57.64       7.832       1.05        14.982      
172.7       1041.286    36.903      1.087       533.106     356.544     400.803     29.04       14.454      150.393     2.374       6.968       85.23       58.314      47.622      17.183      17.41       59.72       8.056       1.042       14.997      
172.8       1041.286    37.655      1.087       434.553     321.844     408.259     27.815      14.655      150.39      2.377       6.947       85.65       59.354      48.062      17.663      17.69       64.92       8.275       1.018       14.907      
172.9       1041.286    38.407      1.087       367.736     301.006     427.261     28.0        14.223      150.77      2.348       6.911       86.07       62.474      49.382      17.783      17.97       71.16       8.563       1.023       14.84       
173.0       1041.286    39.159      1.087       359.827     307.634     457.531     28.823      13.964      151.029     2.339       6.882       86.49       65.594      51.142      18.743      18.95       75.32       8.893       1.053       14.82       
173.1       1041.286    40.287      1.086       450.918     383.514     523.045     29.91       14.191      150.742     2.382       6.424       86.91       66.114      52.462      19.943      20.63       85.72       9.262       1.06        14.8        
173.2       1041.286    41.791      1.084       578.858     491.159     611.338     29.949      14.028      150.646     2.43        6.262       87.33       68.714      52.902      20.543      22.45       87.8        9.664       1.102       14.885      
173.3       1041.286    54.575      1.081       705.391     594.021     686.28      28.199      14.521      150.77      2.481       6.623       87.33       71.834      53.342      20.663      22.73       90.92       10.044      1.097       14.97       
