~Version Information Section
VERS.                                         2.0:CWLS log ASCII Standart – VERSION 2.0
WRAP.                                          NO:One line per depth step
~Well Information Section
STRT.M                                        7.7:Начальная глубина
STOP.M                                      168.6:Конечная глубина
STEP.M                                          0:Шаг квантования по глубине
NULL.                                    -9999.25:Признак "Нет данных"
WELL.                                       137Мх:Скважина
~Parameter Information Section
~Curve Information Section
DEPTH.M                                          :Глубина
ГК.мкР/ч                                         :GK
U1.                                              :U1
U12.                                             :U12
U2.                                              :U2
W.усл.ед                                         :W
ЗОНД.                                            :Зонд N0
НГК.                                             :НГК
ННКМ.усл.ед                                      :ННКм
ПЛОТНОСТЬ.г/см3                                  :плотность
РЕЗИСТИВИМЕТР.Ом                                 :Резистивиметр
~ASCII LOG DATA
# ...
80.9        5.234       620.004     486.085     386.17      23.911      76.34       1.318       1.543       2.478       0.446       
81.0        5.283       644.985     545.37      461.559     24.821      57.183      1.303       1.561       2.478       0.431       
81.1        4.895       616.568     510.29      425.146     24.841      45.374      1.29        1.632       2.465       0.431       
81.2        4.456       680.417     526.023     411.211     24.997      42.573      1.295       1.623       2.436       0.432       
81.3        4.582       681.093     494.116     360.788     25.587      42.765      1.318       1.605       2.399       0.451       
81.4        5.113       734.456     429.626     278.725     26.132      44.237      1.357       1.503       2.362       0.493       
81.5        5.66        840.505     332.551     165.022     26.701      45.659      1.379       1.435       2.327       0.532       
81.6        5.499       926.994     291.268     107.062     27.147      44.092      1.359       1.431       2.3         0.573       
81.7        4.928       785.799     239.908     77.521      27.163      40.008      1.328       1.428       2.29        0.582       
81.8        4.4         644.92      310.399     171.055     26.907      36.304      1.314       1.483       2.292       0.546       
81.9        4.449       616.239     397.602     265.093     26.683      34.975      1.295       1.501       2.291       0.509       
82.0        4.739       699.756     501.515     359.636     26.481      37.755      1.271       1.583       2.287       0.483       
82.1        5.148       691.902     478.39      334.883     26.96       48.788      1.265       1.52        2.268       0.476       
82.2        5.157       708.482     443.445     284.987     28.265      66.54       1.269       1.363       2.251       0.476       
82.3        5.209       825.174     426.94      228.599     29.594      82.199      1.276       1.339       2.249       0.49        
82.4        5.299       892.261     441.936     225.161     30.665      90.24       1.283       1.291       2.268       0.532       
82.5        5.398       909.743     488.433     274.672     31.787      90.107      1.301       1.256       2.297       0.572       
82.6        5.63        884.635     525.042     319.924     32.387      84.941      1.318       1.203       2.309       0.585       
82.7        5.726       942.22      550.523     326.622     31.752      80.174      1.322       1.288       2.313       0.585       
82.8        5.49        1024.97     534.507     283.966     31.191      78.561      1.327       1.374       2.31        0.587       
82.9        5.336       1050.193    488.126     230.512     30.618      78.99       1.332       1.399       2.302       0.591       
83.0        5.329       946.575     444.166     213.246     29.911      80.216      1.342       1.412       2.302       0.597       
83.1        5.449       908.24      396.946     187.152     29.141      80.581      1.339       1.481       2.294       0.61        
83.2        5.56        935.19      346.465     152.231     28.975      78.793      1.32        1.492       2.29        0.632       
83.3        5.799       1011.995    314.678     113.246     28.687      75.647      1.304       1.505       2.284       0.644       
83.4        6.044       1002.058    337.634     126.012     28.376      70.928      1.31        1.507       2.287       0.643       
83.5        5.834       905.199     378.08      165.473     28.081      64.504      1.337       1.562       2.299       0.634       
83.6        5.569       822.104     402.325     199.603     28.094      58.492      1.379       1.552       2.301       0.62        
83.7        5.634       752.774     410.369     228.405     28.214      54.479      1.391       1.538       2.302       0.611       
83.8        5.85        753.305     411.767     234.46      28.334      52.036      1.388       1.51        2.288       0.609       
83.9        6.067       809.75      385.467     198.042     28.181      50.564      1.386       1.454       2.277       0.609       
84.0        6.192       891.725     407.222     195.753     28.094      50.021      1.387       1.5         2.264       0.61        
84.1        5.908       914.985     411.923     192.458     28.286      50.0        1.385       1.546       2.255       0.615       
84.2        5.362       879.531     399.568     188.157     28.39       50.46       1.383       1.513       2.244       0.62        
84.3        5.192       720.751     343.572     179.08      28.146      51.72       1.377       1.491       2.243       0.62        
84.4        5.418       613.779     337.178     202.918     28.175      52.434      1.361       1.433       2.256       0.607       
84.5        6.192       558.615     380.387     259.67      28.251      51.268      1.345       1.421       2.281       0.592       
84.6        6.785       638.581     398.374     252.692     28.055      49.23       1.341       1.454       2.307       0.586       
84.7        6.706       706.873     390.708     221.899     28.007      47.529      1.349       1.453       2.322       0.585       
84.8        6.266       651.705     397.278     265.129     28.103      46.364      1.369       1.448       2.315       0.585       
84.9        5.875       583.004     408.441     311.67      28.127      45.942      1.38        1.447       2.303       0.586       
85.0        5.926       500.769     424.197     361.525     28.33       45.839      1.375       1.444       2.289       0.588       
85.1        6.185       521.07      394.504     305.862     28.405      45.423      1.347       1.438       2.289       0.588       
85.2        6.471       545.657     354.658     239.205     28.229      44.817      1.29        1.432       2.292       0.584       
85.3        6.391       568.798     335.873     203.335     28.151      44.523      1.254       1.461       2.29        0.577       
85.4        6.408       586.208     348.301     209.244     28.172      45.251      1.265       1.49        2.295       0.574       
85.5        6.461       545.849     322.723     193.583     28.298      47.875      1.305       1.47        2.288       0.574       
85.6        6.549       686.233     317.481     160.434     28.403      52.069      1.361       1.454       2.283       0.577       
85.7        6.327       776.042     299.819     122.594     28.645      54.845      1.378       1.425       2.269       0.582       
85.8        6.003       867.319     338.953     143.415     29.097      52.991      1.349       1.41        2.257       0.555       
85.9        6.22        727.279     345.333     177.032     29.362      47.884      1.304       1.387       2.253       0.509       
86.0        6.968       577.159     323.246     188.674     29.207      42.982      1.247       1.383       2.256       0.494       
86.1        7.339       474.238     316.001     215.034     28.998      39.403      1.212       1.446       2.264       0.494       
86.2        6.844       418.514     323.599     256.112     28.984      37.953      1.214       1.44        2.262       0.502       
86.3        6.714       334.054     285.062     246.947     29.122      37.974      1.222       1.414       2.256       0.525       
86.4        7.036       266.965     235.157     209.085     29.641      39.56       1.229       1.36        2.249       0.552       
86.5        8.066       217.248     173.883     142.528     30.371      43.579      1.215       1.254       2.252       0.572       
86.6        8.734       292.17      198.603     138.959     30.732      49.046      1.207       1.241       2.255       0.594       
86.7        8.848       388.345     231.241     140.137     30.722      53.899      1.217       1.221       2.261       0.628       
86.8        8.825       437.35      251.257     147.815     29.867      54.995      1.25        1.271       2.264       0.645       
86.9        8.075       417.934     250.73      157.243     28.656      52.278      1.293       1.283       2.267       0.629       
