~Version Information Section
VERS.                                         2.0:CWLS log ASCII Standart – VERSION 2.0
WRAP.                                          NO:One line per depth step
~Well Information Section
STRT.M                                        1.6:Начальная глубина
STOP.M                                      212.2:Конечная глубина
STEP.M                                          0:Шаг квантования по глубине
NULL.                                    -9999.25:Признак "Нет данных"
WELL.                                       139Мх:Скважина
~Parameter Information Section
~Curve Information Section
DEPTH.M                                          :Глубина
BK.Ohm*M                                         :BK     (БК)
DS.mm                                            :DS  (ДС)
GGK.g/cm3                                        :GGKp
ГК.mcr/h                                         :GK          (ГК)
GZ1.Ohm*M                                        :GZ1   ГЗ1(A0.4M0.1N)
GZ2.Ohm*M                                        :GZ2   ГЗ2(A1.0M0.1N)
GZ3.Ohm*M                                        :GZ3   ГЗ3(A2.0M0.5N)
GZ4.Ohm*M                                        :GZ4   ГЗ4(A4.0M0.5N)
GZ5.Ohm*M                                        :GZ5   ГЗ5(A8.0M0.5N)
GZR.Ohm*M                                        :GZK   ГЗK(N0.5M2.0A)
ИК.Ohm*M                                         :IK
НГК.ue                                           :NGK     (НГК)
NNKM.                                            :NNKm  (ННКм)
PS.mv                                            :PS       (ПС)
PZ.Ohm*M                                         :PZ    (КС)
U1.mV                                            :U1
U2.mV                                            :U2
U3.mV                                            :U3
КП.%                                             :Кп
~ASCII LOG DATA
# ...
181.8       33.173      127.17      2.284       7.02        9.584       8.291       41.836      8.935       7.012       16.349      10.866      1.13        2.061       186.166     19.61       188.342     185.278     187.043     35.064      
181.9       36.928      127.112     2.273       7.178       9.01        7.802       39.953      8.855       7.386       19.61       11.132      1.104       2.056       185.182     19.69       190.415     180.405     172.035     35.643      
182.0       41.034      127.013     2.256       7.284       8.685       7.431       38.156      8.846       7.916       25.145      11.413      1.08        2.054       184.193     19.81       195.75      188.859     177.726     38.192      
182.1       43.665      126.969     2.24        7.431       8.605       7.194       36.434      8.846       8.569       33.135      11.474      1.059       2.019       183.216     19.99       216.033     187.339     157.235     40.989      
182.2       45.12       126.918     2.231       7.275       8.605       7.082       35.002      8.862       9.291       42.819      11.332      1.044       1.995       182.274     20.242      248.601     176.607     120.64      40.162      
182.3       41.732      126.99      2.238       6.76        8.646       7.06        34.102      8.993       10.021      52.483      11.442      1.057       2.063       181.395     20.585      280.297     166.992     94.128      38.426      
182.4       40.854      126.97      2.245       5.92        9.071       7.06        33.618      9.391       10.648      59.688      12.051      1.091       2.181       180.614     21.036      273.542     162.705     93.797      34.228      
182.5       92.565      126.998     2.237       5.491       10.796      7.068       33.36       10.022      11.054      63.036      13.199      1.107       2.306       179.953     21.601      226.536     153.418     99.082      31.824      
182.6       223.463     127.116     2.191       5.133       14.774      7.134       33.252      10.752      11.217      63.545      14.985      1.125       2.481       179.415     22.274      151.146     135.113     109.98      29.696      
182.7       308.606     127.067     2.135       4.833       21.294      7.332       33.225      11.373      11.244      63.371      17.03       1.203       2.617       178.996     23.047      99.246      121.45      137.14      28.969      
182.8       316.156     126.965     2.092       4.227       30.104      7.654       33.225      11.687      11.203      61.928      18.709      1.359       2.676       178.677     23.911      86.926      122.158     159.735     27.946      
182.9       290.374     126.923     2.046       3.682       40.448      8.094       33.225      11.731      10.989      57.78       19.856      1.534       2.722       178.437     24.858      115.481     140.897     177.763     27.304      
183.0       244.031     126.88      2.036       3.514       50.543      8.741       33.226      11.714      10.528      51.962      20.622      1.68        2.776       178.249     25.895      144.965     164.607     189.67      27.34       
183.1       185.018     126.27      2.037       3.467       58.247      9.89        33.228      11.571      9.899       46.454      21.09       1.744       2.799       178.092     27.051      157.833     178.929     203.569     27.873      
183.2       133.581     125.764     2.024       3.627       62.935      11.912      33.23       11.155      9.228       42.412      21.432      1.789       2.754       177.949     28.341      153.169     178.899     209.332     28.143      
183.3       96.516      125.783     2.029       3.563       64.922      14.914      33.231      10.518      8.614       39.865      21.698      1.712       2.719       177.799     29.774      147.583     171.432     183.171     29.2        
183.4       79.7        125.772     2.03        3.421       65.222      18.814      33.233      9.802       8.122       38.586      21.916      1.672       2.699       177.623     31.335      179.342     161.511     132.355     29.776      
183.5       74.699      125.678     2.027       3.235       65.144      23.392      33.234      9.174       7.767       38.25       22.125      1.645       2.66        177.409     32.973      225.287     156.57      88.784      29.824      
183.6       69.115      125.726     2.048       3.23        64.577      27.92       33.235      8.673       7.538       38.25       22.318      1.685       2.61        177.152     34.602      247.131     177.13      123.674     30.632      
183.7       59.075      126.014     2.07        3.196       63.326      31.466      33.235      8.309       7.416       38.279      22.556      1.644       2.567       176.859     36.136      233.962     206.316     185.375     32.826      
183.8       50.387      126.003     2.082       3.256       62.304      33.73       33.235      8.069       7.378       38.539      22.775      1.568       2.532       176.546     37.497      237.509     218.624     195.414     34.738      
183.9       45.533      125.95      2.102       3.271       61.779      34.767      33.234      7.922       7.373       39.371      23.128      1.491       2.511       176.243     38.63       237.878     196.165     148.789     34.759      
184.0       43.209      125.852     2.104       3.288       61.662      34.955      33.232      7.853       7.373       40.76       23.498      1.45        2.582       175.973     39.521      183.338     167.545     133.32      32.189      
184.1       48.712      125.707     2.124       3.064       61.662      34.919      33.225      7.848       7.387       42.436      23.827      1.412       2.704       175.756     40.196      101.178     164.647     204.803     30.212      
184.2       57.693      125.759     2.152       2.76        61.681      34.647      33.213      7.848       7.455       44.202      24.229      1.452       2.818       175.6       40.701      119.826     173.491     275.417     28.119      
184.3       61.865      125.862     2.172       2.71        61.845      34.013      33.193      7.852       7.597       45.861      24.574      1.492       2.904       175.499     41.096      230.273     182.334     300.458     27.602      
184.4       63.479      125.945     2.204       2.961       62.334      33.454      33.166      7.882       7.811       47.439      24.855      1.509       2.903       175.443     41.443      337.556     179.51      280.82      27.153      
184.5       61.028      126.155     2.207       3.188       63.143      33.222      33.133      7.975       8.089       49.063      25.145      1.554       2.88        175.416     41.791      371.297     176.686     262.062     27.503      
184.6       53.137      126.373     2.222       3.144       64.276      33.222      33.099      8.135       8.415       50.694      25.41       1.525       2.851       175.408     42.175      368.153     182.333     287.489     28.171      
184.7       49.671      126.028     2.235       2.927       65.714      33.239      33.066      8.373       8.77        52.083      25.607      1.612       2.856       175.408     42.625      368.153     235.99      298.947     28.376      
184.8       51.253      125.87      2.233       2.883       67.431      33.408      33.039      8.702       9.133       52.886      25.885      1.629       2.899       175.408     43.159      390.163     286.825     310.402     28.103      
184.9       53.687      125.958     2.25        2.961       69.641      34.064      33.02       9.099       9.492       53.086      26.264      1.697       2.921       175.408     43.785      471.899     329.182     290.476     27.826      
185.0       59.357      126.041     2.233       3.118       72.567      35.404      33.008      9.552       9.835       53.038      26.712      1.663       2.924       175.411     44.513      553.654     351.776     311.022     27.546      
185.1       69.103      126.023     2.238       3.158       76.325      37.246      33.001      10.062      10.142      52.619      27.102      1.6         2.993       175.423     45.339      613.385     377.188     331.563     26.441      
