~Version Information Section
VERS.                                         2.0:CWLS log ASCII Standart – VERSION 2.0
WRAP.                                          NO:One line per depth step
~Well Information Section
STRT.M                                        0.5:Начальная глубина
STOP.M                                      201.9:Конечная глубина
STEP.M                                          0:Шаг квантования по глубине
NULL.                                    -9999.25:Признак "Нет данных"
WELL.                                       138Мх:Скважина
~Parameter Information Section
~Curve Information Section
DEPTH.M                                          :Глубина
БК.Омм                                           :BK     (БК)
DСР.мм                                           :DS  (ДС)
W.g/cm3                                          :GGKp
ГК.гамма                                         :GK          (ГК)
А0.4М0.1N.Омм.ohmm                               :GZ1   ГЗ1(A0.4M0.1N)
А1.0М0.1N.Омм.ohmm                               :GZ2   ГЗ2(A1.0M0.1N)
А2.0М0.5N.Омм.ohmm                               :GZ3   ГЗ3(A2.0M0.5N)
А4.0М0.5N.Oмм.ohmm                               :GZ4   ГЗ4(A4.0M0.5N)
А8.0М1.0N.Омм.ohmm                               :GZ5   ГЗ5(A8.0M0.5N)
N0.5M2.0A.Омм.ohmm                               :GZK   ГЗK(N0.5M2.0A)
ИК.мСм/м                                         :IK
ННКМ.усл.ед                                      :NNKm  (ННКм)
ПС.мВ                                            :PS       (ПС)
КС.Омм                                           :PZ    (КС)
R.Омм                                            :RS (Резистивиметр)
U1.мВ                                            :U1
U2.mV                                            :U2
U3.мВ                                            :U3
КП.%                                             :Кп
НГК.усл.ед                                       :NGK
~ASCII LOG DATA
# ...
22.9        3586.149    151.514     2.0         5.702       279.397     915.143     700.941     242.09      2.245       4278.186    12.31       3.401       131.593     497.28      1.08        -9999.25    -9999.25    -9999.25    -6.176      5.334       
23.0        2905.605    152.786     1.988       5.428       281.967     880.462     924.67      241.559     89.794      4573.696    12.295      3.439       129.219     497.28      1.08        -9999.25    -9999.25    -9999.25    -6.354      5.154       
23.1        3077.277    151.712     1.98        5.402       291.711     857.668     1499.181    241.559     158.58      4667.187    12.293      3.455       126.678     508.68      1.08        -9999.25    -9999.25    -9999.25    -6.445      5.125       
23.2        2907.831    152.574     1.98        5.771       307.88      852.841     2626.302    242.414     216.524     4648.563    12.37       3.454       124.038     536.2       1.08        -9999.25    -9999.25    -9999.25    -6.664      5.182       
23.3        2796.546    150.967     1.988       5.909       324.457     852.841     4347.579    248.495     229.052     4560.374    12.564      3.509       121.354     580.04      1.08        -9999.25    -9999.25    -9999.25    -6.611      5.251       
23.4        2602.074    150.813     1.997       5.898       343.712     852.841     6612.545    253.896     229.052     4422.992    12.748      3.563       118.655     640.2       1.08        -9999.25    -9999.25    -9999.25    -6.171      5.242       
23.5        3103.364    150.867     2.006       5.531       360.952     852.841     9203.438    254.102     209.076     4287.021    12.911      3.54        115.944     716.64      1.08        -9999.25    -9999.25    -9999.25    -5.839      5.28        
23.6        2939.837    150.886     2.007       5.318       370.178     871.327     11635.58    259.494     141.723     4161.665    13.191      3.549       113.201     784.88      1.08        -9999.25    -9999.25    -9999.25    -5.838      5.299       
23.7        2556.429    150.879     2.003       4.811       372.178     919.175     13489.37    269.178     86.736      4055.439    13.572      3.609       110.393     838.24      1.08        -9999.25    -9999.25    -9999.25    -6.092      5.316       
23.8        2956.902    150.879     1.992       4.698       370.518     987.248     14618.51    278.234     31.021      3978.356    14.072      3.627       107.483     876.6       1.08        -9999.25    -9999.25    -9999.25    -6.154      5.174       
23.9        2876.505    150.875     1.976       4.667       370.518     1069.593    15067.79    283.464     -2.175      3925.164    14.552      3.633       104.442     899.72      1.08        -9999.25    -9999.25    -9999.25    -6.321      5.192       
24.0        2672.199    150.92      1.958       4.851       368.291     1144.299    15166.83    283.961     -29.292     3875.76     14.866      3.746       101.259     907.32      1.08        -9999.25    -9999.25    -9999.25    -6.542      5.294       
24.1        2757.255    150.928     1.941       4.691       363.223     1205.353    15091.23    271.995     -33.557     3815.672    15.146      3.85        97.944      911.4       1.08        -9999.25    -9999.25    -9999.25    -6.683      5.492       
24.2        3047.014    150.953     1.926       4.587       358.525     1274.259    14931.34    238.925     -35.494     3728.036    15.391      3.871       94.53       914.88      1.08        -9999.25    -9999.25    -9999.25    -6.741      5.591       
24.3        3335.669    151.214     1.914       4.643       356.372     1346.703    14732.35    194.937     -37.05      3604.549    15.632      3.891       91.074      916.96      1.08        -9999.25    -9999.25    -9999.25    -6.865      5.722       
24.4        3571.29     151.554     1.909       4.643       356.077     1420.312    14596.46    149.958     -37.795     3437.081    15.893      3.906       87.652      917.48      1.08        -9999.25    -9999.25    -9999.25    -7.101      5.843       
24.5        7213.248    152.578     1.916       4.662       356.077     1502.155    14569.38    110.978     -38.507     3229.518    16.123      3.877       84.349      917.48      1.08        -9999.25    -9999.25    -9999.25    -7.297      5.911       
24.6        8007.036    153.125     1.928       4.491       356.077     1580.959    14563.49    84.983      -39.93      3010.671    16.225      3.802       81.255      917.48      1.08        -9999.25    -9999.25    -9999.25    -7.126      5.831       
24.7        7403.649    152.301     1.943       4.811       357.28      1638.05     14563.49    75.875      -41.074     2822.527    16.254      3.705       78.452      916.36      1.08        -9999.25    -9999.25    -9999.25    -6.845      5.73        
24.8        7090.187    151.12      1.963       5.018       361.158     1676.04     14563.49    75.875      -41.183     2671.567    16.241      3.632       76.011      913.64      1.08        -9999.25    -9999.25    -9999.25    -6.49       5.765       
24.9        6448.644    151.651     1.979       5.429       368.989     1709.143    14563.49    75.875      -41.376     2550.741    16.006      3.581       73.98       909.68      1.08        -9999.25    -9999.25    -9999.25    -6.459      5.597       
25.0        4553.569    149.576     1.986       5.552       380.937     1739.85     14607.37    75.875      -41.376     2466.517    15.666      3.541       72.381      905.12      1.08        -9999.25    -9999.25    -9999.25    -6.429      5.482       
25.1        3841.801    149.506     1.989       5.597       398.32      1769.237    14763.25    84.782      -41.376     2411.274    15.325      3.489       71.206      900.12      1.08        -9999.25    -9999.25    -9999.25    -6.428      5.282       
25.2        3430.054    149.654     1.989       5.65        420.055     1795.011    15038.27    114.88      -41.376     2368.155    15.06       3.427       70.427      895.24      1.08        -9999.25    -9999.25    -9999.25    -6.383      5.289       
25.3        3341.94     149.29      1.984       5.574       441.801     1821.429    15296.02    165.568     -41.376     2334.497    14.848      3.401       69.968      890.72      1.08        -9999.25    -9999.25    -9999.25    -6.172      5.215       
25.4        3401.751    149.393     1.978       5.753       461.063     1835.906    15390.75    226.665     -41.174     2320.047    14.534      3.358       69.781      886.64      1.08        -9999.25    -9999.25    -9999.25    -5.9        5.089       
25.5        3333.758    149.202     1.975       5.891       474.721     1829.293    15332.71    295.641     -39.949     2318.078    14.23       3.308       69.781      883.08      1.08        -9999.25    -9999.25    -9999.25    -5.225      5.011       
25.6        2834.02     148.764     1.976       6.349       479.736     1789.984    15119.68    362.987     -38.02      2318.078    13.918      3.304       69.781      880.08      1.08        -9999.25    -9999.25    -9999.25    -4.599      4.938       
25.7        2403.417    148.531     1.981       6.362       479.757     1694.294    14738.91    413.361     -36.688     2304.206    13.719      3.336       69.781      877.36      1.08        -9999.25    -9999.25    -9999.25    -4.364      4.879       
25.8        2230.899    148.603     1.989       6.2         475.767     1546.451    14228.71    479.974     -34.179     2278.738    13.528      3.399       69.847      874.84      1.08        -9999.25    -9999.25    -9999.25    -4.576      4.932       
25.9        2479.865    148.12      2.003       5.78        464.59      1372.354    13689.62    567.446     -32.005     2254.132    13.363      3.468       70.169      872.4       1.08        -9999.25    -9999.25    -9999.25    -4.987      5.031       
26.0        2543.543    147.891     2.017       5.598       447.204     1204.713    13273.44    685.735     -30.045     2193.101    13.239      3.517       70.77       870.04      1.08        -9999.25    -9999.25    -9999.25    -5.153      5.046       
