~Version Information Section
VERS.                                         2.0:CWLS log ASCII Standart – VERSION 2.0
WRAP.                                          NO:One line per depth step
~Well Information Section
STRT.M                                       -0.5:Начальная глубина
STOP.M                                      184.3:Конечная глубина
STEP.M                                          0:Шаг квантования по глубине
NULL.                                    -9999.25:Признак "Нет данных"
WELL.                                       133Мх:Скважина
~Parameter Information Section
~Curve Information Section
DEPTH.M                                          :Глубина
DS.mm                                            :DS  (ДС)
GGK.g/cm3                                        :GGKp
ГК.mcr/h                                         :GK          (ГК)
GZ1.Ohm*M                                        :GZ1   ГЗ1(A0.4M0.1N)
GZ2.Ohm*M                                        :GZ2   ГЗ2(A1.0M0.1N)
GZ3.Ohm*M                                        :GZ3   ГЗ3(A2.0M0.5N)
GZ4.Ohm*M                                        :GZ4   ГЗ4(A4.0M0.5N)
GZ5.Ohm*M                                        :GZ5   ГЗ5(A8.0M0.5N)
GZR.Ohm*M                                        :GZK   ГЗK(N0.5M2.0A)
ИК.Ohm*M                                         :IK
НГК.ue                                           :NGK     (НГК)
NNKM.                                            :NNKm  (ННКм)
PS.mv                                            :PS       (ПС)
PZ.Ohm*M                                         :PZ    (КС)
RS.Ohm*M                                         :RS (Резистивиметр)
U1.mV                                            :U1
U2.mV                                            :U2
U3.mV                                            :U3
BK.Ohm*M                                         :БК
ПОРИСТОСТЬ.                                      :Пористость ННК
~ASCII LOG DATA
# ...
50.7        134.694     2.287       5.75        29.096      23.267      20.96       11.148      7.926       14.446      17.821      1.548       2.224       176.236     4.718       1.196       476.244     1301.926    2063.91     16.119      34.068      
50.8        135.262     2.303       6.09        26.094      22.461      19.598      10.793      9.227       14.446      17.442      1.531       2.14        176.395     4.535       1.198       475.366     1291.15     2063.65     15.666      35.14       
50.9        135.899     2.305       6.502       24.371      21.744      18.778      10.682      9.333       14.446      17.026      1.524       2.069       176.378     4.391       1.197       472.592     1270.893    2061.868    14.481      35.862      
51.0        136.228     2.309       7.113       23.979      20.962      18.253      10.682      9.474       14.507      16.595      1.509       2.045       176.182     4.279       1.197       470.52      1265.449    2060.513    14.671      36.91       
51.1        136.185     2.296       7.552       23.785      20.278      17.986      10.682      9.272       14.706      16.176      1.496       2.09        175.827     4.19        1.198       473.613     1278.385    2063.002    15.168      37.18       
51.2        136.039     2.26        7.526       23.594      19.536      17.892      10.723      9.101       14.939      15.83       1.496       2.162       175.345     4.122       1.198       480.827     1288.11     2068.575    15.153      37.04       
51.3        136.256     2.227       7.084       23.55       18.796      17.826      11.056      8.957       15.034      15.597      1.503       2.226       174.769     4.063       1.198       482.516     1286.594    2069.843    14.727      36.292      
51.4        136.893     2.205       6.512       23.555      18.168      17.827      11.795      8.785       15.034      15.485      1.46        2.247       174.129     4.006       1.197       475.643     1282.732    2064.403    15.56       35.792      
51.5        137.39      2.185       6.338       23.427      17.502      17.938      12.751      8.642       15.013      15.452      1.42        2.219       173.452     3.948       1.198       468.803     1284.046    2058.839    15.654      35.402      
51.6        137.357     2.175       6.418       23.129      16.782      18.091      13.832      8.507       14.889      15.437      1.384       2.181       172.762     3.891       1.197       471.536     1285.332    2060.481    15.632      35.073      
51.7        137.106     2.19        6.726       22.925      16.141      18.285      15.048      8.44        14.717      15.42       1.386       2.156       172.076     3.834       1.198       481.376     1281.843    2067.482    15.609      35.0        
51.8        136.989     2.208       6.958       22.693      15.615      18.586      16.182      8.324       14.649      15.401      1.366       2.142       171.415     3.777       1.197       487.766     1278.999    2071.992    15.272      35.164      
51.9        137.167     2.209       7.029       22.169      15.213      18.996      17.011      8.207       14.649      15.36       1.369       2.146       170.801     3.722       1.196       487.867     1280.955    2072.115    15.031      35.355      
52.0        137.583     2.2         7.01        21.552      14.976      19.421      17.539      8.122       14.666      15.295      1.398       2.122       170.246     3.677       1.196       484.089     1283.905    2068.436    14.397      35.717      
52.1        137.872     2.189       7.301       21.032      14.816      19.762      17.783      8.064       14.69       15.226      1.437       2.08        169.75      3.64        1.196       477.175     1283.016    2061.958    15.064      36.113      
52.2        137.814     2.177       7.735       20.714      14.675      19.893      17.839      8.034       14.835      15.159      1.444       2.027       169.311     3.62        1.196       468.594     1280.36     2055.828    14.458      36.497      
52.3        137.587     2.162       8.125       20.59       14.545      19.893      17.839      7.97        15.233      15.074      1.433       1.963       168.922     3.615       1.195       463.079     1280.655    2053.69     14.393      36.97       
52.4        137.499     2.15        7.764       20.518      14.386      19.884      17.696      7.895       15.798      14.976      1.419       1.953       168.581     3.614       1.196       465.082     1281.962    2058.273    14.792      37.228      
52.5        137.644     2.153       7.128       20.465      14.287      19.648      17.359      7.816       16.4        14.902      1.409       1.962       168.291     3.614       1.196       476.43      1279.123    2061.787    14.44       37.213      
52.6        137.918     2.157       6.742       20.454      14.19       19.132      16.936      7.734       16.934      14.891      1.421       1.979       168.068     3.619       1.195       489.487     1274.655    2053.982    14.75       37.306      
52.7        138.156     2.168       7.005       20.418      13.916      18.514      16.432      7.734       17.357      14.891      1.424       1.992       167.926     3.636       1.195       489.68      1277.103    2038.847    14.466      37.313      
52.8        138.264     2.189       7.346       20.341      13.551      17.863      15.91       7.79        17.697      14.908      1.396       1.995       167.881     3.666       1.195       475.318     1284.374    2029.628    15.156      36.683      
52.9        138.358     2.209       7.533       20.26       13.151      17.38       15.606      7.869       17.987      14.977      1.324       1.994       167.929     3.711       1.195       462.729     1282.211    2032.063    14.773      36.117      
53.0        138.723     2.226       7.657       20.176      12.906      17.221      15.55       7.92        18.227      15.079      1.287       1.982       168.061     3.772       1.195       467.04      1269.839    2034.265    14.494      35.144      
53.1        139.446     2.248       8.013       20.173      12.871      17.221      15.55       8.057       18.522      15.175      1.324       1.959       168.258     3.843       1.195       475.883     1263.099    2028.092    15.119      35.533      
53.2        140.051     2.259       8.186       20.209      12.871      17.221      15.55       8.313       19.099      15.25       1.364       1.935       168.487     3.922       1.197       469.849     1272.934    2021.905    14.992      36.352      
53.3        139.863     2.25        8.0         20.209      12.871      17.221      15.722      8.73        20.061      15.306      1.404       1.911       168.709     4.008       1.199       455.083     1283.025    2026.936    14.747      38.569      
53.4        138.926     2.245       7.36        20.435      13.11       17.441      16.253      9.219       21.332      15.346      1.433       1.898       168.882     4.096       1.198       448.502     1277.366    2043.491    14.469      39.62       
53.5        137.981     2.235       7.195       21.108      13.653      17.907      17.132      9.618       22.609      15.397      1.475       1.927       168.962     4.19        1.198       460.78      1265.631    2058.594    14.787      39.206      
53.6        137.546     2.223       7.5         22.083      14.059      18.318      18.27       9.997       23.528      15.488      1.481       2.004       168.901     4.295       1.197       480.643     1267.29     2063.378    14.903      36.711      
53.7        137.556     2.229       7.74        23.323      14.304      18.484      19.431      10.266      23.867      15.638      1.464       2.121       168.662     4.407       1.197       487.305     1282.423    2061.894    14.881      34.9        
53.8        137.423     2.233       7.204       24.774      14.446      18.484      20.107      10.381      23.867      15.873      1.475       2.231       168.225     4.53        1.196       477.946     1289.131    2062.77     15.025      32.721      
