~Version Information Section
VERS.                                         2.0:CWLS log ASCII Standart – VERSION 2.0
WRAP.                                          NO:One line per depth step
~Well Information Section
STRT.M                                        0.1:Начальная глубина
STOP.M                                      202.9:Конечная глубина
STEP.M                                          0:Шаг квантования по глубине
NULL.                                    -9999.25:Признак "Нет данных"
WELL.                                       155Мх:Скважина
~Parameter Information Section
~Curve Information Section
DEPTH.M                                          :Глубина
BK.Ohm*M                                         :BK     (БК)
DS.mm                                            :DS  (ДС)
GGK.g/cm3                                        :GGKp
ГК.mcr/h                                         :GK          (ГК)
GZ1.Ohm*M                                        :GZ1   ГЗ1(A0.4M0.1N)
GZ2.Ohm*M                                        :GZ2   ГЗ2(A1.0M0.1N)
GZ3.Ohm*M                                        :GZ3   ГЗ3(A2.0M0.5N)
GZ4.Ohm*M                                        :GZ4   ГЗ4(A4.0M0.5N)
GZ5.Ohm*M                                        :GZ5   ГЗ5(A8.0M0.5N)
GZR.                                             :GZR   ГЗK(N0.5M2.0A)
ИК.Ohm*M                                         :IK
НГК.ue                                           :NGK     (НГК)
NNKM.                                            :NNKm  (ННКм)
PS.mv                                            :PS       (ПС)
PZ.Ohm*M                                         :PZ    (КС)
RS.Ohm*M                                         :RS (Резистивиметр)
W.%                                              :W
~ASCII LOG DATA
# ...
107.4       104.699     162.998     2.313       4.891       220.975     195.461     22.559      22.733      20.13       20.829      38.652      1.147       1.41        94.411      151.704     1.3         25.74       
107.5       52.787      162.988     2.305       4.894       173.788     156.117     20.808      21.88       22.104      21.075      37.483      1.136       1.442       91.282      147.676     1.283       26.101      
107.6       29.082      163.042     2.296       4.94        105.716     119.12      19.903      23.6        25.612      25.693      36.719      1.109       1.424       87.044      131.919     1.295       26.735      
107.7       25.468      162.896     2.289       4.95        73.139      99.258      20.207      27.121      29.78       29.0        35.702      1.064       1.365       82.733      117.602     1.3         26.834      
107.8       42.048      162.676     2.288       4.859       75.194      123.404     22.934      33.363      33.083      31.761      34.047      1.03        1.299       79.72       106.423     1.287       26.053      
107.9       100.856     162.623     2.291       4.654       81.763      151.62      27.799      40.449      36.609      35.776      32.191      1.024       1.285       78.185      97.239      1.249       24.755      
108.0       194.775     162.674     2.296       4.422       94.934      170.719     33.426      42.706      38.631      38.725      30.985      1.049       1.328       77.571      98.887      1.223       23.295      
108.1       257.86      162.677     2.299       4.269       125.978     188.327     37.758      39.0        40.097      39.927      30.298      1.089       1.388       77.588      100.924     1.213       21.778      
108.2       269.865     164.279     2.297       4.299       178.693     208.975     44.64       33.753      42.688      39.638      30.081      1.147       1.493       78.566      100.184     1.216       20.888      
108.3       206.905     167.023     2.288       4.604       254.162     219.785     55.328      29.195      42.703      36.084      30.023      1.208       1.567       81.147      100.59      1.236       21.106      
108.4       76.489      166.014     2.274       5.168       267.379     192.105     69.781      24.931      42.285      30.649      30.118      1.226       1.576       84.812      104.214     1.292       22.202      
108.5       35.491      165.936     2.26        5.958       192.854     129.007     73.002      20.897      41.743      29.992      29.722      1.186       1.529       87.801      114.178     1.323       24.88       
108.6       22.422      163.54      2.25        6.772       121.608     78.03       59.392      16.868      39.352      36.937      28.843      1.101       1.402       88.518      107.165     1.331       28.641      
108.7       17.116      161.063     2.248       7.409       79.238      57.106      51.173      14.757      37.041      47.011      28.379      1.01        1.299       86.948      83.422      1.317       31.252      
108.8       15.64       161.089     2.257       7.626       56.835      57.054      50.449      15.655      35.199      58.359      27.077      0.939       1.194       84.647      66.071      1.281       32.522      
108.9       22.104      161.788     2.276       7.326       46.48       63.485      53.284      18.66       33.144      71.516      25.883      0.889       1.145       82.979      53.671      1.251       32.629      
109.0       35.398      161.439     2.298       6.565       44.491      65.873      59.279      21.96       33.311      81.557      24.949      0.885       1.174       82.119      48.939      1.215       31.016      
109.1       51.623      162.163     2.32        5.569       47.98       65.584      65.729      24.041      34.559      84.959      24.205      0.915       1.244       81.697      46.641      1.207       28.689      
109.2       62.878      161.968     2.334       4.624       57.756      65.662      69.506      24.716      35.261      84.203      23.965      0.966       1.365       81.452      44.071      1.206       27.703      
109.3       90.37       162.581     2.339       3.893       91.597      68.573      67.821      23.438      34.251      80.897      24.461      1.015       1.451       81.376      42.617      1.207       26.679      
109.4       121.911     163.641     2.335       3.488       135.983     74.953      62.082      19.719      31.862      72.488      25.131      1.044       1.504       81.485      42.292      1.218       25.826      
109.5       118.043     164.841     2.326       3.348       177.339     72.38       56.446      15.845      29.495      60.423      25.69       1.054       1.509       81.744      49.276      1.237       26.086      
109.6       70.703      165.465     2.315       3.403       176.231     52.015      48.766      13.745      25.072      48.346      25.942      1.028       1.497       81.917      66.136      1.25        26.544      
109.7       39.829      166.663     2.307       3.487       134.245     37.062      39.897      11.966      21.023      38.597      25.733      0.979       1.494       81.452      77.792      1.257       26.714      
109.8       38.876      163.253     2.301       3.611       107.197     38.848      30.3        8.657       18.054      29.354      25.243      0.928       1.428       79.758      75.881      1.276       27.389      
109.9       43.707      163.712     2.295       3.85        97.604      51.055      22.012      5.23        14.391      22.154      24.602      0.89        1.337       77.075      70.347      1.273       28.708      
110.0       42.516      162.065     2.288       4.258       96.126      63.375      19.238      3.631       10.773      19.344      23.998      0.864       1.273       74.222      66.72       1.262       29.336      
110.1       27.653      162.202     2.276       4.922       83.565      59.696      17.108      3.179       7.767       17.774      23.14       0.838       1.281       72.217      64.257      1.228       29.674      
110.2       16.854      162.315     2.261       5.77        56.313      46.877      14.787      3.107       6.383       16.972      22.405      0.824       1.267       71.677      59.293      1.217       30.23       
110.3       15.215      162.675     2.249       6.707       36.329      39.161      12.527      3.139       5.667       17.183      21.736      0.823       1.21        72.674      51.416      1.218       30.624      
110.4       16.472      164.791     2.244       7.48        30.832      38.114      11.151      3.473       5.264       17.983      21.203      0.827       1.142       74.816      43.694      1.217       30.623      
110.5       17.701      164.081     2.249       7.957       28.293      37.939      11.916      4.024       5.311       22.04       20.893      0.829       1.121       77.082      37.839      1.212       30.552      
110.6       17.346      164.735     2.261       8.037       27.813      37.784      13.288      4.82        5.426       28.391      20.498      0.848       1.122       78.627      34.928      1.206       30.366      
110.7       14.844      165.225     2.276       7.783       26.663      36.763      14.667      6.516       5.576       35.602      20.395      0.892       1.129       79.414      33.47       1.206       29.579      
110.8       13.209      167.598     2.287       7.34        22.357      31.402      16.313      8.81        5.888       46.448      20.495      0.948       1.155       80.436      31.88       1.206       28.751      
110.9       17.407      172.558     2.288       6.915       20.391      29.523      17.312      10.67       6.749       53.611      20.717      1.002       1.181       83.05       29.73       1.206       27.862      
111.0       31.861      173.232     2.279       6.61        23.785      31.956      18.525      11.947      7.152       54.759      21.011      1.034       1.224       87.408      28.429      1.206       26.782      
