~Version Information Section
VERS.                                         2.0:CWLS log ASCII Standart – VERSION 2.0
WRAP.                                          NO:One line per depth step
~Well Information Section
STRT.M                                        1.6:Начальная глубина
STOP.M                                      212.2:Конечная глубина
STEP.M                                          0:Шаг квантования по глубине
NULL.                                    -9999.25:Признак "Нет данных"
WELL.                                       139Мх:Скважина
~Parameter Information Section
~Curve Information Section
DEPTH.M                                          :Глубина
BK.Ohm*M                                         :BK     (БК)
DS.mm                                            :DS  (ДС)
GGK.g/cm3                                        :GGKp
ГК.mcr/h                                         :GK          (ГК)
GZ1.Ohm*M                                        :GZ1   ГЗ1(A0.4M0.1N)
GZ2.Ohm*M                                        :GZ2   ГЗ2(A1.0M0.1N)
GZ3.Ohm*M                                        :GZ3   ГЗ3(A2.0M0.5N)
GZ4.Ohm*M                                        :GZ4   ГЗ4(A4.0M0.5N)
GZ5.Ohm*M                                        :GZ5   ГЗ5(A8.0M0.5N)
GZR.Ohm*M                                        :GZK   ГЗK(N0.5M2.0A)
ИК.Ohm*M                                         :IK
НГК.ue                                           :NGK     (НГК)
NNKM.                                            :NNKm  (ННКм)
PS.mv                                            :PS       (ПС)
PZ.Ohm*M                                         :PZ    (КС)
U1.mV                                            :U1
U2.mV                                            :U2
U3.mV                                            :U3
КП.%                                             :Кп
~ASCII LOG DATA
# ...
117.2       105.911     134.395     2.28        3.294       99.775      43.565      36.676      23.355      32.204      58.057      34.309      1.456       2.681       191.54      69.281      153.612     152.249     155.519     27.283      
117.3       100.283     136.295     2.271       3.565       101.196     48.031      37.864      23.274      32.381      53.023      34.578      1.479       2.668       190.99      70.797      207.739     213.4       226.483     28.586      
117.4       95.91       137.192     2.279       3.86        101.29      52.718      38.6        23.156      32.706      49.89       34.913      1.467       2.656       190.441     72.159      264.71      252.396     250.687     29.816      
117.5       94.108      137.009     2.286       4.231       101.235     57.253      38.976      23.156      33.36       48.674      35.188      1.479       2.648       189.904     73.379      291.205     249.737     216.023     31.452      
117.6       93.291      136.921     2.263       4.131       100.824     61.356      39.212      23.159      34.559      48.674      35.381      1.431       2.646       189.388     74.49       284.377     237.844     192.96      32.049      
117.7       91.6        136.957     2.244       3.973       99.925      64.792      39.288      23.224      36.505      48.693      35.548      1.463       2.657       188.907     75.55       261.917     255.332     240.355     31.714      
117.8       91.091      136.908     2.231       3.693       99.363      67.606      39.4        23.638      39.297      49.008      35.685      1.455       2.657       188.468     76.628      230.085     269.788     299.66      32.217      
117.9       91.34       136.822     2.237       3.958       99.363      70.174      39.4        24.897      42.899      50.738      35.73       1.445       2.624       188.077     77.759      199.655     266.108     334.658     34.207      
118.0       85.234      137.099     2.242       4.069       99.38       73.269      39.424      27.277      47.163      55.041      35.816      1.469       2.58        187.739     78.948      177.151     247.322     333.438     36.327      
118.1       77.349      137.176     2.231       4.189       99.657      77.711      39.612      30.888      51.863      61.124      35.913      1.471       2.518       187.454     80.165      162.959     208.466     277.896     36.826      
118.2       79.52       137.314     2.229       4.068       101.285     84.123      40.136      35.594      56.74       67.734      36.052      1.519       2.545       187.217     81.366      149.15      154.382     180.553     34.808      
118.3       98.292      137.34      2.216       3.764       105.853     92.574      41.012      40.938      61.448      73.156      36.011      1.442       2.647       187.023     82.497      126.888     108.174     95.731      33.296      
118.4       134.181     137.313     2.23        3.391       113.664     102.968     42.439      46.231      65.466      75.939      35.85       1.426       2.784       186.865     83.519      95.792      90.246      84.67       31.659      
118.5       186.351     137.334     2.28        2.793       124.223     114.135     45.011      50.716      68.178      76.485      35.539      1.373       2.908       186.735     84.414      69.168      100.6       122.691     32.223      
118.6       238.329     137.371     2.336       2.316       136.429     124.557     50.019      53.847      69.376      76.357      35.086      1.423       2.901       186.626     85.107      92.257      127.646     159.94      33.792      
118.7       236.508     137.272     2.328       1.878       148.77      133.185     57.781      55.575      69.599      75.283      34.276      1.447       2.856       186.533     85.373      176.519     167.033     165.072     37.334      
118.8       190.281     137.196     2.311       1.669       160.075     140.184     68.413      56.159      69.409      72.09       33.269      1.469       2.75        186.453     85.373      259.564     211.761     163.538     40.985      
118.9       146.773     137.314     2.273       1.678       169.48      146.103     81.094      56.145      68.304      67.202      32.247      1.443       2.627       186.383     85.373      257.132     232.794     191.196     41.842      
119.0       159.125     137.172     2.234       1.762       175.481     151.092     93.876      55.974      65.622      61.686      31.213      1.429       2.559       186.325     85.007      206.83      236.309     226.976     40.547      
119.1       200.205     137.349     2.233       2.011       177.383     154.166     103.402     55.193      61.503      56.234      30.12       1.318       2.582       186.279     83.745      195.855     238.212     241.68      36.891      
119.2       209.252     137.096     2.219       2.229       177.256     155.07      107.992     53.403      56.454      50.796      29.019      1.188       2.668       186.248     81.372      272.062     256.019     227.959     35.131      
119.3       199.333     135.894     2.225       2.616       175.905     154.888     108.754     50.666      50.864      45.179      28.146      1.091       2.718       186.229     77.856      350.933     279.747     214.361     33.908      
119.4       168.309     134.811     2.22        2.962       170.255     153.132     108.476     46.762      45.044      39.422      27.321      1.103       2.746       186.226     73.444      357.51      265.919     198.648     32.967      
119.5       158.288     136.029     2.217       3.171       157.356     146.569     106.147     41.731      39.222      33.931      26.437      1.16        2.708       186.226     68.488      289.125     208.608     152.267     30.887      
119.6       144.015     135.59      2.244       3.289       137.517     133.085     99.217      35.994      33.629      29.277      25.477      1.191       2.663       186.226     63.507      214.185     142.954     96.903      29.724      
119.7       106.767     134.604     2.255       3.155       113.506     114.117     88.599      30.077      28.556      25.889      24.506      1.249       2.656       186.226     58.971      169.537     103.524     63.215      30.6        
119.8       67.329      134.987     2.286       3.3         89.259      93.157      76.775      24.732      24.267      23.966      23.654      1.255       2.608       186.24      55.203      161.744     98.669      60.191      32.667      
119.9       47.758      132.395     2.325       3.687       67.425      73.48       65.963      20.64       20.914      23.441      22.856      1.239       2.521       186.277     52.354      166.886     111.638     76.859      33.747      
120.0       37.369      130.386     2.353       4.3         50.451      57.831      57.221      18.079      18.537      23.441      22.133      1.168       2.386       186.343     50.405      167.94      129.673     104.298     35.563      
120.1       28.222      129.773     2.377       4.895       39.041      47.46       50.86       17.028      17.062      23.52       21.582      1.116       2.235       186.448     49.178      151.971     134.944     122.81      36.843      
120.2       24.725      130.469     2.365       5.371       32.546      41.602      46.666      16.949      16.337      24.245      21.279      1.081       2.132       186.597     48.471      126.962     124.819     123.142     37.137      
120.3       25.475      131.606     2.343       5.747       29.66       38.704      44.139      16.949      16.111      26.776      21.223      1.067       2.068       186.789     48.108      160.05      137.408     123.506     36.276      
120.4       27.52       134.653     2.332       5.718       29.103      37.638      42.709      17.025      16.08       31.605      21.281      1.079       2.094       187.023     47.948      204.791     167.021     142.083     36.261      
120.5       28.009      137.942     2.3         5.401       29.103      37.304      41.846      17.647      16.078      38.176      21.493      1.11        2.157       187.292     47.917      194.055     175.547     172.954     35.333      
