~Version Information Section
VERS.                                         2.0:CWLS log ASCII Standart – VERSION 2.0
WRAP.                                          NO:One line per depth step
~Well Information Section
STRT.M                                        1.2:Начальная глубина
STOP.M                                      208.4:Конечная глубина
STEP.M                                          0:Шаг квантования по глубине
NULL.                                    -9999.25:Признак "Нет данных"
WELL.                                       109Мх:Скважина
~Parameter Information Section
~Curve Information Section
DEPTH.M                                          :Глубина
BK.Ohm*M                                         :BK     (БК)
DS.mm                                            :DS  (ДС)
GGK.g/cm3                                        :GGKp
ГК.mcr/h                                         :GK          (ГК)
GZ1.Ohm*M                                        :GZ1   ГЗ1(A0.4M0.1N)
GZ2.Ohm*M                                        :GZ2   ГЗ2(A1.0M0.1N)
GZ3.Ohm*M                                        :GZ3   ГЗ3(A2.0M0.5N)
GZ4.Ohm*M                                        :GZ4   ГЗ4(A4.0M0.5N)
GZ5.Ohm*M                                        :GZ5   ГЗ5(A8.0M0.5N)
GZR.Ohm*M                                        :GZK   ГЗK(N0.5M2.0A)
ИК.Ohm*M                                         :IK
НГК.u.e.                                         :NGK
NNKM.                                            :NNKm  (ННКм)
U1.mV                                            :U1
U2.mV                                            :U2
U3.mV                                            :U3
КП.%                                             :Кп
PS.mv                                            :PS       (ПС)
PZ.Ohm*M                                         :PZ    (КС)
RS.Ohm*M                                         :RS (Резистивиметр)
~ASCII LOG DATA
# ...
158.0       26.182      129.2       2.392       6.527       90.27       31.274      48.502      13.943      13.63       38.92       9.829       1.119       2.077       905.917     511.161     432.775     28.268      1062.523    13.881      1.026       
158.1       26.485      129.448     2.405       6.498       90.27       30.754      48.062      13.943      13.63       38.92       9.829       1.141       2.091       1040.218    489.324     354.838     27.333      1062.155    13.809      1.026       
158.2       26.485      127.546     2.354       6.611       89.85       30.754      48.062      14.063      13.91       38.92       9.844       1.129       2.09        1019.569    467.989     364.06      27.108      1061.786    13.737      1.026       
158.3       25.586      127.21      2.323       6.681       89.85       30.754      48.062      14.063      13.91       39.96       9.787       1.139       2.088       846.092     461.105     453.907     28.635      1061.409    13.665      1.026       
158.4       25.527      127.186     2.29        6.536       89.85       30.234      48.062      13.943      14.19       39.96       9.773       1.101       2.08        651.008     476.725     565.44      30.572      1061.015    13.665      1.026       
158.5       24.155      127.597     2.304       6.409       89.85       30.234      48.062      13.943      14.19       39.96       9.76        1.089       2.061       577.424     506.692     628.811     31.659      1060.604    13.809      1.026       
158.6       25.704      128.524     2.323       6.203       89.85       30.234      48.062      13.943      14.19       39.96       9.732       1.045       1.999       626.457     541.79      634.472     31.013      1060.185    13.953      1.026       
158.7       23.227      127.423     2.343       6.304       89.43       30.234      48.062      13.943      14.19       39.96       9.677       1.018       1.949       683.475     552.878     601.83      30.101      1059.758    14.242      1.026       
158.8       21.627      127.165     2.368       6.51        89.43       29.714      48.062      13.823      14.19       39.96       9.65        1.014       1.966       713.041     533.162     541.784     29.625      1059.313    14.602      1.026       
158.9       20.797      127.189     2.363       6.925       89.43       29.194      48.502      13.703      14.19       38.92       9.623       1.03        1.988       685.052     487.951     484.772     29.106      1058.852    15.107      1.026       
159.0       20.797      127.177     2.337       7.135       89.43       29.194      48.502      13.703      14.19       38.92       9.597       1.029       1.979       619.787     440.652     453.677     28.686      1058.375    14.891      1.026       
159.1       21.38       127.18      2.286       7.176       89.43       28.674      48.502      13.703      14.19       38.92       9.584       1.009       1.962       583.343     404.502     426.092     28.719      1057.88     14.602      1.026       
159.2       22.491      127.319     2.276       7.416       89.43       28.674      48.942      13.583      14.05       38.92       9.544       1.03        1.941       598.602     376.364     379.292     29.49       1057.386    14.314      1.026       
159.3       21.429      127.386     2.264       7.697       89.43       28.674      48.942      13.583      13.91       38.92       9.544       1.045       1.907       581.251     338.421     338.367     30.183      1056.9      14.025      1.026       
159.4       22.803      127.375     2.28        7.634       89.43       28.674      48.942      13.583      13.77       38.92       9.492       1.078       1.897       493.693     293.287     329.672     30.155      1056.422    13.737      1.026       
159.5       22.803      126.337     2.276       7.13        89.43       27.634      48.942      13.583      13.77       38.92       9.466       1.086       1.925       457.017     290.466     348.879     29.619      1055.953    13.449      1.026       
159.6       22.491      126.311     2.265       6.784       89.43       27.634      48.942      13.583      13.77       38.92       9.415       1.108       1.941       550.353     352.104     382.552     29.561      1055.492    13.016      1.026       
159.7       20.091      126.306     2.258       6.76        89.43       27.634      48.942      13.583      13.77       38.92       9.363       1.084       1.93        685.611     454.963     462.429     29.859      1055.031    12.583      1.026       
159.8       20.37       126.344     2.246       6.871       89.43       27.634      48.942      13.583      13.77       38.92       9.339       1.081       1.923       736.336     547.929     595.469     30.82       1054.578    12.007      1.026       
159.9       20.464      126.308     2.287       6.886       89.43       28.154      48.502      13.583      13.63       38.92       9.275       1.028       1.925       707.752     606.397     731.109     31.547      1054.134    11.43       1.026       
160.0       21.184      126.605     2.336       6.923       89.43       28.674      48.062      13.583      13.63       38.92       9.251       1.033       1.928       706.805     600.448     731.137     31.396      1053.698    10.709      1.026       
160.1       23.388      126.869     2.391       6.86        89.43       29.194      48.062      13.583      13.63       38.92       9.251       1.022       1.999       797.557     549.063     605.701     29.925      1053.271    10.781      1.026       
160.2       23.227      127.562     2.384       6.825       89.43       29.194      47.622      13.583      13.49       38.92       9.201       1.046       2.071       887.307     472.991     489.652     28.333      1052.86     10.925      1.026       
160.3       23.227      128.084     2.32        7.113       89.43       29.194      47.622      13.583      13.35       38.92       9.153       1.068       2.086       916.358     413.579     474.139     27.528      1052.475    11.069      1.026       
160.4       23.496      127.685     2.276       7.612       89.43       29.714      47.182      13.463      13.35       38.92       9.069       1.073       2.105       836.282     356.259     469.795     28.017      1052.114    11.213      1.026       
160.5       25.177      127.447     2.264       7.834       89.43       29.714      46.742      13.343      13.35       38.92       8.974       1.083       2.026       726.283     302.112     402.174     29.144      1051.779    11.358      1.026       
160.6       24.491      127.36      2.274       7.017       89.43       29.714      46.742      13.343      13.35       38.92       8.974       1.04        1.888       586.564     268.426     367.485     31.202      1051.477    11.502      1.026       
160.7       19.454      127.363     2.249       6.523       89.85       29.714      46.742      13.343      13.35       38.92       8.893       1.027       1.832       430.259     257.047     438.03      33.459      1051.201    11.646      1.026       
160.8       17.579      127.8       2.234       6.274       90.27       29.194      46.742      13.343      13.35       38.92       8.767       0.998       1.83        304.512     259.523     545.905     34.642      1050.949    11.79       1.026       
160.9       18.072      127.577     2.252       6.781       90.27       28.674      46.742      13.223      13.35       38.92       8.692       0.998       1.863       245.859     260.803     595.321     33.522      1050.731    11.862      1.026       
161.0       17.1        127.808     2.292       6.897       90.69       28.154      46.742      13.223      13.35       38.92       8.595       0.97        1.918       269.774     277.456     591.15      31.503      1050.547    11.718      1.026       
161.1       17.1        128.028     2.33        6.727       90.69       27.634      46.742      13.103      13.21       38.92       8.54        0.984       1.939       387.293     347.087     584.521     29.481      1050.396    11.502      1.026       
