~Version Information Section
VERS.                                         2.0:CWLS log ASCII Standart – VERSION 2.0
WRAP.                                          NO:One line per depth step
~Well Information Section
STRT.M                                        0.0:Начальная глубина
STOP.M                                      208.6:Конечная глубина
STEP.M                                          0:Шаг квантования по глубине
NULL.                                    -9999.25:Признак "Нет данных"
WELL.                                       140Мх:Скважина
~Parameter Information Section
~Curve Information Section
DEPTH.M                                          :Глубина
GZ1.ohmm                                         :Подошвенный градиент-зонд А0.4М0.1N
GZ2.ohmm                                         :Подошвенный градиент-зонд А1.0М0.1N
GZ3.ohmm                                         :Подошвенный градиент-зонд А2.0М0.5N
GZ5.ohmm                                         :Подошвенный градиент-зонд А8.0М1.0N
GZ3R.GZ3R                                        :GZ3R
GZ4.ohmm                                         :Подошвенный градиент-зонд А4.0М0.5N
GGK.g/cc                                         :Плотностной гамма-гамма каротаж
ГК.ur/h                                          :Гамма каротаж
ИК.ohmm                                          :Индукционный каротаж (сопротивление),
BK.ohmm                                          :Боковой каротаж
NKTS.ue                                          :Нейтронный каротаж по тепловым нейтронам (малый зонд)
WNK.De                                           :Водородосодержание по НК
НГК.ue                                           :Нейтронный каротаж по тепловым нейтронам (большой зонд)
PZ.ohmm                                          :Потенциал-зонд ИММ 0,5А; В4 0,25М
-.                                               :-      SP mv)
DS1.m                                            :Профиль 1 сечения ствола скважины по профилеметрии
DS.m                                             :Кавернометрия
DS2.m                                            :Профиль 2 сечения ствола скважины по профилеметрии
~ASCII LOG DATA
# ...
44.0        -9999.25    -9999.25    -9999.25    -9999.25    -9999.25    -9999.25    2.343       4.347       12.994      68719.625   4.076       -0.434      22.925      14565.518   -216.676    0.159       0.157       0.154       
44.1        66.438      372.195     303029.844  445785.719  31454.838   320.131     -9999.25    -9999.25    -9999.25    -9999.25    -9999.25    -9999.25    -9999.25    -9999.25    -9999.25    -9999.25    -9999.25    -9999.25    
44.2        -9999.25    -9999.25    -9999.25    -9999.25    -9999.25    -9999.25    2.306       4.925       12.615      96637.398   4.231       -0.684      23.317      21802.055   -252.423    0.158       0.156       0.153       
44.3        65.804      389.057     291900.0    173.614     124092.305  139169.234  -9999.25    -9999.25    -9999.25    -9999.25    -9999.25    -9999.25    -9999.25    -9999.25    -9999.25    -9999.25    -9999.25    -9999.25    
44.4        -9999.25    -9999.25    -9999.25    -9999.25    -9999.25    -9999.25    2.364       6.766       12.123      145.527     4.04        -1.202      21.125      18435.99    -294.453    0.158       0.155       0.152       
44.5        66.378      372.752     110204.305  364.051     108247.063  104447.063  -9999.25    -9999.25    -9999.25    -9999.25    -9999.25    -9999.25    -9999.25    -9999.25    -9999.25    -9999.25    -9999.25    -9999.25    
44.6        -9999.25    -9999.25    -9999.25    -9999.25    -9999.25    -9999.25    2.351       9.175       11.514      50.428      3.451       -1.4        17.722      17546.725   -304.904    0.158       0.155       0.153       
44.7        66.748      373.728     68511.625   412.475     135661.016  151338.984  -9999.25    -9999.25    -9999.25    -9999.25    -9999.25    -9999.25    -9999.25    -9999.25    -9999.25    -9999.25    -9999.25    -9999.25    
44.8        -9999.25    -9999.25    -9999.25    -9999.25    -9999.25    -9999.25    2.298       10.227      11.122      58.617      3.023       -0.378      16.02       26033.588   -291.934    0.157       0.154       0.151       
44.9        66.241      373.198     282777.781  147.353     71292.039   114424.781  -9999.25    -9999.25    -9999.25    -9999.25    -9999.25    -9999.25    -9999.25    -9999.25    -9999.25    -9999.25    -9999.25    -9999.25    
45.0        -9999.25    -9999.25    -9999.25    -9999.25    -9999.25    -9999.25    2.305       10.49       11.036      56.438      3.103       0.616       16.645      13292.667   -303.935    0.157       0.154       0.151       
45.1        65.95       372.924     47930.555   396.363     -254258.06  -318161.28  -9999.25    -9999.25    -9999.25    -9999.25    -9999.25    -9999.25    -9999.25    -9999.25    -9999.25    -9999.25    -9999.25    -9999.25    
45.2        -9999.25    -9999.25    -9999.25    -9999.25    -9999.25    -9999.25    2.338       9.436       11.304      115.201     3.469       0.839       19.159      17693.512   -362.188    0.158       0.155       0.152       
45.3        65.397      373.924     30508.807   257925.0    68559.32    121728.813  -9999.25    -9999.25    -9999.25    -9999.25    -9999.25    -9999.25    -9999.25    -9999.25    -9999.25    -9999.25    -9999.25    -9999.25    
45.4        -9999.25    -9999.25    -9999.25    -9999.25    -9999.25    -9999.25    2.339       7.631       11.551      270030.656  3.72        -0.244      20.691      24654.43    -355.123    0.158       0.155       0.152       
45.5        65.397      372.276     253924.047  196.765     -178977.26  -223250.0   -9999.25    -9999.25    -9999.25    -9999.25    -9999.25    -9999.25    -9999.25    -9999.25    -9999.25    -9999.25    -9999.25    -9999.25    
45.6        -9999.25    -9999.25    -9999.25    -9999.25    -9999.25    -9999.25    2.354       6.799       11.344      203136.484  3.767       -0.688      20.457      10637.931   -367.086    0.158       0.155       0.151       
45.7        66.057      370.956     39238.273   176.126     66280.992   124289.258  -9999.25    -9999.25    -9999.25    -9999.25    -9999.25    -9999.25    -9999.25    -9999.25    -9999.25    -9999.25    -9999.25    -9999.25    
45.8        -9999.25    -9999.25    -9999.25    -9999.25    -9999.25    -9999.25    2.383       8.908       10.604      157.276     3.548       -1.191      19.021      40564.07    -128.764    0.158       0.155       0.152       
45.9        66.74       368.853     32575.0     197.332     43843.242   105843.242  -9999.25    -9999.25    -9999.25    -9999.25    -9999.25    -9999.25    -9999.25    -9999.25    -9999.25    -9999.25    -9999.25    -9999.25    
46.0        -9999.25    -9999.25    -9999.25    -9999.25    -9999.25    -9999.25    2.395       10.231      9.936       131.881     3.297       -0.348      16.871      19485.488   12.26       0.158       0.155       0.152       
46.1        66.335      366.922     34615.895   415.176     47362.637   47941.391   -9999.25    -9999.25    -9999.25    -9999.25    -9999.25    -9999.25    -9999.25    -9999.25    -9999.25    -9999.25    -9999.25    -9999.25    
46.2        -9999.25    -9999.25    -9999.25    -9999.25    -9999.25    -9999.25    2.351       10.125      9.481       95.939      3.268       0.46        16.384      30485.854   301.828     0.158       0.155       0.152       
46.3        70.908      370.382     38188.746   306.363     52629.141   159172.188  -9999.25    -9999.25    -9999.25    -9999.25    -9999.25    -9999.25    -9999.25    -9999.25    -9999.25    -9999.25    -9999.25    -9999.25    
46.4        -9999.25    -9999.25    -9999.25    -9999.25    -9999.25    -9999.25    2.28        10.77       9.194       86.332      3.152       0.119       16.342      70760.0     461.437     0.158       0.155       0.152       
46.5        66.866      377.548     71606.164   369.282     47128.078   148256.156  -9999.25    -9999.25    -9999.25    -9999.25    -9999.25    -9999.25    -9999.25    -9999.25    -9999.25    -9999.25    -9999.25    -9999.25    
46.6        -9999.25    -9999.25    -9999.25    -9999.25    -9999.25    -9999.25    2.264       10.55       9.022       86.351      3.12        0.425       15.778      61040.0     439.102     0.158       0.155       0.152       
46.7        66.636      373.11      47952.164   250.918     28042.018   51089.637   -9999.25    -9999.25    -9999.25    -9999.25    -9999.25    -9999.25    -9999.25    -9999.25    -9999.25    -9999.25    -9999.25    -9999.25    
46.8        -9999.25    -9999.25    -9999.25    -9999.25    -9999.25    -9999.25    2.294       10.542      8.92        95.402      3.19        1.028       15.429      72489.477   526.421     0.159       0.155       0.152       
46.9        15930.667   391.446     45768.559   315.51      19977.891   395.912     -9999.25    -9999.25    -9999.25    -9999.25    -9999.25    -9999.25    -9999.25    -9999.25    -9999.25    -9999.25    -9999.25    -9999.25    
47.0        -9999.25    -9999.25    -9999.25    -9999.25    -9999.25    -9999.25    2.278       11.235      8.842       91.6        3.064       0.258       16.085      52861.387   467.976     0.159       0.155       0.152       
47.1        74.962      376.745     78885.5     241.169     18500.0     22725.424   -9999.25    -9999.25    -9999.25    -9999.25    -9999.25    -9999.25    -9999.25    -9999.25    -9999.25    -9999.25    -9999.25    -9999.25    
47.2        -9999.25    -9999.25    -9999.25    -9999.25    -9999.25    -9999.25    2.246       10.68       8.906       87.695      2.983       -0.337      16.497      58382.223   569.343     0.159       0.156       0.152       
47.3        76.92       373.92      34660.0     298.853     26327.395   292.525     -9999.25    -9999.25    -9999.25    -9999.25    -9999.25    -9999.25    -9999.25    -9999.25    -9999.25    -9999.25    -9999.25    -9999.25    
47.4        -9999.25    -9999.25    -9999.25    -9999.25    -9999.25    -9999.25    2.267       9.402       9.241       93.742      3.121       0.375       16.904      53808.082   584.878     0.161       0.158       0.155       
