~Version Information Section
VERS.                                         2.0:CWLS log ASCII Standart – VERSION 2.0
WRAP.                                          NO:One line per depth step
~Well Information Section
STRT.M                                        0.2:Начальная глубина
STOP.M                                      176.0:Конечная глубина
STEP.M                                          0:Шаг квантования по глубине
NULL.                                    -9999.25:Признак "Нет данных"
WELL.                                       112Мх:Скважина
~Parameter Information Section
~Curve Information Section
DEPTH.M                                          :Глубина
BK.Ohm*M                                         :BK     (БК)
DS.mm                                            :DS  (ДС)
GGK.g/cm3                                        :GGKp
ГК.mcr/h                                         :GK          (ГК)
GZ1.Ohm*M                                        :GZ1   ГЗ1(A0.4M0.1N)
GZ2.Ohm*M                                        :GZ2   ГЗ2(A1.0M0.1N)
GZ3.Ohm*M                                        :GZ3   ГЗ3(A2.0M0.5N)
GZ4.Ohm*M                                        :GZ4   ГЗ4(A4.0M0.5N)
GZ5.Ohm*M                                        :GZ5   ГЗ5(A8.0M0.5N)
GZR.Ohm*M                                        :GZK   ГЗK(N0.5M2.0A)
ИК.Ohm*M                                         :IK
НГК.ue                                           :NGK     (НГК)
NNKM.                                            :NNKm  (ННКм)
PS.mv                                            :PS       (ПС)
PZ.Ohm*M                                         :PZ    (КС)
U1.mV                                            :U1
U2.mV                                            :U2
U3.mV                                            :U3
КП.%                                             :Кп
~ASCII LOG DATA
# ...
85.2        44.617      138.02      2.44        4.145       40.454      40.032      52.903      10.808      6.147       40.738      27.137      1.214       2.345       359.98      104.04      595.657     2709.569    377.107     40.872      
85.3        43.321      137.905     2.458       4.119       42.878      41.011      56.57       11.709      7.132       45.628      27.944      1.215       2.354       358.9       106.28      467.155     2665.66     377.107     39.964      
85.4        34.641      136.277     2.475       3.709       47.526      42.742      60.627      13.453      8.13        50.783      28.633      1.212       2.365       357.9       108.28      428.053     2661.166    383.205     36.723      
85.5        39.826      135.962     2.475       3.219       54.962      45.246      64.531      16.251      9.112       55.393      29.391      1.191       2.428       356.88      110.12      428.053     2661.166    398.343     34.62       
85.6        78.455      135.078     2.463       2.859       65.361      48.362      67.548      20.145      10.04       58.694      30.152      1.185       2.594       355.74      111.84      461.429     2688.626    410.422     34.153      
85.7        143.75      135.253     2.434       3.01        78.222      51.761      69.239      24.819      10.877      60.409      31.283      1.155       2.727       354.36      113.6       479.382     2665.078    371.199     34.159      
85.8        169.512     134.792     2.402       3.284       92.345      55.105      69.75       29.788      11.568      60.886      32.525      1.135       2.771       352.64      115.36      483.799     2641.337    331.977     35.426      
85.9        151.445     134.693     2.369       3.33        106.359     58.071      69.724      34.551      12.037      60.86       33.657      1.179       2.742       350.6       117.2       456.781     2640.705    331.977     36.35       
86.0        92.433      134.4       2.35        2.997       119.002     60.506      69.478      38.648      12.255      60.622      34.456      1.253       2.639       348.36      118.92      389.916     2640.705    359.838     36.704      
86.1        80.054      134.449     2.345       2.833       129.46      62.557      68.652      41.819      12.298      59.825      34.823      1.335       2.544       346.04      120.12      374.138     2662.911    453.994     36.329      
86.2        110.1       134.417     2.345       3.018       137.539     64.565      67.304      44.206      12.281      58.496      34.662      1.346       2.492       343.9       120.72      374.138     2668.94     437.929     36.569      
86.3        114.091     134.461     2.338       3.169       143.829     66.967      66.005      46.179      12.162      57.035      34.066      1.378       2.433       342.22      120.72      412.991     2665.269    394.293     38.166      
86.4        97.21       134.282     2.328       3.102       149.371     70.265      65.037      48.131      11.827      55.458      33.528      1.406       2.383       341.06      120.72      450.836     2657.105    376.585     41.041      
86.5        90.976      134.451     2.316       2.862       155.285     74.713      64.351      50.289      11.277      53.536      32.834      1.39        2.375       340.36      120.64      401.822     2643.532    376.585     42.652      
86.6        100.087     134.423     2.307       2.733       161.763     79.707      63.675      52.392      10.577      51.071      31.755      1.356       2.373       340.06      119.88      389.059     2643.532    390.103     42.787      
86.7        113.981     134.999     2.307       2.667       167.092     83.677      62.701      53.723      9.769       48.03       30.545      1.317       2.408       340.0       117.92      389.059     2659.538    431.155     41.659      
86.8        113.112     134.282     2.316       2.622       169.238     85.331      61.147      54.057      8.889       44.578      29.437      1.233       2.454       340.0       115.08      423.587     2714.131    508.125     41.248      
86.9        113.799     134.345     2.33        2.691       169.121     85.299      58.729      53.968      7.971       41.037      28.578      1.188       2.494       340.0       111.28      458.115     2768.724    585.095     40.525      
87.0        115.009     134.32      2.341       2.704       167.75      84.805      55.293      53.179      7.059       37.787      27.825      1.184       2.51        340.0       106.52      432.501     2804.837    661.97      39.275      
87.1        106.545     135.233     2.354       2.953       161.513     82.135      50.941      50.562      6.206       35.151      27.22       1.249       2.492       340.02      100.84      395.268     2790.667    738.705     36.362      
87.2        98.578      135.678     2.365       3.1         146.822     75.444      46.012      45.846      5.459       33.28       26.757      1.269       2.448       340.08      95.6        351.078     2716.491    618.49      35.087      
87.3        97.138      136.022     2.361       3.749       124.901     65.818      41.017      39.735      4.848       32.133      26.212      1.235       2.396       340.18      90.88       351.078     2678.818    524.619     37.915      
87.4        82.675      141.668     2.339       4.518       99.451      55.271      36.507      33.401      4.383       31.548      25.452      1.197       2.281       340.34      86.88       362.24      2678.818    477.841     42.866      
87.5        44.125      150.426     2.302       5.54        75.313      45.759      32.873      27.872      4.061       31.33       24.445      1.166       2.145       340.58      83.84       469.745     2704.678    431.062     48.156      
87.6        22.264      149.903     2.263       5.771       56.129      38.381      30.265      23.672      3.862       31.294      23.073      1.147       1.915       340.86      81.88       577.25      2730.538    405.498     47.641      
87.7        16.171      132.395     2.238       5.492       43.647      33.355      28.61       20.872      3.765       31.294      21.712      1.136       1.753       341.16      80.4        591.993     2741.632    405.498     45.693      
87.8        16.469      132.383     2.231       4.81        37.039      30.192      27.694      19.231      3.74        31.299      20.878      1.14        1.929       341.5       79.44       550.532     2728.71     421.987     43.108      
87.9        21.153      133.266     2.248       4.425       34.665      28.332      27.283      18.383      3.739       31.34       20.754      1.153       2.106       341.84      79.04       511.269     2697.663    400.978     42.699      
88.0        33.48       133.924     2.268       4.076       34.388      27.315      27.179      18.005      3.739       31.469      21.311      1.14        2.198       342.14      79.04       472.005     2666.616    376.43      41.277      
88.1        49.451      134.231     2.288       4.071       34.388      26.814      27.179      17.892      3.756       31.69       22.596      1.109       2.264       342.42      79.04       438.774     2642.417    359.069     39.445      
88.2        55.764      133.288     2.304       3.998       34.455      26.656      27.187      17.892      3.843       32.015      24.441      1.097       2.271       342.66      79.04       420.602     2635.31     359.069     38.443      
88.3        47.963      133.581     2.318       4.24        34.964      26.656      27.261      17.894      4.036       32.506      26.101      1.127       2.271       342.82      79.28       420.602     2626.298    346.622     39.595      
88.4        40.936      133.807     2.333       4.407       36.214      26.672      27.546      17.92       4.367       33.298      27.242      1.207       2.268       342.92      82.48       426.506     2612.036    296.087     41.21       
88.5        37.975      133.831     2.345       4.738       37.696      26.841      28.19       18.068      4.875       34.64       28.108      1.243       2.262       342.98      88.56       498.752     2604.395    287.238     42.164      
