~Version Information Section
VERS.                                         2.0:CWLS log ASCII Standart – VERSION 2.0
WRAP.                                          NO:One line per depth step
~Well Information Section
STRT.M                                        1.6:Начальная глубина
STOP.M                                      209.3:Конечная глубина
STEP.M                                          0:Шаг квантования по глубине
NULL.                                    -9999.25:Признак "Нет данных"
WELL.                                       132Мх:Скважина
~Parameter Information Section
~Curve Information Section
DEPTH.M                                          :Глубина
BК.                                              :BК (Омм)
DS.mm                                            :DS
GGK.g/cm3                                        :GGKp
IК.                                              :IК (Омм)
NGК.                                             :NGК (усл.ед.)
PS.mV                                            :PS
PZ.                                              :PZ (Омм)
REZ.                                             :REZ (Омм)
U1.                                              :U1 (ue)
U2.                                              :U2 (ue)
U3.                                              :U3 (ue)
ГК.mcr/h                                         :ГКканаломНГК
~ASCII LOG DATA
# ...
108.7       14.731      128.022     2.425       23.188      1.572       226.862     44.364      2.426       1606.412    1539.909    1473.603    5.106       
108.8       29.838      131.394     2.47        22.785      1.602       226.993     46.537      2.471       1656.63     1587.282    1518.351    4.757       
108.9       106.505     132.27      2.619       22.785      1.614       227.226     47.121      2.532       1697.866    1629.118    1560.584    4.942       
109.0       189.848     134.058     2.628       23.331      1.581       227.663     47.754      2.602       1708.576    1635.077    1562.321    5.711       
109.1       131.064     140.417     2.585       23.684      1.499       228.375     46.881      2.673       1698.213    1620.484    1544.007    6.75        
109.2       103.256     141.381     2.576       23.609      1.402       229.41      43.251      2.745       1683.836    1608.86     1534.766    7.566       
109.3       98.936      138.686     2.574       23.188      1.276       230.847     38.571      2.829       1674.524    1607.336    1539.995    8.267       
109.4       41.257      136.075     2.547       22.452      1.182       232.8       37.209      2.913       1673.389    1609.297    1544.611    8.58        
109.5       16.77       132.837     2.465       21.168      1.08        235.291     38.975      3.002       1651.936    1589.127    1525.661    8.899       
109.6       18.243      131.096     2.366       20.552      1.06        238.236     41.062      3.097       1620.52     1565.8      1509.598    8.932       
109.7       23.646      132.26      2.33        19.918      1.111       241.468     42.196      3.202       1612.65     1557.933    1501.76     8.759       
109.8       26.201      135.429     2.326       19.968      1.202       244.869     41.824      3.308       1587.174    1531.266    1474.155    8.542       
109.9       27.745      135.584     2.358       20.28       1.28        248.392     40.763      3.417       1535.013    1478.667    1421.389    8.496       
110.0       30.309      135.844     2.42        20.439      1.304       252.049     40.034      3.525       1498.805    1444.604    1389.397    8.465       
110.1       30.107      133.994     2.439       20.713      1.315       255.848     39.9        3.66        1507.046    1454.692    1401.133    8.25        
110.2       25.758      132.449     2.435       21.224      1.31        259.771     39.855      3.777       1534.742    1479.155    1422.638    8.054       
110.3       23.339      135.449     2.426       21.472      1.305       263.757     39.484      3.838       1544.057    1490.989    1436.68     8.074       
110.4       27.071      138.904     2.433       22.274      1.288       267.768     38.907      3.861       1576.142    1524.456    1471.251    8.399       
110.5       39.763      138.671     2.45        22.931      1.25        271.763     38.73       3.931       1630.996    1579.556    1526.351    8.865       
110.6       32.164      136.305     2.457       23.501      1.215       275.704     39.569      4.0         1665.98     1611.82     1556.044    9.084       
110.7       21.733      136.101     2.415       24.31       1.197       279.556     41.681      3.104       1676.845    1618.391    1558.727    9.003       
110.8       21.979      134.968     2.422       25.102      1.223       283.297     44.81       2.623       1688.585    1629.046    1568.358    8.535       
110.9       22.15       134.391     2.403       26.027      1.29        286.948     48.626      1.672       1686.331    1628.469    1569.285    8.087       
111.0       25.545      134.385     2.467       27.048      1.39        290.488     54.083      1.637       1670.083    1616.66     1561.506    7.411       
111.1       33.805      135.263     2.484       28.55       1.539       293.892     61.876      1.608       1651.104    1602.447    1551.622    6.697       
111.2       42.117      134.628     2.491       31.342      1.687       297.085     72.423      1.572       1629.394    1585.83     1539.633    6.125       
111.3       69.518      134.93      2.481       33.661      1.86        299.937     91.0        1.52        1608.814    1563.705    1516.226    5.919       
111.4       177.971     133.991     2.492       36.431      1.981       302.375     119.057     1.472       1590.871    1543.386    1493.882    6.173       
111.5       427.556     131.288     2.513       40.126      2.08        304.403     155.272     1.429       1585.307    1533.248    1479.702    6.562       
111.6       631.304     130.043     2.516       42.6        2.115       305.996     188.775     1.39        1566.246    1507.824    1448.701    6.834       
111.7       599.279     129.908     2.511       45.515      2.131       307.076     214.802     1.379       1522.423    1458.286    1394.28     6.826       
111.8       371.991     130.017     2.433       46.939      2.132       307.596     234.366     1.412       1479.914    1413.527    1347.677    6.543       
111.9       369.616     129.833     2.375       48.698      2.138       307.553     250.424     1.558       1439.103    1379.509    1319.809    6.344       
112.0       452.028     129.675     2.308       49.284      2.125       306.914     263.654     1.746       1413.827    1357.265    1300.318    6.203       
112.1       617.385     129.797     2.323       49.801      2.079       305.585     269.806     2.061       1397.031    1343.548    1289.369    6.196       
112.2       962.215     130.617     2.354       50.089      2.014       303.603     265.994     2.654       1414.595    1363.823    1311.948    6.004       
112.3       1216.634    131.896     2.364       50.293      1.952       301.052     253.132     2.734       1466.518    1418.092    1368.054    5.736       
112.4       1283.036    132.063     2.341       50.157      1.906       298.019     227.473     2.635       1510.288    1459.695    1407.547    5.701       
112.5       1257.45     131.548     2.327       49.625      1.863       294.562     195.593     2.507       1560.432    1502.818    1444.292    5.947       
112.6       1113.636    133.553     2.358       48.763      1.801       290.773     170.087     2.568       1601.608    1539.113    1476.164    6.55        
112.7       636.98      131.112     2.368       48.236      1.727       286.745     151.956     2.602       1633.163    1563.191    1493.629    6.939       
112.8       261.435     130.043     2.393       47.281      1.71        282.579     144.879     2.535       1650.137    1573.836    1498.693    7.232       
112.9       106.074     129.994     2.399       46.389      1.759       278.336     127.147     2.379       1652.529    1571.048    1491.359    7.23        
113.0       52.87       130.235     2.426       45.385      1.818       274.026     117.616     2.276       1658.687    1574.369    1492.186    6.967       
113.1       71.769      128.809     2.429       44.14       1.818       269.649     112.51      2.421       1654.085    1569.611    1487.309    6.71        
113.2       127.163     128.482     2.453       43.287      1.79        265.222     125.095     2.484       1639.801    1557.327    1476.823    6.348       
113.3       119.053     128.123     2.498       42.795      1.778       260.846     133.342     2.476       1623.544    1546.153    1470.101    6.201       
113.4       95.259      128.193     2.484       42.325      1.76        256.504     137.661     2.468       1610.275    1537.305    1465.133    6.041       
113.5       93.846      129.363     2.457       41.655      1.734       252.229     133.088     2.46        1605.179    1535.4      1466.019    6.013       
113.6       134.01      128.677     2.432       40.714      1.671       248.026     126.591     2.448       1606.348    1538.662    1471.099    6.377       
113.7       194.009     128.266     2.481       40.005      1.62        243.981     118.92      2.437       1597.291    1534.417    1471.174    6.745       
