~Version Information Section
VERS.                                         2.0:CWLS log ASCII Standart – VERSION 2.0
WRAP.                                          NO:One line per depth step
~Well Information Section
STRT.M                                        0.6:Начальная глубина
STOP.M                                      208.2:Конечная глубина
STEP.M                                          0:Шаг квантования по глубине
NULL.                                    -9999.25:Признак "Нет данных"
WELL.                                       156Мх:Скважина
~Parameter Information Section
~Curve Information Section
DEPTH.M                                          :Глубина
БК.Ом                                            :BK     (БК)
DСР.мм                                           :DS  (ДС)
ПЛОТНОСТЬ.г/см^3                                 :GGKp
ГК.мкР/час                                       :GK          (ГК)
А0.4М0.1N.Ом                                     :GZ1   ГЗ1(A0.4M0.1N)
А1.0М0.1N.Ом                                     :GZ2   ГЗ2(A1.0M0.1N)
А2.0М0.5N.Ом                                     :GZ3   ГЗ3(A2.0M0.5N)
А4.0М0.5N.Oм                                     :GZ4   ГЗ4(A4.0M0.5N)
А8.0М1.0N.Ом                                     :GZ5   ГЗ5(A8.0M0.5N)
N0.5M2.0A.Ом                                     :GZR   ГЗK(N0.5M2.0A)
ИК.мСм/м                                         :IK
НГК.усл.ед                                       :NGK     (НГК)
ННКМ.усл.ед                                      :NNKm  (ННКм)
ПС.mv                                            :PS       (ПС)
N11.0M0.5A.Ом                                    :PZ    (КС)
РЕЗИСТИВИМЕТР.Ом                                 :RS (Резистивиметр)
КПSIO.%                                          :W
~ASCII LOG DATA
# ...
159.7       15.248      165.77      2.185       10.872      20.599      16.018      15.776      15.257      16.168      28.03       15.881      0.951       1.025       83.529      19.637      1.31        34.467      
159.8       15.486      165.655     2.188       10.755      20.581      15.896      15.511      14.899      16.153      28.997      15.849      0.963       1.024       83.613      19.514      1.31        34.98       
159.9       16.045      165.301     2.192       10.611      20.475      15.668      15.335      14.637      16.349      30.158      15.851      0.985       1.032       83.749      19.479      1.31        35.106      
160.0       16.015      165.135     2.197       10.492      20.199      15.343      15.413      14.597      16.649      31.498      15.877      1.006       1.045       83.884      19.535      1.31        34.972      
160.1       15.325      165.001     2.204       10.435      19.921      15.177      15.862      14.815      16.878      32.921      15.915      1.019       1.054       84.003      19.661      1.31        34.682      
160.2       15.263      164.806     2.211       10.298      20.286      15.831      16.596      15.191      16.921      34.358      15.944      1.024       1.056       84.108      19.78       1.31        34.191      
160.3       15.607      164.515     2.216       10.066      21.408      17.163      17.396      15.542      16.739      36.115      15.968      1.027       1.062       84.192      19.856      1.31        33.69       
160.4       15.897      164.276     2.22        9.622       22.499      18.205      17.999      15.63       16.336      38.915      16.0        1.021       1.067       84.213      19.954      1.31        33.364      
160.5       15.929      164.011     2.223       9.192       22.824      18.138      18.086      15.184      15.837      42.806      16.059      1.003       1.068       84.146      20.168      1.31        33.086      
160.6       15.518      163.702     2.223       8.836       22.337      16.896      17.4        14.115      15.506      46.851      16.172      0.986       1.068       84.047      20.42       1.31        32.91       
160.7       15.411      163.221     2.222       8.678       21.594      15.105      16.037      12.643      15.474      49.694      16.348      0.98        1.072       83.961      20.506      1.31        33.003      
160.8       16.752      162.785     2.222       8.681       20.651      13.134      14.46       11.27       15.599      50.517      16.605      0.966       1.08        83.883      20.339      1.31        33.174      
160.9       18.795      162.37      2.221       8.938       19.354      11.32       13.207      10.537      15.739      49.403      16.944      0.945       1.086       83.817      20.033      1.31        33.343      
161.0       18.383      161.927     2.216       9.227       18.059      10.179      12.581      10.737      15.83       46.798      17.341      0.938       1.095       83.788      19.871      1.31        33.532      
161.1       17.082      161.264     2.21        9.366       17.446      10.23       12.635      11.914      16.014      43.187      17.748      0.953       1.107       83.831      20.113      1.31        33.72       
161.2       16.356      160.554     2.205       9.388       18.049      11.529      13.262      13.698      16.243      39.223      18.093      0.976       1.109       83.925      20.799      1.31        33.901      
161.3       14.616      159.992     2.199       9.243       19.967      13.555      14.223      15.402      16.606      34.127      18.365      1.007       1.103       84.007      21.877      1.31        34.107      
161.4       13.175      159.786     2.194       8.819       23.339      15.559      15.166      16.448      17.215      27.464      18.605      1.037       1.093       84.075      23.284      1.31        34.059      
161.5       12.623      159.493     2.194       8.323       29.958      17.304      15.823      16.826      18.434      20.339      18.907      1.059       1.083       84.181      24.902      1.31        33.841      
161.6       13.1        159.324     2.196       7.812       41.119      18.873      16.205      17.033      20.282      14.755      19.393      1.067       1.085       84.326      26.634      1.31        33.52       
161.7       17.304      159.303     2.197       7.008       54.65       20.251      16.628      17.634      22.561      11.904      20.178      1.059       1.104       84.453      28.518      1.31        33.03       
161.8       30.166      158.774     2.2         6.323       66.707      21.723      17.459      18.859      25.217      10.693      21.31       1.041       1.142       84.351      31.074      1.31        32.371      
161.9       49.524      158.23      2.207       5.884       75.27       23.943      18.804      20.67       28.81       10.216      22.73       1.032       1.183       84.009      35.785      1.31        31.856      
162.0       59.059      157.446     2.215       5.541       81.962      28.06       20.563      23.167      34.301      10.114      24.297      1.037       1.225       83.013      43.757      1.31        31.333      
162.1       63.756      155.154     2.227       5.501       86.329      34.355      22.687      27.038      42.046      10.421      25.796      1.045       1.253       81.152      53.976      1.31        30.774      
162.2       66.0        153.977     2.25        5.853       84.919      41.127      25.403      32.965      52.756      11.199      27.099      1.058       1.281       78.836      63.959      1.31        30.087      
162.3       64.561      153.929     2.276       6.198       77.497      46.837      29.019      41.289      65.766      12.363      28.082      1.076       1.288       76.28       71.733      1.311       29.294      
162.4       62.832      153.807     2.296       6.576       70.294      52.852      34.113      51.757      81.482      13.862      28.76       1.088       1.295       73.645      76.828      1.314       28.356      
162.5       62.785      153.68      2.312       6.909       70.454      62.068      41.247      64.118      103.051     16.038      29.139      1.099       1.324       71.232      79.535      1.318       27.266      
162.6       60.343      153.455     2.325       7.094       79.075      75.721      50.775      79.316      131.591     19.337      29.217      1.124       1.36        69.333      80.931      1.322       25.974      
162.7       55.961      154.061     2.328       7.127       94.633      93.075      63.782      99.042      163.673     23.808      28.999      1.163       1.398       68.662      83.14       1.324       24.666      
162.8       46.302      154.272     2.328       7.003       115.659     114.59      81.616      123.772     189.103     28.992      28.458      1.206       1.441       69.267      88.002      1.326       23.417      
162.9       43.219      154.476     2.335       6.924       143.097     144.41      103.117     149.962     202.581     34.612      27.688      1.258       1.495       70.57       95.6        1.323       22.27       
163.0       58.581      154.124     2.348       7.129       178.946     185.225     122.523     169.735     204.744     41.18       26.783      1.315       1.527       72.395      104.333     1.319       21.349      
163.1       98.437      154.517     2.361       7.306       219.525     231.824     132.85      175.801     199.935     49.487      25.818      1.362       1.551       74.3        112.712     1.315       20.61       
163.2       143.696     154.425     2.378       7.575       233.944     248.002     130.225     164.357     190.804     59.536      24.827      1.4         1.557       76.07       120.872     1.312       19.997      
163.3       157.919     153.361     2.4         8.081       201.08      210.051     115.547     135.885     178.283     69.306      23.859      1.435       1.567       77.35       127.649     1.31        19.494      
