~Version Information Section
VERS.                                         2.0:CWLS log ASCII Standart – VERSION 2.0
WRAP.                                          NO:One line per depth step
~Well Information Section
STRT.M                                       0.67:Начальная глубина
STOP.M                                     204.27:Конечная глубина
STEP.M                                          0:Шаг квантования по глубине
NULL.                                    -9999.25:Признак "Нет данных"
WELL.                                       110Мх:Скважина
~Parameter Information Section
~Curve Information Section
DEPTH.M                                          :Глубина
БК.Омм                                           :BK     (БК)
DСР.мм                                           :DS  (ДС)
ГК.гамма                                         :GK          (ГК)
А0.4М0.1N.Омм.ohmm                               :GZ1   ГЗ1(A0.4M0.1N)
А1.0М0.1N.Омм.ohmm                               :GZ2   ГЗ2(A1.0M0.1N)
А2.0М0.5N.Омм.ohmm                               :GZ3   ГЗ3(A2.0M0.5N)
А4.0М0.5N.Oмм.ohmm                               :GZ4   ГЗ4(A4.0M0.5N)
А8.0М1.0N.Омм.ohmm                               :GZ5   ГЗ5(A8.0M0.5N)
N0.5M2.0A.Омм.ohmm                               :GZK   ГЗK(N0.5M2.0A)
ИК.мСм/м                                         :IK
НГК.усл.ед                                       :NGK     (НГК)
ПС.mv                                            :PS       (ПС)
КС.Омм                                           :PZ    (КС)
R.Омм                                            :RS (Резистивиметр)
W_SI.%                                           :п
ННКМ.имп/1,25с                                   :ННКм
ПЛОТНОСТЬГГК.г/см3                               :плотностьГГК
~ASCII LOG DATA
# ...
120.47      27.335      126.211     6.445       -9999.25    -9999.25    -9999.25    -9999.25    -9999.25    -9999.25    28.643      1.488       333.223     95.231      0.959       21.352      2.137       2.531       
120.5       -9999.25    -9999.25    -9999.25    76.544      88.559      18.234      35.059      26.415      20.306      -9999.25    -9999.25    -9999.25    -9999.25    -9999.25    -9999.25    -9999.25    -9999.25    
120.57      28.18       126.383     7.462       -9999.25    -9999.25    -9999.25    -9999.25    -9999.25    -9999.25    27.596      1.471       333.669     81.923      0.969       21.73       1.983       2.507       
120.6       -9999.25    -9999.25    -9999.25    65.201      82.293      18.408      28.092      22.528      18.601      -9999.25    -9999.25    -9999.25    -9999.25    -9999.25    -9999.25    -9999.25    -9999.25    
120.67      39.635      125.893     8.322       -9999.25    -9999.25    -9999.25    -9999.25    -9999.25    -9999.25    26.688      1.473       333.629     71.68       0.965       22.068      1.917       2.484       
120.7       -9999.25    -9999.25    -9999.25    50.992      66.81       18.525      24.266      21.541      19.147      -9999.25    -9999.25    -9999.25    -9999.25    -9999.25    -9999.25    -9999.25    -9999.25    
120.77      42.306      125.592     8.67        -9999.25    -9999.25    -9999.25    -9999.25    -9999.25    -9999.25    25.784      1.473       333.142     65.923      0.96        22.81       1.923       2.463       
120.8       -9999.25    -9999.25    -9999.25    43.48       52.831      17.911      23.353      22.529      20.207      -9999.25    -9999.25    -9999.25    -9999.25    -9999.25    -9999.25    -9999.25    -9999.25    
120.87      33.466      125.216     8.822       -9999.25    -9999.25    -9999.25    -9999.25    -9999.25    -9999.25    24.885      1.458       332.356     63.796      0.96        23.684      1.927       2.443       
120.9       -9999.25    -9999.25    -9999.25    39.525      43.171      19.714      22.745      23.884      24.324      -9999.25    -9999.25    -9999.25    -9999.25    -9999.25    -9999.25    -9999.25    -9999.25    
120.97      25.444      125.194     9.016       -9999.25    -9999.25    -9999.25    -9999.25    -9999.25    -9999.25    24.109      1.433       331.56      61.272      0.96        23.963      1.867       2.43        
121.0       -9999.25    -9999.25    -9999.25    35.741      39.752      25.812      22.897      24.997      29.59       -9999.25    -9999.25    -9999.25    -9999.25    -9999.25    -9999.25    -9999.25    -9999.25    
121.07      22.439      124.928     9.017       -9999.25    -9999.25    -9999.25    -9999.25    -9999.25    -9999.25    23.699      1.399       331.078     56.381      0.96        23.964      1.796       2.425       
121.1       -9999.25    -9999.25    -9999.25    36.372      51.183      31.727      23.809      25.484      33.673      -9999.25    -9999.25    -9999.25    -9999.25    -9999.25    -9999.25    -9999.25    -9999.25    
121.17      23.418      125.531     8.839       -9999.25    -9999.25    -9999.25    -9999.25    -9999.25    -9999.25    23.576      1.348       330.958     51.207      0.96        23.426      1.749       2.424       
121.2       -9999.25    -9999.25    -9999.25    45.296      73.142      40.197      23.859      25.219      41.223      -9999.25    -9999.25    -9999.25    -9999.25    -9999.25    -9999.25    -9999.25    -9999.25    
121.27      33.969      126.443     8.769       -9999.25    -9999.25    -9999.25    -9999.25    -9999.25    -9999.25    23.74       1.338       331.187     48.5        0.96        22.666      1.704       2.429       
121.3       -9999.25    -9999.25    -9999.25    57.872      85.833      51.27       22.589      24.877      53.949      -9999.25    -9999.25    -9999.25    -9999.25    -9999.25    -9999.25    -9999.25    -9999.25    
121.37      65.696      127.589     8.829       -9999.25    -9999.25    -9999.25    -9999.25    -9999.25    -9999.25    24.164      1.39        331.974     48.763      0.96        22.205      1.742       2.436       
121.4       -9999.25    -9999.25    -9999.25    75.615      95.709      58.3        20.863      24.633      64.616      -9999.25    -9999.25    -9999.25    -9999.25    -9999.25    -9999.25    -9999.25    -9999.25    
121.47      104.673     128.423     8.574       -9999.25    -9999.25    -9999.25    -9999.25    -9999.25    -9999.25    24.58       1.476       333.022     50.809      0.96        22.108      1.879       2.446       
121.5       -9999.25    -9999.25    -9999.25    96.639      100.87      60.142      19.956      24.603      62.727      -9999.25    -9999.25    -9999.25    -9999.25    -9999.25    -9999.25    -9999.25    -9999.25    
121.57      123.403     128.892     8.067       -9999.25    -9999.25    -9999.25    -9999.25    -9999.25    -9999.25    24.796      1.548       333.533     52.257      0.959       23.177      1.928       2.453       
121.6       -9999.25    -9999.25    -9999.25    89.585      70.594      56.744      20.355      24.212      52.908      -9999.25    -9999.25    -9999.25    -9999.25    -9999.25    -9999.25    -9999.25    -9999.25    
121.67      111.812     128.573     7.252       -9999.25    -9999.25    -9999.25    -9999.25    -9999.25    -9999.25    24.601      1.58        332.828     51.978      1.045       24.172      2.155       2.458       
121.7       -9999.25    -9999.25    -9999.25    63.708      33.593      48.431      21.196      23.33       45.968      -9999.25    -9999.25    -9999.25    -9999.25    -9999.25    -9999.25    -9999.25    -9999.25    
121.77      58.832      127.967     6.859       -9999.25    -9999.25    -9999.25    -9999.25    -9999.25    -9999.25    24.174      1.6         330.477     50.725      1.153       24.866      2.253       2.461       
121.8       -9999.25    -9999.25    -9999.25    46.903      21.683      34.635      22.524      22.913      44.188      -9999.25    -9999.25    -9999.25    -9999.25    -9999.25    -9999.25    -9999.25    -9999.25    
121.87      26.874      127.178     6.714       -9999.25    -9999.25    -9999.25    -9999.25    -9999.25    -9999.25    23.853      1.582       326.396     49.027      1.217       25.728      2.077       2.461       
121.9       -9999.25    -9999.25    -9999.25    35.729      17.482      24.997      23.851      28.103      49.144      -9999.25    -9999.25    -9999.25    -9999.25    -9999.25    -9999.25    -9999.25    -9999.25    
121.97      17.886      128.062     7.257       -9999.25    -9999.25    -9999.25    -9999.25    -9999.25    -9999.25    23.672      1.523       321.148     44.883      1.253       26.492      1.989       2.46        
122.0       -9999.25    -9999.25    -9999.25    32.13       17.531      22.984      28.199      33.169      65.733      -9999.25    -9999.25    -9999.25    -9999.25    -9999.25    -9999.25    -9999.25    -9999.25    
122.07      16.84       130.187     7.951       -9999.25    -9999.25    -9999.25    -9999.25    -9999.25    -9999.25    23.799      1.402       315.767     39.739      1.262       27.63       1.771       2.458       
122.1       -9999.25    -9999.25    -9999.25    29.267      18.918      26.067      34.41       37.522      100.316     -9999.25    -9999.25    -9999.25    -9999.25    -9999.25    -9999.25    -9999.25    -9999.25    
122.17      21.026      131.466     8.4         -9999.25    -9999.25    -9999.25    -9999.25    -9999.25    -9999.25    24.301      1.278       311.143     37.362      1.261       28.767      1.603       2.456       
122.2       -9999.25    -9999.25    -9999.25    26.271      22.326      34.992      42.486      44.598      154.453     -9999.25    -9999.25    -9999.25    -9999.25    -9999.25    -9999.25    -9999.25    -9999.25    
122.27      25.667      130.729     8.479       -9999.25    -9999.25    -9999.25    -9999.25    -9999.25    -9999.25    25.169      1.213       307.76      37.49       1.258       28.748      1.642       2.466       
