~Version Information Section
VERS.                                         2.0:CWLS log ASCII Standart – VERSION 2.0
WRAP.                                          NO:One line per depth step
~Well Information Section
STRT.M                                        2.1:Начальная глубина
STOP.M                                      196.8:Конечная глубина
STEP.M                                          0:Шаг квантования по глубине
NULL.                                    -9999.25:Признак "Нет данных"
WELL.                                       154Мх:Скважина
~Parameter Information Section
~Curve Information Section
DEPTH.M                                          :Глубина
BK.lgОмм                                         :BK     (БК)
DСР.мм                                           :DS  (ДС)
ГГКП.g/cm3                                       :GGKp
ГК.мкР/час                                       :GK          (ГК)
ГЗ1.Омм                                          :GZ1   ГЗ1(A0.4M0.1N)
ГЗ2.Омм                                          :GZ2   ГЗ2(A1.0M0.1N)
ГЗ3.Омм                                          :GZ3   ГЗ3(A2.0M0.5N)
ГЗ4.Oмм                                          :GZ4   ГЗ4(A4.0M0.5N)
ГЗ5.Oмм                                          :GZ5   ГЗ5(A8.0M0.5N)
ГЗК.Омм                                          :GZR   ГЗK(N0.5M2.0A)
ИК.мСм/м                                         :IK
НГК.усл.ед.                                      :NGK     (НГК)
РЕЗ.Омм                                          :RS (Резистивиметр)
W.                                               :W
ННКМ.усл.ед                                      :NNKm  (ННКм)
PS.мB                                            :PS       (ПС)
~ASCII LOG DATA
# ...
58.1        17.266      147.802     2.321       5.489       115.05      61.954      76.222      20.303      22.73       105.48      14.922      1.056       0.997       31.893      1.138       83.768      
58.2        16.296      147.517     2.287       5.545       115.05      61.434      75.782      20.183      22.73       104.44      14.784      1.046       0.999       33.268      1.135       83.951      
58.3        16.452      147.627     2.271       5.416       115.05      60.914      75.342      20.183      22.45       103.4       14.669      1.024       1.0         34.144      1.12        84.068      
58.4        17.061      148.087     2.24        5.633       114.63      60.914      75.342      20.063      22.31       102.36      14.527      0.996       1.0         34.624      1.103       84.197      
58.5        16.908      147.836     2.242       5.704       114.21      60.394      74.902      19.943      22.31       102.36      14.45       0.977       1.0         35.157      1.085       84.326      
58.6        16.275      147.619     2.262       5.99        113.79      60.394      74.462      19.823      22.31       101.32      14.36       0.955       1.001       35.944      1.065       84.48       
58.7        15.302      147.671     2.262       6.258       113.37      60.394      74.022      19.823      22.31       101.32      14.339      0.937       1.002       36.234      1.045       84.635      
58.8        14.328      148.164     2.25        6.313       112.95      60.394      74.022      19.703      22.31       99.24       14.217      0.96        1.004       36.353      1.027       84.764      
58.9        13.745      148.12      2.246       6.292       112.53      60.394      73.142      19.583      22.45       98.2        14.169      0.987       1.006       36.392      1.016       84.893      
59.0        13.712      148.296     2.275       6.125       112.53      60.394      73.142      19.583      22.59       98.2        14.271      0.991       1.008       36.343      1.012       85.009      
59.1        15.105      148.302     2.311       6.065       111.69      60.394      73.142      19.583      22.73       97.16       14.395      1.008       1.009       35.906      1.015       85.061      
59.2        18.351      150.013     2.347       6.152       111.69      60.394      73.142      19.583      22.87       97.16       14.444      1.04        1.009       35.63       1.024       85.087      
59.3        19.625      156.698     2.363       6.307       111.27      60.394      73.142      19.583      22.59       97.16       14.747      1.015       1.009       35.931      1.034       85.01       
59.4        18.15       167.279     2.317       6.384       109.59      60.914      73.142      19.583      22.31       97.16       14.806      1.01        1.01        36.962      1.035       84.883      
59.5        14.613      156.219     2.194       6.501       109.17      60.914      73.142      19.583      22.17       98.2        14.893      1.012       1.011       38.621      1.024       84.728      
59.6        13.045      153.814     2.068       6.414       108.75      60.914      72.702      19.583      22.03       98.2        14.902      1.023       1.012       39.986      0.995       84.496      
59.7        13.169      157.465     2.012       6.068       107.91      60.914      72.702      19.583      21.89       101.32      15.071      1.047       1.015       40.534      0.951       84.264      
59.8        13.65       167.62      2.05        5.788       107.91      60.914      71.382      19.583      21.89       101.32      15.213      1.091       1.016       38.899      0.93        84.005      
59.9        14.339      172.115     2.134       5.503       107.91      60.914      70.942      19.703      21.89       101.32      15.328      1.13        1.017       35.102      0.937       83.723      
60.0        15.348      179.233     2.215       5.116       107.49      59.874      70.942      19.703      21.89       100.28      15.551      1.149       1.018       32.137      0.958       83.491      
60.1        16.13       178.057     2.282       5.059       107.49      59.354      70.942      19.703      21.89       99.24       15.719      1.153       1.018       29.844      0.999       83.257      
60.2        17.219      168.354     2.289       4.903       107.49      59.354      70.942      19.703      21.89       99.24       15.884      1.176       1.018       28.325      1.062       83.026      
60.3        19.731      155.745     2.237       4.913       107.49      58.834      70.942      19.703      21.89       98.2        16.177      1.205       1.019       27.766      1.117       82.871      
60.4        24.587      151.545     2.192       5.03        107.49      58.314      70.942      19.703      21.89       97.16       16.456      1.229       1.021       28.034      1.152       82.716      
60.5        28.097      150.828     2.174       5.001       107.49      58.314      70.942      19.703      21.89       97.16       17.06       1.259       1.023       27.823      1.178       82.639      
60.6        27.404      150.018     2.147       4.618       107.49      58.314      71.382      19.703      21.89       97.16       17.339      1.291       1.025       27.532      1.197       82.562      
60.7        25.262      150.197     2.099       4.467       107.49      58.314      71.382      19.703      21.89       96.12       17.567      1.29        1.026       27.066      1.213       82.484      
60.8        28.379      150.614     2.072       4.194       107.91      58.314      71.822      19.703      22.03       96.12       17.809      1.298       1.026       26.848      1.222       82.458      
60.9        37.29       151.03      2.093       3.805       108.33      58.834      72.262      19.583      22.03       96.12       18.018      1.291       1.026       26.914      1.236       82.433      
61.0        45.623      150.99      2.138       3.761       108.75      59.354      72.262      19.583      22.17       96.12       18.267      1.258       1.026       27.292      1.256       82.407      
61.1        47.154      151.222     2.2         3.942       109.17      60.394      72.262      19.583      22.17       96.12       18.552      1.212       1.026       28.201      1.27        82.381      
61.2        42.083      151.767     2.257       4.153       109.59      60.394      72.702      19.583      22.31       96.12       18.484      1.189       1.026       29.758      1.27        82.355      
61.3        33.293      152.389     2.295       4.514       110.43      60.914      73.142      19.583      22.59       96.12       18.461      1.154       1.026       31.492      1.25        82.305      
61.4        24.869      152.611     2.288       4.609       110.85      61.954      73.582      19.583      22.73       96.12       18.299      1.117       1.026       33.259      1.213       82.254      
61.5        19.046      152.657     2.253       4.759       111.27      61.954      74.022      19.703      22.87       96.12       18.018      1.118       1.026       34.252      1.174       82.099      
61.6        16.715      152.888     2.222       4.983       111.27      62.474      74.022      19.703      23.01       96.12       17.926      1.1         1.026       34.636      1.14        81.895      
61.7        16.647      154.093     2.214       5.203       111.69      62.474      74.462      19.823      23.01       96.12       17.715      1.097       1.026       34.559      1.113       81.688      
61.8        18.091      155.002     2.221       5.248       111.69      63.514      74.462      19.943      23.15       100.28      17.475      1.075       1.026       34.735      1.099       81.431      
61.9        17.848      154.954     2.231       5.516       111.69      64.034      74.462      19.943      23.43       102.36      17.277      1.076       1.026       34.616      1.093       81.173      
62.0        16.621      155.016     2.245       5.477       110.85      64.554      74.902      20.063      23.57       105.48      17.112      1.045       1.026       34.702      1.085       80.964      
