~Version Information Section
VERS.                                         2.0:CWLS log ASCII Standart – VERSION 2.0
WRAP.                                          NO:One line per depth step
~Well Information Section
STRT.M                                        0.1:Начальная глубина
STOP.M                                      202.9:Конечная глубина
STEP.M                                          0:Шаг квантования по глубине
NULL.                                    -9999.25:Признак "Нет данных"
WELL.                                       155Мх:Скважина
~Parameter Information Section
~Curve Information Section
DEPTH.M                                          :Глубина
BK.Ohm*M                                         :BK     (БК)
DS.mm                                            :DS  (ДС)
GGK.g/cm3                                        :GGKp
ГК.mcr/h                                         :GK          (ГК)
GZ1.Ohm*M                                        :GZ1   ГЗ1(A0.4M0.1N)
GZ2.Ohm*M                                        :GZ2   ГЗ2(A1.0M0.1N)
GZ3.Ohm*M                                        :GZ3   ГЗ3(A2.0M0.5N)
GZ4.Ohm*M                                        :GZ4   ГЗ4(A4.0M0.5N)
GZ5.Ohm*M                                        :GZ5   ГЗ5(A8.0M0.5N)
GZR.                                             :GZR   ГЗK(N0.5M2.0A)
ИК.Ohm*M                                         :IK
НГК.ue                                           :NGK     (НГК)
NNKM.                                            :NNKm  (ННКм)
PS.mv                                            :PS       (ПС)
PZ.Ohm*M                                         :PZ    (КС)
RS.Ohm*M                                         :RS (Резистивиметр)
W.%                                              :W
~ASCII LOG DATA
# ...
18.6        66.053      200.997     2.219       2.451       66.001      55.711      47.842      47.639      38.456      57.611      25.676      0.793       1.162       63.137      40.777      1.206       31.021      
18.7        50.378      201.298     2.203       2.369       66.254      43.64       46.762      42.45       38.251      49.231      26.356      0.836       1.199       62.066      41.751      1.206       30.407      
18.8        45.281      199.769     2.184       2.37        71.338      38.123      41.279      33.684      36.768      36.809      27.144      0.866       1.199       61.139      40.822      1.206       30.734      
18.9        41.619      200.737     2.165       2.461       74.19       35.007      36.225      27.035      32.01       30.28       28.099      0.879       1.166       60.532      40.364      1.209       31.412      
19.0        38.31       207.746     2.148       2.648       72.712      34.626      33.98       22.916      25.234      27.129      28.84       0.883       1.118       60.427      42.94       1.217       32.16       
19.1        38.102      207.917     2.136       2.927       70.246      35.684      31.468      19.968      21.094      24.739      29.231      0.871       1.103       60.722      48.12       1.217       32.188      
19.2        37.081      202.5       2.131       3.281       66.519      36.867      27.86       18.3        19.146      23.363      28.996      0.846       1.097       61.324      53.795      1.211       31.424      
19.3        33.788      195.702     2.133       3.676       61.448      40.268      24.053      16.532      17.645      21.48       28.214      0.817       1.105       62.107      55.845      1.21        31.683      
19.4        28.396      194.976     2.142       4.118       52.836      40.219      21.56       15.006      16.911      20.108      27.28       0.799       1.091       62.732      54.032      1.208       32.283      
19.5        22.096      195.063     2.155       4.505       42.795      37.986      19.997      14.521      16.439      19.676      26.304      0.812       1.067       62.621      50.655      1.207       32.151      
19.6        19.818      194.926     2.173       4.758       37.129      44.255      19.141      14.391      16.064      19.41       25.242      0.847       1.02        61.633      46.359      1.207       32.398      
19.7        24.003      195.804     2.191       4.854       37.061      51.145      19.405      14.619      17.019      18.2        24.118      0.876       0.99        60.413      43.259      1.206       32.922      
19.8        33.174      194.271     2.208       4.86        36.894      48.52       20.651      15.37       20.434      17.355      23.172      0.881       1.003       59.733      42.207      1.206       32.25       
19.9        33.864      193.998     2.222       4.755       34.972      42.792      22.743      16.207      23.59       19.504      22.652      0.872       1.042       59.834      41.712      1.206       30.567      
20.0        30.043      193.885     2.232       4.527       35.643      40.446      28.58       18.967      24.928      24.558      22.29       0.874       1.099       60.432      40.267      1.206       29.175      
20.1        27.814      193.803     2.24        4.268       40.462      44.063      35.636      24.329      25.239      35.448      22.073      0.901       1.119       61.251      38.25       1.206       28.089      
20.2        26.703      193.857     2.245       4.082       60.708      70.31       39.692      28.767      24.766      43.684      22.064      0.941       1.15        62.358      37.16       1.206       27.085      
20.3        29.005      192.601     2.25        4.018       74.598      83.648      42.158      31.058      24.171      43.986      22.054      0.962       1.175       63.504      37.689      1.206       27.181      
20.4        29.804      191.491     2.254       4.107       57.894      51.844      42.916      31.802      23.937      42.784      21.919      0.957       1.198       64.165      39.301      1.206       29.016      
20.5        21.153      190.143     2.261       4.366       36.637      24.985      38.293      28.436      23.463      36.332      21.629      0.953       1.205       63.847      35.319      1.206       30.848      
20.6        17.7        189.866     2.269       4.729       26.761      18.735      28.368      20.313      22.833      28.958      21.281      0.966       1.175       63.155      27.632      1.206       31.915      
20.7        17.037      189.88      2.281       5.035       24.026      18.72       23.238      14.527      21.436      25.669      21.009      0.953       1.113       62.933      24.445      1.206       32.577      
20.8        18.957      191.484     2.294       5.153       29.338      22.942      24.621      13.944      16.19       24.696      20.741      0.9         1.063       63.562      23.936      1.206       31.739      
20.9        26.314      188.052     2.306       5.067       36.538      23.745      26.094      14.679      11.74       25.666      20.437      0.866       1.054       64.856      25.109      1.206       29.652      
21.0        28.511      187.652     2.315       4.881       34.937      20.32       25.662      15.274      11.486      26.955      20.202      0.884       1.073       66.557      27.689      1.206       28.079      
21.1        20.717      188.401     2.318       4.715       29.95       18.313      22.767      14.823      13.132      28.209      20.236      0.918       1.074       68.787      31.225      1.206       27.502      
21.2        19.83       192.317     2.313       4.659       28.178      17.873      20.455      13.749      16.37       28.968      20.387      0.927       1.065       71.006      32.299      1.206       28.015      
21.3        21.42       193.928     2.303       4.693       29.132      18.171      22.213      14.295      19.395      33.926      20.551      0.933       1.06        72.759      30.612      1.206       28.842      
21.4        20.598      194.983     2.29        4.703       27.266      22.498      27.521      18.446      22.205      43.98       20.744      0.959       1.058       73.672      29.908      1.206       28.164      
21.5        21.173      196.171     2.277       4.64        25.379      30.814      35.737      25.181      23.62       53.834      20.709      0.985       1.052       74.104      30.479      1.206       27.039      
21.6        29.513      191.349     2.265       4.518       30.22       40.986      44.943      31.58       24.202      62.281      20.498      1.0         1.065       74.494      32.615      1.206       25.456      
21.7        51.269      191.979     2.255       4.453       44.102      50.609      49.593      36.712      24.433      64.826      20.529      1.03        1.166       74.933      34.899      1.206       23.084      
21.8        85.49       196.671     2.244       4.549       64.359      59.45       47.373      37.528      24.588      54.273      20.91       1.082       1.271       75.29       36.509      1.206       22.325      
21.9        72.27       200.218     2.232       4.856       80.941      66.194      40.34       33.829      24.917      38.659      21.567      1.104       1.364       75.712      37.698      1.206       23.858      
22.0        32.239      199.182     2.219       5.349       75.761      48.71       28.722      27.96       24.204      28.978      22.355      1.069       1.37        76.631      37.51       1.206       26.335      
22.1        17.493      198.172     2.207       5.881       53.891      21.688      19.376      20.149      22.538      23.202      23.269      0.999       1.243       78.275      34.138      1.206       29.374      
22.2        14.093      204.858     2.2         6.297       38.46       13.739      14.17       13.085      20.41       20.09       23.782      0.938       1.109       79.837      30.343      1.215       31.95       
