~Version Information Section
VERS.                                         2.0:CWLS log ASCII Standart – VERSION 2.0
WRAP.                                          NO:One line per depth step
~Well Information Section
STRT.M                                       0.67:Начальная глубина
STOP.M                                     204.27:Конечная глубина
STEP.M                                          0:Шаг квантования по глубине
NULL.                                    -9999.25:Признак "Нет данных"
WELL.                                       110Мх:Скважина
~Parameter Information Section
~Curve Information Section
DEPTH.M                                          :Глубина
БК.Омм                                           :BK     (БК)
DСР.мм                                           :DS  (ДС)
ГК.гамма                                         :GK          (ГК)
А0.4М0.1N.Омм.ohmm                               :GZ1   ГЗ1(A0.4M0.1N)
А1.0М0.1N.Омм.ohmm                               :GZ2   ГЗ2(A1.0M0.1N)
А2.0М0.5N.Омм.ohmm                               :GZ3   ГЗ3(A2.0M0.5N)
А4.0М0.5N.Oмм.ohmm                               :GZ4   ГЗ4(A4.0M0.5N)
А8.0М1.0N.Омм.ohmm                               :GZ5   ГЗ5(A8.0M0.5N)
N0.5M2.0A.Омм.ohmm                               :GZK   ГЗK(N0.5M2.0A)
ИК.мСм/м                                         :IK
НГК.усл.ед                                       :NGK     (НГК)
ПС.mv                                            :PS       (ПС)
КС.Омм                                           :PZ    (КС)
R.Омм                                            :RS (Резистивиметр)
W_SI.%                                           :п
ННКМ.имп/1,25с                                   :ННКм
ПЛОТНОСТЬГГК.г/см3                               :плотностьГГК
~ASCII LOG DATA
# ...
20.57       21.477      134.994     6.132       -9999.25    -9999.25    -9999.25    -9999.25    -9999.25    -9999.25    18.684      1.215       392.828     27.502      0.96        25.58       1.631       2.448       
20.6        -9999.25    -9999.25    -9999.25    36.464      37.856      33.504      26.808      8.423       44.822      -9999.25    -9999.25    -9999.25    -9999.25    -9999.25    -9999.25    -9999.25    -9999.25    
20.67       24.514      134.301     6.027       -9999.25    -9999.25    -9999.25    -9999.25    -9999.25    -9999.25    19.379      1.274       392.894     26.771      0.96        24.655      1.618       2.454       
20.7        -9999.25    -9999.25    -9999.25    43.713      40.359      37.811      21.854      9.255       57.117      -9999.25    -9999.25    -9999.25    -9999.25    -9999.25    -9999.25    -9999.25    -9999.25    
20.77       38.466      133.8       5.523       -9999.25    -9999.25    -9999.25    -9999.25    -9999.25    -9999.25    20.214      1.323       393.146     27.777      0.96        24.63       1.824       2.46        
20.8        -9999.25    -9999.25    -9999.25    54.778      43.826      38.232      17.25       9.962       61.992      -9999.25    -9999.25    -9999.25    -9999.25    -9999.25    -9999.25    -9999.25    -9999.25    
20.87       57.381      134.053     5.127       -9999.25    -9999.25    -9999.25    -9999.25    -9999.25    -9999.25    20.815      1.419       393.532     30.509      0.959       24.966      1.947       2.468       
20.9        -9999.25    -9999.25    -9999.25    72.051      47.715      34.864      12.994      11.146      51.491      -9999.25    -9999.25    -9999.25    -9999.25    -9999.25    -9999.25    -9999.25    -9999.25    
20.97       71.258      134.283     5.087       -9999.25    -9999.25    -9999.25    -9999.25    -9999.25    -9999.25    20.895      1.477       393.889     32.986      0.962       25.025      2.005       2.475       
21.0        -9999.25    -9999.25    -9999.25    73.97       38.198      30.526      12.412      11.718      33.749      -9999.25    -9999.25    -9999.25    -9999.25    -9999.25    -9999.25    -9999.25    -9999.25    
21.07       73.778      134.809     5.43        -9999.25    -9999.25    -9999.25    -9999.25    -9999.25    -9999.25    20.479      1.45        394.052     33.685      0.967       24.875      2.056       2.481       
21.1        -9999.25    -9999.25    -9999.25    54.006      22.033      24.927      11.829      11.608      21.747      -9999.25    -9999.25    -9999.25    -9999.25    -9999.25    -9999.25    -9999.25    -9999.25    
21.17       48.543      135.535     6.123       -9999.25    -9999.25    -9999.25    -9999.25    -9999.25    -9999.25    19.833      1.356       393.924     33.619      0.962       24.554      1.935       2.485       
21.2        -9999.25    -9999.25    -9999.25    38.52       14.834      18.148      13.365      10.961      17.121      -9999.25    -9999.25    -9999.25    -9999.25    -9999.25    -9999.25    -9999.25    -9999.25    
21.27       25.344      136.193     6.496       -9999.25    -9999.25    -9999.25    -9999.25    -9999.25    -9999.25    19.342      1.288       393.497     33.136      0.96        24.3        1.743       2.484       
21.3        -9999.25    -9999.25    -9999.25    38.75       16.829      14.253      19.277      11.747      13.036      -9999.25    -9999.25    -9999.25    -9999.25    -9999.25    -9999.25    -9999.25    -9999.25    
21.37       18.392      136.366     7.019       -9999.25    -9999.25    -9999.25    -9999.25    -9999.25    -9999.25    19.137      1.278       392.888     31.348      0.96        24.388      1.676       2.483       
21.4        -9999.25    -9999.25    -9999.25    39.372      19.121      14.789      29.074      11.717      10.673      -9999.25    -9999.25    -9999.25    -9999.25    -9999.25    -9999.25    -9999.25    -9999.25    
21.47       21.125      134.511     7.101       -9999.25    -9999.25    -9999.25    -9999.25    -9999.25    -9999.25    19.17       1.304       392.295     29.667      0.96        24.888      1.638       2.482       
21.5        -9999.25    -9999.25    -9999.25    35.658      19.95       20.467      37.64       12.249      14.539      -9999.25    -9999.25    -9999.25    -9999.25    -9999.25    -9999.25    -9999.25    -9999.25    
21.57       28.307      133.269     6.908       -9999.25    -9999.25    -9999.25    -9999.25    -9999.25    -9999.25    19.358      1.334       391.895     30.084      0.96        25.359      1.623       2.483       
21.6        -9999.25    -9999.25    -9999.25    30.135      20.928      29.471      42.305      12.911      24.339      -9999.25    -9999.25    -9999.25    -9999.25    -9999.25    -9999.25    -9999.25    -9999.25    
21.67       33.263      132.706     6.478       -9999.25    -9999.25    -9999.25    -9999.25    -9999.25    -9999.25    19.666      1.338       391.739     32.466      0.96        25.128      1.771       2.483       
21.7        -9999.25    -9999.25    -9999.25    34.302      36.554      37.193      44.536      13.227      32.505      -9999.25    -9999.25    -9999.25    -9999.25    -9999.25    -9999.25    -9999.25    -9999.25    
21.77       31.83       132.593     6.044       -9999.25    -9999.25    -9999.25    -9999.25    -9999.25    -9999.25    20.058      1.338       391.802     35.663      0.96        24.701      1.835       2.478       
21.8        -9999.25    -9999.25    -9999.25    55.908      64.507      41.531      46.378      12.963      35.73       -9999.25    -9999.25    -9999.25    -9999.25    -9999.25    -9999.25    -9999.25    -9999.25    
21.87       32.32       132.413     6.0         -9999.25    -9999.25    -9999.25    -9999.25    -9999.25    -9999.25    20.496      1.359       392.12      38.432      0.96        24.484      1.834       2.471       
21.9        -9999.25    -9999.25    -9999.25    75.833      79.159      42.752      44.408      12.538      36.741      -9999.25    -9999.25    -9999.25    -9999.25    -9999.25    -9999.25    -9999.25    -9999.25    
21.97       53.713      131.942     5.991       -9999.25    -9999.25    -9999.25    -9999.25    -9999.25    -9999.25    20.876      1.414       392.715     39.269      0.96        24.345      1.834       2.464       
22.0        -9999.25    -9999.25    -9999.25    77.417      68.544      39.261      35.048      12.161      35.285      -9999.25    -9999.25    -9999.25    -9999.25    -9999.25    -9999.25    -9999.25    -9999.25    
22.07       95.348      132.066     5.891       -9999.25    -9999.25    -9999.25    -9999.25    -9999.25    -9999.25    21.074      1.464       393.5       38.834      0.96        24.916      1.894       2.451       
22.1        -9999.25    -9999.25    -9999.25    60.814      43.649      31.249      21.945      11.882      29.683      -9999.25    -9999.25    -9999.25    -9999.25    -9999.25    -9999.25    -9999.25    -9999.25    
22.17       89.112      132.495     5.667       -9999.25    -9999.25    -9999.25    -9999.25    -9999.25    -9999.25    21.062      1.486       394.237     38.977      0.96        25.9        1.974       2.433       
22.2        -9999.25    -9999.25    -9999.25    50.993      26.091      23.151      13.144      11.241      21.693      -9999.25    -9999.25    -9999.25    -9999.25    -9999.25    -9999.25    -9999.25    -9999.25    
22.27       52.96       132.667     5.725       -9999.25    -9999.25    -9999.25    -9999.25    -9999.25    -9999.25    20.863      1.444       394.65      39.478      0.959       26.974      1.899       2.41        
22.3        -9999.25    -9999.25    -9999.25    50.625      18.973      16.071      10.272      9.122       14.666      -9999.25    -9999.25    -9999.25    -9999.25    -9999.25    -9999.25    -9999.25    -9999.25    
22.37       33.02       132.974     6.045       -9999.25    -9999.25    -9999.25    -9999.25    -9999.25    -9999.25    20.603      1.335       394.625     38.133      1.043       28.061      1.716       2.389       
