~Version Information Section
VERS.                                         2.0:CWLS log ASCII Standart – VERSION 2.0
WRAP.                                          NO:One line per depth step
~Well Information Section
STRT.M                                        1.2:Начальная глубина
STOP.M                                      208.4:Конечная глубина
STEP.M                                          0:Шаг квантования по глубине
NULL.                                    -9999.25:Признак "Нет данных"
WELL.                                       109Мх:Скважина
~Parameter Information Section
~Curve Information Section
DEPTH.M                                          :Глубина
BK.Ohm*M                                         :BK     (БК)
DS.mm                                            :DS  (ДС)
GGK.g/cm3                                        :GGKp
ГК.mcr/h                                         :GK          (ГК)
GZ1.Ohm*M                                        :GZ1   ГЗ1(A0.4M0.1N)
GZ2.Ohm*M                                        :GZ2   ГЗ2(A1.0M0.1N)
GZ3.Ohm*M                                        :GZ3   ГЗ3(A2.0M0.5N)
GZ4.Ohm*M                                        :GZ4   ГЗ4(A4.0M0.5N)
GZ5.Ohm*M                                        :GZ5   ГЗ5(A8.0M0.5N)
GZR.Ohm*M                                        :GZK   ГЗK(N0.5M2.0A)
ИК.Ohm*M                                         :IK
НГК.u.e.                                         :NGK
NNKM.                                            :NNKm  (ННКм)
U1.mV                                            :U1
U2.mV                                            :U2
U3.mV                                            :U3
КП.%                                             :Кп
PS.mv                                            :PS       (ПС)
PZ.Ohm*M                                         :PZ    (КС)
RS.Ohm*M                                         :RS (Резистивиметр)
~ASCII LOG DATA
# ...
199.6       27.29       122.566     2.3         7.285       -9999.25    -9999.25    -9999.25    -9999.25    -9999.25    -9999.25    6.615       1.276       2.4         1888.87     1477.217    1296.954    23.325      1095.149    133.499     -9999.25    
199.7       23.823      122.368     2.248       7.405       -9999.25    -9999.25    -9999.25    -9999.25    -9999.25    -9999.25    6.615       1.269       2.401       1544.099    1270.188    1204.108    24.117      1093.645    133.643     -9999.25    
199.8       23.988      122.382     2.243       7.145       -9999.25    -9999.25    -9999.25    -9999.25    -9999.25    -9999.25    6.615       1.309       2.397       1222.872    1020.271    1029.689    24.763      1092.218    133.859     -9999.25    
199.9       23.878      122.439     2.258       7.212       -9999.25    -9999.25    -9999.25    -9999.25    -9999.25    -9999.25    6.583       1.343       2.382       989.082     759.923     777.773     25.747      1090.861    134.076     -9999.25    
200.0       22.594      122.485     2.293       7.05        -9999.25    -9999.25    -9999.25    -9999.25    -9999.25    -9999.25    6.583       1.389       2.322       843.579     542.81      529.498     26.204      1090.048    134.436     -9999.25    
200.1       24.099      122.524     2.312       6.716       -9999.25    -9999.25    -9999.25    -9999.25    -9999.25    -9999.25    6.583       1.429       2.274       758.496     452.26      431.973     26.481      1089.252    134.941     -9999.25    
200.2       25.293      122.408     2.334       5.909       -9999.25    -9999.25    -9999.25    -9999.25    -9999.25    -9999.25    9.427       1.483       2.381       725.813     484.868     488.437     26.302      1088.485    135.446     -9999.25    
200.3       28.379      122.114     2.337       5.224       -9999.25    -9999.25    -9999.25    -9999.25    -9999.25    -9999.25    9.44        1.496       2.487       728.118     569.727     607.641     24.173      1087.752    135.95      -9999.25    
200.4       44.771      122.13      2.292       4.82        -9999.25    -9999.25    -9999.25    -9999.25    -9999.25    -9999.25    9.427       1.476       2.678       723.376     615.804     681.79      21.807      1087.048    136.455     -9999.25    
200.5       69.984      122.823     2.261       4.609       -9999.25    -9999.25    -9999.25    -9999.25    -9999.25    -9999.25    9.336       1.449       2.868       689.951     611.061     705.639     20.262      1086.367    136.743     -9999.25    
200.6       66.527      123.247     2.247       -9999.25    -9999.25    -9999.25    -9999.25    -9999.25    -9999.25    -9999.25    9.249       1.436       2.796       649.913     592.26      711.998     20.881      1085.716    136.96      -9999.25    
200.7       57.016      122.887     2.285       -9999.25    -9999.25    -9999.25    -9999.25    -9999.25    -9999.25    -9999.25    9.099       1.436       2.705       646.697     589.078     709.553     20.947      1085.085    137.176     -9999.25    
200.8       -9999.25    122.989     2.31        -9999.25    -9999.25    -9999.25    -9999.25    -9999.25    -9999.25    -9999.25    8.926       1.423       2.751       689.554     607.401     700.514     19.565      1084.496    137.465     -9999.25    
200.9       -9999.25    123.37      2.361       -9999.25    -9999.25    -9999.25    -9999.25    -9999.25    -9999.25    -9999.25    8.394       1.396       2.83        743.047     627.309     684.111     18.368      1083.945    137.681     -9999.25    
201.0       -9999.25    123.443     2.419       -9999.25    -9999.25    -9999.25    -9999.25    -9999.25    -9999.25    -9999.25    8.325       1.309       2.743       772.699     633.941     668.44      18.897      -9999.25    137.897     -9999.25    
201.1       -9999.25    122.935     2.461       -9999.25    -9999.25    -9999.25    -9999.25    -9999.25    -9999.25    -9999.25    8.256       1.223       2.571       778.563     646.129     692.227     20.407      -9999.25    137.897     -9999.25    
201.2       -9999.25    122.288     2.432       -9999.25    -9999.25    -9999.25    -9999.25    -9999.25    -9999.25    -9999.25    8.216       1.149       2.447       782.199     690.636     787.477     22.786      -9999.25    137.753     -9999.25    
201.3       -9999.25    122.144     2.391       -9999.25    -9999.25    -9999.25    -9999.25    -9999.25    -9999.25    -9999.25    8.17        1.136       2.311       851.556     782.464     914.536     24.497      -9999.25    137.609     -9999.25    
201.4       -9999.25    122.08      2.382       -9999.25    -9999.25    -9999.25    -9999.25    -9999.25    -9999.25    -9999.25    8.094       1.143       2.223       1034.372    911.459     1000.948    26.24       -9999.25    137.465     -9999.25    
201.5       -9999.25    122.435     2.392       -9999.25    -9999.25    -9999.25    -9999.25    -9999.25    -9999.25    -9999.25    8.044       1.163       2.193       1242.476    1022.831    1017.753    26.778      -9999.25    137.32      -9999.25    
201.6       -9999.25    122.727     2.402       -9999.25    -9999.25    -9999.25    -9999.25    -9999.25    -9999.25    -9999.25    7.986       1.209       2.162       1338.345    1068.076    1002.747    27.482      -9999.25    137.176     -9999.25    
201.7       -9999.25    122.106     2.353       -9999.25    -9999.25    -9999.25    -9999.25    -9999.25    -9999.25    -9999.25    7.943       1.243       2.116       1288.252    1041.573    984.653     27.799      -9999.25    137.032     -9999.25    
201.8       -9999.25    122.158     2.383       -9999.25    -9999.25    -9999.25    -9999.25    -9999.25    -9999.25    -9999.25    -9999.25    1.256       2.078       1189.056    983.394     956.009     28.639      -9999.25    136.888     -9999.25    
201.9       -9999.25    122.286     2.393       -9999.25    -9999.25    -9999.25    -9999.25    -9999.25    -9999.25    -9999.25    -9999.25    1.246       2.074       1109.983    922.206     908.849     29.224      -9999.25    136.744     -9999.25    
202.0       -9999.25    122.578     2.4         -9999.25    -9999.25    -9999.25    -9999.25    -9999.25    -9999.25    -9999.25    -9999.25    -9999.25    2.071       1040.589    854.6       845.504     28.78       -9999.25    136.671     -9999.25    
202.1       -9999.25    123.007     2.375       -9999.25    -9999.25    -9999.25    -9999.25    -9999.25    -9999.25    -9999.25    -9999.25    -9999.25    2.171       979.387     769.842     755.738     27.514      -9999.25    136.599     -9999.25    
202.2       -9999.25    123.095     2.36        -9999.25    -9999.25    -9999.25    -9999.25    -9999.25    -9999.25    -9999.25    -9999.25    -9999.25    2.27        940.25      667.25      632.408     25.928      -9999.25    136.599     -9999.25    
202.3       -9999.25    122.789     2.385       -9999.25    -9999.25    -9999.25    -9999.25    -9999.25    -9999.25    -9999.25    -9999.25    -9999.25    2.247       920.953     551.643     483.385     25.291      -9999.25    136.599     -9999.25    
202.4       -9999.25    123.065     2.367       -9999.25    -9999.25    -9999.25    -9999.25    -9999.25    -9999.25    -9999.25    -9999.25    -9999.25    2.217       881.594     434.44      345.556     24.527      -9999.25    136.599     -9999.25    
202.5       -9999.25    123.221     2.391       -9999.25    -9999.25    -9999.25    -9999.25    -9999.25    -9999.25    -9999.25    -9999.25    -9999.25    2.193       808.908     331.151     245.874     24.049      -9999.25    136.671     -9999.25    
202.6       -9999.25    123.138     2.421       -9999.25    -9999.25    -9999.25    -9999.25    -9999.25    -9999.25    -9999.25    -9999.25    -9999.25    2.17        750.118     282.673     209.293     23.576      -9999.25    137.032     -9999.25    
202.7       -9999.25    123.022     2.38        -9999.25    -9999.25    -9999.25    -9999.25    -9999.25    -9999.25    -9999.25    -9999.25    -9999.25    2.118       737.615     298.316     228.571     23.387      -9999.25    137.897     -9999.25    
