~Version Information Section
VERS.                                         2.0:CWLS log ASCII Standart – VERSION 2.0
WRAP.                                          NO:One line per depth step
~Well Information Section
STRT.M                                       1.07:Начальная глубина
STOP.M                                     192.17:Конечная глубина
STEP.M                                          0:Шаг квантования по глубине
NULL.                                    -9999.25:Признак "Нет данных"
WELL.                                        151К:Скважина
~Parameter Information Section
~Curve Information Section
DEPTH.M                                          :Глубина
BK.Ohm*M                                         :BK     (БК)
DS.mm                                            :DS  (ДС)
GGK.g/cm3                                        :GGKp
ГК.mcr/h                                         :GK          (ГК)
GZ1.Ohm*M                                        :GZ1   ГЗ1(A0.4M0.1N)
GZ2.Ohm*M                                        :GZ2   ГЗ2(A1.0M0.1N)
GZ3.Ohm*M                                        :GZ3   ГЗ3(A2.0M0.5N)
GZ4.Ohm*M                                        :GZ4   ГЗ4(A4.0M0.5N)
GZ5.Ohm*M                                        :GZ5   ГЗ5(A8.0M0.5N)
GZR.                                             :GZR   ГЗK(N0.5M2.0A)
ИК.Ohm*M                                         :IK
НГК.ue                                           :NGK     (НГК)
NNKM.                                            :NNKm  (ННКм)
PS.mv                                            :PS       (ПС)
PZ.Ohm*M                                         :PZ    (КС)
RS.Ohm*M                                         :RS (Резистивиметр)
W.%                                              :W
~ASCII LOG DATA
# ...
146.07      22.591      149.905     2.213       9.544       -9999.25    -9999.25    -9999.25    -9999.25    -9999.25    -9999.25    20.83       0.921       1.259       478.423     50.43       1.156       35.931      
146.1       -9999.25    -9999.25    -9999.25    -9999.25    30.319      22.791      19.562      19.985      25.513      17.56       -9999.25    -9999.25    -9999.25    -9999.25    -9999.25    -9999.25    -9999.25    
146.17      40.854      150.222     2.224       8.184       -9999.25    -9999.25    -9999.25    -9999.25    -9999.25    -9999.25    21.361      0.923       1.342       474.185     64.983      1.154       34.319      
146.2       -9999.25    -9999.25    -9999.25    -9999.25    45.209      25.988      20.619      20.655      28.116      16.049      -9999.25    -9999.25    -9999.25    -9999.25    -9999.25    -9999.25    -9999.25    
146.27      58.504      150.699     2.232       6.824       -9999.25    -9999.25    -9999.25    -9999.25    -9999.25    -9999.25    22.204      0.917       1.425       470.098     81.13       1.155       32.491      
146.3       -9999.25    -9999.25    -9999.25    -9999.25    67.105      28.14       21.695      21.465      30.435      15.579      -9999.25    -9999.25    -9999.25    -9999.25    -9999.25    -9999.25    -9999.25    
146.37      73.898      150.783     2.24        5.677       -9999.25    -9999.25    -9999.25    -9999.25    -9999.25    -9999.25    23.614      0.906       1.461       467.229     95.298      1.155       30.739      
146.4       -9999.25    -9999.25    -9999.25    -9999.25    86.925      29.901      23.089      22.7        33.849      15.81       -9999.25    -9999.25    -9999.25    -9999.25    -9999.25    -9999.25    -9999.25    
146.47      85.718      150.687     2.248       5.444       -9999.25    -9999.25    -9999.25    -9999.25    -9999.25    -9999.25    25.633      0.909       1.476       465.81      105.359     1.152       29.636      
146.5       -9999.25    -9999.25    -9999.25    -9999.25    101.25      33.022      24.362      23.982      38.618      16.357      -9999.25    -9999.25    -9999.25    -9999.25    -9999.25    -9999.25    -9999.25    
146.57      85.819      150.503     2.257       5.21        -9999.25    -9999.25    -9999.25    -9999.25    -9999.25    -9999.25    27.968      0.948       1.503       466.499     110.786     1.152       28.86       
146.6       -9999.25    -9999.25    -9999.25    -9999.25    118.686     38.998      25.564      25.918      44.645      17.487      -9999.25    -9999.25    -9999.25    -9999.25    -9999.25    -9999.25    -9999.25    
146.67      81.54       150.624     2.264       5.329       -9999.25    -9999.25    -9999.25    -9999.25    -9999.25    -9999.25    30.454      0.996       1.539       468.459     116.331     1.159       28.029      
146.7       -9999.25    -9999.25    -9999.25    -9999.25    127.943     45.116      27.443      29.544      51.561      19.414      -9999.25    -9999.25    -9999.25    -9999.25    -9999.25    -9999.25    -9999.25    
146.77      84.484      150.708     2.27        5.786       -9999.25    -9999.25    -9999.25    -9999.25    -9999.25    -9999.25    32.673      1.029       1.578       470.921     125.702     1.162       26.965      
146.8       -9999.25    -9999.25    -9999.25    -9999.25    111.248     48.633      29.656      34.236      60.423      21.769      -9999.25    -9999.25    -9999.25    -9999.25    -9999.25    -9999.25    -9999.25    
146.87      87.8        149.744     2.273       6.242       -9999.25    -9999.25    -9999.25    -9999.25    -9999.25    -9999.25    34.479      1.024       1.584       473.102     137.191     1.159       25.794      
146.9       -9999.25    -9999.25    -9999.25    -9999.25    95.025      57.696      32.214      39.268      71.844      24.639      -9999.25    -9999.25    -9999.25    -9999.25    -9999.25    -9999.25    -9999.25    
146.97      72.338      149.369     2.272       6.302       -9999.25    -9999.25    -9999.25    -9999.25    -9999.25    -9999.25    35.812      1.012       1.562       474.5       148.417     1.154       24.62       
147.0       -9999.25    -9999.25    -9999.25    -9999.25    98.187      75.266      36.152      45.522      87.139      27.751      -9999.25    -9999.25    -9999.25    -9999.25    -9999.25    -9999.25    -9999.25    
147.07      57.974      149.494     2.269       6.16        -9999.25    -9999.25    -9999.25    -9999.25    -9999.25    -9999.25    36.672      1.01        1.533       474.677     158.487     1.15        24.265      
147.1       -9999.25    -9999.25    -9999.25    -9999.25    110.234     98.87       42.746      53.322      107.741     31.357      -9999.25    -9999.25    -9999.25    -9999.25    -9999.25    -9999.25    -9999.25    
147.17      67.395      150.212     2.265       6.0         -9999.25    -9999.25    -9999.25    -9999.25    -9999.25    -9999.25    37.193      1.029       1.54        473.232     168.818     1.148       24.621      
147.2       -9999.25    -9999.25    -9999.25    -9999.25    126.495     123.947     51.686      62.498      126.126     35.585      -9999.25    -9999.25    -9999.25    -9999.25    -9999.25    -9999.25    -9999.25    
147.27      101.42      150.482     2.263       5.849       -9999.25    -9999.25    -9999.25    -9999.25    -9999.25    -9999.25    37.234      1.05        1.564       471.008     181.427     1.149       25.17       
147.3       -9999.25    -9999.25    -9999.25    -9999.25    144.36      143.598     63.613      74.683      151.292     41.098      -9999.25    -9999.25    -9999.25    -9999.25    -9999.25    -9999.25    -9999.25    
147.37      142.665     150.675     2.264       5.717       -9999.25    -9999.25    -9999.25    -9999.25    -9999.25    -9999.25    36.839      1.072       1.589       469.184     193.34      1.15        25.281      
147.4       -9999.25    -9999.25    -9999.25    -9999.25    161.15      161.637     77.852      92.589      182.241     49.249      -9999.25    -9999.25    -9999.25    -9999.25    -9999.25    -9999.25    -9999.25    
147.47      152.632     150.802     2.269       5.766       -9999.25    -9999.25    -9999.25    -9999.25    -9999.25    -9999.25    36.182      1.094       1.597       468.845     199.867     1.148       24.995      
147.5       -9999.25    -9999.25    -9999.25    -9999.25    173.938     191.103     94.233      116.316     209.045     59.252      -9999.25    -9999.25    -9999.25    -9999.25    -9999.25    -9999.25    -9999.25    
147.57      134.21      150.283     2.277       6.365       -9999.25    -9999.25    -9999.25    -9999.25    -9999.25    -9999.25    35.282      1.121       1.598       469.669     197.836     1.139       24.551      
147.6       -9999.25    -9999.25    -9999.25    -9999.25    189.033     234.936     112.649     142.055     228.35      68.511      -9999.25    -9999.25    -9999.25    -9999.25    -9999.25    -9999.25    -9999.25    
147.67      117.294     150.132     2.287       6.964       -9999.25    -9999.25    -9999.25    -9999.25    -9999.25    -9999.25    34.025      1.162       1.62        471.208     180.56      1.13        23.622      
147.7       -9999.25    -9999.25    -9999.25    -9999.25    220.665     292.194     130.469     165.407     231.14      76.285      -9999.25    -9999.25    -9999.25    -9999.25    -9999.25    -9999.25    -9999.25    
147.77      120.323     150.671     2.296       7.812       -9999.25    -9999.25    -9999.25    -9999.25    -9999.25    -9999.25    32.538      1.217       1.661       472.877     151.032     1.129       22.331      
147.8       -9999.25    -9999.25    -9999.25    -9999.25    275.731     371.117     144.092     179.946     227.037     80.261      -9999.25    -9999.25    -9999.25    -9999.25    -9999.25    -9999.25    -9999.25    
147.87      162.686     151.246     2.301       8.431       -9999.25    -9999.25    -9999.25    -9999.25    -9999.25    -9999.25    30.856      1.254       1.705       474.627     111.171     1.14        21.198      
