~Version Information Section
VERS.                                         2.0:CWLS log ASCII Standart – VERSION 2.0
WRAP.                                          NO:One line per depth step
~Well Information Section
STRT.M                                        0.6:Начальная глубина
STOP.M                                      143.2:Конечная глубина
STEP.M                                          0:Шаг квантования по глубине
NULL.                                    -9999.25:Признак "Нет данных"
WELL.                                       116Мх:Скважина
~Parameter Information Section
~Curve Information Section
DEPTH.M                                          :Глубина
BK.lgОмм                                         :BK     (БК)
ПРОФ_СР.мм                                       :DS  (ДС)
ГК.мкР/час                                       :GK          (ГК)
ГЗ1.Омм                                          :GZ1   ГЗ1(A0.4M0.1N)
ГЗ2.Омм                                          :GZ2   ГЗ2(A1.0M0.1N)
ГЗ3.Омм                                          :GZ3   ГЗ3(A2.0M0.5N)
ГЗ4.Oмм                                          :GZ4   ГЗ4(A4.0M0.5N)
ГЗ5.Oмм                                          :GZ5   ГЗ5(A8.0M0.5N)
ГЗК.Омм                                          :GZK   ГЗK(N0.5M2.0A)
ИК.мСм/м                                         :IK
НГК.усл.ед.                                      :NGK     (НГК)
ПС.мВ                                            :PS       (ПС)
PZ.Омм                                           :PZ    (КС)
RIS.Омм                                          :RS (Резистивиметр)
U1.мВ                                            :U1
U2.mV                                            :U2
U3.мВ                                            :U3
W.г/см3                                          :ГГКп
П.%                                              :п
ННКМ.усл.ед                                      :ННКм
~ASCII LOG DATA
# ...
74.2        81.47       165.717     5.357       111.638     178.998     122.875     157.075     62.807      128.855     29.614      1.226       197.12      175.333     1.125       576.667     810.0       770.0       2.381       30.449      2.12        
74.3        81.47       165.605     5.215       111.37      178.998     128.843     157.075     62.807      132.947     29.582      1.255       197.12      174.993     1.125       580.0       810.0       763.333     2.37        30.681      2.193       
74.4        84.333      165.537     5.013       110.185     178.955     134.651     157.075     62.807      136.856     29.582      1.209       197.12      174.667     1.125       580.0       810.0       756.667     2.383       30.286      2.269       
74.5        84.333      165.622     4.97        108.325     177.99      139.579     155.581     62.284      140.208     29.613      1.16        197.12      174.341     1.125       580.0       813.333     750.0       2.384       29.728      2.23        
74.6        78.886      165.873     5.104       106.117     175.859     142.699     151.837     61.262      142.504     29.613      1.156       197.12      173.941     1.125       570.0       816.667     740.0       2.402       29.993      2.192       
74.7        79.799      166.691     5.241       103.682     171.654     144.059     146.39      60.088      143.433     29.741      1.205       197.12      173.022     1.125       553.333     820.0       740.0       2.426       30.341      2.198       
74.8        79.799      165.568     5.173       101.165     165.462     144.379     139.946     59.005      143.433     29.837      1.228       197.12      170.948     1.125       533.333     820.0       773.333     2.407       29.812      2.199       
74.9        76.208      163.37      4.925       98.723      157.427     144.379     132.829     58.082      143.433     29.837      1.241       197.12      167.2       1.125       516.667     820.0       806.667     2.393       28.998      2.183       
75.0        88.716      162.209     4.639       96.484      148.124     144.379     125.158     57.323      142.8       30.098      1.259       197.12      162.37      1.125       516.667     816.667     840.0       2.392       27.796      2.183       
75.1        151.356     162.163     4.235       94.529      137.252     142.091     117.018     56.696      140.528     30.736      1.291       197.12      157.57      1.125       530.0       806.667     840.0       2.397       27.38       2.212       
75.2        151.356     162.109     3.985       92.89       126.596     137.723     108.333     56.134      136.65      30.769      1.284       197.12      153.793     1.125       550.0       796.667     830.0       2.399       27.94       2.241       
75.3        148.252     162.167     4.058       91.539      116.819     131.675     99.45       55.594      131.511     30.769      1.247       197.12      151.022     1.125       563.333     796.667     820.0       2.398       28.256      2.267       
75.4        81.47       162.194     4.395       90.403      108.049     123.851     90.714      55.056      125.473     30.802      1.22        197.12      148.222     1.125       563.333     800.0       810.0       2.376       28.314      2.343       
75.5        81.47       161.943     4.637       89.379      99.409      113.947     82.483      54.517      119.001     30.666      1.214       197.234     144.193     1.125       553.333     810.0       800.0       2.342       28.547      2.438       
75.6        53.827      161.881     4.652       88.346      92.209      104.731     75.245      53.995      112.591     30.666      1.208       197.576     137.985     1.125       540.0       813.333     790.0       2.328       28.723      2.412       
75.7        73.79       162.117     4.577       87.163      85.729      96.187      69.44       53.507      106.756     30.976      1.192       198.375     130.667     1.125       530.0       813.333     780.0       2.332       28.722      2.344       
75.8        73.79       162.243     4.437       85.69       79.623      88.427      65.088      53.066      101.894     30.976      1.174       199.516     123.941     1.125       523.333     813.333     773.333     2.329       28.201      2.284       
75.9        89.95       162.327     4.371       83.796      73.82       81.499      62.01       52.652      98.18       31.081      1.185       200.999     119.526     1.125       523.333     823.333     770.0       2.337       26.934      2.241       
76.0        93.756      162.608     4.358       81.383      69.673      75.963      60.016      52.219      95.572      31.115      1.211       202.481     117.156     1.125       526.667     826.667     770.0       2.344       26.361      2.256       
76.1        93.756      162.972     4.386       78.401      66.433      71.387      58.768      51.688      93.904      31.115      1.229       204.079     115.911     1.125       536.667     826.667     813.333     2.342       26.288      2.306       
76.2        103.514     163.17      4.381       74.884      63.985      67.771      57.974      50.968      92.916      30.906      1.236       205.676     114.874     1.125       553.333     840.0       853.333     2.349       27.137      2.369       
76.3        103.514     163.132     4.405       70.944      62.286      65.195      57.446      49.945      92.343      30.666      1.259       207.501     113.793     1.125       563.333     836.667     893.333     2.363       27.878      2.41        
76.4        42.462      163.302     4.404       66.768      61.321      63.611      57.088      48.56       91.989      30.363      1.299       209.326     112.726     1.125       570.0       836.667     893.333     2.37        28.0        2.41        
76.5        45.709      163.722     4.477       62.584      60.486      62.715      56.813      46.822      91.733      30.363      1.317       210.923     111.867     1.125       570.0       840.0       886.667     2.374       28.594      2.349       
76.6        65.917      164.086     4.436       58.638      59.795      61.883      56.595      44.809      91.503      30.065      1.301       211.95      111.437     1.125       570.0       840.0       876.667     2.388       30.127      2.281       
76.7        65.917      164.543     4.525       55.132      59.305      61.147      56.41       42.666      91.274      29.967      1.265       212.52      111.437     1.125       566.667     840.0       863.333     2.371       30.864      2.226       
76.8        48.306      164.581     4.672       52.207      59.003      60.459      56.25       40.6        91.048      29.967      1.249       213.204     111.511     1.125       556.667     836.667     850.0       2.364       31.091      2.246       
76.9        45.499      164.769     4.77        49.925      58.959      59.867      56.118      38.791      90.831      29.741      1.236       214.687     111.911     1.125       543.333     833.333     840.0       2.359       30.48       2.317       
77.0        45.499      165.287     4.704       48.271      58.959      59.451      56.016      37.348      90.627      29.55       1.227       217.197     112.444     1.125       530.0       826.667     830.0       2.353       29.763      2.328       
77.1        45.499      165.609     4.451       47.161      58.959      59.211      55.93       36.315      90.447      29.55       1.197       220.163     112.963     1.125       526.667     820.0       816.667     2.367       29.676      2.306       
77.2        61.094      165.254     4.323       46.479      58.959      59.115      55.85       35.668      90.295      29.361      1.174       222.673     113.467     1.125       526.667     820.0       806.667     2.378       29.186      2.245       
77.3        61.094      165.475     4.317       46.102      59.017      59.115      55.779      35.314      90.171      29.329      1.203       224.156     114.015     1.125       533.333     823.333     796.667     2.414       27.825      2.217       
