~Version Information Section
VERS.                                         2.0:CWLS log ASCII Standart – VERSION 2.0
WRAP.                                          NO:One line per depth step
~Well Information Section
STRT.M                                        0.0:Начальная глубина
STOP.M                                      211.0:Конечная глубина
STEP.M                                          0:Шаг квантования по глубине
NULL.                                    -9999.25:Признак "Нет данных"
WELL.                                       125Мх:Скважина
~Parameter Information Section
~Curve Information Section
DEPTH.M                                          :Глубина
BK.lgОмм                                         :BK
D.                                               :D sr
GGKP.g/sm3                                       :GGKp
ГК.гамма                                         :GK
ИК.мСм/м                                         :IK
KP.%                                             :Kp
PS.                                              :PS       (ПС)
PZ.Омм                                           :PZ
RIS.Омм                                          :RIS
U1.                                              :U1
U2.                                              :U2
U3.                                              :U3
БЗ.                                              :БЗ (ГГК-1)
ГЗ1.Омм                                          :ГЗ1
ГЗ2.Омм                                          :ГЗ2
ГЗ3.Омм                                          :ГЗ3
ГЗ4.Oмм                                          :ГЗ4
ГЗ5.Oмм                                          :ГЗ5
ГЗК.Омм                                          :ГЗК
ИКБ.мСм/м                                        :ИКБ
МЗ.                                              :МЗ жесткий (ГГК-4)
ННКМ.усл.ед                                      :ННКм
ИКМ.мСм/м                                        :ИКМ
НГК.усл.ед                                       :ННКб
~ASCII LOG DATA
# ...
89.1        17.022      135.457     2.364       6.02        15.837      29.445      199.516     22.188      1.107       477.359     127.335     306.2       12045.333   20.753      19.857      26.328      28.211      28.565      26.173      16.509      18130.666   1.035       12.743      2.199       
89.2        16.866      135.582     2.361       6.081       15.895      29.7        199.551     22.295      1.107       499.008     139.446     320.846     12465.714   20.667      19.461      25.526      27.791      28.385      26.996      16.595      18075.715   1.036       12.797      2.155       
89.3        16.444      136.142     2.358       6.32        15.968      30.129      199.452     22.437      1.107       520.655     151.685     332.354     12720.0     20.53       19.138      24.775      27.408      28.222      27.771      16.715      18055.715   1.033       12.838      2.117       
89.4        16.106      136.021     2.358       6.426       16.052      30.692      199.204     22.608      1.106       530.599     159.644     334.282     12562.667   20.854      19.127      24.074      27.064      27.917      28.524      16.855      17976.0     1.013       12.894      2.032       
89.5        15.776      136.715     2.364       6.43        16.143      31.082      198.795     22.821      1.106       519.654     155.843     321.888     12153.333   21.203      19.224      23.459      26.61       27.658      29.249      16.992      17937.334   1.005       12.973      2.018       
89.6        15.776      136.715     2.37        6.571       16.242      31.037      198.216     23.085      1.106       486.574     142.514     299.43      11737.5     21.543      19.399      22.89       26.165      27.607      29.995      17.13       18051.25    0.992       13.071      1.997       
89.7        15.346      135.91      2.374       6.554       16.36       30.814      197.464     23.402      1.106       453.058     129.182     276.969     11581.538   21.898      19.447      22.317      25.861      27.502      30.806      17.271      17936.924   0.999       13.173      2.091       
89.8        15.205      136.226     2.374       6.341       16.488      30.825      196.541     23.756      1.106       427.889     122.518     263.393     12067.5     22.351      19.363      21.763      25.682      27.291      31.734      17.423      18115.0     1.025       13.311      2.166       
89.9        16.444      136.007     2.369       6.142       16.634      30.966      195.457     24.133      1.106       430.208     127.035     265.149     12203.077   22.667      19.379      21.275      25.403      27.055      32.659      17.592      18096.924   1.02        13.484      2.041       
90.0        19.409      136.283     2.361       5.879       16.798      30.796      194.228     24.535      1.106       461.465     141.862     282.815     12423.75    23.16       19.714      20.929      24.95       26.896      33.493      17.791      18193.75    1.007       13.683      1.983       
90.1        22.131      135.31      2.355       5.603       16.998      30.969      192.875     24.977      1.106       509.585     158.08      311.467     12901.538   24.283      20.502      20.62       24.417      26.89       34.226      18.025      19086.154   1.017       13.861      2.095       
90.2        22.182      134.869     2.351       5.433       17.242      31.686      191.425     25.492      1.106       554.29      171.729     340.122     13075.0     24.941      20.646      20.292      23.849      26.985      34.906      18.297      19141.25    1.026       14.062      2.097       
90.3        19.77       134.755     2.35        5.464       17.511      31.842      189.908     26.082      1.106       573.942     180.632     353.393     13395.714   24.836      20.359      19.986      23.347      27.407      35.72       18.603      19190.0     1.0         14.261      1.919       
90.4        17.906      135.218     2.348       5.5         17.821      31.251      188.36      26.727      1.106       552.897     182.113     343.564     13218.462   24.417      20.016      19.684      23.242      27.971      36.729      18.944      19206.154   0.976       14.476      1.915       
90.5        17.179      137.637     2.349       5.631       18.15       31.005      186.815     27.42       1.106       499.692     179.02      313.064     12881.429   24.785      20.189      19.425      23.514      28.42       37.655      19.323      18760.0     0.932       14.692      1.989       
90.6        17.66       138.3       2.353       5.451       18.492      30.9        185.305     28.177      1.106       438.161     169.239     278.835     12866.667   25.641      21.07       19.42       24.037      29.009      38.398      19.743      18664.0     0.919       14.939      1.959       
90.7        19.498      137.794     2.353       5.311       18.869      30.438      183.861     29.077      1.106       380.044     154.687     244.604     12737.143   26.557      22.098      19.794      24.606      29.857      39.132      20.191      18758.572   0.918       15.167      1.903       
90.8        20.845      139.376     2.35        5.119       19.252      30.642      182.51      30.152      1.107       346.59      140.136     226.988     12941.333   28.06       23.192      20.401      25.338      31.032      40.185      20.672      18729.334   0.934       15.37       1.906       
90.9        20.417      135.088     2.344       5.049       19.647      31.839      181.271     31.396      1.107       339.901     129.134     226.072     12938.571   30.117      24.097      21.044      26.165      32.233      41.574      21.197      18474.285   0.986       15.6        1.884       
91.0        18.707      133.935     2.327       4.821       20.049      32.945      180.16      32.79       1.107       350.073     119.246     237.586     13301.333   32.512      24.744      21.749      27.013      33.585      43.365      21.78       18593.334   0.984       15.926      1.795       
91.1        19.275      135.07      2.303       4.707       20.488      33.385      179.183     34.263      1.107       368.57      116.048     250.133     13738.571   35.755      26.346      22.551      27.928      34.815      45.719      22.44       19115.715   0.96        16.368      1.768       
91.2        24.547      136.23      2.279       4.586       20.965      33.486      178.342     35.796      1.108       373.706     117.83      254.403     14672.0     39.518      28.333      23.463      28.83       35.884      48.001      23.204      19053.334   0.969       16.912      1.894       
91.3        31.915      134.263     2.255       4.412       21.484      32.901      177.631     37.401      1.108       369.1       118.652     249.819     16240.0     43.48       30.276      24.455      29.497      36.835      49.873      24.084      20062.857   0.984       17.534      1.98        
91.4        37.931      131.866     2.229       4.138       22.075      31.991      177.041     39.071      1.108       354.565     116.447     240.23      17143.75    46.811      31.887      25.518      29.864      37.76       51.53       25.062      20612.5     1.008       18.189      2.08        
91.5        38.815      131.61      2.209       3.99        22.74       31.406      176.559     40.754      1.108       343.75      113.867     231.251     17924.615   49.714      33.241      26.482      29.909      38.538      53.064      26.11       20689.23    1.021       18.833      2.094       
91.6        37.931      131.796     2.196       3.854       23.451      31.106      176.173     42.347      1.108       332.934     114.266     222.272     18605.0     52.356      34.884      27.271      29.821      39.234      54.404      27.195      21040.0     1.018       19.497      2.02        
91.7        37.497      131.75      2.182       3.742       24.194      30.915      175.869     43.807      1.108       327.612     118.474     215.563     19020.0     54.567      36.659      27.916      29.678      39.56       55.402      28.275      20786.154   1.019       20.184      2.072       
