~Version Information Section
VERS.                                         2.0:CWLS log ASCII Standart – VERSION 2.0
WRAP.                                          NO:One line per depth step
~Well Information Section
STRT.M                                        0.4:Начальная глубина
STOP.M                                      191.4:Конечная глубина
STEP.M                                          0:Шаг квантования по глубине
NULL.                                    -9999.25:Признак "Нет данных"
WELL.                                       113Мх:Скважина
~Parameter Information Section
~Curve Information Section
DEPTH.M                                          :Глубина
БК.Омм                                           :BK     (БК)
DСР.мм                                           :DS  (ДС)
GGKP.g/cm3                                       :GGKp
ГК.гамма                                         :GK          (ГК)
А0.4М0.1N.Омм                                    :GZ1   ГЗ1(A0.4M0.1N)
А1.0М0.1N.Омм                                    :GZ2   ГЗ2(A1.0M0.1N)
А2.0М0.5N.Омм                                    :GZ3   ГЗ3(A2.0M0.5N)
А4.0М0.5N.Oмм                                    :GZ4   ГЗ4(A4.0M0.5N)
А8.0М1.0N.Омм                                    :GZ5   ГЗ5(A8.0M0.5N)
N0.5M2.0A.Омм                                    :GZK   ГЗK(N0.5M2.0A)
ИК.мСм/м                                         :IK
НГК.усл.ед                                       :NNKb  (ННКб)
ННКМ.усл.ед                                      :NNKm  (ННКм)
ПС.мВ                                            :PS       (ПС)
PZ.Омм                                           :PZ    (КС)
R.Омм                                            :RS (Резистивиметр)
U1.мВ                                            :U1
U2.mV                                            :U2
U3.мВ                                            :U3
КП.%                                             :Кп
~ASCII LOG DATA
# ...
173.2       219.702     125.181     2.316       3.436       313.539     132.521     117.283     93.532      64.021      140.976     61.813      4.013       2.23        114.861     380.184     1.1         1284.401    1472.8      1603.585    23.571      
173.4       156.03      125.258     2.275       3.435       312.676     126.591     108.888     85.892      63.05       137.478     61.295      3.588       2.094       118.44      391.088     1.1         1237.08     1467.201    1610.495    25.138      
173.6       130.168     124.942     2.248       3.357       310.939     125.53      107.944     84.243      63.285      137.478     61.155      3.504       2.049       122.587     399.716     1.1         1237.081    1467.202    1631.233    25.838      
173.8       126.575     125.348     2.254       3.249       311.311     125.53      108.186     84.243      66.844      141.152     62.077      3.836       2.119       127.233     407.752     1.1         1223.559    1489.599    1638.144    24.235      
174.0       134.506     125.364     2.293       3.05        313.228     130.242     113.807     87.777      75.342      149.76      63.376      4.639       2.264       131.907     417.584     1.1         1203.28     1422.4      1693.44     20.546      
174.2       158.45      125.351     2.361       3.139       329.205     144.718     127.052     97.291      86.115      158.35      64.602      6.059       2.502       135.995     430.569     1.1         1203.28     1366.401    1679.617    16.361      
174.4       273.936     125.533     2.439       3.069       357.37      164.816     141.91      107.145     95.557      162.663     66.56       7.564       2.849       139.078     446.297     1.1         1203.281    1366.399    1589.765    12.885      
174.6       444.116     125.563     2.479       3.127       389.553     183.329     152.402     112.66      102.143     163.274     68.323      8.286       3.006       141.097     463.49      1.1         1169.478    1349.599    1499.903    11.06       
174.8       476.273     125.6       2.474       3.144       414.99      194.557     158.434     114.904     106.111     163.077     70.085      8.116       2.977       142.265     481.154     1.1         1149.2      1332.8      1492.992    11.092      
175.0       352.299     125.503     2.46        3.248       430.383     200.283     165.097     116.41      108.999     161.861     70.033      7.613       2.892       142.87      497.936     1.1         1176.24     1383.2      1582.848    11.469      
175.2       295.935     125.653     2.47        3.165       440.857     208.859     178.238     119.822     112.617     160.954     69.723      7.632       2.897       143.147     510.826     1.1         1324.957    1495.198    1824.763    11.798      
175.4       428.905     125.603     2.491       3.021       443.237     224.636     194.599     123.492     118.855     160.762     70.063      7.895       2.923       143.241     518.275     1.1         1561.55     1623.997    2087.418    11.171      
175.6       582.655     125.592     2.509       3.235       439.279     236.018     201.994     124.102     128.036     160.204     70.92       8.289       2.969       143.223     517.145     1.1         1750.843    1652.0      2198.016    10.419      
175.8       670.056     125.592     2.515       3.186       419.369     237.013     202.123     122.697     136.993     159.347     70.263      8.676       3.01        143.103     508.218     1.1         1717.038    1629.599    2039.036    9.51        
176.0       468.736     125.621     2.535       2.952       389.807     232.811     198.236     118.232     141.466     157.365     68.554      8.983       3.039       142.854     495.393     1.1         1629.16     1568.0      1873.152    9.072       
176.2       380.575     125.63      2.559       2.713       379.402     227.725     195.077     116.161     142.061     153.548     67.173      9.14        3.032       142.436     482.815     1.1         1608.879    1534.4      1783.296    8.483       
176.4       542.865     125.647     2.571       2.899       379.402     227.563     195.077     116.051     141.281     145.938     67.649      9.272       3.05        141.839     474.869     1.1         1635.922    1528.799    1852.413    8.53        
176.6       662.025     125.612     2.549       3.236       383.895     229.243     195.768     115.601     138.898     133.893     68.416      9.1         3.066       141.102     471.578     1.1         1581.839    1517.599    1852.415    9.144       
176.8       609.282     125.594     2.515       3.076       399.454     239.595     196.28      115.064     134.465     119.254     67.18       8.492       2.971       140.312     471.037     1.1         1514.238    1495.2      1810.943    9.632       
177.0       685.971     125.608     2.486       3.068       404.379     245.685     195.242     111.102     127.128     103.619     65.907      8.136       2.956       139.582     471.251     1.1         1399.32     1495.2      1734.912    10.196      
177.2       585.742     125.587     2.481       3.112       402.39      244.917     185.505     101.559     117.648     87.941      64.285      8.16        2.932       139.004     471.433     -9999.25    1284.401    1573.598    1665.795    10.496      
177.4       367.005     125.633     2.485       3.227       385.841     232.917     171.281     89.32       108.373     75.535      62.35       8.017       2.894       138.618     471.166     -9999.25    1237.08     1623.999    1638.141    10.548      
177.6       195.214     125.604     2.476       3.169       360.663     208.753     160.975     78.795      99.518      68.299      60.52       7.71        2.888       138.404     470.125     -9999.25    1230.32     1595.997    1672.705    11.416      
177.8       158.549     125.545     2.458       3.098       342.362     187.865     154.857     72.321      90.165      65.019      58.497      7.279       2.798       138.309     468.528     -9999.25    1176.238    1534.399    1693.44     12.644      
178.0       146.764     125.667     2.412       3.202       331.829     173.992     149.501     69.277      81.108      63.833      57.119      6.238       2.693       138.28      466.223     -9999.25    1108.64     1512.0      1700.352    15.225      
178.2       151.313     125.281     2.339       3.155       327.067     163.996     145.305     68.66       74.754      63.565      56.41       5.022       2.524       138.292     461.566     -9999.25    1068.08     1517.6      1707.264    19.486      
178.4       147.706     125.239     2.257       3.225       324.503     157.655     141.818     68.66       71.764      63.507      55.427      3.881       2.214       138.422     450.934     -9999.25    1068.08     1595.996    1693.441    22.5        
178.6       139.787     124.749     2.223       3.391       321.932     153.192     139.152     69.193      70.639      63.438      54.46       3.585       2.044       138.834     431.833     -9999.25    1088.361    1668.802    1645.054    25.238      
178.8       160.431     124.821     2.223       3.577       321.337     147.862     137.833     71.08       69.649      63.011      53.377      3.779       2.093       139.444     406.177     -9999.25    1095.12     1646.399    1631.232    25.42       
179.0       194.836     124.992     2.245       3.509       321.758     143.018     136.842     73.25       67.862      61.781      52.016      3.929       2.205       140.049     379.901     -9999.25    1074.84     1579.2      1665.792    24.768      
179.2       186.889     124.741     2.265       3.578       322.007     139.296     134.885     73.985      64.95       59.486      49.975      3.97        2.247       140.486     358.506     -9999.25    1101.878    1523.2      1721.087    24.131      
179.4       148.696     124.816     2.279       3.812       321.348     134.159     129.719     73.967      61.186      56.015      48.422      4.139       2.201       -9999.25    343.512     -9999.25    1203.276    1500.801    1790.207    23.004      
