~Version Information Section
VERS.                                         2.0:CWLS log ASCII Standart – VERSION 2.0
WRAP.                                          NO:One line per depth step
~Well Information Section
STRT.M                                        1.2:Начальная глубина
STOP.M                                      169.4:Конечная глубина
STEP.M                                          0:Шаг квантования по глубине
NULL.                                    -9999.25:Признак "Нет данных"
WELL.                                       114Мх:Скважина
~Parameter Information Section
~Curve Information Section
DEPTH.M                                          :Глубина
BK.Ohm*M                                         :BK     (БК)
DS.mm                                            :DS  (ДС)
GGK.g/cm3                                        :GGKp
ГК.mcr/h                                         :GK          (ГК)
GZ1.Ohm*M                                        :GZ1   ГЗ1(A0.4M0.1N)
GZ2.Ohm*M                                        :GZ2   ГЗ2(A1.0M0.1N)
GZ3.Ohm*M                                        :GZ3   ГЗ3(A2.0M0.5N)
GZ4.Ohm*M                                        :GZ4   ГЗ4(A4.0M0.5N)
GZ5.Ohm*M                                        :GZ5   ГЗ5(A8.0M0.5N)
GZR.Ohm*M                                        :GZK   ГЗK(N0.5M2.0A)
ИК.Ohm*M                                         :IK
НГК.ue                                           :NGK     (НГК)
NNKM.                                            :NNKm  (ННКм)
PS.mv                                            :PS       (ПС)
PZ.Ohm*M                                         :PZ    (КС)
U1.mV                                            :U1
U2.mV                                            :U2
U3.mV                                            :U3
КП.%                                             :Кп
~ASCII LOG DATA
# ...
48.8        33.42       141.037     -9999.25    6.968       -9999.25    -9999.25    -9999.25    -9999.25    -9999.25    -9999.25    19.596      0.887       1.054       989.946     13.065      451.787     395.515     546.76      38.674      
48.9        37.844      139.907     -9999.25    7.314       -9999.25    -9999.25    -9999.25    -9999.25    -9999.25    -9999.25    20.188      0.942       1.052       998.265     12.442      626.74      376.035     470.731     37.217      
49.0        40.087      139.89      -9999.25    7.099       -9999.25    -9999.25    -9999.25    -9999.25    -9999.25    -9999.25    20.928      0.966       1.033       1005.311    12.22       827.85      372.175     368.723     37.077      
49.1        40.179      139.06      -9999.25    6.708       -9999.25    -9999.25    -9999.25    -9999.25    -9999.25    -9999.25    21.784      0.993       1.015       1011.588    12.276      978.735     368.872     277.743     39.174      
49.2        38.107      139.109     -9999.25    6.296       -9999.25    -9999.25    -9999.25    -9999.25    -9999.25    -9999.25    22.547      0.976       1.019       1016.663    12.387      1053.565    379.559     213.43      41.742      
49.3        38.371      140.289     -9999.25    6.567       -9999.25    -9999.25    -9999.25    -9999.25    -9999.25    -9999.25    23.046      0.996       1.028       1020.952    12.616      961.677     451.266     231.921     43.646      
49.4        39.084      140.521     -9999.25    6.8         -9999.25    -9999.25    -9999.25    -9999.25    -9999.25    -9999.25    23.449      0.963       1.068       1023.469    12.922      759.903     559.421     315.243     42.596      
49.5        37.411      139.938     -9999.25    7.071       -9999.25    -9999.25    -9999.25    -9999.25    -9999.25    -9999.25    23.797      0.978       1.098       1024.532    13.209      554.014     593.54      374.072     40.607      
49.6        35.81       137.95      -9999.25    7.101       -9999.25    -9999.25    -9999.25    -9999.25    -9999.25    -9999.25    23.993      0.956       1.09        1024.304    13.343      451.6       519.338     354.834     38.793      
49.7        33.729      137.559     -9999.25    6.593       -9999.25    -9999.25    -9999.25    -9999.25    -9999.25    -9999.25    24.037      0.976       1.069       1023.796    13.364      464.735     420.573     324.106     37.49       
49.8        32.885      137.59      -9999.25    6.368       -9999.25    -9999.25    -9999.25    -9999.25    -9999.25    -9999.25    24.01       0.947       1.018       1023.854    13.341      513.479     389.571     343.05      37.087      
49.9        32.81       138.126     -9999.25    6.286       -9999.25    -9999.25    -9999.25    -9999.25    -9999.25    -9999.25    23.791      0.98        1.0         1024.018    13.292      585.83      389.431     350.363     36.719      
50.0        33.037      138.125     -9999.25    6.684       2.168       6.479       5.177       6.625       4.271       5.819       23.652      1.049       1.025       1024.027    13.188      610.666     360.973     297.447     38.054      
50.1        33.651      140.711     -9999.25    6.752       2.11        6.31        5.177       6.525       4.271       5.819       23.585      1.09        1.051       1023.33     12.979      597.101     314.903     204.171     40.573      
50.2        34.356      141.936     -9999.25    6.495       2.003       6.117       5.077       6.525       4.271       5.619       23.428      1.077       1.079       1021.9      12.815      624.191     315.465     187.975     40.412      
50.3        29.785      141.636     -9999.25    6.155       1.863       5.681       4.977       6.525       4.271       5.619       23.248      1.02        1.083       1020.122    12.804      725.242     359.01      241.019     38.217      
50.4        24.946      136.698     -9999.25    6.027       2.1         5.295       4.977       6.525       4.271       5.519       23.244      0.984       1.072       1017.728    12.826      811.643     410.238     290.547     36.993      
50.5        21.928      137.547     2.233       5.992       2.409       5.585       4.877       6.525       4.271       5.419       23.149      0.988       1.111       1015.067    12.816      812.799     432.424     277.755     38.937      
50.6        21.086      138.335     2.197       5.966       2.612       5.923       4.877       6.525       4.271       5.419       22.903      1.016       1.163       1011.333    12.794      765.839     466.907     291.758     39.914      
50.7        20.045      136.235     2.168       5.863       2.714       6.02        4.877       6.525       4.271       5.319       22.642      1.029       1.185       1007.608    12.843      750.272     541.41      392.89      39.167      
50.8        20.045      136.124     2.18        5.885       2.694       5.972       4.877       6.525       4.271       5.319       22.442      1.003       1.2         1002.976    12.934      763.994     633.248     543.0       39.385      
50.9        22.961      137.091     2.243       5.781       2.782       5.924       4.877       6.525       4.271       5.319       22.147      0.98        1.193       997.516     12.979      780.661     704.725     660.795     39.695      
51.0        25.645      137.138     2.312       5.806       2.801       5.851       4.877       6.525       4.271       5.219       21.955      0.96        1.196       991.798     12.989      801.439     756.988     747.911     38.645      
51.1        29.377      136.865     2.312       5.884       2.942       5.754       4.877       6.525       4.271       5.119       21.846      0.919       1.216       986.454     12.88       882.7       801.915     818.794     35.283      
51.2        33.113      137.129     2.241       6.435       3.299       5.875       4.877       6.525       4.271       5.119       21.872      0.881       1.15        981.862     12.706      1021.613    840.262     873.785     33.415      
51.3        34.674      135.97      2.169       6.871       3.346       6.093       4.877       6.525       4.271       4.919       21.952      0.891       1.07        977.865     12.444      1126.086    909.158     930.341     32.9        
51.4        36.728      138.002     2.155       6.892       3.457       6.141       4.877       6.625       4.271       4.919       22.19       0.932       1.048       974.293     12.125      1139.631    1015.639    1004.037    33.831      
51.5        37.844      140.151     2.181       6.979       3.556       6.237       4.877       6.625       4.271       4.919       22.252      0.994       1.029       972.14      11.821      1062.248    1079.764    1028.653    37.218      
51.6        37.239      137.803     2.229       6.804       3.626       6.358       4.877       6.725       4.371       4.919       22.414      1.038       1.025       972.077     11.54       921.247     1064.706    987.395     40.066      
51.7        35.81       137.482     2.274       6.702       3.704       6.431       4.877       6.825       4.471       4.919       22.257      1.083       1.044       974.568     11.367      716.64      970.469     880.266     42.101      
51.8        34.198      136.47      2.312       6.169       3.78        6.503       4.977       6.825       4.471       4.919       22.169      1.14        1.102       977.369     11.355      548.83      845.263     772.866     42.012      
51.9        32.434      137.439     2.326       5.613       3.999       6.648       4.977       6.925       4.571       4.919       21.988      1.175       1.165       980.359     11.376      481.428     689.099     665.204     42.709      
52.0        31.261      135.624     2.318       5.049       3.974       6.745       5.077       6.925       4.571       4.919       21.7        1.235       1.235       981.898     11.45       571.448     568.103     588.763     41.373      
52.1        28.907      133.975     2.292       4.685       4.003       6.842       5.177       6.925       4.571       4.919       21.408      1.236       1.309       982.79      11.6        718.484     513.237     543.809     38.45       
