~Version Information Section
VERS.                                         2.0:CWLS log ASCII Standart – VERSION 2.0
WRAP.                                          NO:One line per depth step
~Well Information Section
STRT.M                                        0.6:Начальная глубина
STOP.M                                      205.9:Конечная глубина
STEP.M                                          0:Шаг квантования по глубине
NULL.                                    -9999.25:Признак "Нет данных"
WELL.                                       106Мх:Скважина
~Parameter Information Section
~Curve Information Section
DEPTH.M                                          :Глубина
BK.Ohm*M                                         :BK     (БК)
DS.mm                                            :DS  (ДС)
GGK.g/cm3                                        :GGKp
ГК.mcr/h                                         :GK          (ГК)
GZ1.Ohm*M                                        :GZ1   ГЗ1(A0.4M0.1N)
GZ2.Ohm*M                                        :GZ2   ГЗ2(A1.0M0.1N)
GZ3.Ohm*M                                        :GZ3   ГЗ3(A2.0M0.5N)
U2.mV                                            :U2
U3.mV                                            :U3
КП.%                                             :Кп
GZ4.Ohm*M                                        :GZ4   ГЗ4(A4.0M0.5N)
GZ5.Ohm*M                                        :GZ5   ГЗ5(A8.0M0.5N)
GZR.Ohm*M                                        :GZK   ГЗK(N0.5M2.0A)
ИК.Ohm*M                                         :IK
НГК.u.e.                                         :NGK
NNKM.                                            :NNKm  (ННКм)
PS.mv                                            :PS       (ПС)
PZ.Ohm*M                                         :PZ    (КС)
RS.Ohm*M                                         :RS (Резистивиметр)
U1.mV                                            :U1
~ASCII LOG DATA
# ...
55.0        39.174      129.993     2.265       4.248       20.462      16.163      7.435       398.779     439.544     30.392      3.041       4.211       18.474      20.904      1.155       2.334       336.062     17.141      1.1         564.355     
55.1        30.409      131.869     2.285       4.991       20.462      15.362      9.471       398.779     457.386     31.679      2.752       4.211       18.403      20.656      1.171       2.326       336.747     17.437      1.1         585.329     
55.2        25.763      130.881     2.302       5.881       21.562      15.539      12.291      451.063     480.662     32.246      3.543       5.424       18.397      20.363      1.177       2.313       338.116     17.689      1.1         641.585     
55.3        17.947      129.038     2.315       6.297       23.735      16.438      15.054      503.347     506.985     31.259      5.502       6.984       18.213      19.949      1.145       2.408       339.827     17.881      1.1         709.156     
55.4        20.749      128.874     2.32        6.04        25.836      17.915      16.844      533.059     527.212     30.55       8.107       8.544       17.86       19.504      1.152       2.527       342.222     18.015      1.1         759.92      
55.5        39.628      129.25      2.313       5.26        26.755      17.952      17.971      562.771     530.204     30.972      10.471      8.891       17.488      19.171      1.191       2.529       344.618     18.03       1.1         734.546     
55.6        38.905      129.351     2.307       4.781       26.755      17.513      18.501      480.256     513.425     31.893      12.001      8.891       16.832      19.01       1.222       2.507       347.356     18.03       1.1         638.531     
55.7        37.844      129.698     2.306       4.658       26.256      17.13       18.099      368.03      487.857     32.322      12.568      8.891       16.23       18.804      1.24        2.511       350.093     17.911      1.1         531.194     
55.8        38.726      130.469     2.313       4.584       24.712      16.625      17.373      368.03      469.595     32.918      12.091      6.638       16.023      18.714      1.202       2.528       353.516     17.674      1.1         479.38      
55.9        42.462      129.273     2.338       4.437       22.843      15.842      16.118      378.172     461.442     30.518      10.694      4.384       15.496      18.561      1.223       2.583       358.991     17.378      1.1         494.401     
56.0        49.774      129.881     2.375       4.39        20.292      15.564      14.011      388.313     459.441     25.798      9.167       1.958       14.722      18.474      1.256       2.671       367.547     17.081      1.1         532.705     
56.1        50.466      132.383     2.407       4.743       16.933      13.389      11.94       414.483     457.389     21.442      8.083       1.611       14.291      18.237      1.291       2.879       379.182     16.8        1.1         586.781     
56.2        44.771      134.382     2.425       5.432       13.466      9.893       9.86        440.652     466.061     21.099      7.034       1.264       14.121      18.298      1.259       2.867       390.476     16.504      1.1         640.951     
56.3        48.306      135.682     2.427       6.04        11.005      8.792       7.94        466.821     496.23      24.029      5.641       0.918       14.008      18.214      1.17        2.508       398.689     16.193      1.1         656.157     
56.4        26.242      135.796     2.411       6.969       10.21       8.598       6.724       501.688     550.678     28.187      4.257       0.744       14.465      18.087      1.077       2.244       402.111     15.911      1.1         645.679     
56.5        16.596      135.795     2.366       7.492       10.21       8.631       6.751       536.555     611.511     32.395      3.081       0.571       15.141      17.823      1.018       2.033       402.111     15.793      1.1         625.197     
56.6        14.355      134.585     2.332       8.06        10.585      9.172       7.17        545.603     647.996     37.299      1.933       0.571       15.578      17.351      1.001       1.929       400.4       15.793      1.1         617.991     
56.7        14.421      134.526     2.304       7.925       11.621      10.345      7.904       554.651     641.175     38.293      1.171       0.571       16.031      16.759      1.034       1.985       394.924     15.896      1.1         602.975     
56.8        14.421      130.922     2.287       7.659       13.195      10.569      8.949       563.7       592.446     36.797      1.176       0.744       16.728      16.513      1.063       2.081       387.396     16.207      1.1         580.149     
56.9        15.776      129.85      2.271       7.367       15.653      10.861      10.218      630.0       528.898     33.255      1.693       0.918       17.311      16.423      1.111       2.236       379.867     16.667      1.1         559.724     
57.0        21.232      129.325     2.276       7.074       19.452      12.269      11.495      630.0       479.284     31.654      2.762       1.091       17.269      16.903      1.212       2.333       373.022     17.2        1.1         597.848     
57.1        22.491      126.967     2.272       6.674       24.515      14.697      12.846      630.0       472.198     31.103      6.109       1.438       17.317      17.567      1.309       2.341       366.52      17.822      1.1         694.519     
57.2        22.439      128.059     2.27        6.401       30.202      17.356      14.232      630.0       503.498     30.872      12.953      2.131       17.313      18.279      1.364       2.402       361.387     18.444      1.1         839.532     
57.3        31.696      129.511     2.27        6.067       35.836      19.961      15.403      630.0       564.779     26.771      21.535      2.998       17.0        19.674      1.42        2.49        356.938     19.111      1.1         834.691     
57.4        28.708      129.547     2.265       6.037       40.962      22.177      16.378      630.0       614.557     22.872      30.104      8.198       16.133      20.576      1.562       2.764       352.489     19.985      1.1         781.511     
57.5        28.51       129.83      2.25        5.754       45.56       23.908      17.275      630.0       652.222     16.874      38.144      14.611      14.859      21.534      1.806       3.07        347.013     21.363      1.1         680.0       
57.6        62.517      129.816     2.227       5.651       49.574      26.509      18.213      620.0       674.444     14.896      44.101      23.971      13.259      22.622      2.046       3.26        341.196     23.333      1.1         680.0       
57.7        110.662     129.941     2.195       5.553       52.904      29.538      19.272      620.0       698.889     13.09       46.703      29.864      11.623      23.675      2.265       3.414       336.062     25.496      1.1         680.0       
57.8        99.77       129.919     2.156       5.477       55.099      32.929      20.445      610.0       717.778     13.396      47.41       36.278      10.509      25.032      2.464       3.346       330.587     27.481      1.1         680.0       
57.9        89.536      129.824     2.124       5.468       56.552      35.942      21.587      600.0       723.333     13.698      48.148      40.091      9.36        25.907      2.56        3.252       324.084     29.096      1.1         680.0       
58.0        95.06       130.576     2.104       5.49        57.716      40.157      22.709      590.0       713.333     13.877      49.988      42.691      8.207       26.554      2.588       3.272       316.213     30.652      1.1         680.0       
58.1        98.855      132.35      2.095       5.529       57.716      45.082      23.638      570.0       695.556     14.345      53.474      43.211      7.222       26.86       2.585       3.275       309.027     32.281      1.1         676.667     
