~Version Information Section
VERS.                                         2.0:CWLS log ASCII Standart – VERSION 2.0
WRAP.                                          NO:One line per depth step
~Well Information Section
STRT.M                                       -0.5:Начальная глубина
STOP.M                                      184.3:Конечная глубина
STEP.M                                          0:Шаг квантования по глубине
NULL.                                    -9999.25:Признак "Нет данных"
WELL.                                       133Мх:Скважина
~Parameter Information Section
~Curve Information Section
DEPTH.M                                          :Глубина
DS.mm                                            :DS  (ДС)
GGK.g/cm3                                        :GGKp
ГК.mcr/h                                         :GK          (ГК)
GZ1.Ohm*M                                        :GZ1   ГЗ1(A0.4M0.1N)
GZ2.Ohm*M                                        :GZ2   ГЗ2(A1.0M0.1N)
GZ3.Ohm*M                                        :GZ3   ГЗ3(A2.0M0.5N)
GZ4.Ohm*M                                        :GZ4   ГЗ4(A4.0M0.5N)
GZ5.Ohm*M                                        :GZ5   ГЗ5(A8.0M0.5N)
GZR.Ohm*M                                        :GZK   ГЗK(N0.5M2.0A)
ИК.Ohm*M                                         :IK
НГК.ue                                           :NGK     (НГК)
NNKM.                                            :NNKm  (ННКм)
PS.mv                                            :PS       (ПС)
PZ.Ohm*M                                         :PZ    (КС)
RS.Ohm*M                                         :RS (Резистивиметр)
U1.mV                                            :U1
U2.mV                                            :U2
U3.mV                                            :U3
BK.Ohm*M                                         :БК
ПОРИСТОСТЬ.                                      :Пористость ННК
~ASCII LOG DATA
# ...
95.5        133.783     2.161       3.324       139.386     96.229      65.936      83.856      76.785      126.412     31.46       2.053       3.278       66.954      27.322      1.186       464.476     1276.418    2054.135    98.876      22.129      
95.6        133.799     2.164       3.65        138.165     94.579      56.366      71.513      66.824      104.954     31.46       1.897       3.089       67.407      26.414      1.186       464.672     1277.622    2054.393    89.283      23.863      
95.7        133.263     2.168       3.954       132.972     89.792      47.106      59.589      56.001      84.803      31.46       1.766       2.89        67.859      25.554      1.186       465.064     1277.829    2054.748    62.424      26.339      
95.8        132.625     2.173       3.998       123.704     84.152      39.134      49.164      47.57       67.928      31.436      1.668       2.742       68.287      24.704      1.186       464.905     1276.884    2054.633    59.001      27.734      
95.9        132.349     2.183       4.016       113.113     79.91       33.158      40.161      41.226      55.934      31.276      1.584       2.633       68.674      23.798      1.186       464.74      1274.957    2054.485    65.024      29.083      
96.0        132.433     2.196       4.107       103.359     76.842      29.041      32.991      34.256      48.709      30.9        1.529       2.579       69.006      22.776      1.186       465.112     1272.904    2054.744    42.936      29.945      
96.1        132.517     2.2         4.605       96.238      75.168      26.305      27.859      27.909      44.438      30.443      1.5         2.549       69.273      21.659      1.186       466.545     1272.341    2055.903    37.728      30.472      
96.2        132.323     2.19        5.013       91.887      74.286      24.754      24.398      23.111      41.637      29.961      1.5         2.518       69.47       20.532      1.186       468.784     1274.701    2057.769    36.582      31.491      
96.3        132.075     2.171       5.327       88.336      73.319      24.034      22.106      19.412      39.512      29.451      1.542       2.513       69.602      19.47       1.186       472.015     1278.791    2060.364    36.667      32.25       
96.4        132.166     2.148       5.406       83.659      71.692      23.634      20.452      16.702      37.534      28.956      1.587       2.511       69.688      18.532      1.186       477.032     1281.401    2064.267    36.828      33.297      
96.5        132.656     2.135       5.258       77.597      69.013      23.476      18.959      14.767      35.488      28.473      1.626       2.491       69.767      17.757      1.186       483.309     1281.356    2069.134    36.769      34.049      
96.6        133.187     2.145       5.235       71.19       65.399      23.476      17.294      13.212      33.409      28.065      1.614       2.495       69.887      17.163      1.186       488.268     1280.635    2073.038    36.458      34.341      
96.7        133.355     2.193       5.287       64.501      60.372      23.476      15.525      11.945      31.54       27.712      1.604       2.497       70.11       16.745      1.186       490.122     1282.686    2074.516    34.945      34.331      
96.8        133.154     2.25        5.53        57.564      54.143      23.507      13.934      11.095      30.096      27.421      1.617       2.483       70.5        16.492      1.186       490.227     1287.043    2074.539    31.833      34.248      
96.9        132.921     2.291       5.873       51.513      48.405      23.628      12.668      10.861      28.993      27.104      1.676       2.46        71.111      16.407      1.186       491.595     1289.027    2075.513    28.857      34.274      
97.0        132.89      2.322       6.478       46.856      43.919      23.866      11.811      10.861      28.101      26.724      1.712       2.414       71.841      16.397      1.19        492.912     1286.371    2076.458    27.207      34.47       
97.1        132.957     2.315       7.095       43.285      40.218      24.196      11.501      10.861      27.715      26.414      1.691       2.381       72.661      16.397      1.19        489.787     1281.558    2073.945    26.1        34.677      
97.2        132.874     2.288       7.408       40.664      37.432      24.842      11.501      10.861      27.715      26.281      1.618       2.375       73.559      16.416      1.19        483.16      1278.747    2068.779    25.549      34.97       
97.3        132.472     2.256       7.345       39.135      35.819      25.946      11.501      11.472      27.715      26.281      1.565       2.389       74.518      16.59       1.19        478.201     1278.678    2065.065    25.737      34.988      
97.4        131.876     2.21        7.24        38.671      35.371      27.789      11.992      12.861      28.841      26.317      1.557       2.416       75.515      17.012      1.19        478.101     1279.31     2065.278    26.046      34.228      
97.5        131.546     2.167       7.263       38.671      35.371      31.521      13.666      14.546      32.149      26.494      1.597       2.448       76.653      17.71       1.19        480.484     1278.896    2067.305    26.176      33.144      
97.6        131.784     2.143       7.021       38.671      35.371      38.177      16.48       16.482      37.098      26.822      1.628       2.472       77.937      18.72       1.19        481.014     1276.867    2067.59     26.321      32.635      
97.7        132.366     2.125       7.0         39.351      36.334      47.503      20.31       18.708      43.132      27.222      1.642       2.488       79.361      20.099      1.19        478.736     1274.497    2065.656    26.619      32.943      
97.8        132.849     2.14        6.944       42.247      39.504      58.989      25.171      20.889      49.953      27.71       1.587       2.496       80.885      21.895      1.19        475.152     1273.634    2062.94     27.071      34.05       
97.9        132.994     2.173       6.723       47.731      44.165      72.164      30.325      22.95       55.679      28.306      1.54        2.503       82.485      24.144      1.19        472.613     1275.111    2061.229    28.553      34.735      
98.0        132.874     2.199       5.956       55.616      49.365      85.07       34.952      25.429      59.072      29.001      1.495       2.513       84.157      26.84       1.19        472.245     1277.375    2061.002    32.904      35.059      
98.1        132.812     2.205       4.855       66.942      54.584      95.546      38.846      27.993      60.969      29.753      1.487       2.52        86.046      29.859      1.19        471.956     1278.083    2060.516    63.502      34.905      
98.2        133.01      2.197       4.166       81.092      58.925      103.464     41.916      30.104      61.806      30.495      1.481       2.55        88.127      32.927      1.19        469.397     1276.832    2058.345    83.834      34.015      
98.3        133.269     2.19        3.998       96.136      62.357      109.344     44.244      31.803      61.967      31.114      1.466       2.57        90.397      35.668      1.19        465.499     1275.084    2055.41     80.913      33.545      
98.4        133.268     2.19        3.966       111.113     66.214      113.329     46.44       33.353      61.967      31.49       1.452       2.612       92.873      37.632      1.19        463.221     1274.901    2053.863    73.431      33.351      
98.5        133.0       2.197       3.867       125.578     71.857      116.126     48.844      34.678      61.752      31.596      1.448       2.66        95.542      38.491      1.19        463.883     1276.365    2054.369    68.714      33.378      
98.6        132.71      2.193       3.896       138.063     79.544      118.46      51.827      36.446      61.388      31.596      1.49        2.695       98.31       38.679      1.19        465.659     1277.252    2055.459    68.483      33.404      
