~Version Information Section
VERS.                                         2.0:CWLS log ASCII Standart – VERSION 2.0
WRAP.                                          NO:One line per depth step
~Well Information Section
STRT.M                                       -0.1:Начальная глубина
STOP.M                                      197.8:Конечная глубина
STEP.M                                          0:Шаг квантования по глубине
NULL.                                    -9999.25:Признак "Нет данных"
WELL.                                       134Мх:Скважина
~Parameter Information Section
~Curve Information Section
DEPTH.M                                          :Глубина
BK.Ohm*M                                         :BK     (БК)
DS.mm                                            :DS  (ДС)
GGK.g/cm3                                        :GGKp
ГК.mcr/h                                         :GK          (ГК)
GZ1.Ohm*M                                        :GZ1   ГЗ1(A0.4M0.1N)
GZ2.Ohm*M                                        :GZ2   ГЗ2(A1.0M0.1N)
GZ3.Ohm*M                                        :GZ3   ГЗ3(A2.0M0.5N)
GZ4.Ohm*M                                        :GZ4   ГЗ4(A4.0M0.5N)
GZ5.Ohm*M                                        :GZ5   ГЗ5(A8.0M0.5N)
GZR.Ohm*M                                        :GZK   ГЗK(N0.5M2.0A)
ИК.Ohm*M                                         :IK
КП.%                                             :Кп
НГК.ue                                           :NGK     (НГК)
NNKM.                                            :NNKm  (ННКм)
PS.mv                                            :PS       (ПС)
PZ.Ohm*M                                         :PZ    (КС)
RS.Ohm*M                                         :RS (Резистивиметр)
U1.mV                                            :U1
U2.mV                                            :U2
U3.mV                                            :U3
~ASCII LOG DATA
# ...
105.5       35.658      134.579     2.344       4.527       32.035      17.973      19.716      14.111      13.219      17.013      19.044      27.419      1.312       2.424       404.864     53.036      1.06        870.584     848.304     1325.178    
105.6       38.294      134.236     2.326       4.556       35.552      18.807      20.686      15.234      14.368      18.054      19.118      28.252      1.295       2.336       404.746     55.709      1.06        898.454     836.053     1136.776    
105.7       40.613      134.22      2.318       4.725       38.447      20.393      22.014      16.786      15.553      19.524      19.227      28.17       1.283       2.305       404.565     58.093      1.06        904.782     834.687     890.307     
105.8       42.867      135.001     2.321       5.09        39.997      22.321      23.575      18.608      16.73       21.341      19.309      28.381      1.267       2.289       404.309     60.077      1.06        1104.535    909.621     826.827     
105.9       44.068      135.439     2.329       5.181       40.393      24.321      25.003      20.397      17.844      23.3        19.377      29.641      1.29        2.298       403.966     61.568      1.06        1278.514    970.617     867.714     
106.0       43.466      134.921     2.341       4.819       40.393      26.282      26.035      21.617      18.837      25.159      19.484      29.399      1.35        2.325       403.526     62.456      1.06        1160.494    934.051     829.969     
106.1       53.338      134.496     2.351       4.243       40.031      27.541      26.608      22.014      19.72       26.78       19.53       27.963      1.424       2.381       402.979     62.755      1.06        991.202     879.27      881.267     
106.2       75.366      134.407     2.376       3.77        38.484      27.903      26.777      22.026      20.575      28.244      19.414      25.085      1.415       2.473       402.326     62.755      1.06        1040.025    869.975     1100.243    
106.3       70.452      134.424     2.417       3.43        35.625      27.903      26.777      22.026      21.494      30.122      19.005      23.849      1.37        2.557       401.57      62.755      1.06        1092.025    840.759     1183.798    
106.4       38.188      134.376     2.452       3.651       32.497      27.809      26.705      21.788      22.568      33.31       18.525      22.208      1.322       2.594       400.715     62.521      1.06        919.121     735.58      964.25      
106.5       19.257      134.292     2.465       4.367       30.421      27.843      26.486      21.444      23.83       38.278      18.018      22.688      1.276       2.543       399.779     61.837      1.06        787.538     638.063     613.407     
106.6       16.023      134.562     2.444       5.38        29.796      27.866      26.223      21.337      25.188      44.802      17.668      23.789      1.216       2.433       398.781     60.811      1.06        793.798     572.901     434.353     
106.7       18.811      134.561     2.397       6.561       29.796      27.653      26.027      21.303      26.374      51.663      17.521      29.544      1.135       2.339       397.734     59.595      1.06        668.523     476.41      398.279     
106.8       20.672      134.814     2.344       8.061       29.796      27.547      25.867      21.201      27.059      56.549      17.594      35.974      1.111       2.234       396.661     58.247      1.06        448.645     373.696     333.373     
106.9       18.661      135.854     2.328       9.061       30.613      27.416      25.708      21.004      27.239      58.162      17.997      35.622      1.146       2.086       395.584     56.803      1.06        354.445     328.305     267.646     
107.0       20.245      136.945     2.367       8.153       33.327      27.174      25.472      20.837      27.212      58.162      18.639      30.436      1.293       2.091       394.526     55.293      1.06        385.927     340.239     261.163     
107.1       49.323      137.641     2.442       5.817       37.101      26.924      24.945      20.8        26.865      57.524      19.487      21.072      1.49        2.402       393.509     53.752      1.06        424.394     356.777     313.927     
107.2       93.157      138.175     2.503       3.657       40.521      26.411      23.83       20.711      25.684      54.316      20.626      18.485      1.714       2.775       392.549     52.222      1.06        469.833     377.91      346.533     
107.3       116.699     138.207     2.513       2.686       42.172      25.417      21.866      20.072      23.478      47.844      21.753      19.003      1.858       3.023       391.654     50.753      1.06        483.765     381.041     327.756     
107.4       140.789     136.318     2.467       2.47        42.277      24.027      19.047      18.309      20.509      39.95       22.557      21.184      1.777       3.029       390.821     49.397      1.06        473.973     358.66      267.003     
107.5       150.327     135.55      2.396       2.399       42.277      22.361      15.694      15.285      17.212      33.024      22.775      21.37       1.57        2.836       390.034     48.203      1.06        431.57      315.765     215.661     
107.6       111.581     135.911     2.345       2.759       40.978      20.952      12.402      11.55       14.014      28.474      22.494      20.803      1.287       2.699       389.277     47.21       1.06        378.729     280.38      194.874     
107.7       58.645      135.047     2.331       3.425       37.838      20.443      9.734       7.855       11.291      26.577      21.889      23.809      1.159       2.583       388.539     46.436      1.06        420.389     268.776     195.236     
107.8       27.982      134.492     2.34        4.602       34.337      20.443      8.073       4.77        9.271       26.297      21.302      29.31       1.078       2.348       387.816     45.879      1.06        558.093     278.438     192.194     
107.9       19.899      134.363     2.362       5.196       31.879      20.443      7.537       2.877       7.987       26.297      20.99       34.256      1.065       2.109       387.114     45.52       1.06        635.337     308.871     164.601     
108.0       21.07       134.116     2.372       5.336       31.082      20.514      7.537       2.187       7.351       26.297      21.088      33.452      1.104       2.054       386.445     45.316      1.06        661.014     355.075     195.398     
108.1       25.735      133.852     2.37        4.882       31.082      21.379      7.537       2.078       7.155       27.003      21.492      31.072      1.128       2.128       385.816     45.232      1.06        724.175     402.855     309.146     
108.2       30.969      133.768     2.363       4.671       31.082      23.909      7.623       2.073       7.131       29.09       22.051      28.687      1.168       2.211       385.219     45.232      1.06        719.896     435.936     408.608     
108.3       33.756      133.654     2.359       4.666       31.658      27.478      8.295       1.987       7.131       32.259      22.726      29.349      1.196       2.291       384.632     45.232      1.06        585.927     438.371     410.86      
108.4       34.254      133.693     2.356       4.617       33.219      31.026      9.774       1.837       7.182       36.101      23.546      30.382      1.25        2.35        384.013     45.232      1.06        478.768     410.654     345.6       
108.5       34.333      134.211     2.356       4.592       35.238      34.147      11.779      1.89        7.363       39.98       24.415      30.391      1.316       2.395       383.253     45.246      1.06        476.392     381.408     310.042     
108.6       36.979      134.445     2.361       4.46        37.34       36.279      14.028      2.167       7.668       43.45       25.392      26.56       1.4         2.442       382.205     45.34       1.06        489.733     364.831     295.047     
