~Version Information Section
VERS.                                         2.0:CWLS log ASCII Standart – VERSION 2.0
WRAP.                                          NO:One line per depth step
~Well Information Section
STRT.M                                        1.0:Начальная глубина
STOP.M                                      203.4:Конечная глубина
STEP.M                                          0:Шаг квантования по глубине
NULL.                                    -9999.25:Признак "Нет данных"
WELL.                                         3Мх:Скважина
~Parameter Information Section
~Curve Information Section
DEPTH.M                                          :Глубина
BK.Ohm*M                                         :BK
DS.mm                                            :DS  (ДС)
ГК.mcr/h                                         :GK          (ГК)
GZ1.Ohm*M                                        :GZ1   ГЗ1(A0.4M0.1N)
GZ2.Ohm*M                                        :GZ2   ГЗ2(A1.0M0.1N)
GZ3.Ohm*M                                        :GZ3   ГЗ3(A2.0M0.5N)
GZ4.Ohm*M                                        :GZ4   ГЗ4(A4.0M0.5N)
GZ5.Ohm*M                                        :GZ5   ГЗ5(A8.0M0.5N)
U2.mV                                            :U2
U3.mV                                            :U3
W.                                               :W
КП.%                                             :Кп
НГК.усл.ед                                       :ННКб
ННКМ.усл.ед                                      :ННКм
GZR.Ohm*M                                        :GZK   ГЗK(N0.5M2.0A)
ИК.Ohm*M                                         :IK
PS.mv                                            :PS       (ПС)
PZ.Ohm*M                                         :PZ    (КС)
RS.Ohm*M                                         :RS (Резистивиметр)
U1.mV                                            :U1
~ASCII LOG DATA
# ...
183.4       109.396     151.471     3.462       21.544      21.694      18.677      21.225      18.271      506.476     436.46      2.351       30.69       3.739       2.44        19.219      45.612      220.886     201.468     1.025       598.636     
183.5       109.396     151.408     3.518       21.443      22.005      18.977      21.725      18.771      615.425     562.746     2.351       29.07       3.802       2.497       19.419      45.771      222.353     194.194     1.025       678.695     
183.6       109.144     151.282     3.659       21.753      22.654      19.277      21.825      20.171      739.715     689.106     2.356       27.754      3.866       2.426       19.519      45.771      223.233     185.666     1.025       794.478     
183.7       110.154     151.205     3.725       21.318      22.92       19.577      22.025      21.371      857.987     787.034     2.318       27.474      3.736       2.351       19.719      45.401      223.526     175.147     1.025       935.15      
183.8       111.429     151.267     3.795       20.708      22.682      20.777      22.325      21.471      950.629     833.345     2.291       29.272      3.563       2.316       19.819      44.994      223.526     163.841     1.025       1094.029    
183.9       112.72      150.981     3.736       20.553      22.686      20.977      22.425      21.071      997.274     815.741     2.251       30.915      3.452       2.312       20.119      44.932      223.526     151.474     1.025       1254.187    
184.0       110.408     151.125     3.654       20.568      22.505      21.177      22.525      20.771      977.504     731.251     2.24        33.634      3.424       2.331       20.719      44.869      223.819     139.084     1.025       1380.644    
184.1       107.895     151.562     3.514       20.568      22.078      21.377      22.625      20.471      910.768     618.68      2.233       35.014      3.233       2.361       20.819      44.541      224.699     126.361     1.025       1449.897    
184.2       107.647     151.237     3.488       20.906      22.005      21.377      22.725      20.271      859.2       552.884     2.251       35.094      3.327       2.395       20.719      44.218      226.459     114.066     1.025       1464.388    
184.3       104.713     151.211     3.534       21.932      21.936      21.377      22.825      19.771      873.568     581.701     2.264       33.485      3.563       2.421       20.719      43.771      229.099     103.907     1.025       1448.687    
184.4       102.565     151.373     3.656       22.575      21.985      21.477      22.825      19.671      948.903     688.046     2.274       32.233      3.566       2.438       20.619      43.51       232.033     97.193      1.025       1419.715    
184.5       103.514     151.356     3.774       23.209      22.098      21.577      22.825      19.571      1026.156    794.641     2.27        31.273      3.572       2.43        20.519      43.169      234.966     94.136      1.025       1384.968    
184.6       105.925     151.352     3.878       23.814      22.465      21.577      22.825      19.171      1067.26     853.578     2.267       30.219      3.623       2.393       20.419      42.812      237.313     93.361      1.025       1350.695    
184.7       105.925     151.313     3.886       23.19       22.126      21.377      22.825      19.171      1079.956    871.102     2.258       29.665      3.633       2.354       20.319      42.484      239.659     93.49       1.025       1334.898    
184.8       97.051      151.333     3.811       22.314      21.566      20.677      22.825      19.171      1105.767    895.975     2.249       30.067      3.693       2.392       20.219      42.239      241.713     93.196      1.025       1355.053    
184.9       83.176      151.269     3.716       22.024      22.078      20.377      22.925      19.271      1163.485    957.411     2.276       30.962      3.731       2.459       20.019      41.787      243.473     92.058      1.025       1405.366    
185.0       70.307      151.466     3.694       22.624      22.852      20.377      23.125      19.271      1230.57     1043.611    2.305       30.058      3.805       2.53        19.919      41.315      244.353     89.968      1.025       1445.968    
185.1       58.479      151.788     3.7         23.166      23.238      20.377      23.125      19.271      1249.534    1102.487    2.325       35.391      4.326       2.647       19.719      41.019      244.646     87.488      1.025       1415.147    
185.2       56.754      151.728     3.649       22.193      22.493      20.177      23.025      19.171      1172.177    1077.675    2.348       31.664      4.587       2.753       19.619      40.305      244.939     84.782      1.025       1276.108    
185.3       69.183      151.443     3.551       20.858      21.715      20.077      22.925      19.071      994.934     946.939     2.38        29.37       5.21        2.822       19.619      39.596      245.526     82.024      1.025       1046.653    
185.4       84.723      151.468     3.453       19.683      20.986      19.677      22.825      19.071      776.398     755.262     2.391       27.744      5.244       2.867       19.619      39.342      246.699     79.105      1.025       799.457     
185.5       91.201      151.614     3.418       19.32       20.868      19.577      22.425      18.871      606.453     596.405     2.421       26.707      5.415       2.933       19.619      39.121      247.873     76.52       1.025       618.852     
185.6       95.94       151.982     3.419       19.32       20.627      19.477      22.025      18.871      540.831     539.886     2.458       24.712      5.968       3.022       19.619      39.04       249.339     74.948      1.025       544.442     
185.7       101.158     152.143     3.49        19.571      20.654      19.377      21.825      18.871      568.999     581.921     2.503       23.15       6.522       3.094       19.619      39.359      250.513     75.15       1.03        557.805     
185.8       89.125      152.734     3.605       19.731      20.53       19.377      21.425      18.871      624.989     651.22      2.545       22.452      6.572       3.2         19.619      39.765      251.686     77.173      1.03        598.723     
185.9       55.208      153.804     3.688       19.75       20.095      19.577      21.225      18.871      659.131     692.803     2.576       21.081      6.746       3.282       19.619      39.882      252.566     80.168      1.03        623.903     
186.0       55.976      153.97      3.682       20.002      19.659      19.577      21.125      18.971      664.664     701.538     2.574       18.995      7.564       3.282       19.619      40.002      253.446     83.124      1.03        625.682     
186.1       76.208      154.135     3.622       19.891      19.272      19.677      20.025      19.071      669.613     710.042     2.58        16.796      7.691       3.271       19.619      40.162      254.326     85.372      1.03        627.273     
186.2       83.176      154.551     3.584       20.428      19.78       19.777      20.025      19.171      693.366     733.785     2.571       16.101      7.945       3.273       19.819      40.008      255.206     86.972      1.034       652.27      
186.3       89.536      154.745     3.561       20.989      20.222      19.877      24.025      19.271      730.611     756.121     2.562       15.538      8.071       3.285       20.119      40.292      256.379     88.085      1.034       708.75      
186.4       89.95       154.709     3.526       21.211      20.654      19.977      24.225      19.371      759.515     746.925     2.578       15.509      8.154       3.303       20.219      40.753      258.139     88.748      1.034       785.956     
186.5       95.94       154.611     3.495       21.744      21.307      20.077      24.925      19.471      761.888     695.107     2.595       15.411      8.257       3.352       20.319      41.145      260.193     89.12       1.034       857.714     
