~Version Information Section
VERS.                                         2.0:CWLS log ASCII Standart – VERSION 2.0
WRAP.                                          NO:One line per depth step
~Well Information Section
STRT.M                                        1.6:Начальная глубина
STOP.M                                      212.2:Конечная глубина
STEP.M                                          0:Шаг квантования по глубине
NULL.                                    -9999.25:Признак "Нет данных"
WELL.                                       139Мх:Скважина
~Parameter Information Section
~Curve Information Section
DEPTH.M                                          :Глубина
BK.Ohm*M                                         :BK     (БК)
DS.mm                                            :DS  (ДС)
GGK.g/cm3                                        :GGKp
ГК.mcr/h                                         :GK          (ГК)
GZ1.Ohm*M                                        :GZ1   ГЗ1(A0.4M0.1N)
GZ2.Ohm*M                                        :GZ2   ГЗ2(A1.0M0.1N)
GZ3.Ohm*M                                        :GZ3   ГЗ3(A2.0M0.5N)
GZ4.Ohm*M                                        :GZ4   ГЗ4(A4.0M0.5N)
GZ5.Ohm*M                                        :GZ5   ГЗ5(A8.0M0.5N)
GZR.Ohm*M                                        :GZK   ГЗK(N0.5M2.0A)
ИК.Ohm*M                                         :IK
НГК.ue                                           :NGK     (НГК)
NNKM.                                            :NNKm  (ННКм)
PS.mv                                            :PS       (ПС)
PZ.Ohm*M                                         :PZ    (КС)
U1.mV                                            :U1
U2.mV                                            :U2
U3.mV                                            :U3
КП.%                                             :Кп
~ASCII LOG DATA
# ...
134.2       168.993     127.945     2.169       3.845       67.979      54.288      59.0        60.703      49.536      90.9        34.555      1.2         2.438       164.124     75.326      195.318     284.551     474.575     33.227      
134.3       179.417     127.702     2.163       3.667       73.679      55.278      59.012      61.823      50.126      93.516      34.961      1.19        2.445       165.165     77.564      94.804      206.158     449.03      33.932      
134.4       170.584     127.984     2.176       3.745       79.213      56.428      59.16       62.497      50.519      95.159      35.381      1.211       2.386       166.396     79.586      96.443      217.268     473.209     35.866      
134.5       154.011     129.687     2.154       3.969       83.712      57.588      59.8        62.942      50.703      95.913      35.537      1.289       2.292       167.762     81.366      107.899     233.71      479.851     36.894      
134.6       149.618     129.715     2.132       4.501       86.889      58.692      61.012      63.28       50.75       96.073      35.5        1.363       2.247       169.185     82.93       128.348     249.921     462.104     37.097      
134.7       143.392     127.985     2.104       4.538       88.748      59.943      62.3        63.588      50.754      96.043      35.613      1.353       2.239       170.599     84.33       231.536     304.672     437.504     36.993      
134.8       127.801     128.527     2.092       4.402       89.684      61.476      63.7        63.935      50.733      95.773      35.656      1.336       2.274       171.966     85.629      315.906     371.519     430.447     38.074      
134.9       114.85      128.662     2.106       4.353       90.289      63.216      65.064      64.363      50.643      94.837      35.746      1.289       2.304       173.277     86.88       390.45      433.027     461.923     39.131      
135.0       120.965     128.783     2.107       4.28        90.812      65.048      66.2        64.871      50.5        93.025      36.027      1.261       2.305       174.564     88.177      451.95      485.434     498.62      39.112      
135.1       140.701     128.627     2.141       4.333       91.147      66.962      66.988      65.401      50.338      90.515      36.286      1.228       2.321       175.931     89.648      527.513     545.115     536.992     38.306      
135.2       163.553     128.297     2.143       4.029       91.338      68.795      67.7        65.852      50.171      87.721      36.567      1.229       2.356       177.517     91.451      537.662     594.533     595.06      38.013      
135.3       183.023     127.842     2.123       4.018       91.741      70.376      68.288      66.248      50.025      84.895      36.841      1.256       2.359       179.465     93.764      477.298     608.964     639.04      38.198      
135.4       156.228     128.161     2.115       3.916       92.688      71.878      68.776      66.718      49.94       82.232      36.983      1.234       2.322       181.913     96.777      511.358     613.378     614.228     38.349      
135.5       148.382     128.045     2.121       3.931       94.053      73.544      69.0        67.369      49.921      79.868      36.981      1.229       2.315       184.993     100.519     617.837     605.8       534.703     39.122      
135.6       148.484     127.153     2.112       3.853       95.797      75.561      69.0        68.254      49.921      77.727      37.094      1.257       2.327       188.691     104.846     631.775     561.27      469.128     38.09       
135.7       167.939     127.876     2.118       3.521       97.784      78.012      69.0        69.35       49.933      75.694      37.33       1.248       2.401       192.873     109.377     546.215     502.04      472.181     35.362      
135.8       215.905     127.014     2.127       3.414       99.64       80.836      69.0        70.569      50.027      73.838      37.456      1.302       2.474       197.326     113.557     479.313     480.525     481.125     32.83       
135.9       253.738     127.442     2.131       3.325       101.022     83.73       69.0        71.733      50.322      72.304      37.533      1.287       2.483       201.756     116.44      512.09      489.684     470.385     32.543      
136.0       270.444     127.469     2.139       3.581       102.036     86.402      69.0        72.676      50.896      71.167      37.564      1.365       2.464       205.797     117.691     526.413     477.124     434.064     33.519      
136.1       237.329     127.937     2.154       3.577       102.733     88.528      68.988      73.371      51.777      70.459      37.622      1.324       2.41        209.213     117.691     499.509     425.19      363.865     33.591      
136.2       160.528     129.81      2.156       3.605       103.155     90.038      68.864      73.92       52.968      70.164      37.548      1.322       2.407       211.886     117.691     449.828     355.586     283.811     35.382      
136.3       138.605     129.894     2.148       3.457       103.425     90.956      68.4        74.468      54.426      70.128      37.492      1.308       2.441       213.798     117.261     370.455     278.487     211.692     36.578      
136.4       131.827     129.689     2.133       3.508       103.705     91.485      67.6        75.171      56.075      70.128      37.512      1.332       2.426       214.995     115.391     258.56      196.125     151.468     36.248      
136.5       131.391     129.038     2.138       3.571       104.129     91.848      66.812      76.197      57.788      70.142      37.255      1.349       2.394       215.584     112.455     162.251     137.688     119.235     34.373      
136.6       126.416     128.531     2.133       3.665       104.785     92.251      66.136      77.679      59.375      70.254      37.083      1.363       2.398       215.649     109.189     123.956     120.076     116.451     34.081      
136.7       120.023     129.148     2.133       3.548       105.755     92.786      65.8        79.737      60.637      70.538      36.943      1.383       2.404       215.649     105.799     131.87      143.281     143.113     35.678      
136.8       118.809     128.567     2.16        3.519       107.193     93.729      65.8        82.508      61.429      70.814      36.739      1.366       2.393       215.649     102.317     127.996     172.518     213.929     36.805      
136.9       118.271     129.083     2.168       3.252       109.231     95.411      65.824      85.996      61.747      70.907      36.549      1.336       2.366       215.225     98.708      114.274     196.181     286.117     36.184      
137.0       115.032     127.57      2.163       3.15        111.718     97.822      66.024      89.798      61.801      70.894      36.299      1.312       2.326       214.328     94.991      133.7       219.048     328.671     35.261      
137.1       117.959     126.947     2.179       2.926       114.176     100.498     66.6        93.157      61.748      70.758      36.027      1.279       2.362       212.992     91.217      159.704     226.116     310.758     34.191      
137.2       124.26      126.745     2.175       3.211       116.076     102.95      67.364      95.198      61.455      70.196      35.68       1.222       2.446       211.277     87.491      185.713     227.154     271.586     33.942      
137.3       130.111     126.959     2.18        3.053       116.947     104.556     67.888      95.806      60.775      68.907      35.366      1.173       2.502       209.259     83.934      208.049     227.394     242.193     33.45       
137.4       130.585     127.179     2.211       3.233       116.924     104.904     68.0        95.736      59.718      66.9        35.02       1.212       2.53        207.063     80.61       263.12      247.397     229.119     34.28       
137.5       123.977     127.385     2.216       3.118       116.611     104.795     68.0        95.104      58.312      64.422      34.633      1.284       2.525       204.804     77.483      332.41      281.647     236.4       35.526      
