~Version Information Section
VERS.                                         2.0:CWLS log ASCII Standart – VERSION 2.0
WRAP.                                          NO:One line per depth step
~Well Information Section
STRT.M                                        0.4:Начальная глубина
STOP.M                                      170.2:Конечная глубина
STEP.M                                          0:Шаг квантования по глубине
NULL.                                    -9999.25:Признак "Нет данных"
WELL.                                       121Мх:Скважина
~Parameter Information Section
~Curve Information Section
DEPTH.M                                          :Глубина
BK.Ohm*M                                         :BK     (БК)
DS.mm                                            :DS  (ДС)
GGK.g/cm3                                        :GGKp
ГК.mcr/h                                         :GK          (ГК)
GZ1.Ohm*M                                        :GZ1   ГЗ1(A0.4M0.1N)
GZ2.Ohm*M                                        :GZ2   ГЗ2(A1.0M0.1N)
GZ3.Ohm*M                                        :GZ3   ГЗ3(A2.0M0.5N)
GZ4.Ohm*M                                        :GZ4   ГЗ4(A4.0M0.5N)
GZ5.Ohm*M                                        :GZ5   ГЗ5(A8.0M0.5N)
GZR.Ohm*M                                        :GZK   ГЗK(N0.5M2.0A)
ИК.Ohm*M                                         :IK
НГК.u.e.                                         :NGK
NNKM.                                            :NNKm  (ННКм)
PS.mv                                            :PS       (ПС)
PZ.Ohm*M                                         :PZ    (КС)
RS.Ohm*M                                         :RS (Резистивиметр)
U1.mV                                            :U1
U2.mV                                            :U2
U3.mV                                            :U3
КП.%                                             :Кп
~ASCII LOG DATA
# ...
58.0        21.727      137.549     2.512       6.216       33.286      18.241      13.653      38.608      34.511      25.326      8.831       1.076       1.918       512.176     32.001      1.06        115.352     129.333     177.089     42.224      
58.2        20.559      137.505     2.506       6.687       33.07       18.339      14.86       37.857      35.178      24.417      8.75        1.043       1.846       512.0       32.0        1.06        122.217     131.881     177.778     45.899      
58.4        19.77       137.407     2.533       5.758       33.468      18.548      15.72       37.717      35.198      23.722      8.778       1.098       1.885       511.84      32.0        1.06        132.08      139.074     155.94      44.639      
58.6        24.831      135.735     2.578       4.591       34.066      18.623      16.01       37.665      35.055      23.103      8.855       1.075       2.121       511.44      32.0        1.06        128.977     141.792     141.236     39.846      
58.8        29.04       135.774     2.571       4.905       34.614      18.671      16.289      37.623      35.119      22.749      8.908       1.147       2.245       510.848     32.0        1.06        136.335     155.641     145.07      35.423      
59.0        25.942      136.478     2.505       5.022       34.652      18.799      16.89       37.413      34.934      22.614      8.859       1.148       2.229       510.32      32.008      1.06        174.749     173.204     159.515     35.749      
59.2        23.933      137.097     2.504       5.366       34.137      18.739      17.129      37.512      34.657      23.171      8.779       1.068       2.109       510.064     32.058      1.06        220.707     189.409     169.757     38.797      
59.4        20.417      136.692     2.472       5.846       33.286      18.015      17.061      37.412      34.466      23.712      8.669       1.056       2.017       510.0       32.221      1.06        244.042     202.042     157.868     44.016      
59.6        20.701      136.252     2.423       6.545       32.405      17.232      16.887      36.818      34.075      23.561      8.509       1.137       2.025       510.0       32.559      1.06        237.812     211.368     152.222     40.851      
59.8        22.491      135.904     2.454       6.404       31.324      15.968      16.286      35.504      33.419      22.431      8.302       1.068       2.048       510.0       33.04       1.06        225.564     225.343     156.676     38.126      
60.0        20.701      136.242     2.477       6.442       30.208      15.032      15.255      34.362      32.796      21.309      8.14        0.992       1.985       510.0       33.515      1.06        218.098     228.091     182.37      42.498      
60.2        16.218      136.61      2.469       6.272       29.369      14.548      14.399      33.822      32.17       20.62       8.087       0.945       1.881       510.064     33.843      1.06        225.002     232.929     213.698     45.479      
60.4        18.155      136.167     2.461       6.01        28.919      14.905      13.732      34.351      31.068      20.161      8.027       0.952       1.931       510.336     34.039      1.06        253.808     247.126     238.406     42.633      
60.6        17.62       136.199     2.484       5.863       28.492      14.516      12.52       36.181      30.222      20.289      7.997       1.065       1.957       511.088     34.228      1.06        277.213     258.064     243.383     38.732      
60.8        18.072      136.779     2.493       5.899       27.924      13.975      11.305      38.731      29.486      21.03       8.045       1.055       1.897       512.544     34.459      1.06        266.373     241.397     228.674     38.868      
61.0        16.444      137.132     2.476       6.243       27.418      13.342      10.218      41.372      29.66       22.884      8.093       1.065       1.858       514.72      34.659      1.06        245.77      219.6       234.581     39.542      
61.2        17.62       136.169     2.457       6.135       27.281      12.892      10.382      43.329      30.494      25.955      8.201       1.006       1.895       517.232     34.726      1.06        231.984     222.712     242.394     36.567      
61.4        16.558      135.982     2.446       6.123       28.121      13.154      11.802      43.856      32.539      30.313      8.35        0.994       1.905       519.616     34.723      1.06        230.479     244.999     215.883     37.674      
61.6        12.882      136.895     2.436       5.945       30.721      14.93       15.004      44.006      34.508      35.629      8.526       0.962       1.8         521.952     34.627      1.06        255.461     265.925     207.228     40.912      
61.8        13.459      136.643     2.486       5.442       34.896      17.504      18.251      44.065      36.703      40.286      8.722       1.049       1.812       524.448     34.382      1.06        288.233     272.992     244.196     43.016      
62.0        17.701      136.473     2.49        5.202       39.348      19.187      20.9        43.232      38.195      41.92       8.913       1.067       1.963       526.992     34.019      1.06        301.75      281.076     265.167     42.56       
62.2        23.388      135.861     2.473       5.543       42.645      19.461      21.584      41.806      38.438      40.348      9.135       1.108       2.073       529.2       33.629      1.06        302.226     280.989     252.847     38.262      
62.4        31.189      133.482     2.487       5.15        43.665      18.711      20.065      40.185      37.316      36.728      9.406       1.137       2.169       530.752     33.311      1.06        281.915     251.899     253.225     35.085      
62.6        43.251      133.595     2.475       5.361       42.141      17.579      16.88       38.273      35.404      32.505      9.582       1.142       2.273       531.696     33.091      1.06        237.699     216.904     263.41      35.683      
62.8        40.179      133.901     2.474       5.643       38.886      15.902      13.189      37.43       33.331      29.803      9.404       1.174       2.231       532.48      32.944      1.06        205.523     210.392     258.193     34.274      
63.0        23.768      136.507     2.45        5.459       34.97       14.514      10.144      38.391      31.369      30.432      8.965       1.104       2.118       533.744     32.866      1.06        197.521     215.863     229.663     34.814      
63.2        17.378      136.972     2.463       5.978       31.435      13.057      8.119       40.4        29.882      34.351      8.701       0.986       1.924       535.6       32.858      1.06        187.447     204.765     216.098     41.231      
63.4        15.311      136.652     2.477       6.3         29.594      12.465      7.203       42.721      29.259      40.447      8.828       0.936       1.894       537.52      32.876      1.06        168.41      190.979     235.816     38.901      
63.6        18.197      138.227     2.453       6.706       29.374      12.19       7.35        44.34       29.857      47.19       9.132       0.933       1.895       538.976     33.125      1.06        155.486     203.967     241.547     39.538      
63.8        15.382      139.695     2.421       7.853       30.529      12.287      8.764       44.19       30.543      54.4        9.246       0.987       1.869       540.0       34.018      1.06        165.07      210.822     227.977     40.261      
64.0        14.791      140.443     2.429       8.284       33.738      12.902      10.792      42.575      31.681      62.917      9.428       1.015       1.859       540.944     35.91       1.06        196.268     212.111     250.212     42.77       
64.2        13.243      140.668     2.518       7.064       40.936      16.479      14.144      40.86       32.983      72.286      9.989       1.074       1.829       542.016     38.687      1.06        225.913     208.217     277.194     41.041      
