~Version Information Section
VERS.                                         2.0:CWLS log ASCII Standart – VERSION 2.0
WRAP.                                          NO:One line per depth step
~Well Information Section
STRT.M                                        0.6:Начальная глубина
STOP.M                                      191.4:Конечная глубина
STEP.M                                          0:Шаг квантования по глубине
NULL.                                    -9999.25:Признак "Нет данных"
WELL.                                       129Мх:Скважина
~Parameter Information Section
~Curve Information Section
DEPTH.M                                          :Глубина
BK.lgОмм                                         :BK     (БК)
ПРОФ_СР.мм                                       :DS  (ДС)
ГК.имп/мин                                       :GK          (ГК)
ГЗ1.Омм                                          :GZ1   ГЗ1(A0.4M0.1N)
ГЗ2.Омм                                          :GZ2   ГЗ2(A1.0M0.1N)
ГЗ3.Омм                                          :GZ3   ГЗ3(A2.0M0.5N)
ГЗ4.Oмм                                          :GZ4   ГЗ4(A4.0M0.5N)
ГЗ5.Oмм                                          :GZ5   ГЗ5(A8.0M0.5N)
ГЗК.Омм                                          :GZK   ГЗK(N0.5M2.0A)
ИК.мСм/м                                         :IK
НГК.усл.ед                                       :NNKb  (ННКб)
ННКМ.усл.ед                                      :NNKm  (ННКм)
PZ.Омм                                           :PZ    (КС)
РЕЗ.Омм                                          :RS (Резистивиметр)
U1.мВ                                            :U1
U2.mV                                            :U2
U3.мВ                                            :U3
КП.%                                             :Кп
ПС.                                              :ПС
~ASCII LOG DATA
# ...
133.2       25.013      134.245     5.798       11.491      9.985       24.177      12.166      27.178      14.965      15.584      3.269       2.097       22.308      1.12        946.666     1220.245    696.882     33.221      -141.0      
133.3       23.945      134.249     5.971       12.541      10.996      23.479      12.382      28.956      14.965      15.584      3.169       2.114       23.151      1.12        933.333     1235.531    715.673     32.69       -141.0      
133.4       25.281      134.321     5.939       13.523      11.797      22.934      13.07       30.511      14.77       15.633      3.146       2.16        23.646      1.12        917.331     1261.526    774.42      31.906      -141.0      
133.5       28.3        134.374     5.933       14.267      12.238      22.537      14.358      31.889      14.377      15.633      3.227       2.186       23.885      1.12        874.669     1285.546    833.155     31.337      -141.0      
133.6       31.32       134.397     6.106       14.764      12.296      22.279      16.309      33.089      13.817      15.721      3.308       2.202       23.974      1.12        837.331     1284.438    861.933     30.896      -141.0      
133.7       32.729      134.476     6.112       15.067      12.296      22.148      18.841      34.244      13.147      15.609      3.419       2.219       23.997      1.12        810.667     1255.235    818.526     30.908      -141.0      
133.8       33.542      134.505     6.144       15.285      12.146      22.148      21.808      35.356      12.433      15.702      3.434       2.233       24.0        1.12        821.333     1222.984    775.111     30.708      -141.0      
133.9       35.26       134.722     6.036       15.296      11.875      22.153      24.99       36.422      11.722      15.702      3.469       2.23        24.002      1.12        834.668     1199.337    742.64      30.827      -141.0      
134.0       36.164      134.501     5.606       15.296      11.458      22.28       28.246      37.311      11.086      15.771      3.457       2.222       24.012      1.12        842.668     1177.181    733.981     31.342      -141.0      
134.1       35.253      134.467     5.69        14.913      10.769      22.485      31.506      38.022      10.55       15.771      3.427       2.243       24.046      1.12        826.666     1142.399    712.777     31.889      -141.0      
134.2       33.909      134.462     5.856       14.093      9.874       22.69       34.701      38.511      10.135      15.764      3.389       2.263       24.13       1.12        813.334     1110.837    690.225     32.52       -140.96     
134.3       32.118      134.417     5.773       13.114      9.001       22.822      37.687      38.778      9.826       15.677      3.304       2.256       24.29       1.12        805.333     1096.231    676.329     33.435      -140.88     
134.4       32.143      134.4       5.606       12.263      8.387       22.855      40.098      38.778      9.596       15.677      3.106       2.231       24.543      1.12        802.667     1116.591    714.69      34.104      -140.76     
134.5       30.439      134.401     5.581       11.692      8.157       22.855      41.493      38.778      9.436       15.517      2.956       2.175       24.904      1.12        805.333     1158.489    784.408     34.804      -140.6      
134.6       29.182      134.478     5.568       11.36       8.157       22.791      41.503      38.556      9.343       15.408      2.921       2.114       25.389      1.12        810.667     1201.204    854.142     35.404      -140.44     
134.7       26.971      134.563     6.029       11.175      8.196       22.66       41.503      38.2        9.343       15.408      2.919       2.07        26.033      1.12        810.667     1224.615    855.968     35.768      -140.36     
134.8       26.171      134.256     6.144       11.08       8.386       22.476      40.172      37.8        9.38        15.451      2.94        2.039       26.874      1.12        808.0       1219.345    814.023     36.068      -140.36     
134.9       25.372      134.279     6.682       11.08       8.574       22.253      37.965      37.444      9.594       15.451      2.882       2.028       27.937      1.12        805.333     1203.212    762.699     36.28       -140.36     
135.0       25.547      134.288     6.816       11.1        8.806       22.004      35.473      37.178      9.978       15.212      2.786       2.045       29.207      1.12        813.333     1185.556    725.502     35.919      -140.36     
135.1       25.566      134.319     6.989       11.255      9.027       21.766      33.163      37.044      10.461      15.212      2.815       2.07        30.607      1.12        832.001     1175.032    695.343     35.33       -140.52     
135.2       25.825      134.354     6.989       11.573      9.299       21.586      31.232      37.044      10.935      15.19       2.863       2.067       32.016      1.12        858.665     1191.21     674.57      34.619      -140.84     
135.3       26.372      134.852     5.914       11.923      9.473       21.497      29.701      37.044      11.335      15.126      2.873       2.06        33.294      1.12        872.0       1233.536    705.699     33.594      -141.28     
135.4       26.919      135.072     6.048       12.223      9.6         21.476      28.559      37.267      11.616      15.105      2.902       2.064       34.331      1.12        893.334     1281.955    785.914     33.019      -141.8      
135.5       26.879      134.246     6.72        12.469      9.62        21.476      27.849      37.8        11.804      15.105      2.961       2.069       35.08       1.12        890.666     1312.663    866.114     32.847      -142.4      
135.6       26.43       134.011     6.65        12.678      9.68        21.476      27.732      38.778      11.975      14.979      3.05        2.082       35.557      1.12        890.665     1269.384    862.052     33.002      -142.92     
135.7       25.982      133.954     6.509       12.916      9.747       21.46       27.732      40.156      12.177      14.979      3.139       2.094       35.821      1.12        866.667     1204.269    800.334     33.498      -143.36     
135.8       26.043      133.938     6.163       13.079      9.931       21.388      28.246      41.844      12.393      14.835      3.134       2.098       35.942      1.12        850.667     1139.14     738.604     34.332      -143.68     
135.9       26.203      134.002     5.818       13.14       10.199      21.233      29.22       43.533      12.539      14.876      2.947       2.095       35.987      1.12        858.668     1126.477    732.768     34.709      -143.84     
136.0       26.589      134.081     5.967       13.164      10.604      20.997      30.28       45.0        12.596      14.876      2.874       2.083       35.998      1.12        866.666     1129.91     755.343     34.548      -143.84     
136.1       25.871      133.947     6.067       13.183      11.033      20.707      30.962      46.022      12.597      14.815      2.882       2.056       36.0        1.12        877.333     1136.371    777.923     34.33       -143.84     
136.2       25.153      133.803     6.067       13.194      11.538      20.457      30.962      46.689      12.605      14.815      2.88        2.025       36.0        1.12        858.667     1149.465    762.026     33.905      -143.84     
136.3       23.654      133.656     6.067       13.318      12.064      20.379      30.959      47.089      12.628      14.815      2.868       2.024       36.0        1.12        880.0       1174.273    733.006     33.568      -143.8      
136.4       23.098      133.477     6.029       13.76       12.668      20.379      30.217      47.444      12.731      14.653      2.881       2.036       36.0        1.12        885.334     1213.36     708.528     33.824      -143.6      
136.5       22.56       133.584     6.07        14.544      13.206      20.621      29.035      47.8        12.959      14.653      2.917       2.037       35.998      1.12        893.335     1243.018    713.068     34.195      -143.2      
