~Version Information Section
VERS.                                         2.0:CWLS log ASCII Standart – VERSION 2.0
WRAP.                                          NO:One line per depth step
~Well Information Section
STRT.M                                        0.4:Начальная глубина
STOP.M                                      206.4:Конечная глубина
STEP.M                                          0:Шаг квантования по глубине
NULL.                                    -9999.25:Признак "Нет данных"
WELL.                                       157Мх:Скважина
~Parameter Information Section
~Curve Information Section
DEPTH.M                                          :Глубина
BK.Ohm*M                                         :BK     (БК)
DS.mm                                            :DS  (ДС)
GGK.g/cm3                                        :GGKp
ГК.mcr/h                                         :GK          (ГК)
GZ1.Ohm*M                                        :GZ1   ГЗ1(A0.4M0.1N)
GZ2.Ohm*M                                        :GZ2   ГЗ2(A1.0M0.1N)
GZ3.Ohm*M                                        :GZ3   ГЗ3(A2.0M0.5N)
GZ4.Ohm*M                                        :GZ4   ГЗ4(A4.0M0.5N)
GZ5.Ohm*M                                        :GZ5   ГЗ5(A8.0M0.5N)
GZR.                                             :GZR   ГЗK(N0.5M2.0A)
ИК.Ohm*M                                         :IK
НГК.ue                                           :NGK     (НГК)
NNKM.                                            :NNKm  (ННКм)
PS.mv                                            :PS       (ПС)
PZ.Ohm*M                                         :PZ    (КС)
RS.Ohm*M                                         :RS (Резистивиметр)
W.%                                              :W
~ASCII LOG DATA
# ...
48.5        13.044      161.296     2.362       6.402       14.054      17.296      14.283      11.846      24.058      25.055      23.02       1.407       2.135       198.505     23.777      1.124       31.349      
48.6        15.325      158.42      2.356       6.339       12.033      13.261      11.816      9.427       25.506      23.408      24.411      1.406       2.13        198.498     24.375      1.115       32.145      
48.7        18.569      164.557     2.359       6.158       12.038      11.515      10.146      7.84        27.617      23.54       26.004      1.417       2.184       198.275     26.075      1.111       31.419      
48.8        21.792      157.69      2.37        6.201       12.221      10.611      10.036      7.453       30.675      24.759      27.662      1.42        2.258       196.973     27.991      1.111       29.976      
48.9        20.907      158.592     2.387       6.467       13.089      10.378      10.362      7.644       34.841      29.081      29.638      1.47        2.301       193.841     30.122      1.111       28.981      
49.0        19.889      161.699     2.391       6.684       14.309      10.571      12.336      8.703       39.763      37.749      32.098      1.523       2.303       188.036     32.409      1.111       28.31       
49.1        23.576      163.247     2.389       6.699       16.134      11.922      16.051      10.038      44.769      50.594      34.821      1.63        2.347       179.025     35.205      1.11        27.214      
49.2        29.263      162.65      2.367       6.651       18.385      15.25       21.482      10.718      49.583      65.132      37.828      1.704       2.445       167.098     38.628      1.109       24.673      
49.3        50.399      159.373     2.345       6.018       21.877      20.446      27.86       11.243      54.198      77.289      40.774      1.898       2.709       153.258     42.357      1.111       21.477      
49.4        120.95      157.224     2.325       5.42        27.498      25.897      34.204      12.767      58.429      82.69       43.302      2.045       2.926       138.69      47.13       1.111       19.238      
49.5        154.892     156.34      2.317       4.808       37.617      30.607      39.44       17.543      62.347      82.609      44.937      2.186       3.1         125.094     54.76       1.112       18.593      
49.6        148.611     156.197     2.312       4.658       52.388      34.184      42.522      25.848      66.112      81.179      45.52       2.231       3.117       113.811     66.516      1.115       19.431      
49.7        123.913     156.015     2.318       4.362       72.92       37.503      43.547      34.215      69.104      75.473      45.594      2.287       3.096       105.938     84.144      1.117       20.108      
49.8        117.203     155.952     2.328       4.143       96.121      41.503      43.544      39.378      70.626      69.475      45.043      2.322       3.086       101.711     105.18      1.12        19.941      
49.9        122.396     155.901     2.349       4.045       116.572     45.968      43.534      41.14       70.935      65.319      44.402      2.332       3.112       101.022     123.652     1.122       18.872      
50.0        122.877     155.946     2.367       4.04        130.003     52.496      43.576      42.264      70.333      62.432      43.237      2.367       3.158       101.022     134.893     1.127       17.169      
50.1        119.279     155.948     2.387       3.984       136.783     63.52       43.927      43.748      68.919      60.243      42.245      2.435       3.216       101.022     137.545     1.131       15.556      
50.2        128.42      155.971     2.405       3.923       143.275     83.125      44.886      45.754      66.996      58.181      40.836      2.58        3.267       101.686     136.996     1.131       14.356      
50.3        126.813     156.09      2.422       3.927       150.892     115.248     46.117      47.741      64.614      55.525      39.633      2.701       3.346       105.767     133.352     1.131       13.534      
50.4        112.442     156.481     2.437       4.101       157.457     154.272     47.406      48.776      61.473      51.992      37.968      2.834       3.399       113.531     125.383     1.13        13.025      
50.5        84.155      156.453     2.448       4.259       157.31      184.85      47.918      48.511      57.459      47.409      36.224      2.846       3.422       124.292     113.854     1.131       13.093      
50.6        59.65       156.559     2.445       4.516       155.449     198.968     47.5        46.416      52.859      41.923      34.391      2.796       3.353       136.972     99.311      1.132       13.958      
50.7        48.567      156.66      2.424       4.612       147.259     196.549     44.796      40.568      47.934      36.22       32.558      2.604       3.26        149.807     83.113      1.131       16.668      
50.8        31.954      156.911     2.388       4.68        128.992     178.588     39.351      31.937      43.003      31.459      31.005      2.413       3.009       161.426     69.076      1.129       21.035      
50.9        18.242      157.029     2.359       4.587       98.874      136.585     32.796      23.381      38.195      27.931      29.76       2.101       2.746       171.168     59.183      1.128       25.323      
51.0        19.699      157.136     2.341       4.436       67.375      94.954      26.427      16.865      33.737      25.569      29.053      1.885       2.495       178.792     53.212      1.128       27.919      
51.1        23.959      157.316     2.336       4.29        44.965      68.549      21.508      12.945      29.859      24.069      28.786      1.643       2.404       185.003     48.595      1.128       28.104      
51.2        24.426      157.349     2.336       4.191       37.108      60.11       18.795      10.947      26.729      23.604      28.633      1.564       2.383       190.388     44.741      1.129       27.302      
51.3        21.72       157.337     2.339       4.31        32.161      51.611      18.561      10.114      24.75       23.778      28.463      1.493       2.377       195.217     41.52       1.129       27.574      
51.4        19.981      157.386     2.334       4.442       28.371      43.127      19.078      10.121      23.752      24.913      28.599      1.516       2.366       199.468     39.718      1.13        29.326      
51.5        23.883      157.401     2.328       4.561       27.055      40.033      22.169      10.325      23.424      27.073      28.827      1.561       2.355       203.157     38.902      1.131       31.005      
51.6        32.267      157.435     2.324       4.401       27.589      40.131      27.516      11.281      23.314      28.853      29.525      1.558       2.421       206.057     38.566      1.132       31.028      
51.7        37.745      157.474     2.326       4.012       30.518      40.526      33.716      12.615      23.327      29.486      29.728      1.511       2.509       208.192     38.333      1.133       29.29       
51.8        41.886      157.528     2.332       3.656       34.348      40.479      38.946      13.856      23.319      29.216      29.853      1.541       2.642       209.793     38.424      1.135       27.379      
51.9        36.925      157.645     2.341       3.44        37.534      39.877      41.376      14.255      23.265      27.524      29.584      1.651       2.693       211.134     38.407      1.132       25.537      
52.0        34.862      157.735     2.353       3.634       39.946      37.417      41.529      14.187      23.216      24.321      29.347      1.726       2.691       212.233     38.51       1.129       24.159      
52.1        36.429      157.824     2.356       3.862       41.188      33.769      41.205      13.772      23.097      20.635      28.933      1.7         2.636       213.18      39.018      1.129       24.194      
