~Version Information Section
VERS.                                         2.0:CWLS log ASCII Standart – VERSION 2.0
WRAP.                                          NO:One line per depth step
~Well Information Section
STRT.M                                        1.0:Начальная глубина
STOP.M                                      199.5:Конечная глубина
STEP.M                                          0:Шаг квантования по глубине
NULL.                                    -9999.25:Признак "Нет данных"
WELL.                                       122Мх:Скважина
~Parameter Information Section
~Curve Information Section
DEPTH.M                                          :Глубина
БК.Омм                                           :BK     (БК)
DСР.мм                                           :DS  (ДС)
ГК.гамма                                         :GK          (ГК)
А0.4М0.1N.Омм.ohmm                               :GZ1   ГЗ1(A0.4M0.1N)
А1.0М0.1N.Омм.ohmm                               :GZ2   ГЗ2(A1.0M0.1N)
А2.0М0.5N.Омм.ohmm                               :GZ3   ГЗ3(A2.0M0.5N)
А4.0М0.5N.Oмм.ohmm                               :GZ4   ГЗ4(A4.0M0.5N)
А8.0М1.0N.Омм.ohmm                               :GZ5   ГЗ5(A8.0M0.5N)
N0.5M2.0A.Омм.ohmm                               :GZK   ГЗK(N0.5M2.0A)
ИК.мСм/м                                         :IK
НГК.усл.ед                                       :NGK     (НГК)
ПС.mv                                            :PS       (ПС)
КС.Омм                                           :PZ    (КС)
R.Омм                                            :RS (Резистивиметр)
ПЛОТНОСТЬ.г/см3                                  :ГГКп
П.                                               :п
ННКМ.усл.ед                                      :ННКм
~ASCII LOG DATA
# ...
189.7       34.353      132.699     6.316       54.185      31.979      40.227      30.778      28.688      23.339      20.394      1.391       72.25       36.799      -9999.25    2.417       29.294      147.13      
189.8       34.353      134.467     6.249       52.11       29.52       35.025      30.768      28.642      23.342      20.3        1.357       72.25       37.888      -9999.25    2.42        29.177      147.185     
189.9       34.662      136.358     6.138       50.582      28.308      31.832      -9999.25    27.614      -9999.25    20.113      1.32        72.139      38.358      -9999.25    2.416       29.107      147.314     
190.0       34.831      135.127     6.108       49.061      28.426      31.012      -9999.25    26.864      -9999.25    19.915      1.292       71.918      38.222      -9999.25    2.408       29.354      148.897     
190.1       31.411      135.141     6.289       47.239      29.79       32.119      -9999.25    26.893      -9999.25    19.809      1.269       -9999.25    37.283      -9999.25    2.393       29.993      152.991     
190.2       41.528      134.596     6.595       48.206      34.003      33.474      -9999.25    27.56       -9999.25    19.76       1.247       -9999.25    36.451      -9999.25    2.387       30.871      155.669     
190.3       61.217      134.679     6.726       53.256      39.496      34.712      -9999.25    28.334      -9999.25    19.717      1.244       -9999.25    36.682      -9999.25    2.389       31.749      155.975     
190.4       30.838      134.941     6.574       56.307      40.847      36.625      -9999.25    28.488      -9999.25    19.693      1.266       -9999.25    37.109      -9999.25    2.403       32.619      158.704     
190.5       27.227      135.443     6.387       54.55       40.267      37.765      -9999.25    27.982      -9999.25    19.666      1.306       -9999.25    36.93       -9999.25    2.414       33.609      158.167     
190.6       28.276      135.755     6.373       57.402      43.92       36.866      -9999.25    27.429      -9999.25    19.675      1.349       -9999.25    36.738      -9999.25    2.425       35.274      155.333     
190.7       28.72       136.857     6.49        66.689      46.177      35.378      -9999.25    27.132      -9999.25    19.581      1.378       -9999.25    36.739      -9999.25    2.429       36.956      154.876     
190.8       26.836      137.582     6.637       67.058      40.165      33.429      -9999.25    25.971      -9999.25    19.522      1.393       -9999.25    37.129      -9999.25    2.43        38.059      153.139     
190.9       25.261      134.767     6.782       60.037      33.441      30.185      -9999.25    24.415      -9999.25    19.381      1.386       -9999.25    37.442      -9999.25    2.427       38.215      150.415     
191.0       26.456      135.578     7.007       58.382      31.27       27.32       -9999.25    23.845      -9999.25    19.264      1.351       -9999.25    37.076      -9999.25    2.422       37.969      148.235     
191.1       29.487      135.794     7.094       58.261      30.77       25.884      -9999.25    23.248      -9999.25    19.264      1.301       -9999.25    36.721      -9999.25    2.418       37.123      148.153     
191.2       33.73       135.108     6.903       54.129      29.688      24.976      -9999.25    22.343      -9999.25    19.264      1.266       -9999.25    36.649      -9999.25    2.412       36.042      147.427     
191.3       34.023      136.39      6.563       49.912      28.729      24.395      -9999.25    21.257      -9999.25    19.277      1.258       -9999.25    36.882      -9999.25    2.409       34.277      147.644     
191.4       28.208      134.939     6.389       48.343      30.105      24.573      -9999.25    20.433      -9999.25    19.256      1.262       -9999.25    36.953      -9999.25    2.41        32.743      148.498     
191.5       24.733      134.934     6.526       47.829      33.32       25.182      -9999.25    19.725      -9999.25    19.074      1.254       -9999.25    36.73       -9999.25    2.415       31.634      149.388     
191.6       24.874      135.991     6.741       47.789      38.448      25.712      -9999.25    19.427      -9999.25    18.885      1.251       -9999.25    36.694      -9999.25    2.422       31.25       149.487     
191.7       25.998      136.258     6.908       47.783      39.701      26.168      -9999.25    19.46       -9999.25    18.74       1.277       -9999.25    36.758      -9999.25    2.433       31.438      149.39      
191.8       28.016      137.532     6.971       47.784      35.493      26.271      -9999.25    20.041      -9999.25    18.553      1.328       -9999.25    36.795      -9999.25    2.446       31.545      147.782     
191.9       28.117      139.52      6.943       47.786      33.147      25.81       -9999.25    20.694      -9999.25    18.357      1.387       -9999.25    36.782      -9999.25    2.458       31.04       146.932     
192.0       28.914      139.223     6.842       47.788      32.75       25.522      -9999.25    21.217      -9999.25    18.142      1.427       -9999.25    36.795      -9999.25    2.465       30.143      147.246     
192.1       34.759      140.08      6.69        47.792      32.525      25.858      -9999.25    21.616      -9999.25    17.883      1.428       -9999.25    36.815      -9999.25    2.469       28.939      148.454     
192.2       54.947      137.276     6.601       47.792      32.527      26.4        -9999.25    22.297      -9999.25    17.462      1.393       -9999.25    36.824      -9999.25    2.472       27.535      149.639     
192.3       56.396      138.173     6.627       47.788      32.519      27.148      -9999.25    23.357      -9999.25    17.017      1.349       -9999.25    36.762      -9999.25    2.476       26.081      150.986     
192.4       45.366      140.032     6.772       47.789      32.519      28.462      -9999.25    24.541      -9999.25    16.457      1.32        -9999.25    -9999.25    -9999.25    2.479       24.463      153.45      
192.5       43.114      143.342     6.972       47.794      32.521      30.128      -9999.25    26.491      -9999.25    15.93       1.309       -9999.25    -9999.25    -9999.25    2.484       23.517      155.879     
192.6       40.131      145.847     7.164       -9999.25    32.533      32.237      -9999.25    27.641      -9999.25    15.334      1.3         -9999.25    -9999.25    -9999.25    2.489       23.241      156.916     
192.7       26.112      151.7       7.394       -9999.25    32.528      33.996      -9999.25    28.627      -9999.25    14.815      1.29        -9999.25    -9999.25    -9999.25    2.494       23.43       155.938     
192.8       28.998      157.11      7.634       -9999.25    32.518      34.824      -9999.25    29.456      -9999.25    14.78       1.274       -9999.25    -9999.25    -9999.25    2.498       23.593      155.093     
192.9       45.646      156.401     7.929       -9999.25    32.527      34.471      -9999.25    29.837      -9999.25    14.636      1.258       -9999.25    -9999.25    -9999.25    2.506       23.595      153.785     
193.0       43.899      158.485     8.436       -9999.25    32.526      33.807      -9999.25    30.131      -9999.25    14.232      1.247       -9999.25    -9999.25    -9999.25    2.514       24.156      152.727     
193.1       24.036      159.087     8.696       -9999.25    32.523      33.783      -9999.25    30.447      -9999.25    13.897      1.248       -9999.25    -9999.25    -9999.25    2.518       25.111      149.98      
193.2       16.515      156.196     8.482       -9999.25    -9999.25    33.741      -9999.25    30.352      -9999.25    13.232      1.262       -9999.25    -9999.25    -9999.25    2.511       25.884      147.297     
193.3       12.253      154.787     8.123       -9999.25    -9999.25    33.706      -9999.25    30.318      -9999.25    12.876      1.28        -9999.25    -9999.25    -9999.25    2.496       26.834      145.311     
