~Version Information Section
VERS.                                         2.0:CWLS log ASCII Standart – VERSION 2.0
WRAP.                                          NO:One line per depth step
~Well Information Section
STRT.M                                        0.4:Начальная глубина
STOP.M                                      190.1:Конечная глубина
STEP.M                                          0:Шаг квантования по глубине
NULL.                                    -9999.25:Признак "Нет данных"
WELL.                                       135Мх:Скважина
~Parameter Information Section
~Curve Information Section
DEPTH.M                                          :Глубина
DS.mm                                            :DS  (ДС)
GGK.g/cm3                                        :GGKp
ГК.mcr/h                                         :GK          (ГК)
GZ1.Ohm*M                                        :GZ1   ГЗ1(A0.4M0.1N)
GZ2.Ohm*M                                        :GZ2   ГЗ2(A1.0M0.1N)
GZ3.Ohm*M                                        :GZ3   ГЗ3(A2.0M0.5N)
GZ4.Ohm*M                                        :GZ4   ГЗ4(A4.0M0.5N)
GZ5.Ohm*M                                        :GZ5   ГЗ5(A8.0M0.5N)
GZR.Ohm*M                                        :GZK   ГЗK(N0.5M2.0A)
ИК.Ohm*M                                         :IK
НГК.ue                                           :NGK     (НГК)
NNKM.                                            :NNKm  (ННКм)
PS.mv                                            :PS       (ПС)
PZ.Ohm*M                                         :PZ    (КС)
RS.Ohm*M                                         :RS (Резистивиметр)
U1.mV                                            :U1
U2.mV                                            :U2
U3.mV                                            :U3
BK.Ohm*M                                         :БК
ПОРИСТОСТЬ.                                      :Пористость ННК
~ASCII LOG DATA
# ...
86.8        143.757     2.321       8.827       22.383      12.266      15.838      17.0        8.67        16.129      14.064      1.432       1.972       414.208     25.284      1.46        157.701     80.223      110.233     15.698      36.002      
86.9        142.046     2.338       8.643       22.387      12.075      15.389      17.122      8.597       16.242      14.01       1.415       1.986       414.653     21.192      1.46        153.925     75.015      107.7       15.56       36.095      
87.0        141.709     2.367       8.361       22.4        11.867      14.911      16.96       8.527       16.448      13.965      1.371       1.951       415.294     17.436      1.46        150.273     68.909      104.812     15.213      37.146      
87.1        141.709     2.383       8.0         22.417      11.666      14.479      16.633      8.453       16.809      13.937      1.321       1.903       416.095     12.12       1.44        148.247     66.051      103.401     14.968      38.172      
87.2        142.819     2.368       7.743       22.432      11.516      14.152      16.271      8.369       17.336      13.917      1.318       1.844       417.01      8.052       1.44        149.871     69.301      104.879     14.746      40.498      
87.3        145.861     2.335       7.953       22.45       11.434      13.932      15.963      8.279       17.965      13.894      1.374       1.807       417.964     7.416       1.44        153.231     72.689      107.727     14.576      42.078      
87.4        150.992     2.286       8.496       22.463      11.404      13.784      15.725      8.189       18.567      13.865      1.419       1.785       418.923     6.72        1.44        154.967     72.829      109.099     14.814      42.309      
87.5        154.957     2.237       8.707       22.436      11.391      13.646      15.502      8.102       19.034      13.834      1.417       1.788       419.839     4.428       1.44        156.594     71.541      110.429     14.977      40.399      
87.6        154.597     2.216       8.686       22.343      11.363      13.456      15.206      8.007       19.352      13.799      1.371       1.809       420.658     2.508       1.44        155.275     67.161      109.365     14.801      37.316      
87.7        150.932     2.221       8.346       22.192      11.284      13.165      14.786      7.904       19.601      13.758      1.343       1.811       421.333     1.872       1.42        153.777     62.422      107.987     14.766      35.574      
87.8        145.564     2.232       8.654       22.017      11.127      12.776      14.279      7.802       19.933      13.723      1.347       1.829       421.817     1.8         1.42        152.385     59.11       106.651     14.811      34.365      
87.9        143.631     2.252       8.727       21.871      10.916      12.351      13.783      7.716       20.479      13.72       1.368       1.851       422.062     1.8         1.42        157.043     60.531      109.363     14.725      34.213      
88.0        143.631     2.272       8.781       21.775      10.709      11.98       13.4        7.661       21.23       13.72       1.351       1.857       422.065     1.8         1.42        161.881     60.32       112.387     14.954      34.923      
88.1        146.245     2.272       8.776       21.697      10.559      11.727      13.175      7.636       22.049      13.734      1.289       1.873       421.855     1.8         1.42        167.785     60.109      116.071     15.103      35.718      
88.2        147.187     2.269       9.057       21.602      10.496      11.603      13.085      7.63        22.714      13.793      1.25        1.861       421.476     2.136       1.42        164.295     58.304      113.789     15.049      36.361      
88.3        147.187     2.272       9.417       21.468      10.488      11.566      13.067      7.63        22.996      13.889      1.277       1.819       421.007     3.036       1.42        160.67      58.219      111.271     14.751      37.914      
88.4        147.603     2.259       9.196       21.294      10.496      11.562      13.07       7.631       22.821      14.008      1.316       1.776       420.517     3.528       1.42        155.979     58.133      107.745     14.539      39.16       
88.5        149.517     2.238       8.936       21.115      10.531      11.577      13.098      7.642       22.343      14.134      1.351       1.75        420.014     3.6         1.42        155.992     58.16       107.159     14.633      41.056      
88.6        150.315     2.232       8.923       20.969      10.635      11.654      13.18       7.666       21.799      14.243      1.403       1.738       419.536     4.272       1.42        155.679     59.016      106.31      14.665      41.541      
88.7        151.293     2.238       9.527       20.886      10.876      11.839      13.316      7.692       21.385      14.339      1.451       1.767       419.153     5.064       1.42        155.367     59.872      105.812     14.871      41.17       
88.8        151.274     2.247       9.795       20.865      11.285      12.119      13.448      7.717       21.192      14.438      1.428       1.839       418.873     6.036       1.42        155.061     61.053      105.74      15.293      39.3        
88.9        148.45      2.268       9.509       20.881      11.786      12.41       13.472      7.733       21.153      14.569      1.375       1.916       418.683     7.2         1.42        155.215     61.675      106.166     15.975      37.502      
89.0        144.935     2.296       8.896       20.923      12.215      12.599      13.318      7.739       21.192      14.758      1.347       1.981       418.561     8.064       1.42        153.313     63.455      105.207     16.755      36.507      
89.1        143.107     2.315       8.665       20.988      12.453      12.623      13.02       7.733       21.411      15.008      1.374       2.021       418.46      9.036       1.42        151.257     64.615      103.821     17.02       35.925      
89.2        142.72      2.319       8.787       21.098      12.502      12.518      12.687      7.719       21.989      15.304      1.382       2.024       418.393     9.864       1.42        152.232     66.633      104.704     16.972      35.617      
89.3        142.177     2.309       8.996       21.31       12.443      12.377      12.427      7.7         23.035      15.622      1.368       2.008       418.368     11.172      1.42        155.264     67.493      106.972     16.799      35.073      
89.4        141.872     2.297       8.904       21.704      12.384      12.277      12.271      7.679       24.54       15.926      1.332       1.968       418.358     12.564      1.42        154.906     67.65       106.347     16.699      34.99       
89.5        141.872     2.289       8.753       22.311      12.332      12.227      12.163      7.665       26.288      16.154      1.298       1.909       418.354     13.8        1.42        146.058     64.554      99.23       16.563      36.764      
89.6        141.883     2.281       8.671       23.053      12.221      12.195      12.039      7.665       27.94       16.3        1.265       1.85        418.365     14.664      1.42        137.159     61.357      92.023      16.239      39.202      
89.7        141.972     2.268       8.837       23.764      12.069      12.161      11.905      7.665       29.32       16.392      1.275       1.822       418.363     15.972      1.42        131.421     58.405      87.563      15.773      40.286      
89.8        142.749     2.246       9.023       24.301      11.935      12.137      11.793      7.681       30.512      16.458      1.316       1.854       418.285     17.028      1.42        131.141     57.846      87.329      15.534      39.501      
89.9        145.359     2.223       8.781       24.613      11.876      12.13       11.746      7.716       31.797      16.513      1.384       1.941       418.082     17.7        1.42        130.924     57.079      87.325      15.542      38.118      
