~Version Information Section
VERS.                                         2.0:CWLS log ASCII Standart – VERSION 2.0
WRAP.                                          NO:One line per depth step
~Well Information Section
STRT.M                                        0.4:Начальная глубина
STOP.M                                      170.2:Конечная глубина
STEP.M                                          0:Шаг квантования по глубине
NULL.                                    -9999.25:Признак "Нет данных"
WELL.                                       121Мх:Скважина
~Parameter Information Section
~Curve Information Section
DEPTH.M                                          :Глубина
BK.Ohm*M                                         :BK     (БК)
DS.mm                                            :DS  (ДС)
GGK.g/cm3                                        :GGKp
ГК.mcr/h                                         :GK          (ГК)
GZ1.Ohm*M                                        :GZ1   ГЗ1(A0.4M0.1N)
GZ2.Ohm*M                                        :GZ2   ГЗ2(A1.0M0.1N)
GZ3.Ohm*M                                        :GZ3   ГЗ3(A2.0M0.5N)
GZ4.Ohm*M                                        :GZ4   ГЗ4(A4.0M0.5N)
GZ5.Ohm*M                                        :GZ5   ГЗ5(A8.0M0.5N)
GZR.Ohm*M                                        :GZK   ГЗK(N0.5M2.0A)
ИК.Ohm*M                                         :IK
НГК.u.e.                                         :NGK
NNKM.                                            :NNKm  (ННКм)
PS.mv                                            :PS       (ПС)
PZ.Ohm*M                                         :PZ    (КС)
RS.Ohm*M                                         :RS (Резистивиметр)
U1.mV                                            :U1
U2.mV                                            :U2
U3.mV                                            :U3
КП.%                                             :Кп
~ASCII LOG DATA
# ...
134.8       20.989      122.483     2.585       6.951       28.749      14.088      8.325       42.36       28.8        22.72       8.074       1.184       2.228       403.552     28.189      1.08        138.382     156.924     187.374     29.974      
135.0       21.478      122.482     2.608       7.053       28.553      14.707      7.958       42.346      28.8        22.908      8.063       1.171       2.24        399.04      28.392      1.08        128.479     155.444     183.646     31.218      
135.2       20.701      122.487     2.621       6.965       28.375      15.088      8.446       42.585      27.2        23.315      8.04        1.11        2.227       395.6       28.55       1.08        147.946     152.512     184.031     31.957      
135.4       19.999      122.504     2.601       6.624       28.365      15.082      6.4         42.682      28.981      23.54       8.025       1.151       2.235       393.536     28.576      1.08        177.89      144.941     197.401     32.557      
135.6       20.324      122.511     2.607       6.83        28.506      15.099      9.951       42.201      34.007      23.181      8.013       1.151       2.203       392.768     28.559      1.08        190.099     147.453     176.698     33.634      
135.8       20.184      122.479     2.603       6.805       28.803      15.541      11.316      41.069      38.813      22.215      8.009       1.248       2.186       392.768     28.438      1.08        194.883     151.3       135.126     36.235      
136.0       21.086      122.464     2.59        6.509       28.931      15.716      12.598      39.846      42.048      21.197      8.016       1.236       2.221       392.848     28.273      1.08        189.45      151.903     114.001     35.752      
136.2       20.749      122.45      2.63        6.363       28.949      15.207      13.158      38.744      44.049      20.31       7.997       1.177       2.274       394.112     28.093      1.08        163.972     163.982     115.999     32.211      
136.4       20.845      122.428     2.602       6.593       28.824      14.066      13.441      37.603      44.727      19.406      7.988       1.11        2.269       397.184     27.877      1.08        148.74      177.468     129.174     32.523      
136.6       20.23       122.403     2.589       6.952       28.718      13.588      13.312      37.093      44.244      19.144      7.955       1.136       2.235       401.744     27.604      1.08        155.325     175.917     169.057     32.331      
136.8       19.187      122.407     2.592       6.822       28.588      13.182      13.212      37.668      43.672      19.336      7.938       1.038       2.214       406.928     27.259      1.08        169.671     179.378     207.012     32.273      
137.0       19.953      122.394     2.622       6.589       28.569      13.415      13.531      39.073      42.974      19.541      7.91        1.06        2.194       412.24      26.896      1.08        189.572     205.095     213.625     35.083      
137.2       19.953      122.409     2.601       6.828       28.517      13.826      13.651      40.772      41.76       19.584      7.906       1.112       2.275       418.24      26.619      1.08        205.004     207.203     182.231     31.638      
137.4       19.999      122.394     2.574       7.225       28.437      15.024      13.148      42.589      39.978      19.93       7.865       1.066       2.229       425.888     26.506      1.08        211.951     185.507     206.294     30.511      
137.6       20.464      122.395     2.583       7.286       28.23       15.532      11.999      43.358      38.835      19.821      7.837       1.168       2.218       435.888     26.502      1.08        211.943     186.241     212.617     30.554      
137.8       18.664      122.339     2.569       7.001       27.911      15.757      11.436      42.885      37.768      19.653      7.763       1.182       2.255       447.696     26.531      1.08        203.874     180.487     191.291     32.398      
138.0       18.75       122.307     2.598       6.861       27.55       16.0        10.917      41.827      37.394      20.253      7.704       1.145       2.192       459.648     26.781      1.08        183.323     159.969     175.102     33.83       
138.2       19.099      122.293     2.566       6.452       27.377      16.36       11.089      39.556      37.308      20.671      7.64        1.143       2.232       469.408     27.28       1.08        170.485     149.076     172.357     34.499      
138.4       19.099      122.241     2.579       6.335       27.378      16.572      11.486      36.776      38.081      21.104      7.571       1.121       2.235       475.792     27.801      1.08        170.231     148.289     170.129     35.403      
138.6       18.578      122.217     2.588       6.917       27.245      16.833      12.639      35.46       38.275      22.405      7.508       1.099       2.235       479.28      27.997      1.08        173.415     161.363     136.471     34.314      
138.8       17.865      122.224     2.607       7.1         26.86       16.51       13.08       36.023      38.268      24.914      7.497       1.08        2.209       481.568     27.979      1.08        176.425     178.39      128.818     33.073      
139.0       18.535      122.198     2.671       7.096       26.505      15.293      13.268      36.766      38.195      27.336      7.456       1.133       2.197       483.968     27.669      1.08        173.212     183.487     144.456     35.391      
139.2       20.989      122.177     2.659       6.826       26.3        13.854      13.423      37.083      38.102      30.303      7.374       1.278       2.276       486.704     26.987      1.08        174.395     183.213     170.189     33.282      
139.4       16.943      122.212     2.655       7.158       26.132      12.292      13.522      37.811      37.827      34.222      7.304       1.22        2.323       489.376     26.147      1.08        156.769     170.881     193.467     33.969      
139.6       15.031      121.984     2.658       7.833       26.108      11.002      13.348      38.563      37.76       38.343      7.336       1.258       2.294       491.68      25.319      1.08        138.039     160.655     196.917     30.962      
139.8       17.62       121.988     2.623       7.686       26.288      10.042      13.33       38.251      37.207      41.426      7.409       1.204       2.319       493.696     24.597      1.08        141.53      177.754     199.012     30.847      
140.0       18.967      122.007     2.637       7.863       26.441      9.794       12.779      37.558      35.782      43.86       7.503       1.15        2.346       495.76      23.96       1.08        172.646     196.783     201.499     32.448      
140.2       19.907      121.986     2.607       7.701       26.375      9.725       11.244      38.014      34.067      46.032      7.543       1.116       2.307       498.064     23.332      1.08        210.15      206.246     200.337     30.995      
140.4       18.072      121.962     2.559       7.572       26.072      9.613       9.344       38.563      32.27       46.817      7.589       1.132       2.276       500.544     22.778      1.08        242.479     225.271     209.257     32.401      
140.6       19.187      121.958     2.513       7.401       25.424      9.278       7.3         38.238      30.726      46.763      7.664       1.225       2.236       502.912     22.499      1.08        249.348     240.279     194.277     32.479      
140.8       17.906      121.896     2.512       7.225       24.481      8.819       5.423       37.329      29.725      48.104      7.826       1.251       2.164       504.704     22.483      1.08        222.738     227.304     193.452     32.308      
141.0       17.947      121.915     2.57        7.31        23.819      7.729       4.032       35.874      29.979      54.404      8.088       1.167       2.134       505.44      22.56       1.08        192.031     209.091     223.989     32.513      
