~Version Information Section
VERS.                                         2.0:CWLS log ASCII Standart – VERSION 2.0
WRAP.                                          NO:One line per depth step
~Well Information Section
STRT.M                                       -0.3:Начальная глубина
STOP.M                                      200.8:Конечная глубина
STEP.M                                          0:Шаг квантования по глубине
NULL.                                    -9999.25:Признак "Нет данных"
WELL.                                       124Мх:Скважина
~Parameter Information Section
~Curve Information Section
DEPTH.M                                          :Глубина
U1.мВ                                            :U1
U2.                                              :U2
U3.мВ                                            :U3
БЗ.имп/мин                                       :БЗ
ГГКП.имп/мин                                     :ГГКп
ГЗ1.Омм                                          :ГЗ1
ГЗ2.Омм                                          :ГЗ2
ГЗ3.Омм                                          :ГЗ3
ГЗ4.Oмм                                          :ГЗ4
ГЗ5.Oмм                                          :ГЗ5
ГЗК.Омм                                          :ГЗК
КП.%                                             :Кп
МЗ.                                              :МЗ жесткий
НГК.усл.ед                                       :ННКб
ННКМ.усл.ед                                      :ННКм
ПРОФ_СР.мм                                       :ПРОФ_СР
ПС.мВ                                            :ПС
BK.lgОмм                                         :BK
ГК.имп/мин                                       :GK
ИК.мСм/м                                         :IK
PZ.Омм                                           :PZ
RIS.Омм                                          :RIS
~ASCII LOG DATA
# ...
170.8       1239.800415 3299.428711 1281.916992 12961.5380862.484211    8.099       12.448      25.5        26.0        26.408001   25.57       22.192127   20398.4609383.381309    2.132256    159.539001  468.776001  24.15461    5.856       11.776205   107.519997  1.04        
170.9       1249.338623 3309.558838 1294.805542 13453.3330082.494473    8.157       12.454      25.5        26.0        26.32       25.638      22.279232   20573.3339843.418156    2.144111    159.358994  470.623993  24.378107   6.266       11.777453   108.160004  1.04        
171.0       1226.56189  3296.541992 1299.697144 13504.2861332.506563    8.232       12.462      25.5        26.007999   26.256001   25.702      22.621939   21052.8574223.331628    2.158573    159.268005  471.855988  24.490635   6.47        11.777453   108.800003  1.04        
171.1       1207.092407 3276.884277 1292.138306 13456.0     2.515913    8.33        12.474      25.459999   26.040001   26.224001   25.761      22.554659   20918.6660163.330241    2.171014    159.259003  473.70401   24.434307   6.134       11.777453   110.0       1.04        
171.2       1232.792969 3275.307617 1274.733154 13596.9228522.519948    8.454       12.49       25.42       26.096001   26.224001   25.813      22.157814   20858.4609383.367679    2.189517    159.149994  474.936005  25.234804   6.067       11.777453   111.919998  1.04        
171.3       1314.953369 3299.89209  1250.267944 13564.0     2.518323    8.604       12.511      25.379999   26.176001   26.224001   25.860001   22.018982   20549.3339843.33186     2.203317    158.837006  476.167999  26.242187   5.683       11.777453   113.760002  1.04        
171.4       1377.646118 3320.501465 1229.410156 13873.8457032.510714    8.778       12.538      25.34       26.280001   26.224001   25.900999   21.94063    20115.3847663.286505    2.202773    158.541     477.399994  25.644842   5.837       11.777453   115.519997  1.04        
171.5       1373.367554 3318.464844 1218.877441 14161.4287112.501762    8.965       12.574      25.299999   26.392      26.232      25.940001   21.922554   20481.4277343.336903    2.197784    158.610992  479.247986  24.831329   6.144       11.777453   117.839996  1.04        
171.6       1316.455444 3299.071045 1219.969238 14137.1425782.49858     9.156       12.623      25.299999   26.48       26.280001   25.976999   22.125444   20821.4277343.371066    2.187675    158.695999  481.096008  24.774223   6.653       11.777453   119.440002  1.04        
171.7       1257.526245 3279.753418 1227.411499 13794.2861332.500417    9.344       12.697      25.299999   26.552      26.351999   26.014      22.461559   21181.4277343.310787    2.170054    158.548004  482.944     24.717241   7.162       11.75544    120.400002  1.04        
171.8       1225.128296 3270.616943 1238.911377 13530.0     2.508862    9.525       12.798      25.299999   26.608      26.455999   26.054001   22.672396   21657.1425783.264642    2.142453    158.602997  485.40799   24.15461    6.92        11.691395   121.279999  1.04        
171.9       1206.395508 3267.222656 1254.582275 13542.8574222.517918    9.697       12.925      25.299999   26.656      26.584      26.097      22.827566   21765.7148443.222463    2.122887    158.516006  487.256012  23.550491   6.758       11.660447   121.68      1.04        
172.0       1191.020752 3265.767334 1273.484985 13925.3330082.52159     9.848       13.075      25.299999   26.712      26.719999   26.143999   22.83794    21682.6660163.210415    2.120944    158.356003  489.104004  23.388371   7.027       11.633724   121.68      1.04        
172.1       1181.895996 3268.286865 1294.096436 14180.0     2.519054    9.972       13.242      25.299999   26.808001   26.864      26.195      22.779881   21512.8574223.223087    2.13183     158.167999  490.951996  23.550491   7.027       11.584398   121.68      1.04        
172.2       1181.755005 3276.675293 1315.245605 15245.3330082.506813    10.066      13.415      25.32       26.936001   27.016001   26.250999   22.855673   21769.3339843.223706    2.149321    158.026993  492.799988  23.604784   7.008       11.52884    120.480003  1.04        
172.3       1201.506714 3290.703369 1324.234009 16604.2851562.491893    10.13       13.587      25.34       27.096001   27.176001   26.309      22.928833   21831.4277343.223706    2.141084    158.076996  494.64801   23.334581   6.957       11.471046   118.480003  1.04        
172.4       1246.734497 3307.023193 1308.697266 18042.8574222.479542    10.166      13.754      25.360001   27.271999   27.336      26.370001   22.973646   22060.0     3.226497    2.126312    158.207001  497.112     23.014418   6.701       11.444921   115.68      1.04        
172.5       1291.49707  3317.568848 1281.164429 19827.1425782.471206    10.185      13.913      25.379999   27.464001   27.511999   26.433001   22.759611   22572.8574223.234405    2.129884    158.050995  499.575989  22.908678   6.605       11.401988   112.959999  1.04        
172.6       1302.559937 3317.106201 1267.462891 21038.5722662.469417    10.198      14.058      25.4        27.639999   27.688      26.497999   22.484724   22812.8574223.244643    2.138437    158.072006  502.040009  22.803423   6.413       11.365187   110.239998  1.04        
172.7       1269.555176 3305.855713 1279.668091 21732.0     2.480162    10.21       14.177      25.4        27.792      27.864      26.566      22.115204   23248.0     3.262316    2.148932    157.584     504.503998  23.067474   6.771       11.338126   108.239998  1.04        
172.8       1225.873657 3289.63623  1292.128052 22100.0     2.488315    10.226      14.267      25.4        27.92       28.024      26.638      21.993294   24020.0     3.31442     2.158262    157.742004  506.35199   23.604784   6.95        11.311066   106.879997  1.04        
172.9       1207.372314 3274.501221 1276.797485 22582.8574222.496726    10.25       14.328      25.440001   28.056      28.184      26.716      22.12534    24358.5722663.419547    2.167688    157.848999  507.584015  23.823193   6.47        11.282606   106.239998  1.04        
173.0       1216.924072 3269.275879 1250.004028 22944.2851562.500075    10.28       14.359      25.48       28.184      28.336      26.799999   22.413065   24657.1425783.381248    2.175269    157.899994  508.81601   23.550491   6.374       11.254798   104.959999  1.04        
173.1       1246.470703 3284.516357 1245.072021 22964.0     2.496512    10.313      14.366      25.540001   28.336      28.48       26.893      22.689461   24397.3339843.313476    2.190918    158.052002  510.048004  23.334581   6.278       11.227629   102.080002  1.04        
173.2       1273.783936 3311.034668 1268.610962 22748.5722662.484608    10.35       14.366      25.6        28.528      28.632      26.995001   23.016384   24190.0     3.225106    2.188778    158.498993  511.279999  24.322042   6.349       11.201469   98.720001   1.04        
173.3       1284.167358 3328.334717 1293.036621 22178.5722662.476205    10.388      14.366      25.66       28.768      28.792      27.105      23.095757   24184.2851563.143974    2.139214    158.337997  512.512024  25.234804   6.701       11.191315   95.360001   1.04        
173.4       1274.007935 3325.350098 1297.887695 22327.1425782.467572    10.419      14.36       25.68       28.983999   28.944      27.224001   23.532742   24260.0     3.086198    2.117152    158.285995  513.744019  24.210287   6.717       11.167195   91.599998   1.04        
173.5       1261.497437 3316.799561 1293.959473 22630.7695312.461109    10.438      14.343      25.700001   29.063999   29.072001   27.351      24.014338   24796.9238283.041727    2.139117    158.300003  514.359985  23.388371   6.739       11.159469   88.480003   1.04        
173.6       1273.008789 3323.748535 1296.348633 22920.0     2.456945    10.441      14.317      25.700001   29.063999   29.16       27.483999   24.396042   24561.4277343.004233    2.11639     158.561996  514.359985  22.961483   6.849       11.148273   87.199997   1.04        
