~Version Information Section
VERS.                                         2.0:CWLS log ASCII Standart – VERSION 2.0
WRAP.                                          NO:One line per depth step
~Well Information Section
STRT.M                                        1.6:Начальная глубина
STOP.M                                      212.2:Конечная глубина
STEP.M                                          0:Шаг квантования по глубине
NULL.                                    -9999.25:Признак "Нет данных"
WELL.                                       139Мх:Скважина
~Parameter Information Section
~Curve Information Section
DEPTH.M                                          :Глубина
BK.Ohm*M                                         :BK     (БК)
DS.mm                                            :DS  (ДС)
GGK.g/cm3                                        :GGKp
ГК.mcr/h                                         :GK          (ГК)
GZ1.Ohm*M                                        :GZ1   ГЗ1(A0.4M0.1N)
GZ2.Ohm*M                                        :GZ2   ГЗ2(A1.0M0.1N)
GZ3.Ohm*M                                        :GZ3   ГЗ3(A2.0M0.5N)
GZ4.Ohm*M                                        :GZ4   ГЗ4(A4.0M0.5N)
GZ5.Ohm*M                                        :GZ5   ГЗ5(A8.0M0.5N)
GZR.Ohm*M                                        :GZK   ГЗK(N0.5M2.0A)
ИК.Ohm*M                                         :IK
НГК.ue                                           :NGK     (НГК)
NNKM.                                            :NNKm  (ННКм)
PS.mv                                            :PS       (ПС)
PZ.Ohm*M                                         :PZ    (КС)
U1.mV                                            :U1
U2.mV                                            :U2
U3.mV                                            :U3
КП.%                                             :Кп
~ASCII LOG DATA
# ...
151.2       70.56       141.763     2.24        5.716       34.905      30.075      67.724      35.295      33.323      28.114      20.367      1.1         2.145       197.76      47.464      168.208     151.071     138.094     35.927      
151.3       56.454      141.606     2.233       5.674       33.443      28.739      66.869      34.67       33.271      28.139      20.135      1.123       2.132       196.823     47.299      141.627     125.708     112.43      37.324      
151.4       49.21       141.197     2.222       5.791       32.338      27.629      65.913      33.893      33.209      28.143      20.027      1.151       2.067       196.022     47.187      105.324     99.313      93.963      38.706      
151.5       58.065      141.703     2.195       5.695       31.621      26.747      64.924      33.036      33.114      28.143      20.049      1.196       2.024       195.35      47.111      77.904      88.434      85.784      39.016      
151.6       72.493      141.86      2.191       5.731       31.236      26.107      63.938      32.172      32.978      28.127      20.151      1.198       2.045       194.785     47.062      71.889      85.324      77.607      38.666      
151.7       78.554      142.322     2.191       5.527       31.098      25.648      62.969      31.366      32.802      28.085      20.224      1.139       2.051       194.299     47.033      68.245      90.39       91.057      41.019      
151.8       77.319      141.886     2.201       5.891       31.028      25.268      62.004      30.668      32.616      28.056      20.272      1.101       2.045       193.865     47.023      64.6        98.153      118.754     43.621      
151.9       73.771      141.609     2.216       6.2         30.937      24.895      61.001      30.093      32.443      28.056      20.273      1.095       2.007       193.456     47.023      65.943      103.547     125.55      44.231      
152.0       71.572      141.83      2.216       6.371       30.781      24.492      59.938      29.619      32.27       28.057      20.298      1.104       1.971       193.054     47.023      78.336      106.207     108.047     41.226      
152.1       71.6        142.309     2.201       6.273       30.484      24.045      58.836      29.231      32.11       28.064      20.249      1.096       1.987       192.654     47.023      77.762      107.397     114.308     37.887      
152.2       75.207      141.883     2.191       6.262       30.084      23.589      57.736      28.9        31.974      28.101      20.12       1.082       2.004       192.257     47.036      64.508      108.242     138.369     38.264      
152.3       76.53       141.808     2.176       6.398       29.648      23.132      56.696      28.59       31.848      28.187      20.047      1.089       2.011       191.868     47.08       69.185      107.476     132.165     39.601      
152.4       69.392      139.626     2.184       6.362       29.244      22.716      55.804      28.291      31.742      28.302      20.018      1.114       2.018       191.501     47.171      102.47      103.769     97.425      40.726      
152.5       62.8        141.157     2.189       5.991       29.009      22.413      55.139      28.022      31.68       28.415      20.125      1.113       2.02        191.169     47.332      133.767     98.734      64.395      40.488      
152.6       67.178      144.328     2.181       5.991       29.007      22.241      54.73       27.781      31.652      28.488      20.314      1.12        1.993       190.884     47.583      133.386     95.311      61.628      40.783      
152.7       71.881      144.109     2.181       5.587       29.007      22.189      54.58       27.579      31.646      28.525      20.59       1.089       1.959       190.656     47.935      103.324     105.616     124.943     41.689      
152.8       76.798      141.704     2.172       5.8         29.032      22.189      54.58       27.456      31.645      28.541      20.89       1.069       1.969       190.491     48.396      75.258      119.334     200.732     41.816      
152.9       83.039      141.606     2.16        5.609       29.234      22.192      54.584      27.416      31.645      28.55       21.061      1.056       1.995       190.386     48.954      65.189      122.735     222.9       40.497      
153.0       85.304      141.377     2.171       5.907       29.783      22.219      54.634      27.416      31.653      28.544      21.165      1.064       2.028       190.333     49.593      73.118      114.119     180.035     39.464      
153.1       86.118      141.001     2.188       5.661       30.535      22.317      54.873      27.42       31.692      28.517      21.229      1.101       2.057       190.329     50.289      122.794     120.604     125.766     40.107      
153.2       89.605      140.577     2.202       5.577       31.359      22.5        55.438      27.461      31.764      28.483      21.236      1.119       2.065       190.329     51.025      191.438     141.133     116.231     41.247      
153.3       89.636      140.042     2.215       5.407       32.138      22.761      56.287      27.605      31.867      28.466      21.243      1.14        2.072       190.329     51.783      237.287     148.587     98.149      42.437      
153.4       86.407      139.377     2.213       5.523       32.821      23.16       57.362      27.866      31.993      28.44       21.212      1.15        2.079       190.329     52.555      219.13      139.242     80.401      41.301      
153.5       88.203      138.477     2.214       5.592       33.506      23.759      58.555      28.152      32.097      28.392      21.195      1.164       2.066       190.369     53.326      155.784     128.844     97.478      39.714      
153.6       91.708      139.164     2.225       5.682       34.287      24.57       59.76       28.337      32.141      28.336      21.198      1.151       2.069       190.453     54.084      111.28      130.918     125.249     37.753      
153.7       94.182      139.752     2.241       5.571       35.143      25.546      60.905      28.39       32.147      28.28       21.216      1.127       2.124       190.585     54.803      97.078      132.993     151.63      36.776      
153.8       99.518      140.119     2.254       5.507       35.845      26.49       61.961      28.377      32.124      28.178      21.144      1.132       2.195       190.77      55.463      108.175     133.45      150.661     36.076      
153.9       111.04      140.509     2.26        5.405       36.144      27.131      62.918      28.262      32.001      27.942      21.048      1.171       2.243       191.009     56.042      120.751     134.394     147.136     35.758      
154.0       113.457     140.986     2.257       5.298       36.136      27.365      63.76       27.889      31.721      27.474      20.895      1.193       2.251       191.303     56.536      123.711     134.16      144.271     33.848      
154.1       99.858      138.967     2.255       5.196       36.03       27.363      64.45       27.25       31.264      26.696      20.672      1.18        2.24        191.652     56.946      123.63      132.866     142.802     32.734      
154.2       90.939      137.254     2.266       5.147       35.535      27.325      64.922      26.476      30.671      25.589      20.412      1.201       2.19        192.059     57.285      143.734     147.056     151.534     32.995      
154.3       82.214      137.633     2.266       5.4         34.385      27.102      65.146      25.715      30.031      24.236      20.117      1.25        2.131       192.524     57.565      173.545     158.384     148.58      36.061      
154.4       73.933      137.648     2.258       5.813       32.813      26.572      65.191      25.093      29.428      22.85       19.859      1.24        2.032       193.051     57.79       189.832     150.305     123.742     39.777      
154.5       68.037      137.019     2.254       6.107       31.249      25.967      65.183      24.686      28.925      21.662      19.665      1.193       1.944       193.64      57.954      173.566     126.857     89.431      41.298      
