~Version Information Section
VERS.                                         2.0:CWLS log ASCII Standart – VERSION 2.0
WRAP.                                          NO:One line per depth step
~Well Information Section
STRT.M                                        0.0:Начальная глубина
STOP.M                                      133.6:Конечная глубина
STEP.M                                          0:Шаг квантования по глубине
NULL.                                    -9999.25:Признак "Нет данных"
WELL.                                       118Мх:Скважина
~Parameter Information Section
~Curve Information Section
DEPTH.M                                          :Глубина
BK.Ohm*M                                         :BK     (БК)
DS.mm                                            :DS  (ДС)
GGK.g/cm3                                        :GGKp
ГК.mcr/h                                         :GK          (ГК)
GZ1.Ohm*M                                        :GZ1   ГЗ1(A0.4M0.1N)
GZ2.Ohm*M                                        :GZ2   ГЗ2(A1.0M0.1N)
GZ3.Ohm*M                                        :GZ3   ГЗ3(A2.0M0.5N)
GZ4.Ohm*M                                        :GZ4   ГЗ4(A4.0M0.5N)
GZ5.Ohm*M                                        :GZ5   ГЗ5(A8.0M0.5N)
GZR.Ohm*M                                        :GZK   ГЗK(N0.5M2.0A)
ИК.Ohm*M                                         :IK
НГК.усл.ед                                       :NGK
NNKM.                                            :NNKm  (ННКм)
PS.mv                                            :PS       (ПС)
PZ.Ohm*M                                         :PZ    (КС)
RS.Ohm*M                                         :RS (Резистивиметр)
U1.mV                                            :U1
U2.mV                                            :U2
U3.mV                                            :U3
W.%                                              :W
~ASCII LOG DATA
# ...
12.8        -9999.25    160.434     2.212       5.06        -9999.25    -9999.25    -9999.25    19.023      -9999.25    14.454      -9999.25    1.04        1.895       590.326     49.606      1.065       596.491     363.411     249.965     38.378      
13.0        -9999.25    160.45      2.198       5.57        -9999.25    -9999.25    -9999.25    18.0        -9999.25    16.219      -9999.25    1.048       1.84        586.966     50.51       1.065       692.43      469.369     381.317     36.51       
13.2        -9999.25    160.817     2.151       5.482       -9999.25    -9999.25    -9999.25    17.36       -9999.25    21.275      -9999.25    0.993       1.811       584.086     50.956      1.064       420.14      395.665     521.64      39.435      
13.4        -9999.25    162.561     2.128       5.579       -9999.25    -9999.25    -9999.25    19.355      -9999.25    25.434      -9999.25    0.969       1.799       581.206     50.744      1.062       250.619     315.29      553.915     39.987      
13.6        -9999.25    162.699     2.13        5.854       -9999.25    -9999.25    -9999.25    24.483      -9999.25    24.594      -9999.25    0.948       1.805       578.566     49.469      1.059       297.068     293.187     440.306     35.088      
13.8        -9999.25    162.653     2.155       5.786       -9999.25    -9999.25    -9999.25    28.742      -9999.25    18.426      -9999.25    0.947       1.948       576.166     47.338      1.057       600.245     416.103     375.669     39.352      
14.0        -9999.25    162.68      2.175       5.849       37.318      -9999.25    -9999.25    25.009      -9999.25    14.914      -9999.25    0.949       2.016       573.766     44.969      1.054       676.176     378.341     249.826     41.276      
14.2        -9999.25    161.2       2.199       5.339       28.098      -9999.25    -9999.25    18.799      -9999.25    14.827      -9999.25    1.004       2.011       571.366     42.903      1.051       481.605     239.343     148.024     38.898      
14.4        -9999.25    158.754     2.243       4.68        22.417      -9999.25    -9999.25    13.857      -9999.25    15.367      -9999.25    1.045       1.852       569.446     41.12       1.049       606.615     393.245     289.686     40.046      
14.6        -9999.25    160.911     2.237       4.582       18.188      17.478      -9999.25    12.812      -9999.25    15.61       -9999.25    1.003       1.734       567.766     39.114      1.046       680.061     480.265     384.341     42.417      
14.8        -9999.25    163.674     2.207       4.645       15.361      17.755      -9999.25    12.421      -9999.25    15.852      -9999.25    1.072       1.7         565.606     36.456      1.044       514.514     319.322     275.962     40.314      
15.0        -9999.25    169.422     2.206       5.523       15.294      17.773      -9999.25    11.917      -9999.25    16.412      -9999.25    0.986       1.701       563.446     33.609      1.041       730.422     299.856     182.542     40.558      
15.2        -9999.25    168.308     2.217       6.373       15.375      16.201      -9999.25    12.083      -9999.25    16.287      -9999.25    1.001       1.749       561.766     31.192      1.04        659.751     358.341     256.386     38.759      
15.4        -9999.25    171.037     2.207       6.417       14.772      14.619      -9999.25    12.087      -9999.25    15.725      -9999.25    0.915       1.75        561.526     29.338      1.04        600.417     415.576     328.235     38.499      
15.6        -9999.25    174.258     2.193       5.794       15.315      14.003      -9999.25    11.747      11.733      15.908      -9999.25    0.817       1.737       562.486     27.727      1.04        765.109     488.243     346.413     46.342      
15.8        -9999.25    175.087     2.193       5.787       14.39       12.421      11.845      11.598      12.048      18.09       -9999.25    0.927       1.793       566.086     26.142      1.04        671.172     441.897     348.766     50.818      
16.0        -9999.25    169.144     2.224       5.419       14.049      11.99       13.708      11.88       12.066      18.606      -9999.25    0.95        1.716       571.606     24.558      1.04        442.987     361.054     366.617     37.795      
16.2        -9999.25    167.84      2.221       5.32        16.301      15.218      14.64       12.064      12.696      20.645      -9999.25    0.907       1.744       578.806     23.269      1.04        456.866     391.167     399.546     38.261      
16.4        -9999.25    167.125     2.21        6.243       14.458      11.805      15.007      12.57       13.612      21.69       -9999.25    0.921       1.809       586.726     22.409      1.04        430.063     380.262     408.567     36.94       
16.6        -9999.25    165.068     2.18        6.267       15.984      14.224      14.786      13.223      14.507      21.974      -9999.25    0.909       1.821       596.086     21.953      1.04        396.62      371.857     432.327     38.324      
16.8        -9999.25    163.913     2.192       5.941       18.471      15.271      15.756      14.587      14.883      21.462      -9999.25    0.965       1.805       605.686     21.738      1.04        480.655     494.248     610.725     37.643      
17.0        -9999.25    162.675     2.2         5.75        19.389      15.01       15.647      14.811      15.663      21.619      -9999.25    0.95        1.923       616.486     21.711      1.04        845.624     760.529     775.016     39.616      
17.2        -9999.25    163.414     2.222       5.8         22.078      16.651      15.663      14.675      16.02       22.45       -9999.25    1.031       1.934       628.246     21.738      1.04        1264.732    947.247     765.439     41.603      
17.4        -9999.25    163.388     2.222       5.437       21.223      17.158      15.964      14.883      15.852      22.048      -9999.25    1.056       1.977       637.846     21.953      1.04        1107.428    766.186     575.845     38.822      
17.6        -9999.25    161.237     2.2         5.121       22.417      18.829      16.188      15.069      15.38       19.508      -9999.25    1.006       1.944       646.006     22.382      1.04        653.729     453.833     365.589     36.336      
17.8        -9999.25    160.626     2.167       4.95        23.446      21.167      15.884      14.904      14.339      17.403      -9999.25    0.981       1.979       652.486     22.785      1.041       693.098     438.706     313.343     37.211      
18.0        -9999.25    159.325     2.188       5.502       21.928      19.377      14.19       14.661      13.574      18.463      -9999.25    1.025       1.998       657.766     22.678      1.043       530.018     274.463     165.549     37.535      
18.2        -9999.25    160.442     2.238       5.717       19.347      16.729      13.164      14.264      12.791      18.881      -9999.25    1.15        1.915       658.726     21.953      1.045       477.345     244.274     154.111     38.05       
18.4        -9999.25    160.685     2.253       5.616       16.807      17.829      13.612      15.053      12.197      20.384      -9999.25    1.043       1.863       658.486     20.932      1.047       471.673     323.956     277.895     38.311      
18.6        -9999.25    161.386     2.216       5.443       18.53       19.079      15.162      15.408      12.006      18.989      -9999.25    0.91        1.822       657.526     20.18       1.049       426.254     383.74      425.124     37.545      
18.8        -9999.25    164.628     2.197       5.914       18.43       19.59       15.287      15.573      11.992      17.963      -9999.25    0.963       1.959       654.886     19.858      1.052       315.88      285.644     332.937     40.86       
19.0        23.55       164.181     2.194       6.05        21.201      18.84       16.281      15.013      11.731      16.319      -9999.25    0.971       1.844       650.086     19.831      1.054       362.576     311.463     330.246     41.451      
