~Version Information Section
VERS.                                         2.0:CWLS log ASCII Standart – VERSION 2.0
WRAP.                                          NO:One line per depth step
~Well Information Section
STRT.M                                        0.0:Начальная глубина
STOP.M                                      133.6:Конечная глубина
STEP.M                                          0:Шаг квантования по глубине
NULL.                                    -9999.25:Признак "Нет данных"
WELL.                                       118Мх:Скважина
~Parameter Information Section
~Curve Information Section
DEPTH.M                                          :Глубина
BK.Ohm*M                                         :BK     (БК)
DS.mm                                            :DS  (ДС)
GGK.g/cm3                                        :GGKp
ГК.mcr/h                                         :GK          (ГК)
GZ1.Ohm*M                                        :GZ1   ГЗ1(A0.4M0.1N)
GZ2.Ohm*M                                        :GZ2   ГЗ2(A1.0M0.1N)
GZ3.Ohm*M                                        :GZ3   ГЗ3(A2.0M0.5N)
GZ4.Ohm*M                                        :GZ4   ГЗ4(A4.0M0.5N)
GZ5.Ohm*M                                        :GZ5   ГЗ5(A8.0M0.5N)
GZR.Ohm*M                                        :GZK   ГЗK(N0.5M2.0A)
ИК.Ohm*M                                         :IK
НГК.усл.ед                                       :NGK
NNKM.                                            :NNKm  (ННКм)
PS.mv                                            :PS       (ПС)
PZ.Ohm*M                                         :PZ    (КС)
RS.Ohm*M                                         :RS (Резистивиметр)
U1.mV                                            :U1
U2.mV                                            :U2
U3.mV                                            :U3
W.%                                              :W
~ASCII LOG DATA
# ...
51.2        24.099      156.313     2.357       3.896       62.51       42.974      43.757      56.871      33.395      72.961      10.916      1.212       2.283       1081.606    64.494      1.07        975.322     1006.846    1123.356    32.913      
51.4        29.309      156.799     2.368       4.77        54.936      43.142      30.897      40.067      28.066      77.724      10.68       1.168       2.245       1083.046    64.494      1.074       1140.657    1043.077    1045.382    32.16       
51.6        21.184      157.937     2.351       5.177       32.393      27.032      19.493      25.597      23.817      114.384     10.63       1.154       2.167       1084.006    64.065      1.077       1316.84     1063.096    906.036     29.949      
51.8        14.962      158.14      2.366       5.833       24.838      23.42       11.61       17.985      22.483      139.526     10.565      1.105       2.115       1084.006    66.616      1.08        1533.823    1155.519    911.838     31.569      
52.0        16.069      157.395     2.394       5.894       18.912      19.056      11.055      19.672      21.431      132.321     10.567      1.111       2.153       1082.326    74.324      1.083       1866.018    1269.979    895.93      31.368      
52.2        20.417      156.928     2.418       5.327       18.967      22.382      13.287      23.513      23.22       135.384     11.002      1.199       2.343       1079.926    86.571      1.085       1822.124    1216.568    851.296     28.092      
52.4        64.714      155.271     2.389       4.619       29.568      30.358      16.418      29.972      31.606      148.164     12.056      1.325       2.55        1076.326    103.518     1.088       1474.504    1153.973    957.099     24.893      
52.6        69.343      152.409     2.401       4.61        49.426      31.383      22.605      40.056      43.587      152.562     13.206      1.317       2.566       1071.526    135.182     1.089       1334.326    1127.502    997.626     21.685      
52.8        63.387      152.573     2.467       5.078       56.452      36.813      33.986      54.286      58.754      151.984     14.082      1.311       2.553       1067.446    185.164     1.09        1430.424    1114.27     923.146     23.288      
53.0        100.231     154.938     2.468       4.746       67.452      54.939      61.943      68.915      70.875      132.637     14.786      1.378       2.777       1064.086    254.536     1.09        2362.095    1637.151    1184.184    22.081      
53.2        358.922     158.459     2.37        3.492       108.034     116.779     82.789      75.065      82.855      110.117     15.356      1.47        2.859       1061.926    332.072     1.09        3407.873    2663.783    2149.847    25.305      
53.4        524.807     152.995     2.287       2.843       136.882     162.057     91.856      77.465      95.975      104.026     15.643      1.442       2.677       1060.246    397.443     1.09        3861.539    3309.141    2872.661    27.672      
53.6        309.03      155.092     2.351       2.318       184.652     244.306     105.088     80.548      102.385     95.341      15.656      1.51        2.733       1060.006    425.938     1.09        3476.122    2801.252    2300.223    23.872      
53.8        328.095     153.653     2.464       1.8         223.934     364.435     121.878     85.893      101.267     78.811      15.459      1.714       3.056       1061.926    402.384     1.089       2871.258    2153.216    1644.349    18.994      
54.0        336.512     155.884     2.494       1.794       224.736     487.147     125.089     81.29       97.354      63.199      14.989      1.847       3.234       1065.526    330.38      1.087       2703.466    2112.403    1684.607    13.962      
54.2        183.231     165.079     2.462       2.413       212.969     523.332     123.5       68.71       84.396      57.34       14.486      1.734       3.111       1070.566    240.704     1.085       2825.681    2325.791    1948.9      16.179      
54.4        111.173     155.975     2.387       3.217       173.688     442.441     129.474     50.522      68.319      55.69       13.84       1.562       2.834       1077.046    167.626     1.082       2318.155    1931.342    1649.133    21.411      
54.6        66.681      156.661     2.399       4.811       93.205      235.696     123.873     37.225      52.022      47.669      12.983      1.364       2.656       1085.686    124.654     1.079       1430.774    1188.925    1047.432    27.905      
54.8        34.119      156.827     2.455       6.035       84.964      227.673     107.195     28.587      37.057      41.354      12.361      1.283       2.546       1095.766    106.15      1.075       969.31      672.199     525.171     28.756      
55.0        55.847      152.873     2.48        5.718       66.863      144.403     101.287     27.788      25.592      49.701      11.846      1.233       2.542       1107.286    96.616      1.069       767.532     488.277     346.51      28.926      
55.2        30.339      154.819     2.38        6.067       37.871      63.302      82.652      20.433      19.03       59.869      11.384      1.073       2.227       1118.806    87.941      1.063       667.533     469.676     367.806     32.718      
55.4        14.093      166.731     2.298       6.707       27.377      50.867      70.299      16.511      14.097      59.776      10.745      1.098       1.965       1129.606    78.809      1.057       640.04      491.999     423.718     35.076      
55.6        23.067      159.604     2.283       6.862       32.391      60.615      72.702      17.22       11.339      59.784      10.298      1.174       2.173       1138.246    70.188      1.05        623.825     525.41      497.069     28.809      
55.8        44.875      157.674     2.318       6.355       30.721      39.616      60.817      16.01       10.972      81.272      10.422      1.218       2.344       1144.726    63.608      1.044       536.373     491.741     526.278     28.299      
56.0        26.122      158.318     2.332       6.605       31.381      27.829      44.971      12.815      12.388      149.823     10.882      1.186       2.256       1148.806    60.332      1.039       532.799     436.478     456.415     29.93       
56.2        21.677      158.128     2.379       7.235       27.356      22.042      39.123      12.178      17.761      336.25      11.074      1.061       2.169       1149.526    61.03       1.035       762.571     488.022     360.804     31.357      
56.4        18.967      158.388     2.379       6.773       19.836      19.899      50.597      17.724      31.058      480.888     11.216      1.106       2.152       1149.046    65.784      1.031       853.74      584.305     445.077     32.758      
56.6        21.429      158.916     2.37        6.613       21.551      31.892      90.561      36.716      40.093      388.931     11.498      1.286       2.139       1147.846    78.218      1.027       842.446     696.539     637.888     29.538      
56.8        28.379      158.737     2.44        5.258       34.514      60.593      115.955     58.31       46.663      346.931     12.105      1.608       2.596       1145.926    104.189     1.025       1195.892    1047.506    971.478     23.182      
57.0        391.742     156.691     2.547       2.755       62.028      64.753      110.179     108.44      47.922      204.431     13.156      1.856       3.455       1143.766    142.219     1.023       1843.182    1524.235    1304.57     15.817      
57.2        295.121     155.191     2.548       2.137       94.842      53.205      80.932      121.64      46.022      198.431     14.507      1.801       3.42        1140.646    185.889     1.023       2214.075    1799.968    1502.668    14.928      
57.4        154.17      152.638     2.449       2.23        112.233     59.132      61.04       139.64      39.053      157.931     15.356      1.596       3.066       1137.286    231.17      1.021       2057.285    1763.542    1561.869    19.08       
