~Version Information Section
VERS.                                         2.0:CWLS log ASCII Standart – VERSION 2.0
WRAP.                                          NO:One line per depth step
~Well Information Section
STRT.M                                        0.6:Начальная глубина
STOP.M                                      202.6:Конечная глубина
STEP.M                                          0:Шаг квантования по глубине
NULL.                                    -9999.25:Признак "Нет данных"
WELL.                                       130Мх:Скважина
~Parameter Information Section
~Curve Information Section
DEPTH.M                                          :Глубина
БК.Омм                                           :BK     (БК)
DСР.мм                                           :DS  (ДС)
W.g/cm3                                          :GGKp
ГК.гамма                                         :GK          (ГК)
А0.4М0.1N.Омм.ohmm                               :GZ1   ГЗ1(A0.4M0.1N)
А1.0М0.1N.Омм.ohmm                               :GZ2   ГЗ2(A1.0M0.1N)
А2.0М0.5N.Омм.ohmm                               :GZ3   ГЗ3(A2.0M0.5N)
А4.0М0.5N.Oмм.ohmm                               :GZ4   ГЗ4(A4.0M0.5N)
А8.0М1.0N.Омм.ohmm                               :GZ5   ГЗ5(A8.0M0.5N)
N0.5M2.0A.Омм.ohmm                               :GZK   ГЗK(N0.5M2.0A)
ИК.мСм/м                                         :IK
НГК.усл.ед                                       :NNKb  (ННКб)
ННКМ.усл.ед                                      :NNKm  (ННКм)
ПС.мВ                                            :PS       (ПС)
КС.Омм                                           :PZ    (КС)
R.Омм                                            :RS (Резистивиметр)
U1.мВ                                            :U1
U2.mV                                            :U2
U3.мВ                                            :U3
КП.%                                             :Кп
~ASCII LOG DATA
# ...
7.0         -9999.25    163.308     2.288       3.349       -9999.25    -9999.25    -9999.25    -9999.25    -9999.25    -9999.25    -9999.25    29.344      4.504       -9999.25    -9999.25    1.08        4095.638    4159.638    4231.638    -13.738     
7.1         -9999.25    161.451     2.284       3.696       -9999.25    -9999.25    -9999.25    -9999.25    -9999.25    -9999.25    -9999.25    29.727      4.623       -9999.25    -9999.25    1.08        4111.638    4107.638    4235.638    -13.547     
7.2         -9999.25    161.227     2.278       3.949       -9999.25    -9999.25    -9999.25    -9999.25    -9999.25    -9999.25    -9999.25    29.998      4.735       -9999.25    -9999.25    1.08        4099.638    4055.638    4275.638    -13.658     
7.3         -9999.25    159.629     2.269       4.329       -9999.25    -9999.25    -9999.25    -9999.25    -9999.25    -9999.25    -9999.25    29.597      4.8         -9999.25    -9999.25    1.08        4051.638    4015.638    4307.638    -13.927     
7.4         -9999.25    160.086     2.257       3.933       -9999.25    -9999.25    -9999.25    -9999.25    -9999.25    -9999.25    -9999.25    29.189      4.822       -9999.25    -9999.25    1.08        3979.638    3987.638    4327.638    -14.631     
7.5         -9999.25    159.776     2.244       3.48        -9999.25    -9999.25    -9999.25    -9999.25    -9999.25    -9999.25    -9999.25    28.561      4.78        -9999.25    -9999.25    1.08        3939.638    4087.638    4279.638    -15.031     
7.6         -9999.25    158.873     2.228       2.976       -9999.25    -9999.25    -9999.25    -9999.25    -9999.25    -9999.25    -9999.25    28.248      4.707       -9999.25    -9999.25    1.08        3967.638    4211.638    4263.638    -14.971     
7.7         -9999.25    158.317     2.228       3.3         -9999.25    -9999.25    -9999.25    -9999.25    -9999.25    -9999.25    -9999.25    27.815      4.641       -9999.25    -9999.25    1.08        4015.638    4323.638    4223.638    -14.475     
7.8         -9999.25    158.499     2.245       3.487       -9999.25    -9999.25    -9999.25    -9999.25    -9999.25    -9999.25    -9999.25    27.455      4.578       -9999.25    -9999.25    1.08        4039.638    4383.638    4175.638    -13.798     
7.9         -9999.25    157.432     2.282       3.65        -9999.25    -9999.25    -9999.25    -9999.25    -9999.25    -9999.25    -9999.25    26.748      4.518       -9999.25    -9999.25    1.08        4059.638    4447.638    4135.638    -13.56      
8.0         -9999.25    156.616     2.324       4.081       -9999.25    -9999.25    -9999.25    -9999.25    -9999.25    -9999.25    -9999.25    27.161      4.507       -9999.25    -9999.25    1.08        4123.638    4383.638    4119.638    -13.315     
8.1         -9999.25    155.342     2.359       4.79        -9999.25    -9999.25    -9999.25    -9999.25    -9999.25    -9999.25    -9999.25    28.43       4.505       -9999.25    -9999.25    1.08        4143.638    4355.638    4087.638    -13.26      
8.2         -9999.25    155.266     2.377       5.252       -9999.25    -9999.25    -9999.25    -9999.25    -9999.25    -9999.25    -9999.25    28.9        4.509       -9999.25    -9999.25    1.08        4143.638    4335.638    4051.638    -13.241     
8.3         -9999.25    155.436     2.369       5.183       -9999.25    -9999.25    -9999.25    -9999.25    -9999.25    -9999.25    -9999.25    29.995      4.512       -9999.25    -9999.25    1.08        4171.638    4355.638    4091.638    -13.252     
8.4         -9999.25    155.922     2.332       4.759       -9999.25    -9999.25    -9999.25    -9999.25    -9999.25    -9999.25    -9999.25    29.089      4.427       -9999.25    -9999.25    1.08        4251.638    4363.638    4135.638    -13.232     
8.5         -9999.25    155.619     2.291       4.599       -9999.25    -9999.25    -9999.25    -9999.25    -9999.25    -9999.25    -9999.25    26.92       4.342       -9999.25    -9999.25    1.08        4271.638    4439.638    4179.638    -13.181     
8.6         -9999.25    155.825     2.256       4.411       -9999.25    -9999.25    -9999.25    -9999.25    -9999.25    -9999.25    -9999.25    26.525      4.34        -9999.25    -9999.25    1.08        4283.638    4451.638    4207.638    -13.057     
8.7         -9999.25    155.804     2.226       4.183       -9999.25    -9999.25    -9999.25    -9999.25    -9999.25    -9999.25    -9999.25    25.827      4.34        -9999.25    -9999.25    1.08        4283.638    4451.638    4239.638    -12.571     
8.8         -9999.25    155.779     2.202       3.827       -9999.25    -9999.25    -9999.25    -9999.25    -9999.25    -9999.25    -9999.25    25.525      4.351       -9999.25    -9999.25    1.08        4299.638    4459.638    4219.638    -12.0       
8.9         -9999.25    155.851     2.184       3.862       -9999.25    -9999.25    -9999.25    -9999.25    -9999.25    -9999.25    -9999.25    25.137      4.349       -9999.25    -9999.25    1.08        4267.638    4471.638    4219.638    -11.793     
9.0         -9999.25    155.893     2.165       4.242       -9999.25    -9999.25    -9999.25    -9999.25    -9999.25    -9999.25    -9999.25    24.895      4.319       200.9       -9999.25    1.08        4223.638    4415.638    4231.638    -12.024     
9.1         -9999.25    156.134     2.144       4.709       -9999.25    -9999.25    -9999.25    -9999.25    -9999.25    -9999.25    -9999.25    24.523      4.277       199.5       -9999.25    1.08        4183.638    4359.638    4271.638    -12.24      
9.2         -9999.25    156.2       2.128       5.082       -9999.25    -9999.25    -9999.25    -9999.25    -9999.25    -9999.25    -9999.25    23.943      4.222       196.7       -9999.25    1.08        4143.638    4307.638    4299.638    -12.168     
9.3         -9999.25    155.888     2.121       5.044       -9999.25    -9999.25    -9999.25    -9999.25    -9999.25    -9999.25    -9999.25    23.208      4.151       196.7       -9999.25    1.08        4103.638    4255.638    4295.638    -12.115     
9.4         -9999.25    155.867     2.115       5.24        -9999.25    -9999.25    -9999.25    -9999.25    -9999.25    -9999.25    -9999.25    22.527      4.058       193.9       -9999.25    1.08        4043.638    4207.638    4263.638    -12.149     
9.5         -9999.25    156.039     2.112       5.2         -9999.25    -9999.25    -9999.25    -9999.25    -9999.25    -9999.25    -9999.25    21.753      3.951       186.477     69.0        1.08        3979.638    4159.638    4211.638    -12.132     
9.6         -9999.25    155.919     2.109       5.416       -9999.25    -9999.25    -9999.25    -9999.25    -9999.25    -9999.25    -9999.25    20.987      3.874       180.744     69.0        1.08        3895.638    4115.638    4159.638    -12.132     
9.7         -9999.25    156.556     2.105       5.327       -9999.25    -9999.25    -9999.25    -9999.25    -9999.25    -9999.25    -9999.25    20.883      3.902       174.343     69.0        1.08        3819.638    4083.638    4179.638    -12.25      
9.8         -9999.25    155.948     2.097       5.353       -9999.25    -9999.25    -9999.25    -9999.25    -9999.25    -9999.25    -9999.25    21.059      3.97        168.274     69.0        1.08        3839.638    4047.638    4207.638    -12.336     
9.9         -9999.25    155.61      2.096       5.24        -9999.25    -9999.25    -9999.25    -9999.25    -9999.25    -9999.25    -9999.25    20.98       3.904       162.354     69.0        1.08        3895.638    4123.638    4227.638    -12.268     
10.0        -9999.25    155.42      2.1         5.169       -9999.25    -9999.25    -9999.25    -9999.25    -9999.25    -9999.25    -9999.25    20.735      3.808       156.886     69.536      1.08        3947.638    4203.638    4247.638    -12.166     
10.1        -9999.25    155.409     2.106       5.022       -9999.25    -9999.25    -9999.25    -9999.25    -9999.25    -9999.25    -9999.25    20.947      3.802       151.994     69.536      1.08        4011.638    4263.639    4255.638    -12.167     
