~Version Information Section
VERS.                                         2.0:CWLS log ASCII Standart – VERSION 2.0
WRAP.                                          NO:One line per depth step
~Well Information Section
STRT.M                                        0.0:Начальная глубина
STOP.M                                      208.6:Конечная глубина
STEP.M                                          0:Шаг квантования по глубине
NULL.                                    -9999.25:Признак "Нет данных"
WELL.                                       140Мх:Скважина
~Parameter Information Section
~Curve Information Section
DEPTH.M                                          :Глубина
GZ1.ohmm                                         :Подошвенный градиент-зонд А0.4М0.1N
GZ2.ohmm                                         :Подошвенный градиент-зонд А1.0М0.1N
GZ3.ohmm                                         :Подошвенный градиент-зонд А2.0М0.5N
GZ5.ohmm                                         :Подошвенный градиент-зонд А8.0М1.0N
GZ3R.GZ3R                                        :GZ3R
GZ4.ohmm                                         :Подошвенный градиент-зонд А4.0М0.5N
GGK.g/cc                                         :Плотностной гамма-гамма каротаж
ГК.ur/h                                          :Гамма каротаж
ИК.ohmm                                          :Индукционный каротаж (сопротивление),
BK.ohmm                                          :Боковой каротаж
NKTS.ue                                          :Нейтронный каротаж по тепловым нейтронам (малый зонд)
WNK.De                                           :Водородосодержание по НК
НГК.ue                                           :Нейтронный каротаж по тепловым нейтронам (большой зонд)
PZ.ohmm                                          :Потенциал-зонд ИММ 0,5А; В4 0,25М
-.                                               :-      SP mv)
DS1.m                                            :Профиль 1 сечения ствола скважины по профилеметрии
DS.m                                             :Кавернометрия
DS2.m                                            :Профиль 2 сечения ствола скважины по профилеметрии
~ASCII LOG DATA
# ...
184.0       -9999.25    -9999.25    -9999.25    -9999.25    -9999.25    -9999.25    2.538       5.325       18.909      106.528     2.339       17.888      5.686       161.814     3073.175    0.15        0.146       0.143       
184.1       145.043     128.631     116.451     90.715      117.725     89.431      -9999.25    -9999.25    -9999.25    -9999.25    -9999.25    -9999.25    -9999.25    -9999.25    -9999.25    -9999.25    -9999.25    -9999.25    
184.2       -9999.25    -9999.25    -9999.25    -9999.25    -9999.25    -9999.25    2.552       5.166       19.031      101.465     2.496       16.139      6.371       164.511     3076.157    0.15        0.147       0.143       
184.3       138.484     121.885     107.79      100.257     119.147     85.177      -9999.25    -9999.25    -9999.25    -9999.25    -9999.25    -9999.25    -9999.25    -9999.25    -9999.25    -9999.25    -9999.25    -9999.25    
184.4       -9999.25    -9999.25    -9999.25    -9999.25    -9999.25    -9999.25    2.584       5.311       19.198      111.366     2.564       14.009      6.855       167.547     3079.801    0.151       0.147       0.143       
184.5       146.323     121.407     107.187     106.255     124.579     84.82       -9999.25    -9999.25    -9999.25    -9999.25    -9999.25    -9999.25    -9999.25    -9999.25    -9999.25    -9999.25    -9999.25    -9999.25    
184.6       -9999.25    -9999.25    -9999.25    -9999.25    -9999.25    -9999.25    2.565       4.798       19.323      112.682     2.613       13.018      7.15        180.269     3078.96     0.151       0.147       0.143       
184.7       141.935     115.348     108.462     111.945     135.158     89.11       -9999.25    -9999.25    -9999.25    -9999.25    -9999.25    -9999.25    -9999.25    -9999.25    -9999.25    -9999.25    -9999.25    -9999.25    
184.8       -9999.25    -9999.25    -9999.25    -9999.25    -9999.25    -9999.25    2.57        5.042       19.336      116.62      2.669       12.602      7.32        189.943     3090.93     0.151       0.147       0.143       
184.9       144.21      119.579     110.017     120.186     140.778     93.969      -9999.25    -9999.25    -9999.25    -9999.25    -9999.25    -9999.25    -9999.25    -9999.25    -9999.25    -9999.25    -9999.25    -9999.25    
185.0       -9999.25    -9999.25    -9999.25    -9999.25    -9999.25    -9999.25    2.613       5.251       19.42       201.667     2.692       12.638      7.237       207.178     3112.372    0.15        0.147       0.143       
185.1       146.163     119.362     114.612     129.835     146.261     99.409      -9999.25    -9999.25    -9999.25    -9999.25    -9999.25    -9999.25    -9999.25    -9999.25    -9999.25    -9999.25    -9999.25    -9999.25    
185.2       -9999.25    -9999.25    -9999.25    -9999.25    -9999.25    -9999.25    2.602       5.301       19.506      265.133     2.726       12.803      7.346       218.355     3129.829    0.151       0.147       0.143       
185.3       144.944     125.492     122.034     137.017     155.532     107.663     -9999.25    -9999.25    -9999.25    -9999.25    -9999.25    -9999.25    -9999.25    -9999.25    -9999.25    -9999.25    -9999.25    -9999.25    
185.4       -9999.25    -9999.25    -9999.25    -9999.25    -9999.25    -9999.25    2.589       5.206       19.506      309.01      2.665       12.2        7.052       217.211     3144.579    0.151       0.147       0.143       
185.5       153.825     141.06      135.58      138.444     160.516     134.757     -9999.25    -9999.25    -9999.25    -9999.25    -9999.25    -9999.25    -9999.25    -9999.25    -9999.25    -9999.25    -9999.25    -9999.25    
185.6       -9999.25    -9999.25    -9999.25    -9999.25    -9999.25    -9999.25    2.61        5.36        19.318      143.938     2.57        12.797      6.742       210.658     3149.482    0.149       0.146       0.143       
185.7       173.103     165.39      147.906     142.915     149.544     148.656     -9999.25    -9999.25    -9999.25    -9999.25    -9999.25    -9999.25    -9999.25    -9999.25    -9999.25    -9999.25    -9999.25    -9999.25    
185.8       -9999.25    -9999.25    -9999.25    -9999.25    -9999.25    -9999.25    2.669       5.465       19.093      104.086     2.542       13.368      6.833       223.652     3150.949    0.152       0.147       0.143       
185.9       200.0       195.016     149.817     141.899     123.855     147.71      -9999.25    -9999.25    -9999.25    -9999.25    -9999.25    -9999.25    -9999.25    -9999.25    -9999.25    -9999.25    -9999.25    -9999.25    
186.0       -9999.25    -9999.25    -9999.25    -9999.25    -9999.25    -9999.25    2.664       5.731       18.972      112.92      2.614       13.191      7.177       249.323     3149.41     0.151       0.148       0.144       
186.1       192.987     183.783     137.569     142.773     84.392      133.592     -9999.25    -9999.25    -9999.25    -9999.25    -9999.25    -9999.25    -9999.25    -9999.25    -9999.25    -9999.25    -9999.25    -9999.25    
186.2       -9999.25    -9999.25    -9999.25    -9999.25    -9999.25    -9999.25    2.623       5.503       18.809      280.328     2.679       12.377      7.702       264.88      3150.955    0.151       0.148       0.144       
186.3       170.592     161.802     126.927     146.153     63.173      115.649     -9999.25    -9999.25    -9999.25    -9999.25    -9999.25    -9999.25    -9999.25    -9999.25    -9999.25    -9999.25    -9999.25    -9999.25    
186.4       -9999.25    -9999.25    -9999.25    -9999.25    -9999.25    -9999.25    2.643       5.552       18.574      294.967     2.734       11.493      7.76        286.944     3144.774    0.151       0.148       0.144       
186.5       155.646     153.706     129.456     151.433     54.501      121.174     -9999.25    -9999.25    -9999.25    -9999.25    -9999.25    -9999.25    -9999.25    -9999.25    -9999.25    -9999.25    -9999.25    -9999.25    
186.6       -9999.25    -9999.25    -9999.25    -9999.25    -9999.25    -9999.25    2.649       5.258       18.069      316.976     2.747       11.116      8.243       297.266     3134.552    0.152       0.148       0.144       
186.7       173.995     173.917     142.19      163.582     52.221      138.378     -9999.25    -9999.25    -9999.25    -9999.25    -9999.25    -9999.25    -9999.25    -9999.25    -9999.25    -9999.25    -9999.25    -9999.25    
186.8       -9999.25    -9999.25    -9999.25    -9999.25    -9999.25    -9999.25    2.616       5.38        17.402      401.645     2.754       9.454       8.155       303.59      3110.114    0.151       0.148       0.144       
186.9       196.884     190.496     160.704     178.721     49.746      155.613     -9999.25    -9999.25    -9999.25    -9999.25    -9999.25    -9999.25    -9999.25    -9999.25    -9999.25    -9999.25    -9999.25    -9999.25    
187.0       -9999.25    -9999.25    -9999.25    -9999.25    -9999.25    -9999.25    2.593       5.861       16.463      381.766     2.644       10.876      7.327       297.674     3075.754    0.152       0.148       0.144       
187.1       204.924     219.834     179.955     190.173     48.725      171.492     -9999.25    -9999.25    -9999.25    -9999.25    -9999.25    -9999.25    -9999.25    -9999.25    -9999.25    -9999.25    -9999.25    -9999.25    
187.2       -9999.25    -9999.25    -9999.25    -9999.25    -9999.25    -9999.25    2.563       5.021       15.509      392.776     2.65        13.173      6.794       272.968     3021.214    0.151       0.148       0.144       
187.3       225.12      255.531     204.544     196.778     48.566      191.209     -9999.25    -9999.25    -9999.25    -9999.25    -9999.25    -9999.25    -9999.25    -9999.25    -9999.25    -9999.25    -9999.25    -9999.25    
187.4       -9999.25    -9999.25    -9999.25    -9999.25    -9999.25    -9999.25    2.54        5.774       14.516      379.903     2.593       13.941      6.215       240.039     2996.931    0.151       0.148       0.144       
