~Version Information Section
VERS.                                         2.0:CWLS log ASCII Standart – VERSION 2.0
WRAP.                                          NO:One line per depth step
~Well Information Section
STRT.M                                        0.6:Начальная глубина
STOP.M                                      205.9:Конечная глубина
STEP.M                                          0:Шаг квантования по глубине
NULL.                                    -9999.25:Признак "Нет данных"
WELL.                                       106Мх:Скважина
~Parameter Information Section
~Curve Information Section
DEPTH.M                                          :Глубина
BK.Ohm*M                                         :BK     (БК)
DS.mm                                            :DS  (ДС)
GGK.g/cm3                                        :GGKp
ГК.mcr/h                                         :GK          (ГК)
GZ1.Ohm*M                                        :GZ1   ГЗ1(A0.4M0.1N)
GZ2.Ohm*M                                        :GZ2   ГЗ2(A1.0M0.1N)
GZ3.Ohm*M                                        :GZ3   ГЗ3(A2.0M0.5N)
U2.mV                                            :U2
U3.mV                                            :U3
КП.%                                             :Кп
GZ4.Ohm*M                                        :GZ4   ГЗ4(A4.0M0.5N)
GZ5.Ohm*M                                        :GZ5   ГЗ5(A8.0M0.5N)
GZR.Ohm*M                                        :GZK   ГЗK(N0.5M2.0A)
ИК.Ohm*M                                         :IK
НГК.u.e.                                         :NGK
NNKM.                                            :NNKm  (ННКм)
PS.mv                                            :PS       (ПС)
PZ.Ohm*M                                         :PZ    (КС)
RS.Ohm*M                                         :RS (Резистивиметр)
U1.mV                                            :U1
~ASCII LOG DATA
# ...
179.8       134.896     123.547     2.156       5.447       108.149     113.311     73.581      680.0       731.111     33.357      184.979     29.62       63.394      54.93       1.381       2.444       498.276     98.237      1.1         706.667     
179.9       121.899     123.515     2.159       5.714       107.294     115.762     73.311      690.0       725.555     33.33       184.47      30.032      63.346      54.792      1.378       2.404       496.564     99.2        1.1         703.333     
180.0       124.451     123.528     2.16        5.565       106.535     115.943     73.058      680.0       721.111     32.307      184.659     30.554      63.265      54.792      1.325       2.458       495.88      100.074     1.1         700.0       
180.1       136.144     123.525     2.161       5.84        105.987     114.85      73.043      670.0       718.889     31.035      185.216     31.278      63.029      54.93       1.296       2.523       495.88      100.844     1.1         700.0       
180.2       130.617     123.518     2.162       5.639       105.868     114.068     72.927      670.0       716.667     30.039      186.038     32.406      62.369      54.484      1.319       2.551       495.88      101.467     1.1         700.0       
180.3       118.85      123.517     2.164       5.544       105.868     113.715     73.181      690.0       712.222     28.648      187.295     34.246      61.43       54.484      1.339       2.563       495.88      101.719     1.1         693.333     
180.4       116.681     123.397     2.164       5.499       106.238     113.539     74.947      700.0       707.778     28.724      188.642     37.125      60.305      53.674      1.322       2.507       495.88      101.719     1.1         679.999     
180.5       129.718     123.318     2.16        5.532       106.484     113.2       77.32       680.0       706.667     30.1        189.734     41.258      58.902      53.74       1.301       2.457       495.88      101.57      1.1         666.667     
180.6       130.617     123.338     2.154       5.785       106.484     112.658     80.067      670.0       708.889     32.362      190.571     46.648      52.038      53.447      1.305       2.441       495.88      101.096     1.1         666.667     
180.7       124.738     123.355     2.143       5.809       106.205     111.141     82.814      650.0       712.222     33.767      190.826     53.054      50.087      53.379      1.333       2.424       496.222     100.4       1.1         673.333     
180.8       130.017     123.383     2.132       5.64        105.649     110.007     85.464      650.0       710.0       34.065      190.182     60.079      47.721      53.379      1.34        2.415       496.907     99.659      1.1         676.667     
180.9       131.826     123.479     2.126       5.431       105.175     109.983     88.093      760.0       711.111     33.838      188.891     67.286      44.916      53.087      1.351       2.433       497.933     98.978      1.1         663.332     
181.0       122.744     123.552     2.125       5.495       105.026     110.485     90.912      690.0       716.666     33.327      187.495     74.313      41.731      53.379      1.32        2.465       498.618     98.444      1.1         640.002     
181.1       119.124     123.475     2.131       5.774       104.695     110.818     93.528      680.0       727.778     33.101      186.9       80.943      38.184      53.605      1.301       2.482       499.302     98.0        1.1         613.332     
181.2       121.619     123.464     2.141       5.849       104.039     110.194     94.592      640.0       731.112     32.999      188.132     87.087      34.845      53.019      1.265       2.492       499.987     97.615      1.1         596.667     
181.3       124.165     123.521     2.153       5.848       103.313     109.921     95.005      630.0       722.222     32.983      191.091     92.745      31.812      52.668      1.287       2.542       501.013     97.244      1.1         593.333     
181.4       122.744     123.395     2.159       5.831       102.952     110.19      94.944      630.0       703.332     31.634      194.734     97.953      34.441      52.601      1.292       2.589       501.698     96.904      1.1         590.0       
181.5       114.288     123.295     2.16        5.945       102.909     111.114     94.849      620.0       676.668     30.535      198.217     102.742     32.152      52.952      1.366       2.575       502.04      96.578      1.1         586.667     
181.6       100.693     123.27      2.156       5.94        102.733     111.532     94.734      620.0       651.11      29.806      200.872     107.126     30.289      52.318      1.361       2.56        502.04      96.311      1.1         600.001     
181.7       101.625     123.278     2.151       5.846       102.684     111.339     94.597      620.0       628.89      29.935      202.221     111.087     28.974      52.252      1.347       2.499       502.04      96.119      1.1         619.999     
181.8       113.24      123.277     2.147       5.684       102.077     110.525     93.681      620.0       616.667     29.374      202.54      114.609     26.926      51.298      1.289       2.461       502.04      96.03       1.1         640.0       
181.9       123.311     123.214     2.148       5.427       100.911     108.779     92.753      610.0       611.111     29.603      201.955     117.701     25.522      50.705      1.232       2.518       502.382     96.0        1.1         640.0       
182.0       120.781     123.243     2.153       5.207       99.711      107.404     91.615      600.0       610.0       30.625      200.203     120.439     23.987      51.235      1.268       2.534       503.067     96.0        1.1         646.666     
182.1       108.893     123.245     2.156       5.243       98.611      106.583     90.632      590.0       608.889     31.152      197.664     126.03      22.415      50.968      1.328       2.498       504.093     96.0        1.1         653.334     
182.2       108.643     123.223     2.159       5.476       97.653      105.674     90.121      590.0       605.556     30.268      194.646     143.84      20.952      50.968      1.435       2.509       504.778     96.0        1.1         663.333     
182.3       114.025     123.269     2.157       5.639       96.687      104.815     90.069      600.0       600.0       28.71       191.292     186.325     19.49       50.383      1.454       2.544       505.462     95.956      1.1         663.333     
182.4       108.893     123.436     2.149       5.698       96.253      104.569     90.478      630.0       592.222     28.107      188.453     256.791     18.305      49.685      1.439       2.538       506.147     95.807      1.1         653.332     
182.5       104.954     123.574     2.142       5.57        96.253      105.032     91.394      620.0       584.445     27.78       187.594     340.215     17.051      49.375      1.398       2.525       507.173     95.467      1.1         640.001     
182.6       103.276     123.54      2.135       5.582       96.559      105.936     93.364      620.0       577.777     27.832      189.661     412.989     17.334      48.766      1.43        2.536       508.2       94.919      1.1         630.0       
182.7       99.77       123.482     2.131       5.517       97.527      107.176     95.956      610.0       576.666     27.916      194.359     461.637     17.485      48.766      1.414       2.556       509.569     94.0        1.1         630.0       
182.8       91.622      123.583     2.134       5.335       98.766      108.892     99.537      590.0       580.0       27.924      201.218     491.486     17.914      47.939      1.408       2.614       511.28      92.385      1.1         630.0       
182.9       91.411      123.631     2.146       5.267       100.685     111.709     104.305     590.0       587.778     27.842      210.595     515.174     18.407      47.531      1.357       2.68        512.991     89.719      1.1         636.667     
