~Version Information Section
VERS.                                         2.0:CWLS log ASCII Standart – VERSION 2.0
WRAP.                                          NO:One line per depth step
~Well Information Section
STRT.M                                       -0.1:Начальная глубина
STOP.M                                      197.8:Конечная глубина
STEP.M                                          0:Шаг квантования по глубине
NULL.                                    -9999.25:Признак "Нет данных"
WELL.                                       134Мх:Скважина
~Parameter Information Section
~Curve Information Section
DEPTH.M                                          :Глубина
BK.Ohm*M                                         :BK     (БК)
DS.mm                                            :DS  (ДС)
GGK.g/cm3                                        :GGKp
ГК.mcr/h                                         :GK          (ГК)
GZ1.Ohm*M                                        :GZ1   ГЗ1(A0.4M0.1N)
GZ2.Ohm*M                                        :GZ2   ГЗ2(A1.0M0.1N)
GZ3.Ohm*M                                        :GZ3   ГЗ3(A2.0M0.5N)
GZ4.Ohm*M                                        :GZ4   ГЗ4(A4.0M0.5N)
GZ5.Ohm*M                                        :GZ5   ГЗ5(A8.0M0.5N)
GZR.Ohm*M                                        :GZK   ГЗK(N0.5M2.0A)
ИК.Ohm*M                                         :IK
КП.%                                             :Кп
НГК.ue                                           :NGK     (НГК)
NNKM.                                            :NNKm  (ННКм)
PS.mv                                            :PS       (ПС)
PZ.Ohm*M                                         :PZ    (КС)
RS.Ohm*M                                         :RS (Резистивиметр)
U1.mV                                            :U1
U2.mV                                            :U2
U3.mV                                            :U3
~ASCII LOG DATA
# ...
79.9        20.205      141.88      2.237       4.856       23.733      19.34       21.795      15.355      16.68       22.812      18.963      39.558      1.083       1.889       335.394     38.311      1.06        1295.198    1177.014    1222.587    
80.0        22.937      141.692     2.224       4.567       25.807      20.411      23.355      16.102      17.124      24.462      19.346      40.927      1.091       1.888       337.346     38.353      1.06        1221.714    1218.808    1178.923    
80.1        26.774      141.505     2.215       4.685       28.58       21.939      25.046      17.087      17.698      26.177      19.802      40.659      1.12        1.926       339.277     38.353      1.06        1183.062    1236.084    1200.254    
80.2        31.414      141.29      2.218       4.686       31.873      23.785      26.641      18.161      18.369      27.663      20.124      37.349      1.201       2.008       341.162     38.353      1.06        1128.658    1180.478    1334.208    
80.3        44.749      141.108     2.228       4.653       35.349      25.471      27.848      19.146      19.053      28.625      20.408      35.003      1.264       2.093       342.976     38.28       1.06        1110.173    1151.798    1337.058    
80.4        61.919      141.003     2.237       4.397       38.446      26.596      28.388      19.799      19.621      28.934      20.601      33.18       1.28        2.165       344.694     38.03       1.06        1137.235    1191.541    1170.999    
80.5        64.301      140.958     2.238       4.164       40.74       27.173      28.467      20.001      19.933      28.934      20.685      34.693      1.242       2.176       346.291     37.549      1.06        1127.862    1195.594    1120.693    
80.6        49.313      140.897     2.227       4.195       41.948      27.332      28.467      20.001      20.011      28.867      20.669      36.434      1.174       2.131       347.755     36.809      1.06        1096.884    1138.645    1274.485    
80.7        35.757      140.751     2.209       4.464       42.241      27.332      28.154      19.926      19.995      28.437      20.712      36.887      1.171       2.094       349.091     35.821      1.06        1117.063    1133.41     1340.223    
80.8        45.659      140.613     2.2         4.558       42.241      27.253      27.22       19.543      19.858      27.479      20.768      36.355      1.161       2.095       350.32      34.605      1.06        1178.579    1213.64     1204.258    
80.9        69.028      140.566     2.206       4.281       41.799      26.861      25.729      18.747      19.451      26.196      20.741      34.766      1.213       2.163       351.483     33.207      1.06        1217.136    1263.483    1170.781    
81.0        84.202      140.525     2.219       3.879       40.376      26.367      23.983      17.713      18.774      24.929      20.632      33.739      1.187       2.24        352.642     31.686      1.06        1200.208    1216.375    1353.54     
81.1        71.612      140.475     2.233       3.833       38.224      26.188      22.417      16.729      17.967      23.951      20.392      33.197      1.168       2.263       353.846     30.121      1.06        1159.233    1167.785    1415.574    
81.2        42.621      140.474     2.239       4.216       35.919      26.188      21.274      16.061      17.186      23.361      19.92       33.429      1.139       2.207       355.131     28.594      1.06        1128.25     1177.792    1209.021    
81.3        28.269      140.488     2.245       4.509       33.915      26.188      20.606      15.813      16.529      23.144      19.45       35.184      1.141       2.08        356.512     27.187      1.06        1088.074    1151.538    1052.982    
81.4        25.427      140.489     2.244       4.96        32.577      26.191      20.367      15.795      16.039      23.119      19.097      36.46       1.109       1.979       357.982     25.967      1.06        1031.722    1039.443    1135.601    
81.5        24.186      140.492     2.242       4.995       31.883      26.312      20.34       15.795      15.705      23.102      18.828      36.775      1.121       1.944       359.502     24.981      1.06        1002.751    960.344     1150.321    
81.6        25.27       140.488     2.24        4.93        31.59       26.615      20.34       15.795      15.485      23.031      18.613      35.944      1.142       1.926       361.03      24.247      1.06        1000.916    982.987     936.633     
81.7        28.711      140.55      2.235       4.692       31.465      26.926      20.328      15.901      15.333      22.978      18.51       35.82       1.2         1.917       362.53      23.762      1.06        981.562     998.622     849.87      
81.8        32.426      140.617     2.23        4.535       31.345      27.053      20.335      16.046      15.203      22.941      18.49       35.662      1.153       1.943       363.966     23.478      1.06        924.908     931.814     1061.379    
81.9        36.483      140.652     2.223       4.613       31.133      27.053      20.354      16.086      15.048      22.763      18.503      34.902      1.17        1.989       365.314     23.366      1.06        854.963     875.827     1206.552    
82.0        38.027      140.759     2.218       4.653       30.691      27.021      20.354      16.086      14.836      22.373      18.398      34.048      1.19        2.015       366.57      23.366      1.06        784.882     864.919     1028.925    
82.1        37.678      140.902     2.22        4.7         29.934      26.694      20.334      16.016      14.561      21.791      18.261      34.01       1.225       2.027       367.738     23.366      1.06        699.33      795.939     772.131     
82.2        38.25       141.137     2.228       4.662       28.819      25.889      20.281      15.745      14.24       21.096      18.033      36.245      1.205       2.032       368.824     23.366      1.06        582.397     644.936     709.878     
82.3        36.993      141.52      2.239       4.641       27.38       24.818      20.163      15.223      13.908      20.444      17.743      38.767      1.13        2.018       369.843     23.4        1.06        464.494     517.653     685.76      
82.4        32.999      141.968     2.248       4.57        25.895      23.802      20.032      14.56       13.611      20.02       17.456      40.708      1.059       1.985       370.811     23.561      1.06        378.564     459.036     538.787     
82.5        28.504      142.582     2.25        4.968       24.598      23.037      19.984      13.967      13.394      19.882      17.189      40.626      1.019       1.939       371.733     23.839      1.06        310.15      410.806     432.934     
82.6        25.415      142.939     2.244       5.265       23.488      22.599      19.984      13.577      13.276      19.882      16.931      39.565      1.023       1.89        372.613     24.254      1.06        277.527     376.005     483.414     
82.7        25.06       142.366     2.239       5.762       22.645      22.472      19.984      13.398      13.233      19.882      16.784      38.6        1.087       1.858       373.454     24.802      1.06        300.574     399.568     603.361     
82.8        26.354      142.031     2.238       5.647       22.142      22.472      20.021      13.357      13.225      19.944      16.658      37.128      1.108       1.847       374.258     25.476      1.06        356.033     471.089     652.001     
82.9        27.027      142.45      2.246       5.611       21.874      22.472      20.246      13.357      13.22       20.263      16.525      35.302      1.115       1.85        375.029     26.262      1.06        406.012     531.718     678.15      
83.0        26.516      142.643     2.258       5.544       21.775      22.487      20.753      13.357      13.207      20.788      16.402      32.779      1.098       1.856       375.786     27.143      1.06        418.046     533.034     741.499     
