~Version Information Section
VERS.                                         2.0:CWLS log ASCII Standart – VERSION 2.0
WRAP.                                          NO:One line per depth step
~Well Information Section
STRT.M                                        1.0:Начальная глубина
STOP.M                                      192.9:Конечная глубина
STEP.M                                          0:Шаг квантования по глубине
NULL.                                    -9999.25:Признак "Нет данных"
WELL.                                       123Мх:Скважина
~Parameter Information Section
~Curve Information Section
DEPTH.M                                          :Глубина
BK.lgОмм                                         :BK     (БК)
ПРОФ_СР.мм                                       :DS  (ДС)
ГК.мкР/час                                       :GK          (ГК)
ГЗ1.Омм                                          :GZ1   ГЗ1(A0.4M0.1N)
ГЗ2.Омм                                          :GZ2   ГЗ2(A1.0M0.1N)
ГЗ3.Омм                                          :GZ3   ГЗ3(A2.0M0.5N)
ГЗ4.Oмм                                          :GZ4   ГЗ4(A4.0M0.5N)
ГЗ5.Oмм                                          :GZ5   ГЗ5(A8.0M0.5N)
ГЗК.Омм                                          :GZK   ГЗK(N0.5M2.0A)
ИК.мСм/м                                         :IK
НГК.усл.ед.                                      :NGK     (НГК)
PS.мВ                                            :PS       (ПС)
PZ.Омм                                           :PZ    (КС)
RIS.Омм                                          :RS (Резистивиметр)
U1.мВ                                            :U1
U2.мВ                                            :U2
U3.mv                                            :U3
W.                                               :W
П.%                                              :п
ННКМ.усл.ед                                      :ННКм
~ASCII LOG DATA
# ...
167.4       122.744     122.245     3.031       173.043     125.758     128.801     96.536      70.334      118.543     16.861      1.81        212.481     215.127     1.364       695.126     595.224     635.779     2.464       19.661      0.288       
167.5       198.61      122.115     3.2         173.043     125.758     126.801     96.203      71.667      108.217     16.961      1.81        218.514     222.647     1.364       956.769     786.511     712.795     2.469       19.462      0.297       
167.6       189.671     122.748     3.277       171.445     125.758     124.801     95.203      73.334      101.452     17.086      1.829       223.795     232.799     1.364       1113.735    943.85      850.162     2.46        19.286      0.304       
167.7       169.044     121.857     3.286       169.846     125.758     121.468     93.869      75.001      100.073     17.239      1.851       228.32      244.078     1.364       1113.878    991.811     939.47      2.469       19.373      0.297       
167.8       170.608     122.429     3.384       159.581     125.758     117.468     90.536      78.667      105.849     17.282      1.831       232.469     258.367     1.364       1041.819    946.995     924.35      2.475       19.349      0.299       
167.9       176.604     122.11      3.536       148.128     125.758     113.468     86.202      83.001      115.307     17.362      1.805       236.618     273.032     1.364       1030.15     901.912     860.691     2.48        19.177      0.303       
168.0       179.887     121.738     3.551       137.533     125.758     110.134     82.203      87.334      128.66      17.475      1.832       240.389     310.63      1.364       1146.269    916.015     798.589     2.47        18.805      0.298       
168.1       223.872     121.511     3.34        132.048     125.758     106.134     80.536      90.001      141.651     17.538      1.945       243.783     344.472     1.364       1199.621    906.358     744.925     2.473       18.158      0.3         
168.2       289.068     121.955     3.065       129.349     114.757     102.135     80.536      92.001      160.118     17.634      2.084       246.046     382.82      1.363       1042.031    808.282     704.768     2.474       17.265      0.311       
168.3       328.095     121.936     2.853       129.75      103.755     99.468      80.869      94.334      177.453     17.653      2.22        248.309     420.799     1.362       806.49      680.281     668.626     2.478       16.063      0.318       
168.4       341.979     121.828     2.977       135.379     92.512      98.801      81.536      96.667      196.12      17.673      2.326       250.195     461.032     1.359       705.158     613.183     622.27      2.475       15.028      0.327       
168.5       289.734     122.577     3.107       144.295     93.066      98.801      82.203      100.334     209.785     17.744      2.374       252.08      478.326     1.357       741.163     601.175     556.242     2.48        14.263      0.338       
168.6       264.85      121.703     3.404       149.255     92.097      98.801      82.536      105.334     219.453     17.744      2.319       254.343     494.871     1.357       726.841     558.336     477.652     2.489       13.995      0.351       
168.7       268.534     122.258     3.494       153.137     92.498      98.801      82.869      109.667     226.119     17.835      2.322       256.606     505.399     1.357       606.824     464.882     401.381     2.498       13.94       0.352       
168.8       292.415     122.331     3.407       152.47      92.104      98.801      83.203      114.001     230.453     17.744      2.298       259.246     510.663     1.36        488.465     375.99      335.961     2.509       14.061      0.34        
168.9       317.687     122.144     3.102       148.063     92.589      99.468      83.536      117.001     235.786     17.933      2.356       261.886     510.287     1.367       426.442     319.077     283.75      2.521       14.169      0.338       
169.0       287.74      122.026     3.155       143.061     92.28       100.801     83.536      136.333     240.119     17.907      2.345       264.526     509.159     1.377       433.759     349.115     338.162     2.547       14.186      0.342       
169.1       255.27      122.09      3.324       139.32      91.502      102.801     83.536      155.335     242.453     17.881      2.38        266.789     508.783     1.388       505.316     448.089     465.126     2.557       14.192      0.338       
169.2       228.56      122.118     3.365       139.32      91.368      104.801     83.869      176.0       246.786     17.841      2.416       268.674     509.159     1.398       636.616     594.317     625.237     2.564       14.114      0.344       
169.3       254.097     122.113     3.155       139.32      94.432      106.134     84.203      184.334     250.786     17.953      2.459       270.183     510.663     1.409       779.021     712.626     716.767     2.584       14.025      0.345       
169.4       304.089     122.203     3.159       138.96      100.257     108.134     84.536      195.668     254.119     17.912      2.486       271.315     514.423     1.421       915.898     749.05      691.48      2.584       13.668      0.342       
169.5       367.282     122.092     3.229       138.6       106.483     110.801     84.536      202.667     252.453     18.0        2.479       272.069     519.687     1.433       1051.245    699.756     555.982     2.575       13.402      0.351       
169.6       496.592     122.006     3.21        138.24      111.209     114.134     85.536      203.667     248.786     17.933      2.484       272.446     524.951     1.447       1112.105    633.79      436.663     2.566       13.212      0.353       
169.7       518.8       121.772     3.145       138.96      116.526     116.801     87.869      199.334     244.453     17.907      2.537       272.446     530.215     1.46        1071.478    637.939     459.584     2.553       13.132      0.353       
169.8       283.792     121.673     3.117       140.04      121.442     119.468     91.869      201.334     241.119     18.005      2.57        272.446     535.479     1.47        1035.191    743.645     613.233     2.558       13.011      0.361       
169.9       247.742     121.738     3.048       140.04      131.679     122.134     96.203      206.001     239.786     17.928      2.544       272.446     539.239     1.479       1112.852    883.905     755.783     2.539       13.149      0.364       
170.0       245.471     121.805     2.997       138.96      148.129     125.468     99.203      209.334     240.119     17.928      2.513       272.446     543.375     1.483       1219.533    956.139     791.852     2.54        13.312      0.356       
170.1       273.527     121.966     3.052       137.16      176.13      128.134     101.536     207.334     240.786     17.907      2.501       272.446     544.127     1.483       1214.643    930.685     751.125     2.552       13.391      0.355       
170.2       408.319     122.113     3.188       136.08      201.153     130.134     103.869     203.334     244.786     17.861      2.582       272.446     541.495     1.482       1061.608    805.486     648.99      2.547       13.284      0.353       
170.3       409.261     122.061     2.967       135.36      217.081     131.468     106.869     201.334     249.119     17.861      2.629       272.446     535.855     1.474       950.163     679.658     530.047     2.548       13.437      0.347       
170.4       399.945     122.145     3.105       134.28      225.285     132.801     109.203     200.334     253.119     17.861      2.694       272.446     527.582     1.459       935.789     583.029     408.349     2.569       13.503      0.35        
170.5       283.139     122.188     3.17        133.56      231.128     134.801     111.203     200.334     253.453     17.933      2.778       272.446     517.055     1.443       1001.346    592.189     397.356     2.574       13.485      0.361       
