~Version Information Section
VERS.                                         2.0:CWLS log ASCII Standart – VERSION 2.0
WRAP.                                          NO:One line per depth step
~Well Information Section
STRT.M                                        1.0:Начальная глубина
STOP.M                                      192.9:Конечная глубина
STEP.M                                          0:Шаг квантования по глубине
NULL.                                    -9999.25:Признак "Нет данных"
WELL.                                       123Мх:Скважина
~Parameter Information Section
~Curve Information Section
DEPTH.M                                          :Глубина
BK.lgОмм                                         :BK     (БК)
ПРОФ_СР.мм                                       :DS  (ДС)
ГК.мкР/час                                       :GK          (ГК)
ГЗ1.Омм                                          :GZ1   ГЗ1(A0.4M0.1N)
ГЗ2.Омм                                          :GZ2   ГЗ2(A1.0M0.1N)
ГЗ3.Омм                                          :GZ3   ГЗ3(A2.0M0.5N)
ГЗ4.Oмм                                          :GZ4   ГЗ4(A4.0M0.5N)
ГЗ5.Oмм                                          :GZ5   ГЗ5(A8.0M0.5N)
ГЗК.Омм                                          :GZK   ГЗK(N0.5M2.0A)
ИК.мСм/м                                         :IK
НГК.усл.ед.                                      :NGK     (НГК)
PS.мВ                                            :PS       (ПС)
PZ.Омм                                           :PZ    (КС)
RIS.Омм                                          :RS (Резистивиметр)
U1.мВ                                            :U1
U2.мВ                                            :U2
U3.mv                                            :U3
W.                                               :W
П.%                                              :п
ННКМ.усл.ед                                      :ННКм
~ASCII LOG DATA
# ...
52.2        18.836      135.551     7.185       55.8        35.02       40.801      25.536      23.667      26.786      8.777       0.965       247.555     30.511      1.366       1085.032    891.605     831.252     2.308       32.573      0.204       
52.3        18.072      136.092     7.247       53.64       34.0        40.801      24.869      22.667      26.786      8.733       0.989       244.537     30.135      1.364       867.431     864.871     1021.003    2.301       32.92       0.203       
52.4        19.231      136.276     7.095       52.2        32.98       41.468      24.203      22.001      26.786      8.723       1.01        242.275     29.383      1.364       775.495     843.485     1095.524    2.296       32.903      0.201       
52.5        22.961      136.612     6.646       49.68       31.96       42.801      23.536      22.001      26.786      8.758       0.946       240.389     28.255      1.364       894.628     879.713     1026.529    2.301       32.688      0.199       
52.6        24.717      136.813     6.178       47.52       30.94       44.801      22.869      22.334      26.786      8.836       0.978       238.503     26.751      1.364       1202.448    973.914     882.287     2.323       32.705      0.197       
52.7        25.061      138.349     6.24        45.72       29.92       46.801      22.536      23.334      26.786      8.879       0.976       236.995     25.247      1.364       1487.894    1068.478    806.306     2.34        32.787      0.196       
52.8        24.604      140.552     6.147       45.36       29.24       48.134      22.536      24.334      27.119      8.986       1.036       235.486     23.743      1.364       1591.616    1069.934    751.615     2.348       32.622      0.196       
52.9        23.933      139.045     6.099       46.08       28.9        48.801      22.536      25.334      27.453      9.056       1.019       234.355     21.863      1.364       1535.977    977.92      649.955     2.359       32.176      0.197       
53.0        24.322      139.792     6.038       46.8        28.9        48.801      22.536      26.334      27.786      9.103       1.042       233.6       19.231      1.364       1320.973    792.428     501.316     2.361       31.944      0.199       
53.1        23.714      139.812     6.691       47.88       28.9        49.468      22.536      27.667      27.786      9.139       1.059       233.223     16.975      1.364       1292.096    714.376     417.849     2.355       31.829      0.2         
53.2        22.387      140.303     6.969       48.24       28.9        50.134      22.536      28.667      27.786      9.163       1.059       232.846     13.967      1.364       1449.332    743.753     399.547     2.348       31.928      0.2         
53.3        18.793      140.116     6.903       48.6        28.9        50.801      21.869      29.334      28.453      9.174       1.03        232.846     12.668      1.364       1594.809    836.64      463.682     2.333       32.457      0.201       
53.4        18.664      139.852     6.781       48.6        28.9        51.468      21.203      29.001      29.453      9.238       1.01        233.223     12.154      1.364       1542.396    885.595     545.08      2.33        32.986      0.203       
53.5        25.293      140.142     6.841       48.6        28.9        52.134      20.203      28.334      33.119      9.238       0.985       233.977     13.124      1.364       1547.712    856.05      538.792     2.327       33.3        0.206       
53.6        26.363      139.785     6.808       48.24       29.24       52.801      18.869      27.334      36.119      9.351       0.97        235.109     14.339      1.364       1808.647    791.933     427.549     2.311       32.887      0.208       
53.7        16.218      140.563     6.564       47.88       29.92       52.801      17.536      26.667      38.453      9.414       0.983       236.617     16.492      1.364       1954.304    698.13      305.885     2.3         32.539      0.203       
53.8        19.364      138.85      6.201       47.52       30.94       52.134      16.203      26.001      37.786      9.452       0.991       239.257     17.407      1.364       1729.052    609.209     278.756     2.292       31.944      0.202       
53.9        18.793      138.815     5.888       47.52       31.96       50.801      15.536      25.667      37.119      9.53        1.017       241.897     18.276      1.364       1132.924    525.179     346.16      2.29        31.349      0.207       
54.0        19.679      142.116     5.72        47.52       32.64       49.468      14.869      25.334      36.453      9.583       1.004       244.915     18.914      1.364       794.322     495.652     394.793     2.295       30.489      0.21        
54.1        19.32       144.214     5.448       47.52       32.98       48.134      14.536      25.334      35.786      9.787       1.044       247.932     19.377      1.364       713.285     520.632     424.649     2.3         29.96       0.211       
54.2        21.777      143.45      5.184       47.52       32.98       47.468      14.536      25.334      34.786      9.885       1.03        250.572     19.768      1.364       858.908     559.053     403.418     2.3         29.613      0.203       
54.3        27.797      142.58      5.1         47.52       32.98       46.801      14.536      25.334      33.119      10.029      1.086       252.835     20.134      1.364       973.648     556.408     349.872     2.289       29.547      0.196       
54.4        26.546      138.6       5.18        47.88       32.64       46.801      14.536      25.334      31.119      10.192      1.174       254.72      20.906      1.364       995.844     561.256     356.739     2.27        29.481      0.197       
54.5        29.174      136.483     5.177       48.6        32.3        46.801      14.536      25.334      29.119      10.237      1.21        255.475     21.555      1.364       956.387     614.662     456.332     2.259       29.663      0.2         
54.6        33.884      134.334     5.124       49.68       31.96       46.801      14.536      25.334      27.453      10.391      1.26        256.229     22.508      1.366       864.88      701.133     663.697     2.26        29.894      0.204       
54.7        38.726      135.301     5.158       50.76       31.96       46.801      14.536      25.334      26.119      10.486      1.241       256.606     23.724      1.369       782.974     772.117     886.114     2.256       30.208      0.206       
54.8        38.905      133.772     4.831       51.48       31.62       46.801      14.536      25.667      25.119      10.748      1.268       256.606     25.999      1.374       710.665     827.614     1123.592    2.257       30.059      0.206       
54.9        37.497      132.77      4.522       51.48       30.94       46.801      14.536      26.667      24.453      11.006      1.254       256.606     28.631      1.38        717.147     827.265     1135.15     2.26        30.093      0.205       
55.0        44.361      131.73      4.464       50.76       30.26       46.801      14.869      27.667      23.786      11.163      1.287       256.229     31.639      1.385       802.419     771.07      920.79      2.263       30.324      0.204       
55.1        38.107      131.849     4.802       49.68       29.92       46.801      15.203      28.667      23.119      11.131      1.323       255.852     34.271      1.388       961.796     746.17      673.929     2.29        31.018      0.205       
55.2        32.81       131.978     4.993       48.6        30.26       47.468      15.869      29.334      22.786      11.075      1.303       255.097     36.527      1.39        1116.496    808.403     620.461     2.322       31.415      0.206       
55.3        28.51       132.082     4.918       47.88       30.6        48.801      16.536      30.001      22.786      10.987      1.26        253.966     37.655      1.39        1077.892    876.41      854.564     2.331       32.06       0.206       
