~Version Information Section
VERS.                                         2.0:CWLS log ASCII Standart – VERSION 2.0
WRAP.                                          NO:One line per depth step
~Well Information Section
STRT.M                                        1.6:Начальная глубина
STOP.M                                      209.3:Конечная глубина
STEP.M                                          0:Шаг квантования по глубине
NULL.                                    -9999.25:Признак "Нет данных"
WELL.                                       132Мх:Скважина
~Parameter Information Section
~Curve Information Section
DEPTH.M                                          :Глубина
BК.                                              :BК (Омм)
DS.mm                                            :DS
GGK.g/cm3                                        :GGKp
IК.                                              :IК (Омм)
NGК.                                             :NGК (усл.ед.)
PS.mV                                            :PS
PZ.                                              :PZ (Омм)
REZ.                                             :REZ (Омм)
U1.                                              :U1 (ue)
U2.                                              :U2 (ue)
U3.                                              :U3 (ue)
ГК.mcr/h                                         :ГКканаломНГК
~ASCII LOG DATA
# ...
22.0        66.484      142.231     2.46        21.018      3.394       17.697      42.479      2.417       2032.829    2106.518    2168.083    6.461       
22.1        82.091      142.194     2.409       21.542      3.551       16.933      47.092      2.418       2034.19     2110.707    2175.073    6.721       
22.2        72.46       142.695     2.37        21.905      3.535       16.166      51.859      2.417       2034.48     2116.456    2186.21     7.08        
22.3        92.415      144.003     2.333       22.279      3.328       15.321      52.556      2.422       2037.516    2121.967    2194.118    7.585       
22.4        234.151     143.572     2.327       22.473      2.812       14.404      46.93       2.436       2043.49     2124.582    2193.309    8.153       
22.5        193.33      143.061     2.337       22.34       2.183       13.616      39.718      2.448       2047.682    2125.271    2190.471    8.44        
22.6        121.342     143.015     2.32        21.719      2.237       13.044      34.31       2.448       2047.269    2125.137    2190.644    8.233       
22.7        30.591      142.56      2.328       20.958      2.292       12.73       33.381      2.447       2041.796    2124.081    2194.082    7.621       
22.8        19.289      142.104     2.352       19.635      2.084       12.658      33.385      2.447       2033.725    2121.86     2197.828    6.946       
22.9        21.513      141.729     2.337       18.916      1.902       12.76       34.289      2.448       2028.811    2119.794    2198.682    6.557       
23.0        26.423      141.462     2.369       18.206      2.069       13.062      34.577      2.449       2029.412    2120.251    2199.008    6.416       
23.1        28.672      141.329     2.374       18.037      2.237       13.574      33.984      2.448       2032.065    2123.793    2203.449    6.44        
23.2        28.312      141.371     2.332       18.035      2.405       14.325      32.082      2.449       2035.956    2127.365    2206.685    6.432       
23.3        31.19       141.415     2.259       18.162      2.206       15.405      31.129      2.448       2038.335    2127.515    2204.562    6.431       
23.4        38.437      141.805     2.23        18.078      1.537       16.801      31.365      2.449       2039.165    2125.677    2199.988    6.542       
23.5        29.278      141.719     2.247       18.123      1.47        18.617      31.814      2.459       2039.245    2123.922    2196.359    6.827       
23.6        32.524      141.478     2.3         18.168      1.418       20.91       32.323      2.479       2038.264    2122.328    2194.153    7.272       
23.7        46.417      141.671     2.285       18.21       1.317       23.554      31.965      2.49        2038.26     2118.681    2186.891    7.592       
23.8        39.019      140.227     2.285       18.168      1.192       26.42       31.509      2.492       2031.532    2113.022    2182.432    7.555       
23.9        32.332      140.427     2.272       18.168      1.142       29.41       31.044      2.491       2020.262    2108.152    2184.193    7.359       
24.0        27.55       140.773     2.29        18.085      1.098       32.497      31.111      2.492       2016.861    2107.473    2186.35     7.465       
24.1        26.614      140.241     2.314       18.044      1.086       35.849      31.398      2.495       2016.035    2108.145    2188.537    7.922       
24.2        23.478      140.519     2.326       18.087      1.096       39.443      31.374      2.495       2012.09     2107.485    2191.19     8.356       
24.3        23.727      140.394     2.321       18.173      1.109       43.203      31.405      2.484       2006.713    2107.627    2196.853    8.537       
24.4        27.487      139.884     2.296       18.345      1.098       47.078      31.54       2.472       2009.662    2111.123    2200.804    8.605       
24.5        20.26       137.996     2.305       18.521      1.089       50.965      31.873      2.468       2021.451    2117.961    2202.499    8.471       
24.6        18.971      137.893     2.331       18.609      1.109       54.806      32.543      2.467       2026.331    2121.27     2204.168    7.808       
24.7        18.376      137.85      2.35        18.7        1.2         58.525      33.07       2.466       2023.729    2120.847    2205.984    6.695       
24.8        17.567      138.891     2.366       18.929      1.346       62.01       32.398      2.466       2030.655    2122.966    2203.293    5.358       
24.9        17.416      138.332     2.428       19.549      1.489       65.182      30.03       2.466       2034.533    2124.72     2202.937    4.37        
25.0        27.686      138.878     2.497       20.372      1.581       67.983      27.364      2.467       2033.171    2123.35     2201.567    3.926       
25.1        160.903     139.27      2.52        21.986      1.576       70.378      27.958      2.465       2031.987    2119.824    2195.675    4.051       
25.2        151.304     138.075     2.433       23.234      1.505       72.395      37.051      2.467       2035.061    2118.024    2188.941    4.613       
25.3        65.351      137.947     2.382       24.635      1.418       73.955      52.793      2.465       2040.975    2117.115    2181.138    5.132       
25.4        66.724      138.044     2.374       25.697      1.366       75.147      66.945      2.451       2037.695    2113.124    2176.443    5.285       
25.5        47.707      137.834     2.374       26.041      1.378       76.083      74.947      2.377       2040.231    2110.455    2168.622    5.041       
25.6        34.361      138.344     2.431       26.038      1.436       76.821      77.244      2.42        2049.575    2109.455    2157.378    4.687       
25.7        31.052      138.862     2.485       25.869      1.539       77.369      78.153      2.424       2056.778    2112.006    2155.291    4.466       
25.8        33.341      137.085     2.585       25.617      1.694       77.784      74.363      2.423       2061.826    2114.477    2155.208    4.289       
25.9        41.73       136.893     2.617       25.532      1.881       78.044      66.903      2.423       2066.366    2117.125    2155.988    4.062       
26.0        67.706      136.76      2.616       25.365      2.093       78.124      58.41       2.424       2067.136    2118.094    2157.161    3.789       
26.1        46.472      137.163     2.582       25.282      2.258       78.028      52.198      2.422       2061.148    2115.558    2158.017    3.604       
26.2        40.883      137.234     2.62        25.039      2.337       77.782      47.934      2.42        2053.91     2114.504    2163.025    3.715       
26.3        139.194     137.911     2.614       24.486      2.307       77.393      46.048      2.42        2050.24     2113.23     2164.126    4.092       
26.4        133.153     137.681     2.591       23.885      2.18        76.833      47.222      2.42        2043.701    2108.886    2161.966    4.534       
26.5        76.86       137.743     2.504       22.835      2.026       76.088      50.169      2.417       2036.362    2106.767    2165.086    4.842       
26.6        42.913      138.707     2.438       21.872      1.898       75.2        52.422      2.416       2032.646    2110.505    2176.355    5.0         
26.7        38.337      139.941     2.418       20.873      1.81        74.217      53.572      2.417       2031.881    2116.793    2189.799    5.146       
26.8        55.622      140.707     2.486       19.61       1.712       73.121      52.169      2.423       2027.867    2119.35     2199.033    5.42        
26.9        93.768      142.099     2.553       18.942      1.573       71.963      47.769      2.426       2024.459    2117.905    2199.651    5.951       
27.0        72.932      141.45      2.523       18.147      1.412       70.861      39.596      2.449       2029.432    2119.16     2197.279    6.701       
