~Version Information Section
VERS.                                         2.0:CWLS log ASCII Standart – VERSION 2.0
WRAP.                                          NO:One line per depth step
~Well Information Section
STRT.M                                        0.7:Начальная глубина
STOP.M                                      200.1:Конечная глубина
STEP.M                                          0:Шаг квантования по глубине
NULL.                                    -9999.25:Признак "Нет данных"
WELL.                                       111Мх:Скважина
~Parameter Information Section
~Curve Information Section
DEPTH.M                                          :Глубина
DСР.mm                                           :Dср
ГК.1/min                                         :GK
ИК.mSim/m                                        :IK
N0.5M2.0A.Омм                                    :N0
НГК.усл.ед                                       :NGK
PZ.Ohm*M                                         :PZ
R.Ohm*M                                          :R
PS.mV                                            :ПС
U1.mV                                            :U1
U2.                                              :U2
U3.mV                                            :U3
А0.4М0.1N.Омм                                    :А0
А1.0М0.1N.Омм                                    :А1
А2.0М0.5N.Омм                                    :А2
А4.0М0.5N.Oмм                                    :А4
А8.0М1.0N.Омм                                    :А8
BK.Ohm*M                                         :БК
ГГК.1/min                                        :ГГК
КП.%                                             :Кп
ННКМ.усл.ед                                      :ННКм
~ASCII LOG DATA
# ...
106.3       129.938     7.622       -9999.25    -9999.25    6.064       12.0        -9999.25    294.202     -9999.25    -9999.25    -9999.25    -9999.25    -9999.25    -9999.25    -9999.25    -9999.25    -9999.25    2.291       1.96        4.058       
106.4       129.642     7.622       -9999.25    -9999.25    6.2         12.2        -9999.25    282.867     -9999.25    -9999.25    -9999.25    -9999.25    -9999.25    -9999.25    -9999.25    -9999.25    -9999.25    2.294       2.142       4.115       
106.5       129.349     6.374       -9999.25    -9999.25    6.507       13.0        -9999.25    271.163     -9999.25    -9999.25    -9999.25    -9999.25    -9999.25    -9999.25    -9999.25    -9999.25    -9999.25    2.291       2.274       4.169       
106.6       128.009     6.15        -9999.25    -9999.25    6.272       14.0        -9999.25    260.445     -9999.25    -9999.25    -9999.25    -9999.25    -9999.25    -9999.25    -9999.25    -9999.25    -9999.25    2.291       2.233       4.311       
106.7       129.035     5.702       -9999.25    -9999.25    6.297       15.1        -9999.25    250.466     -9999.25    -9999.25    -9999.25    -9999.25    -9999.25    -9999.25    -9999.25    -9999.25    -9999.25    2.304       2.319       4.484       
106.8       131.07      5.216       -9999.25    -9999.25    6.253       16.1        -9999.25    241.842     -9999.25    -9999.25    -9999.25    -9999.25    -9999.25    -9999.25    -9999.25    -9999.25    -9999.25    2.323       3.869       4.878       
106.9       131.558     4.243       -9999.25    -9999.25    6.208       17.4        -9999.25    234.45      -9999.25    -9999.25    -9999.25    -9999.25    -9999.25    -9999.25    -9999.25    -9999.25    -9999.25    2.348       5.463       5.095       
107.0       130.515     4.512       -9999.25    -9999.25    6.08        19.6        -9999.25    228.166     1492.0      2186.0      1354.0      -9999.25    -9999.25    -9999.25    -9999.25    -9999.25    -9999.25    2.374       7.184       4.374       
107.1       130.054     4.781       -9999.25    -9999.25    6.195       22.2        -9999.25    222.746     1432.001    2062.668    1510.664    -9999.25    -9999.25    -9999.25    -9999.25    -9999.25    -9999.25    2.411       8.943       3.708       
107.2       129.303     4.269       -9999.25    -9999.25    6.244       25.1        -9999.25    218.187     1380.002    1944.004    1629.997    -9999.25    -9999.25    -9999.25    -9999.25    -9999.25    -9999.25    2.452       10.657      3.385       
107.3       128.08      4.013       -9999.25    -9999.25    6.115       28.1        -9999.25    214.491     1327.998    1901.998    1713.999    -9999.25    -9999.25    -9999.25    -9999.25    -9999.25    -9999.25    2.48        12.764      3.166       
107.4       127.208     3.686       -9999.25    -9999.25    6.608       31.3        -9999.25    211.904     1279.999    1882.0      1694.0      -9999.25    -9999.25    -9999.25    -9999.25    -9999.25    -9999.25    2.474       14.759      3.243       
107.5       128.004     3.686       -9999.25    -9999.25    7.189       34.3        -9999.25    210.549     1246.0      1848.0      1674.0      -9999.25    -9999.25    -9999.25    -9999.25    -9999.25    -9999.25    2.436       15.263      3.22        
107.6       128.47      4.186       -9999.25    -9999.25    6.872       36.9        -9999.25    210.302     1433.997    1848.0      1654.0      -9999.25    -9999.25    -9999.25    -9999.25    -9999.25    -9999.25    2.377       15.635      3.129       
107.7       129.571     4.134       -9999.25    -9999.25    5.168       38.8        -9999.25    210.302     1621.991    1862.002    1634.001    -9999.25    -9999.25    -9999.25    -9999.25    -9999.25    -9999.25    2.318       16.335      3.056       
107.8       129.932     3.878       -9999.25    -9999.25    3.594       40.4        -9999.25    210.302     1614.003    1819.998    1615.999    -9999.25    -9999.25    -9999.25    -9999.25    -9999.25    -9999.25    2.258       17.193      3.004       
107.9       129.492     3.782       -9999.25    -9999.25    2.859       41.5        -9999.25    210.302     1605.998    1774.0      1596.0      -9999.25    -9999.25    -9999.25    -9999.25    -9999.25    -9999.25    2.206       18.197      2.895       
108.0       129.507     3.686       -9999.25    -9999.25    2.651       41.5        -9999.25    210.918     1576.0      1682.0      1580.0      -9999.25    -9999.25    -9999.25    -9999.25    -9999.25    -9999.25    2.164       19.125      2.795       
108.1       129.444     3.494       -9999.25    -9999.25    2.498       41.5        -9999.25    212.15      1338.004    1591.002    1560.0      -9999.25    -9999.25    -9999.25    -9999.25    -9999.25    -9999.25    2.132       20.464      2.775       
108.2       129.489     3.398       -9999.25    -9999.25    2.744       41.5        -9999.25    213.998     1100.001    1506.004    1542.001    -9999.25    -9999.25    -9999.25    -9999.25    -9999.25    -9999.25    2.121       21.919      2.723       
108.3       129.516     3.736       -9999.25    -9999.25    2.7         41.5        -9999.25    216.216     1070.799    1424.997    1523.999    -9999.25    -9999.25    -9999.25    -9999.25    -9999.25    -9999.25    2.128       23.52       2.628       
108.4       128.961     3.821       -9999.25    -9999.25    2.536       41.5        -9999.25    218.31      1044.8      1348.0      1494.8      -9999.25    -9999.25    -9999.25    -9999.25    -9999.25    -9999.25    2.151       23.75       2.581       
108.5       128.425     4.051       -9999.25    -9999.25    2.408       41.5        -9999.25    220.405     1046.8      1335.0      1456.4      -9999.25    -9999.25    -9999.25    -9999.25    -9999.25    -9999.25    2.188       23.786      2.63        
108.6       127.731     4.051       -9999.25    -9999.25    2.447       40.9        -9999.25    222.869     1056.4      1335.0      1418.401    -9999.25    -9999.25    -9999.25    -9999.25    -9999.25    -9999.25    2.227       24.724      2.681       
108.7       127.025     3.898       -9999.25    -9999.25    2.16        39.6        -9999.25    225.21      1072.399    1335.0      1381.601    -9999.25    -9999.25    -9999.25    -9999.25    -9999.25    -9999.25    2.266       25.445      2.72        
108.8       127.091     4.036       -9999.25    -9999.25    2.401       38.3        -9999.25    227.674     1088.401    1338.0      1346.799    -9999.25    -9999.25    -9999.25    -9999.25    -0.877      -9999.25    2.306       25.5        2.67        
108.9       128.405     4.589       -9999.25    -9999.25    2.227       37.1        -9999.25    230.754     1101.2      1344.0      1338.4      -9999.25    -9999.25    -9999.25    -9999.25    -0.656      -9999.25    2.329       25.315      2.587       
109.0       128.323     4.442       -9999.25    -9999.25    1.948       36.1        -9999.25    234.326     1108.4      1356.0      1346.8      -9999.25    -9999.25    -9999.25    -9999.25    -0.468      -9999.25    2.344       24.541      2.587       
109.1       127.694     4.147       -9999.25    -9999.25    1.827       35.4        -9999.25    237.776     1107.6      1374.0      1363.6      -9999.25    -9999.25    -9999.25    -9999.25    -0.359      -9999.25    2.346       24.553      2.601       
109.2       129.355     4.116       -9999.25    -9999.25    2.02        35.3        -9999.25    241.349     1102.8      1391.999    1383.199    -9999.25    -9999.25    -9999.25    -9999.25    -0.2        -9999.25    2.362       24.63       2.731       
109.3       130.97      4.07        -9999.25    -9999.25    1.968       35.3        -9999.25    245.045     1096.4      1410.0      1402.8      -9999.25    -9999.25    -9999.25    -9999.25    -0.005      -9999.25    2.376       23.849      2.863       
109.4       129.336     4.186       -9999.25    -9999.25    1.732       35.3        -9999.25    248.371     1090.0      1428.0      1411.2      -9999.25    -9999.25    -9999.25    -9999.25    0.147       -9999.25    2.387       23.142      2.873       
