~Version Information Section
VERS.                                         2.0:CWLS log ASCII Standart – VERSION 2.0
WRAP.                                          NO:One line per depth step
~Well Information Section
STRT.M                                        0.5:Начальная глубина
STOP.M                                      201.9:Конечная глубина
STEP.M                                          0:Шаг квантования по глубине
NULL.                                    -9999.25:Признак "Нет данных"
WELL.                                       138Мх:Скважина
~Parameter Information Section
~Curve Information Section
DEPTH.M                                          :Глубина
БК.Омм                                           :BK     (БК)
DСР.мм                                           :DS  (ДС)
W.g/cm3                                          :GGKp
ГК.гамма                                         :GK          (ГК)
А0.4М0.1N.Омм.ohmm                               :GZ1   ГЗ1(A0.4M0.1N)
А1.0М0.1N.Омм.ohmm                               :GZ2   ГЗ2(A1.0M0.1N)
А2.0М0.5N.Омм.ohmm                               :GZ3   ГЗ3(A2.0M0.5N)
А4.0М0.5N.Oмм.ohmm                               :GZ4   ГЗ4(A4.0M0.5N)
А8.0М1.0N.Омм.ohmm                               :GZ5   ГЗ5(A8.0M0.5N)
N0.5M2.0A.Омм.ohmm                               :GZK   ГЗK(N0.5M2.0A)
ИК.мСм/м                                         :IK
ННКМ.усл.ед                                      :NNKm  (ННКм)
ПС.мВ                                            :PS       (ПС)
КС.Омм                                           :PZ    (КС)
R.Омм                                            :RS (Резистивиметр)
U1.мВ                                            :U1
U2.mV                                            :U2
U3.мВ                                            :U3
КП.%                                             :Кп
НГК.усл.ед                                       :NGK
~ASCII LOG DATA
# ...
48.5        657.368     146.131     2.121       2.752       37.986      23.992      26.127      19.262      21.992      28.493      20.061      1.948       214.312     69.44       1.08        514.474     458.732     203.895     30.611      1.116       
48.6        1975.833    145.575     2.124       2.881       39.344      24.177      25.502      18.943      21.278      28.551      20.413      1.931       215.176     69.259      1.08        574.473     485.744     207.956     31.796      1.103       
48.7        877.311     145.205     2.12        2.788       40.223      24.399      24.862      18.943      20.488      28.667      20.795      1.858       216.088     69.138      1.08        634.475     486.986     234.977     32.877      1.116       
48.8        1377.575    145.392     2.112       2.716       40.712      24.596      24.454      18.943      19.823      28.812      21.109      1.777       217.304     69.064      1.08        664.474     449.932     264.481     36.463      1.091       
48.9        954.815     145.857     2.099       2.587       41.095      24.798      24.338      18.943      19.332      29.014      21.376      1.704       218.728     69.026      1.08        577.628     375.358     268.081     38.697      1.015       
49.0        283.184     146.236     2.082       2.467       41.575      25.188      24.338      18.999      19.076      29.298      21.428      1.647       220.44      69.008      1.08        490.777     326.553     248.72      39.558      1.016       
49.1        238.479     145.296     2.066       2.298       42.095      25.936      24.338      19.616      19.07       29.547      21.355      1.733       222.36      69.002      1.08        456.588     316.045     226.876     36.969      1.03        
49.2        208.022     145.726     2.054       1.951       42.628      27.159      24.338      20.803      19.07       29.813      21.262      1.82        224.456     69.0        1.08        433.332     325.526     227.629     33.846      1.055       
49.3        172.864     146.054     2.048       1.809       43.238      28.974      24.45       21.952      19.07       30.25       20.967      1.828       226.488     69.0        1.08        398.566     345.387     279.383     32.886      1.053       
49.4        168.99      146.537     2.048       1.891       43.697      30.942      24.85       22.783      19.07       30.757      20.882      1.839       228.456     69.0        1.08        341.142     353.145     310.498     33.267      1.074       
49.5        297.81      145.872     2.049       2.122       43.822      32.333      25.468      23.17       19.07       31.252      20.819      1.847       230.312     69.0        1.08        329.632     351.421     325.986     33.53       1.145       
49.6        685.151     145.626     2.055       2.38        43.763      32.87       26.115      23.25       19.163      31.686      20.985      1.845       232.056     69.0        1.08        345.323     339.317     290.475     32.523      1.137       
49.7        650.356     145.207     2.06        2.391       43.418      32.916      26.688      23.141      19.187      31.962      21.212      1.836       234.072     69.0        1.08        385.874     343.269     275.6       33.72       1.098       
49.8        729.816     144.713     2.065       2.573       42.562      32.501      27.092      22.786      19.187      32.057      21.406      1.783       236.488     69.0        1.08        457.197     363.254     281.779     36.177      1.036       
49.9        770.794     145.022     2.069       2.944       41.252      31.303      27.26       22.219      19.178      32.069      21.445      1.706       239.672     69.003      1.08        507.194     396.073     300.336     39.426      1.046       
50.0        653.772     145.166     2.07        3.127       39.888      29.868      27.279      21.63       19.155      32.047      21.402      1.746       243.624     69.016      1.08        532.334     424.941     328.533     40.047      1.073       
50.1        176.392     145.577     2.068       3.064       38.963      28.844      27.279      21.16       19.092      32.017      21.263      1.812       248.216     69.048      1.08        526.7       437.775     350.308     38.055      1.101       
50.2        183.529     146.245     2.068       2.731       38.661      28.368      27.279      20.805      18.992      32.002      21.022      1.831       252.6       69.112      1.08        562.852     450.191     359.704     35.868      1.116       
50.3        174.538     145.701     2.067       2.695       38.661      28.266      27.279      20.545      18.96       31.964      20.714      1.851       256.68      69.229      1.08        654.733     482.313     359.462     34.262      1.131       
50.4        150.986     146.168     2.066       2.749       38.661      28.266      27.279      20.362      18.93       31.892      20.457      1.852       259.784     69.416      1.08        800.215     535.397     363.394     34.578      1.128       
50.5        178.637     147.026     2.071       2.602       38.585      28.154      27.387      20.176      18.887      31.764      20.31       1.858       261.928     69.691      1.08        950.736     592.159     358.937     34.274      1.119       
50.6        359.577     146.1       2.084       2.607       38.413      27.988      27.724      19.879      18.819      31.618      20.247      1.896       263.24      70.075      1.08        1066.43     635.668     354.481     32.13       1.103       
50.7        821.254     145.265     2.105       2.656       38.233      27.934      28.146      19.477      18.761      31.468      20.198      1.96        264.168     70.598      1.08        1208.183    664.154     346.093     29.075      1.131       
50.8        898.918     144.813     2.135       2.822       38.126      27.956      28.462      19.056      18.679      31.286      20.195      2.041       264.792     71.282      1.08        1242.383    702.513     375.659     25.753      1.096       
50.9        793.839     144.693     2.169       2.84        37.917      27.918      28.587      18.646      18.518      31.103      20.186      2.011       265.416     72.149      1.08        1255.677    786.127     530.855     23.272      1.107       
51.0        744.613     146.213     2.189       3.115       37.316      27.756      28.577      18.278      18.202      30.844      20.156      1.854       266.056     73.213      1.08        1189.314    900.531     622.815     24.637      1.087       
51.1        613.495     146.816     2.193       3.75        36.084      27.239      28.331      17.98       17.723      30.412      20.063      1.687       266.664     74.456      1.08        1299.669    984.889     685.205     28.285      1.141       
51.2        588.211     145.363     2.179       4.844       34.165      26.18       27.675      17.738      17.118      29.798      19.964      1.554       267.224     75.808      1.08        1373.883    985.734     616.167     32.736      1.161       
51.3        620.162     145.275     2.155       5.669       32.016      24.759      26.789      17.62       16.468      29.127      19.865      1.541       267.688     77.158      1.08        1354.999    873.75      551.766     34.43       1.161       
51.4        432.613     147.471     2.13        5.967       30.02       23.177      25.87       17.611      15.912      28.517      19.741      1.587       268.072     78.365      1.08        1225.76     741.627     456.915     33.595      1.088       
51.5        249.784     148.393     2.119       5.673       28.303      21.665      25.15       17.611      15.515      28.035      19.526      1.645       268.312     79.21       1.08        1132.666    641.301     367.853     32.872      1.071       
51.6        157.07      148.605     2.119       5.309       26.99       20.507      24.753      17.611      15.308      27.77       19.214      1.677       268.44      79.597      1.08        1059.194    599.098     337.402     33.318      1.062       
