~Version Information Section
VERS.                                         2.0:CWLS log ASCII Standart – VERSION 2.0
WRAP.                                          NO:One line per depth step
~Well Information Section
STRT.M                                        0.4:Начальная глубина
STOP.M                                      206.4:Конечная глубина
STEP.M                                          0:Шаг квантования по глубине
NULL.                                    -9999.25:Признак "Нет данных"
WELL.                                       157Мх:Скважина
~Parameter Information Section
~Curve Information Section
DEPTH.M                                          :Глубина
BK.Ohm*M                                         :BK     (БК)
DS.mm                                            :DS  (ДС)
GGK.g/cm3                                        :GGKp
ГК.mcr/h                                         :GK          (ГК)
GZ1.Ohm*M                                        :GZ1   ГЗ1(A0.4M0.1N)
GZ2.Ohm*M                                        :GZ2   ГЗ2(A1.0M0.1N)
GZ3.Ohm*M                                        :GZ3   ГЗ3(A2.0M0.5N)
GZ4.Ohm*M                                        :GZ4   ГЗ4(A4.0M0.5N)
GZ5.Ohm*M                                        :GZ5   ГЗ5(A8.0M0.5N)
GZR.                                             :GZR   ГЗK(N0.5M2.0A)
ИК.Ohm*M                                         :IK
НГК.ue                                           :NGK     (НГК)
NNKM.                                            :NNKm  (ННКм)
PS.mv                                            :PS       (ПС)
PZ.Ohm*M                                         :PZ    (КС)
RS.Ohm*M                                         :RS (Резистивиметр)
W.%                                              :W
~ASCII LOG DATA
# ...
196.5       59.274      152.897     2.259       6.065       35.129      21.567      13.916      -9999.25    33.687      -9999.25    22.447      1.622       2.371       195.468     67.131      -9999.25    23.625      
196.6       58.715      151.968     2.251       5.797       35.186      23.827      14.157      -9999.25    33.936      -9999.25    22.419      1.677       2.397       193.934     66.249      -9999.25    22.548      
196.7       57.085      152.253     2.241       5.576       35.562      25.46       14.321      -9999.25    34.705      -9999.25    22.268      1.754       2.406       192.325     65.871      -9999.25    22.35       
196.8       57.332      152.148     2.237       5.548       36.131      26.833      14.574      -9999.25    36.019      -9999.25    22.155      1.813       2.388       190.712     65.881      -9999.25    22.914      
196.9       58.73       152.436     2.233       5.566       37.091      28.012      15.075      -9999.25    38.508      -9999.25    21.995      1.791       2.395       189.261     65.928      -9999.25    23.613      
197.0       59.764      152.204     2.241       5.574       38.735      29.732      16.011      -9999.25    41.631      -9999.25    21.876      1.742       2.436       188.374     65.962      -9999.25    23.901      
197.1       62.492      151.979     2.246       5.574       40.081      31.413      18.186      -9999.25    44.065      -9999.25    21.637      1.727       2.484       188.307     65.909      -9999.25    23.783      
197.2       61.502      151.927     2.257       5.594       41.419      33.435      22.635      -9999.25    44.769      -9999.25    21.329      1.738       2.496       188.307     65.608      -9999.25    23.003      
197.3       62.578      151.37      2.272       5.677       42.395      37.379      27.818      -9999.25    44.801      -9999.25    20.998      1.779       2.523       188.307     64.88       -9999.25    21.634      
197.4       73.33       152.075     2.296       5.92        43.832      40.931      31.739      -9999.25    44.09       -9999.25    20.787      1.816       2.574       188.412     62.663      -9999.25    20.866      
197.5       67.382      151.979     2.318       6.358       44.093      40.356      32.643      -9999.25    42.816      -9999.25    20.654      1.8         2.531       189.094     58.776      -9999.25    21.376      
197.6       45.925      151.863     2.338       6.972       43.743      37.222      31.987      -9999.25    41.26       -9999.25    20.471      1.744       2.411       190.521     55.274      -9999.25    23.223      
197.7       35.195      151.971     2.351       7.738       40.808      28.849      28.192      -9999.25    39.591      -9999.25    20.173      1.649       2.224       192.37      53.406      -9999.25    25.335      
197.8       33.691      151.853     2.357       8.322       33.067      20.021      22.313      -9999.25    37.577      -9999.25    19.857      1.573       2.123       194.021     53.153      -9999.25    26.838      
197.9       32.646      152.571     2.35        8.699       25.348      16.542      16.925      -9999.25    34.898      -9999.25    19.513      1.511       2.059       195.02      52.555      -9999.25    27.691      
198.0       32.133      152.247     2.342       8.871       20.052      15.349      14.348      -9999.25    33.009      -9999.25    19.225      1.473       2.041       196.507     52.034      -9999.25    28.29       
198.1       34.233      152.03      2.329       9.039       18.916      15.044      13.915      -9999.25    32.573      -9999.25    19.01       1.448       2.053       198.584     51.574      -9999.25    29.175      
198.2       39.381      152.856     2.314       9.019       18.797      15.095      14.2        -9999.25    32.599      -9999.25    18.931      1.441       2.076       200.869     51.139      -9999.25    29.323      
198.3       47.105      154.347     2.303       8.883       18.621      16.735      15.928      -9999.25    33.873      -9999.25    18.973      1.442       2.133       198.535     50.145      -9999.25    28.274      
198.4       48.667      153.741     2.3         8.819       18.463      23.961      18.957      -9999.25    35.18       -9999.25    19.023      1.445       2.17        213.172     49.012      -9999.25    26.51       
198.5       47.86       153.243     2.299       8.904       18.398      31.306      22.341      -9999.25    35.911      -9999.25    18.962      1.485       2.232       -9999.25    48.299      -9999.25    25.201      
198.6       58.19       153.861     2.306       8.803       18.397      37.031      25.072      -9999.25    36.083      -9999.25    18.769      1.528       2.264       -9999.25    48.134      -9999.25    24.832      
198.7       58.799      151.426     2.316       8.635       18.396      36.975      25.88       -9999.25    36.13       -9999.25    18.476      1.611       2.27        -9999.25    48.147      -9999.25    24.935      
198.8       51.233      151.669     2.326       8.634       18.394      36.593      25.58       -9999.25    36.107      -9999.25    18.088      1.632       2.245       -9999.25    48.209      -9999.25    25.385      
198.9       47.935      151.667     2.332       8.894       -9999.25    35.792      23.707      -9999.25    36.007      -9999.25    17.76       1.588       2.19        -9999.25    -9999.25    -9999.25    25.756      
199.0       42.902      151.57      2.339       9.265       -9999.25    35.101      20.401      -9999.25    34.998      -9999.25    17.503      1.496       2.157       -9999.25    -9999.25    -9999.25    26.357      
199.1       37.459      151.818     2.347       9.42        -9999.25    34.89       17.475      -9999.25    33.589      -9999.25    17.358      1.423       2.055       -9999.25    -9999.25    -9999.25    27.291      
199.2       36.558      151.85      2.349       9.398       -9999.25    34.886      15.537      -9999.25    31.799      -9999.25    17.188      1.409       1.984       -9999.25    -9999.25    -9999.25    29.04       
199.3       35.676      151.905     2.343       9.227       -9999.25    34.883      14.331      -9999.25    29.536      -9999.25    17.011      1.401       1.93        -9999.25    -9999.25    -9999.25    31.259      
199.4       37.802      152.169     2.334       9.118       -9999.25    34.876      13.778      -9999.25    27.048      -9999.25    16.825      1.405       1.947       -9999.25    -9999.25    -9999.25    32.191      
199.5       41.548      152.192     2.325       9.223       -9999.25    -9999.25    13.917      -9999.25    24.826      -9999.25    16.694      1.412       1.974       -9999.25    -9999.25    -9999.25    31.401      
199.6       39.131      152.614     2.315       9.412       -9999.25    -9999.25    14.675      -9999.25    23.998      -9999.25    16.573      1.405       1.985       -9999.25    -9999.25    -9999.25    30.271      
199.7       37.966      152.431     2.306       9.248       -9999.25    -9999.25    15.663      -9999.25    23.855      -9999.25    16.489      1.388       1.967       -9999.25    -9999.25    -9999.25    30.504      
199.8       37.292      152.326     2.302       8.803       -9999.25    -9999.25    16.414      -9999.25    23.79       -9999.25    16.505      1.393       1.94        -9999.25    -9999.25    -9999.25    31.42       
199.9       37.594      151.864     2.302       8.355       -9999.25    -9999.25    16.527      -9999.25    23.743      -9999.25    16.558      1.414       1.941       -9999.25    -9999.25    -9999.25    31.651      
200.0       38.827      151.105     2.304       8.291       -9999.25    -9999.25    16.523      -9999.25    23.73       -9999.25    16.712      1.375       1.97        -9999.25    -9999.25    -9999.25    31.295      
200.1       40.32       151.15      2.303       8.927       -9999.25    -9999.25    16.504      -9999.25    23.732      -9999.25    16.774      1.314       1.99        -9999.25    -9999.25    -9999.25    31.007      
