~Version Information Section
VERS.                                         2.0:CWLS log ASCII Standart – VERSION 2.0
WRAP.                                          NO:One line per depth step
~Well Information Section
STRT.M                                       1.07:Начальная глубина
STOP.M                                     192.17:Конечная глубина
STEP.M                                          0:Шаг квантования по глубине
NULL.                                    -9999.25:Признак "Нет данных"
WELL.                                        151К:Скважина
~Parameter Information Section
~Curve Information Section
DEPTH.M                                          :Глубина
BK.Ohm*M                                         :BK     (БК)
DS.mm                                            :DS  (ДС)
GGK.g/cm3                                        :GGKp
ГК.mcr/h                                         :GK          (ГК)
GZ1.Ohm*M                                        :GZ1   ГЗ1(A0.4M0.1N)
GZ2.Ohm*M                                        :GZ2   ГЗ2(A1.0M0.1N)
GZ3.Ohm*M                                        :GZ3   ГЗ3(A2.0M0.5N)
GZ4.Ohm*M                                        :GZ4   ГЗ4(A4.0M0.5N)
GZ5.Ohm*M                                        :GZ5   ГЗ5(A8.0M0.5N)
GZR.                                             :GZR   ГЗK(N0.5M2.0A)
ИК.Ohm*M                                         :IK
НГК.ue                                           :NGK     (НГК)
NNKM.                                            :NNKm  (ННКм)
PS.mv                                            :PS       (ПС)
PZ.Ohm*M                                         :PZ    (КС)
RS.Ohm*M                                         :RS (Резистивиметр)
W.%                                              :W
~ASCII LOG DATA
# ...
46.17       67.082      154.276     1.941       5.841       -9999.25    -9999.25    -9999.25    -9999.25    -9999.25    -9999.25    63.236      1.112       1.284       438.185     114.25      1.12        29.539      
46.2        -9999.25    -9999.25    -9999.25    -9999.25    71.889      110.061     95.094      52.453      -0.078      133.18      -9999.25    -9999.25    -9999.25    -9999.25    -9999.25    -9999.25    -9999.25    
46.27       69.202      154.349     1.94        6.002       -9999.25    -9999.25    -9999.25    -9999.25    -9999.25    -9999.25    63.237      1.099       1.298       439.636     114.199     1.119       28.222      
46.3        -9999.25    -9999.25    -9999.25    -9999.25    74.805      115.004     102.606     53.682      -0.134      132.895     -9999.25    -9999.25    -9999.25    -9999.25    -9999.25    -9999.25    -9999.25    
46.37       71.242      154.403     1.941       5.809       -9999.25    -9999.25    -9999.25    -9999.25    -9999.25    -9999.25    63.084      1.091       1.31        440.462     114.049     1.119       26.711      
46.4        -9999.25    -9999.25    -9999.25    -9999.25    76.644      117.738     109.474     54.123      -0.123      131.389     -9999.25    -9999.25    -9999.25    -9999.25    -9999.25    -9999.25    -9999.25    
46.47       74.46       154.485     1.943       5.481       -9999.25    -9999.25    -9999.25    -9999.25    -9999.25    -9999.25    63.352      1.088       1.317       439.947     114.013     1.12        25.955      
46.5        -9999.25    -9999.25    -9999.25    -9999.25    77.294      117.689     113.938     54.023      -0.117      129.045     -9999.25    -9999.25    -9999.25    -9999.25    -9999.25    -9999.25    -9999.25    
46.57       76.896      154.541     1.946       5.265       -9999.25    -9999.25    -9999.25    -9999.25    -9999.25    -9999.25    64.158      1.085       1.305       438.518     114.348     1.12        26.145      
46.6        -9999.25    -9999.25    -9999.25    -9999.25    75.625      113.826     117.152     53.889      -0.134      127.222     -9999.25    -9999.25    -9999.25    -9999.25    -9999.25    -9999.25    -9999.25    
46.67       76.628      155.063     1.948       5.203       -9999.25    -9999.25    -9999.25    -9999.25    -9999.25    -9999.25    64.299      1.077       1.286       437.496     114.747     1.119       26.908      
46.7        -9999.25    -9999.25    -9999.25    -9999.25    72.893      110.304     120.078     53.976      -0.123      126.369     -9999.25    -9999.25    -9999.25    -9999.25    -9999.25    -9999.25    -9999.25    
46.77       72.575      155.702     1.949       5.389       -9999.25    -9999.25    -9999.25    -9999.25    -9999.25    -9999.25    65.005      1.062       1.275       437.92      114.676     1.119       27.457      
46.8        -9999.25    -9999.25    -9999.25    -9999.25    72.12       111.785     123.059     54.356      -0.134      125.951     -9999.25    -9999.25    -9999.25    -9999.25    -9999.25    -9999.25    -9999.25    
46.87       67.09       156.25      1.949       5.596       -9999.25    -9999.25    -9999.25    -9999.25    -9999.25    -9999.25    65.478      1.05        1.281       439.25      114.112     1.12        27.552      
46.9        -9999.25    -9999.25    -9999.25    -9999.25    72.769      115.09      127.838     55.205      -0.168      126.06      -9999.25    -9999.25    -9999.25    -9999.25    -9999.25    -9999.25    -9999.25    
46.97       66.272      156.033     1.948       5.597       -9999.25    -9999.25    -9999.25    -9999.25    -9999.25    -9999.25    65.539      1.06        1.291       440.456     113.66      1.12        27.036      
47.0        -9999.25    -9999.25    -9999.25    -9999.25    73.111      116.546     134.26      56.656      -0.157      126.537     -9999.25    -9999.25    -9999.25    -9999.25    -9999.25    -9999.25    -9999.25    
47.07       69.309      156.016     1.945       5.564       -9999.25    -9999.25    -9999.25    -9999.25    -9999.25    -9999.25    65.416      1.11        1.302       440.791     113.454     1.119       26.12       
47.1        -9999.25    -9999.25    -9999.25    -9999.25    72.839      117.248     140.916     58.829      -0.185      126.665     -9999.25    -9999.25    -9999.25    -9999.25    -9999.25    -9999.25    -9999.25    
47.17       71.879      156.059     1.943       5.712       -9999.25    -9999.25    -9999.25    -9999.25    -9999.25    -9999.25    64.94       1.159       1.31        440.188     113.019     1.118       25.102      
47.2        -9999.25    -9999.25    -9999.25    -9999.25    73.841      120.624     145.463     61.461      -0.168      126.095     -9999.25    -9999.25    -9999.25    -9999.25    -9999.25    -9999.25    -9999.25    
47.27       72.256      156.434     1.942       5.922       -9999.25    -9999.25    -9999.25    -9999.25    -9999.25    -9999.25    64.577      1.191       1.318       438.897     112.229     1.118       24.691      
47.3        -9999.25    -9999.25    -9999.25    -9999.25    76.53       125.561     148.824     64.352      -0.201      124.609     -9999.25    -9999.25    -9999.25    -9999.25    -9999.25    -9999.25    -9999.25    
47.37       73.084      156.791     1.943       6.016       -9999.25    -9999.25    -9999.25    -9999.25    -9999.25    -9999.25    64.878      1.192       1.344       437.591     111.192     1.118       24.664      
47.4        -9999.25    -9999.25    -9999.25    -9999.25    79.33       128.977     152.035     66.996      -0.213      121.867     -9999.25    -9999.25    -9999.25    -9999.25    -9999.25    -9999.25    -9999.25    
47.47       76.562      156.684     1.947       5.976       -9999.25    -9999.25    -9999.25    -9999.25    -9999.25    -9999.25    65.052      1.19        1.376       437.488     110.013     1.118       24.679      
47.5        -9999.25    -9999.25    -9999.25    -9999.25    80.38       129.027     153.684     69.043      -0.246      118.78      -9999.25    -9999.25    -9999.25    -9999.25    -9999.25    -9999.25    -9999.25    
47.57       78.945      157.741     1.953       5.887       -9999.25    -9999.25    -9999.25    -9999.25    -9999.25    -9999.25    64.693      1.18        1.405       438.4       108.689     1.119       24.683      
47.6        -9999.25    -9999.25    -9999.25    -9999.25    80.872      127.343     152.945     70.807      -0.235      115.2       -9999.25    -9999.25    -9999.25    -9999.25    -9999.25    -9999.25    -9999.25    
47.67       78.926      159.301     1.961       5.836       -9999.25    -9999.25    -9999.25    -9999.25    -9999.25    -9999.25    64.464      1.157       1.402       439.2       107.334     1.119       24.826      
47.7        -9999.25    -9999.25    -9999.25    -9999.25    80.918      125.845     150.333     72.082      -0.252      110.624     -9999.25    -9999.25    -9999.25    -9999.25    -9999.25    -9999.25    -9999.25    
47.77       76.867      159.5       1.968       5.82        -9999.25    -9999.25    -9999.25    -9999.25    -9999.25    -9999.25    64.477      1.106       1.387       438.533     105.856     1.119       25.159      
47.8        -9999.25    -9999.25    -9999.25    -9999.25    79.052      122.2       146.811     72.846      -0.268      105.626     -9999.25    -9999.25    -9999.25    -9999.25    -9999.25    -9999.25    -9999.25    
47.87       74.202      159.349     1.975       5.901       -9999.25    -9999.25    -9999.25    -9999.25    -9999.25    -9999.25    64.108      1.054       1.359       436.606     103.732     1.119       25.81       
47.9        -9999.25    -9999.25    -9999.25    -9999.25    77.634      119.072     142.861     73.47       -0.235      100.671     -9999.25    -9999.25    -9999.25    -9999.25    -9999.25    -9999.25    -9999.25    
47.97       71.547      159.52      1.98        5.983       -9999.25    -9999.25    -9999.25    -9999.25    -9999.25    -9999.25    63.689      1.022       1.33        434.608     101.398     1.119       26.636      
