~Version Information Section
VERS.                                         2.0:CWLS log ASCII Standart – VERSION 2.0
WRAP.                                          NO:One line per depth step
~Well Information Section
STRT.M                                        1.2:Начальная глубина
STOP.M                                      208.4:Конечная глубина
STEP.M                                          0:Шаг квантования по глубине
NULL.                                    -9999.25:Признак "Нет данных"
WELL.                                       109Мх:Скважина
~Parameter Information Section
~Curve Information Section
DEPTH.M                                          :Глубина
BK.Ohm*M                                         :BK     (БК)
DS.mm                                            :DS  (ДС)
GGK.g/cm3                                        :GGKp
ГК.mcr/h                                         :GK          (ГК)
GZ1.Ohm*M                                        :GZ1   ГЗ1(A0.4M0.1N)
GZ2.Ohm*M                                        :GZ2   ГЗ2(A1.0M0.1N)
GZ3.Ohm*M                                        :GZ3   ГЗ3(A2.0M0.5N)
GZ4.Ohm*M                                        :GZ4   ГЗ4(A4.0M0.5N)
GZ5.Ohm*M                                        :GZ5   ГЗ5(A8.0M0.5N)
GZR.Ohm*M                                        :GZK   ГЗK(N0.5M2.0A)
ИК.Ohm*M                                         :IK
НГК.u.e.                                         :NGK
NNKM.                                            :NNKm  (ННКм)
U1.mV                                            :U1
U2.mV                                            :U2
U3.mV                                            :U3
КП.%                                             :Кп
PS.mv                                            :PS       (ПС)
PZ.Ohm*M                                         :PZ    (КС)
RS.Ohm*M                                         :RS (Резистивиметр)
~ASCII LOG DATA
# ...
145.2       57.412      132.879     2.344       6.226       95.31       41.674      55.982      16.463      16.43       53.48       11.367      1.123       2.204       476.625     412.084     792.664     23.175      1082.788    36.81       1.0         
145.3       26.002      132.173     2.317       6.323       94.47       43.234      55.982      16.463      16.43       53.48       11.367      1.068       2.017       570.52      478.112     823.55      26.446      1082.638    36.593      1.0         
145.4       27.606      132.46      2.268       6.68        94.05       42.714      55.982      16.583      16.43       54.52       11.254      1.06        1.956       691.73      551.894     799.641     29.15       1082.462    36.449      1.0         
145.5       27.606      132.265     2.245       6.949       94.05       41.674      55.982      16.703      16.43       54.52       11.111      1.098       1.985       666.171     560.291     843.553     29.929      1082.252    36.305      1.0         
145.6       27.99       132.176     2.235       6.828       94.05       41.154      55.982      16.703      16.43       54.52       11.021      1.127       2.009       514.603     512.621     943.306     28.531      1082.017    36.233      0.999       
145.7       29.923      132.342     2.27        6.326       94.05       41.154      55.982      16.823      16.43       54.52       11.021      1.123       2.028       411.585     483.812     988.447     26.501      1081.758    36.161      0.997       
145.8       35.318      132.463     2.289       6.166       94.47       40.114      55.982      16.823      16.43       54.52       10.932      1.093       2.026       436.68      506.787     934.467     26.367      1081.473    36.089      0.995       
145.9       35.318      133.048     2.305       6.484       94.47       40.114      55.982      16.823      16.43       54.52       10.848      1.098       1.966       526.691     548.078     839.227     27.824      1081.163    36.017      0.993       
146.0       28.774      132.851     2.288       6.65        94.89       40.114      56.422      16.943      16.43       54.52       10.848      1.102       1.918       624.584     577.018     740.616     28.598      1080.827    36.017      0.992       
146.1       29.174      135.141     2.301       6.514       95.31       40.114      56.422      16.943      16.57       55.56       10.763      1.065       1.968       678.973     560.608     631.88      27.915      1080.467    36.017      0.992       
146.2       28.708      135.019     2.296       6.442       95.31       40.114      56.422      16.943      16.57       55.56       10.664      1.019       2.019       667.965     496.477     513.799     27.873      1080.09     36.161      0.992       
146.3       31.769      134.165     2.361       6.683       95.31       40.114      56.422      16.943      16.57       55.56       10.55       1.015       1.996       624.33      432.648     433.599     28.67       1079.696    36.305      0.992       
146.4       30.479      132.922     2.39        6.603       94.89       41.154      56.422      16.943      16.57       55.56       10.437      1.062       1.973       605.687     420.798     427.423     28.798      1079.294    36.449      0.992       
146.5       22.491      132.78      2.408       5.951       94.47       41.154      56.422      16.943      16.71       55.56       10.299      1.1         2.048       625.313     467.165     493.273     28.078      1078.883    36.593      0.992       
146.6       22.491      133.237     2.359       5.375       94.05       41.154      56.422      16.943      16.85       55.56       10.299      1.11        2.142       632.663     515.308     578.14      27.674      1078.464    36.738      0.992       
146.7       24.774      134.553     2.334       5.131       94.05       41.674      56.422      16.823      16.85       55.56       10.177      1.103       2.17        607.023     534.012     644.454     28.472      1078.036    36.882      0.992       
146.8       35.563      134.084     2.299       5.399       94.05       41.674      56.422      16.703      16.99       55.56       10.162      1.06        2.183       575.986     514.533     643.888     29.104      1077.601    36.954      0.992       
146.9       20.512      133.943     2.298       5.633       94.05       41.674      56.422      16.583      16.85       55.56       10.117      1.028       2.165       575.331     473.827     569.61      28.696      1077.165    36.954      0.992       
147.0       27.925      132.977     2.304       5.994       94.05       41.674      55.982      16.463      16.85       56.6        10.117      1.031       2.123       613.219     435.154     463.341     27.928      1076.746    36.954      0.992       
147.1       27.925      133.045     2.325       6.175       94.05       41.674      55.982      16.463      16.85       57.64       10.073      1.084       2.063       671.421     414.81      384.21      28.095      1076.344    36.882      0.992       
147.2       32.211      132.941     2.316       6.294       94.05       41.674      55.982      16.463      16.99       59.72       10.015      1.073       1.966       762.731     417.93      346.107     28.972      1075.958    36.81       0.993       
147.3       31.117      134.049     2.293       6.565       94.05       41.154      55.982      16.463      16.99       59.72       9.971       1.043       1.901       875.88      429.839     322.815     30.142      1075.589    36.666      0.995       
147.4       25.763      133.81      2.278       6.652       94.05       41.154      55.982      16.463      16.99       59.72       9.885       1.016       1.877       925.223     430.158     312.478     30.749      1075.237    36.521      0.997       
147.5       22.699      133.201     2.283       6.83        94.47       41.154      55.982      16.463      17.13       59.72       9.9         1.046       1.869       856.467     409.459     318.791     31.238      1074.91     36.377      0.999       
147.6       22.387      132.556     2.293       6.918       94.89       41.154      55.982      16.463      17.13       59.72       9.857       1.052       1.919       697.336     380.373     345.974     31.268      1074.617    36.305      1.0         
147.7       23.878      132.469     2.309       7.028       95.31       41.154      55.982      16.463      17.13       59.72       9.857       1.071       1.959       622.324     406.22      408.839     30.83       1074.349    36.305      1.0         
147.8       23.878      132.509     2.287       7.213       95.31       41.154      55.982      16.463      17.13       59.72       9.829       1.045       2.007       681.453     492.107     495.033     30.387      1074.106    36.377      1.0         
147.9       21.827      132.566     2.252       7.147       95.31       41.154      55.982      16.463      17.27       59.72       9.829       1.077       2.066       807.201     555.864     525.334     29.491      1073.888    36.593      1.0         
148.0       24.547      132.687     2.225       6.977       95.73       41.154      55.982      16.463      17.27       59.72       9.774       1.074       2.018       874.542     529.152     462.075     28.767      1073.695    37.026      1.0         
148.1       31.623      133.607     2.265       6.669       96.15       41.154      56.422      16.583      17.41       60.76       9.746       1.128       1.943       801.379     427.195     359.698     28.752      1073.527    37.531      1.0         
148.2       31.623      133.939     2.276       6.789       96.57       41.154      56.862      16.583      17.41       61.8        9.746       1.093       1.896       637.45      334.835     308.953     30.399      1073.385    38.108      1.0         
148.3       23.442      133.406     2.264       6.849       99.09       42.194      57.302      16.703      17.55       62.84       9.76        1.134       1.842       494.135     308.328     338.784     32.307      1073.268    38.757      1.001       
