~Version Information Section
VERS.                                         2.0:CWLS log ASCII Standart – VERSION 2.0
WRAP.                                          NO:One line per depth step
~Well Information Section
STRT.M                                        0.6:Начальная глубина
STOP.M                                      202.6:Конечная глубина
STEP.M                                          0:Шаг квантования по глубине
NULL.                                    -9999.25:Признак "Нет данных"
WELL.                                       130Мх:Скважина
~Parameter Information Section
~Curve Information Section
DEPTH.M                                          :Глубина
БК.Омм                                           :BK     (БК)
DСР.мм                                           :DS  (ДС)
W.g/cm3                                          :GGKp
ГК.гамма                                         :GK          (ГК)
А0.4М0.1N.Омм.ohmm                               :GZ1   ГЗ1(A0.4M0.1N)
А1.0М0.1N.Омм.ohmm                               :GZ2   ГЗ2(A1.0M0.1N)
А2.0М0.5N.Омм.ohmm                               :GZ3   ГЗ3(A2.0M0.5N)
А4.0М0.5N.Oмм.ohmm                               :GZ4   ГЗ4(A4.0M0.5N)
А8.0М1.0N.Омм.ohmm                               :GZ5   ГЗ5(A8.0M0.5N)
N0.5M2.0A.Омм.ohmm                               :GZK   ГЗK(N0.5M2.0A)
ИК.мСм/м                                         :IK
НГК.усл.ед                                       :NNKb  (ННКб)
ННКМ.усл.ед                                      :NNKm  (ННКм)
ПС.мВ                                            :PS       (ПС)
КС.Омм                                           :PZ    (КС)
R.Омм                                            :RS (Резистивиметр)
U1.мВ                                            :U1
U2.mV                                            :U2
U3.мВ                                            :U3
КП.%                                             :Кп
~ASCII LOG DATA
# ...
195.8       31.656      131.772     2.335       5.46        -9999.25    22.102      14.109      -9999.25    7.797       -9999.25    13.961      2.877       1.773       186.237     78.33       -9999.25    940.941     368.673     148.628     24.621      
195.9       30.007      130.623     2.318       6.04        -9999.25    -9999.25    13.595      -9999.25    7.371       -9999.25    13.503      2.383       1.578       186.649     77.874      -9999.25    1156.808    480.175     304.45      24.777      
196.0       28.652      129.611     2.301       6.698       -9999.25    -9999.25    13.401      -9999.25    7.269       -9999.25    13.164      2.398       1.528       187.014     77.224      -9999.25    1276.785    776.105     582.404     25.254      
196.1       26.65       133.902     2.277       7.267       -9999.25    -9999.25    13.401      -9999.25    7.269       -9999.25    12.98       2.429       1.517       187.247     76.462      -9999.25    1289.938    1046.739    830.499     25.545      
196.2       27.797      129.816     2.26        7.169       -9999.25    -9999.25    13.401      -9999.25    7.269       -9999.25    12.915      2.399       1.52        187.308     75.652      -9999.25    1253.074    1261.843    1055.762    25.323      
196.3       31.45       129.481     2.255       6.882       -9999.25    -9999.25    13.532      -9999.25    7.269       -9999.25    12.918      2.366       1.53        187.308     74.872      -9999.25    1178.767    1453.343    1253.812    24.019      
196.4       31.662      128.024     2.256       6.016       -9999.25    -9999.25    13.848      -9999.25    7.518       -9999.25    12.946      2.485       1.565       187.308     74.155      -9999.25    1102.103    1499.237    1261.888    22.329      
196.5       31.565      128.13      2.272       6.024       -9999.25    -9999.25    14.342      -9999.25    9.193       -9999.25    12.996      2.686       1.602       187.173     73.472      -9999.25    1014.188    1317.156    1145.581    20.212      
196.6       33.628      128.147     2.298       5.708       -9999.25    -9999.25    15.116      -9999.25    9.546       -9999.25    13.042      2.731       1.622       186.844     71.922      -9999.25    958.813     1131.688    1056.516    18.734      
196.7       36.302      127.833     2.323       6.075       -9999.25    -9999.25    17.074      -9999.25    9.442       -9999.25    13.075      2.788       1.645       186.349     71.922      -9999.25    876.036     966.901     1012.75     19.236      
196.8       37.456      127.685     2.343       5.772       -9999.25    -9999.25    19.021      -9999.25    10.544      -9999.25    13.092      2.84        1.669       185.762     71.922      -9999.25    722.008     792.021     916.152     20.709      
196.9       37.386      127.645     2.356       5.605       -9999.25    -9999.25    19.207      -9999.25    -9999.25    -9999.25    13.108      2.921       1.713       185.121     71.922      -9999.25    560.807     675.75      838.688     22.379      
197.0       52.095      127.637     2.369       5.215       -9999.25    -9999.25    19.056      -9999.25    -9999.25    -9999.25    13.104      3.071       1.772       184.452     71.922      -9999.25    523.909     624.436     763.482     22.719      
197.1       94.94       127.582     2.376       5.018       -9999.25    -9999.25    -9999.25    -9999.25    -9999.25    -9999.25    13.113      3.208       1.835       183.771     72.517      -9999.25    506.278     589.108     721.849     25.092      
197.2       93.934      127.398     2.376       5.133       -9999.25    -9999.25    -9999.25    -9999.25    -9999.25    -9999.25    13.079      3.314       1.901       183.083     73.822      -9999.25    510.609     559.252     647.042     27.929      
197.3       82.844      127.46      2.375       5.389       -9999.25    -9999.25    -9999.25    -9999.25    -9999.25    -9999.25    12.977      3.356       1.921       182.389     75.236      -9999.25    514.942     551.4       598.289     33.499      
197.4       48.315      127.594     2.378       5.904       -9999.25    -9999.25    -9999.25    -9999.25    -9999.25    -9999.25    12.805      3.271       1.899       181.688     76.2        -9999.25    561.468     538.889     553.677     36.884      
197.5       43.298      128.114     2.372       6.078       -9999.25    -9999.25    -9999.25    -9999.25    -9999.25    -9999.25    12.592      3.142       1.824       180.989     78.0        -9999.25    509.792     501.3       509.078     40.137      
197.6       40.938      128.014     2.372       6.402       -9999.25    -9999.25    -9999.25    -9999.25    -9999.25    -9999.25    12.372      2.863       1.739       180.294     78.0        -9999.25    484.515     469.068     467.486     39.626      
197.7       35.972      128.261     2.371       6.519       -9999.25    -9999.25    -9999.25    -9999.25    -9999.25    -9999.25    12.155      2.786       1.692       179.616     77.2        -9999.25    464.699     459.407     446.502     37.183      
197.8       33.597      130.516     2.36        6.687       -9999.25    -9999.25    -9999.25    -9999.25    -9999.25    -9999.25    11.95       2.719       1.656       178.97      75.4        -9999.25    472.724     466.485     468.925     32.771      
197.9       33.44       131.239     2.346       6.776       -9999.25    -9999.25    -9999.25    -9999.25    -9999.25    -9999.25    11.733      2.524       1.625       178.366     73.6        -9999.25    422.487     459.498     479.962     28.413      
198.0       31.102      133.295     2.332       6.507       -9999.25    -9999.25    -9999.25    -9999.25    -9999.25    -9999.25    11.507      2.087       1.596       177.794     71.6        -9999.25    413.862     435.322     462.916     25.612      
198.1       28.787      136.186     2.316       6.566       -9999.25    -9999.25    -9999.25    -9999.25    -9999.25    -9999.25    11.256      2.005       1.498       177.255     69.4        -9999.25    417.882     411.142     409.257     24.318      
198.2       27.289      127.349     2.314       6.26        -9999.25    -9999.25    -9999.25    -9999.25    -9999.25    -9999.25    11.023      1.891       1.409       176.742     67.4        -9999.25    427.082     391.942     364.74      24.421      
198.3       26.329      126.87      2.322       6.638       -9999.25    -9999.25    -9999.25    -9999.25    -9999.25    -9999.25    10.816      1.974       1.44        176.249     66.0        -9999.25    430.307     401.767     388.112     24.854      
198.4       26.854      126.681     2.329       6.482       -9999.25    -9999.25    -9999.25    -9999.25    -9999.25    -9999.25    10.624      2.105       1.493       175.783     64.8        -9999.25    424.077     415.201     423.311     26.702      
198.5       30.353      126.618     2.336       6.574       -9999.25    -9999.25    -9999.25    -9999.25    -9999.25    -9999.25    10.478      2.246       1.589       175.364     64.4        -9999.25    429.363     449.508     486.578     27.927      
198.6       34.791      126.608     2.341       6.303       -9999.25    -9999.25    -9999.25    -9999.25    -9999.25    -9999.25    10.364      2.443       1.662       175.01      64.4        -9999.25    440.065     481.401     539.83      28.026      
198.7       35.611      127.031     2.336       6.214       -9999.25    -9999.25    -9999.25    -9999.25    -9999.25    -9999.25    10.271      2.581       1.674       174.732     64.4        -9999.25    449.271     518.694     604.262     27.104      
198.8       34.925      126.336     2.337       6.222       -9999.25    -9999.25    -9999.25    -9999.25    -9999.25    -9999.25    10.219      2.684       1.665       174.535     64.4        -9999.25    -9999.25    -9999.25    -9999.25    27.796      
198.9       33.762      125.207     2.344       6.076       -9999.25    -9999.25    -9999.25    -9999.25    -9999.25    -9999.25    10.236      2.772       1.636       174.412     64.4        -9999.25    -9999.25    -9999.25    -9999.25    29.469      
