~Version Information Section
VERS.                                         2.0:CWLS log ASCII Standart – VERSION 2.0
WRAP.                                          NO:One line per depth step
~Well Information Section
STRT.M                                        0.6:Начальная глубина
STOP.M                                      143.2:Конечная глубина
STEP.M                                          0:Шаг квантования по глубине
NULL.                                    -9999.25:Признак "Нет данных"
WELL.                                       116Мх:Скважина
~Parameter Information Section
~Curve Information Section
DEPTH.M                                          :Глубина
BK.lgОмм                                         :BK     (БК)
ПРОФ_СР.мм                                       :DS  (ДС)
ГК.мкР/час                                       :GK          (ГК)
ГЗ1.Омм                                          :GZ1   ГЗ1(A0.4M0.1N)
ГЗ2.Омм                                          :GZ2   ГЗ2(A1.0M0.1N)
ГЗ3.Омм                                          :GZ3   ГЗ3(A2.0M0.5N)
ГЗ4.Oмм                                          :GZ4   ГЗ4(A4.0M0.5N)
ГЗ5.Oмм                                          :GZ5   ГЗ5(A8.0M0.5N)
ГЗК.Омм                                          :GZK   ГЗK(N0.5M2.0A)
ИК.мСм/м                                         :IK
НГК.усл.ед.                                      :NGK     (НГК)
ПС.мВ                                            :PS       (ПС)
PZ.Омм                                           :PZ    (КС)
RIS.Омм                                          :RS (Резистивиметр)
U1.мВ                                            :U1
U2.mV                                            :U2
U3.мВ                                            :U3
W.г/см3                                          :ГГКп
П.%                                              :п
ННКМ.усл.ед                                      :ННКм
~ASCII LOG DATA
# ...
67.8        102.802     158.792     4.131       83.459      90.423      94.395      98.845      49.569      100.855     26.437      1.403       248.681     142.163     1.125       572.847     715.129     678.516     2.379       25.789      2.373       
67.9        102.802     159.198     4.046       84.888      91.575      97.723      100.806     50.759      101.524     26.484      1.408       245.487     142.904     1.125       522.953     700.763     687.299     2.389       25.928      2.395       
68.0        92.045      159.63      3.929       86.292      92.958      101.339     102.33      52.147      102.277     27.47       1.361       242.065     143.615     1.125       463.271     682.329     699.017     2.376       26.1        2.439       
68.1        85.901      159.997     3.778       87.753      94.556      105.339     103.552     53.68       103.177     28.395      1.334       237.844     144.341     1.125       422.694     669.316     711.367     2.367       26.146      2.483       
68.2        85.901      160.215     3.883       89.339      96.788      109.147     104.598     55.271      104.29      28.409      1.346       233.281     145.215     1.125       420.015     663.35      711.367     2.351       26.194      2.475       
68.3        82.604      160.313     4.166       91.082      99.611      112.187     105.581     56.828      105.661     29.152      1.37        228.833     146.37      1.125       420.015     657.22      704.35      2.349       26.409      2.455       
68.4        80.168      160.368     4.199       92.98       102.577     114.475     106.573     58.275      107.293     29.837      1.355       225.068     147.615     1.125       440.551     657.22      681.102     2.36        26.684      2.445       
68.5        80.168      160.458     4.215       94.994      105.673     116.139     107.61      59.562      109.14      29.837      1.319       221.76      148.741     1.125       492.793     662.49      661.623     2.379       26.98       2.439       
68.6        82.224      160.572     3.902       97.049      108.884     117.195     108.698     60.675      111.115     30.532      1.314       218.68      149.511     1.125       534.767     681.314     661.623     2.394       27.14       2.442       
68.7        85.704      160.765     4.004       99.05       111.347     117.851     109.853     61.624      113.092     31.081      1.309       215.6       150.0       1.125       563.333     717.672     675.205     2.377       27.248      2.441       
68.8        85.704      161.034     3.939       100.903     113.003     118.411     111.056     62.429      114.948     31.081      1.305       212.634     150.207     1.125       573.333     744.618     718.082     2.366       27.277      2.438       
68.9        82.985      161.193     4.169       102.53      113.55      118.859     112.317     63.111      116.581     31.656      1.274       210.01      150.207     1.125       586.667     760.0       761.69      2.36        27.307      2.471       
69.0        72.611      161.221     4.153       103.871     113.55      119.035     113.61      63.666      117.913     32.055      1.268       208.071     150.148     1.125       596.667     763.333     779.341     2.357       27.266      2.499       
69.1        72.611      161.246     4.439       104.886     113.55      119.035     114.832     63.989      118.801     32.055      1.25        206.93      149.674     1.125       603.333     763.333     781.9       2.373       27.311      2.465       
69.2        62.806      161.214     4.388       105.483     112.34      119.035     115.642     64.011      119.151     32.281      1.258       206.474     148.741     1.125       610.0       773.333     799.031     2.368       27.556      2.425       
69.3        68.234      161.115     4.331       105.64      109.086     118.059     115.744     64.011      119.151     32.474      1.273       206.36      147.363     1.125       616.667     790.0       814.888     2.356       27.942      2.387       
69.4        70.958      161.07      4.061       105.64      104.233     115.947     115.744     64.011      119.151     32.669      1.298       206.36      145.778     1.125       623.333     803.333     845.978     2.349       28.471      2.354       
69.5        70.958      161.03      3.978       105.64      97.897      112.651     115.744     63.644      118.886     32.669      1.277       206.36      144.178     1.125       633.333     813.333     890.0       2.347       28.921      2.338       
69.6        66.988      160.957     4.326       105.329     91.057      108.171     114.858     62.813      117.968     32.509      1.226       206.36      142.637     1.125       643.333     826.667     916.667     2.353       29.431      2.315       
69.7        68.549      160.917     4.479       104.532     84.908      102.651     112.81      61.496      116.407     32.474      1.193       206.36      141.096     1.125       653.333     826.667     946.667     2.348       30.135      2.296       
69.8        68.549      160.789     4.677       103.241     80.012      97.835      109.552     59.8        114.354     32.474      1.214       206.36      139.481     1.125       653.333     833.333     973.333     2.347       30.596      2.283       
69.9        70.632      160.713     4.362       101.54      76.355      93.803      105.366     57.825      111.986     32.394      1.265       206.36      137.97      1.125       650.0       836.667     983.333     2.344       30.55       2.272       
70.0        73.282      160.693     4.236       99.47       73.921      90.587      100.624     55.723      109.511     32.281      1.277       206.474     136.652     1.125       636.667     840.0       983.333     2.331       30.562      2.27        
70.1        73.282      160.899     4.044       97.096      72.351      88.315      95.683      53.651      107.09      32.281      1.215       206.93      135.63      1.125       613.333     840.0       980.0       2.344       30.631      2.283       
70.2        73.282      161.162     3.725       94.487      71.185      86.987      90.854      51.709      104.846     32.315      1.184       207.957     134.667     1.125       593.333     850.0       966.667     2.359       31.155      2.311       
70.3        71.779      161.517     3.925       91.708      70.177      85.755      86.451      49.952      102.849     32.246      1.197       209.44      133.63      1.125       583.333     860.0       956.667     2.355       31.697      2.318       
70.4        71.779      161.842     4.332       88.795      69.327      84.379      82.675      48.407      101.124     32.246      1.196       210.923     132.4       1.125       576.667     860.0       953.333     2.364       32.005      2.313       
70.5        69.502      162.225     4.626       85.754      68.622      82.923      79.565      47.052      99.645      32.055      1.195       212.178     131.141     1.125       570.0       860.0       953.333     2.358       32.407      2.319       
70.6        69.502      162.599     4.797       82.573      67.931      81.291      77.11       45.853      98.411      31.69       1.209       213.319     129.689     1.125       563.333     860.0       953.333     2.344       32.724      2.302       
70.7        64.863      162.96      4.87        79.235      67.211      79.499      75.216      44.797      97.409      31.153      1.265       214.801     127.911     1.125       550.171     808.417     878.69      2.343       32.699      2.24        
70.8        42.855      163.196     5.09        75.742      66.433      77.451      73.712      43.876      96.623      31.153      1.251       216.398     125.496     1.125       550.171     758.974     789.236     2.341       32.354      2.224       
70.9        34.995      163.411     4.672       72.134      65.641      75.547      72.432      43.073      96.036      30.943      1.178       217.767     123.007     1.125       552.735     711.671     693.537     2.342       31.704      2.274       
