~Version Information Section
VERS.                                         2.0:CWLS log ASCII Standart – VERSION 2.0
WRAP.                                          NO:One line per depth step
~Well Information Section
STRT.M                                        2.1:Начальная глубина
STOP.M                                      196.8:Конечная глубина
STEP.M                                          0:Шаг квантования по глубине
NULL.                                    -9999.25:Признак "Нет данных"
WELL.                                       154Мх:Скважина
~Parameter Information Section
~Curve Information Section
DEPTH.M                                          :Глубина
BK.lgОмм                                         :BK     (БК)
DСР.мм                                           :DS  (ДС)
ГГКП.g/cm3                                       :GGKp
ГК.мкР/час                                       :GK          (ГК)
ГЗ1.Омм                                          :GZ1   ГЗ1(A0.4M0.1N)
ГЗ2.Омм                                          :GZ2   ГЗ2(A1.0M0.1N)
ГЗ3.Омм                                          :GZ3   ГЗ3(A2.0M0.5N)
ГЗ4.Oмм                                          :GZ4   ГЗ4(A4.0M0.5N)
ГЗ5.Oмм                                          :GZ5   ГЗ5(A8.0M0.5N)
ГЗК.Омм                                          :GZR   ГЗK(N0.5M2.0A)
ИК.мСм/м                                         :IK
НГК.усл.ед.                                      :NGK     (НГК)
РЕЗ.Омм                                          :RS (Резистивиметр)
W.                                               :W
ННКМ.усл.ед                                      :NNKm  (ННКм)
PS.мB                                            :PS       (ПС)
~ASCII LOG DATA
# ...
178.1       131.726     151.454     2.062       3.316       126.39      78.594      97.782      24.263      26.51       133.56      39.885      1.223       1.035       33.689      1.245       30.368      
178.2       120.267     151.303     2.065       3.342       126.81      78.594      99.542      24.263      26.51       134.6       39.885      1.243       1.035       33.083      1.247       30.033      
178.3       121.927     151.9       2.095       3.448       127.23      78.594      100.862     24.263      26.51       135.64      39.638      1.239       1.035       33.117      1.25        29.661      
178.4       125.922     153.393     2.118       3.556       127.23      78.594      103.942     24.263      26.51       136.68      39.762      1.242       1.035       33.159      1.255       29.326      
178.5       127.118     155.629     2.141       3.685       127.65      78.594      104.822     24.263      26.65       137.72      39.762      1.239       1.035       33.05       1.264       28.958      
178.6       126.427     153.787     2.148       3.557       127.65      78.594      110.102     24.263      26.65       137.72      39.714      1.258       1.035       33.573      1.268       28.566      
178.7       125.636     154.736     2.156       3.44        128.07      78.594      111.862     24.263      26.93       139.8       39.686      1.212       1.035       34.353      1.264       28.137      
178.8       125.542     155.039     2.134       3.324       133.11      78.594      114.942     24.263      27.91       142.92      39.563      1.19        1.035       34.384      1.255       27.775      
178.9       122.886     155.887     2.127       3.281       136.05      78.594      117.142     24.383      28.05       145.0       39.81       1.179       1.035       34.097      1.243       27.408      
179.0       120.229     155.62      2.111       3.238       133.53      78.594      118.902     24.383      28.61       149.16      39.81       1.172       1.035       34.146      1.226       26.954      
179.1       121.843     159.412     2.106       3.21        130.17      79.114      121.542     24.383      28.75       153.32      39.686      1.173       1.035       33.886      1.214       26.452      
179.2       124.993     173.833     2.094       3.389       127.23      79.634      122.862     24.383      29.31       157.48      39.762      1.198       1.035       33.071      1.21        26.014      
179.3       130.483     189.95      2.102       3.523       125.13      80.674      124.182     24.383      30.57       158.52      39.762      1.216       1.035       32.443      1.21        25.514      
179.4       133.804     184.995     2.105       3.598       123.03      81.194      125.942     24.383      30.99       162.68      39.762      1.213       1.035       32.117      1.21        25.001      
179.5       136.144     205.823     2.111       3.545       122.19      85.354      129.022     24.503      30.99       164.76      39.686      1.225       1.035       31.624      1.216       24.424      
179.6       135.01      232.711     2.115       3.681       121.77      88.994      130.782     24.503      31.13       166.84      39.61       1.221       1.035       31.253      1.225       23.831      
179.7       130.354     222.894     2.13        3.493       121.35      90.554      132.542     24.503      31.27       171.0       39.61       1.221       1.035       31.37       1.235       23.237      
179.8       126.457     181.716     2.121       3.48        119.67      93.674      140.902     24.623      32.53       182.44      39.516      1.237       1.035       31.278      1.246       22.6        
179.9       123.694     165.874     2.142       3.474       122.19      94.714      143.982     24.983      34.49       193.88      39.516      1.254       1.035       31.061      1.258       21.955      
180.0       124.071     159.941     2.16        3.561       126.39      98.354      154.542     25.103      36.73       203.24      39.394      1.253       1.035       31.208      1.267       21.31       
180.1       125.43      159.543     2.173       3.597       128.49      108.754     159.382     25.223      38.55       206.36      39.273      1.276       1.035       31.46       1.276       20.626      
180.2       124.579     154.406     2.186       3.676       128.49      133.714     159.822     25.463      39.95       212.6       39.273      1.28        1.035       31.346      1.289       19.887      
180.3       124.109     153.882     2.184       3.777       127.23      143.594     165.102     27.263      42.19       224.04      39.319      1.268       1.035       31.407      1.301       19.081      
180.4       117.647     153.278     2.165       3.803       124.71      149.834     169.502     29.183      44.29       232.36      39.273      1.267       1.035       31.54       1.311       18.385      
180.5       110.656     153.427     2.165       3.708       123.87      152.954     172.582     30.983      44.57       234.44      39.273      1.28        1.035       31.484      1.319       17.692      
180.6       103.665     153.265     2.175       3.634       122.61      157.634     170.822     31.103      45.83       239.64      39.394      1.288       1.035       31.247      1.32        16.867      
180.7       100.084     153.58      2.185       3.616       122.61      160.754     169.502     32.783      46.53       244.84      38.913      1.343       1.035       31.012      1.319       16.041      
180.8       101.427     153.723     2.23        3.531       122.61      164.394     168.182     34.703      46.81       263.56      39.108      1.369       1.035       30.655      1.328       15.201      
180.9       102.77      153.888     2.252       3.449       122.61      166.994     166.862     36.503      47.65       283.32      39.108      1.37        1.035       30.27       1.339       14.366      
181.0       105.934     154.031     2.255       3.463       122.61      168.554     166.422     38.663      47.93       305.16      39.227      1.348       1.035       29.878      1.349       13.567      
181.1       106.339     153.624     2.24        3.378       122.61      169.074     165.982     43.943      48.21       312.44      39.394      1.344       1.035       29.574      1.356       12.644      
181.2       107.82      153.15      2.208       3.29        122.61      169.074     165.982     46.223      49.05       314.52      39.198      1.295       1.035       29.784      1.349       11.767      
181.3       108.32      153.678     2.166       3.302       122.61      170.634     165.982     46.343      49.05       318.68      39.182      1.248       1.035       30.348      1.326       10.95       
181.4       108.73      154.163     2.15        3.382       122.61      172.194     165.982     46.463      49.05       321.8       39.182      1.227       1.035       30.516      1.3         10.212      
181.5       115.704     154.092     2.141       3.339       123.03      174.274     165.982     46.823      48.91       322.84      39.244      1.222       1.035       30.571      1.278       9.575       
181.6       121.493     153.881     2.137       3.357       123.03      171.674     165.982     46.943      48.35       324.92      39.198      1.178       1.035       30.915      1.26        9.001       
181.7       127.949     153.55      2.155       3.419       123.03      170.114     166.422     47.063      48.07       325.96      39.152      1.172       1.035       31.257      1.254       7.669       
181.8       127.551     153.421     2.187       3.409       123.03      168.034     168.182     47.303      48.07       329.08      39.152      1.229       1.036       31.074      1.26        5.988       
181.9       126.399     153.393     2.195       3.356       123.03      164.914     168.622     47.423      48.07       330.12      39.108      1.296       1.036       30.882      1.27        4.536       
182.0       125.248     153.457     2.223       3.322       122.19      163.874     168.622     47.543      48.07       333.24      39.108      1.313       1.036       30.623      1.288       3.255       
