~Version Information Section
VERS.                                         2.0:CWLS log ASCII Standart – VERSION 2.0
WRAP.                                          NO:One line per depth step
~Well Information Section
STRT.M                                        0.8:Начальная глубина
STOP.M                                      209.6:Конечная глубина
STEP.M                                          0:Шаг квантования по глубине
NULL.                                    -9999.25:Признак "Нет данных"
WELL.                                         5Мх:Скважина
~Parameter Information Section
~Curve Information Section
DEPTH.M                                          :Глубина
BK.Ohm*M                                         :BK     (БК)
DS.mm                                            :DS  (ДС)
ГК.mcr/h                                         :GK          (ГК)
GZ1.Ohm*M                                        :GZ1   ГЗ1(A0.4M0.1N)
GZ2.Ohm*M                                        :GZ2   ГЗ2(A1.0M0.1N)
GZ3.Ohm*M                                        :GZ3   ГЗ3(A2.0M0.5N)
GZ4.Ohm*M                                        :GZ4   ГЗ4(A4.0M0.5N)
GZ5.Ohm*M                                        :GZ5   ГЗ5(A8.0M0.5N)
GZR.Ohm*M                                        :GZK   ГЗK(N0.5M2.0A)
ИК.Ohm*M                                         :IK
НГК.                                             :NNKb  (ННКб)
NNKM.                                            :NNKm  (ННКм)
PS.mv                                            :PS       (ПС)
PZ.Ohm*M                                         :PZ    (КС)
RS.Ohm*M                                         :RS (Резистивиметр)
W.%                                              :W
ГГК.g/cm3                                        :ГГК
SGDT1.1/min                                      :ПЛ1
SGDT2.1/min                                      :ПЛ2
SGDT3.1/min                                      :ПЛ3
SGDT4.1/min                                      :ПЛ4
~ASCII LOG DATA
# ...
199.2       13.335      153.604     6.937       2.438       9.809       3.129       -9999.25    15.802      -9999.25    13.222      3.671       2.152       1000.993    12.059      -9999.25    27.871      2.315       11239.979   19260.0     12220.0     3060.0      
199.4       14.223      157.343     7.423       2.628       9.884       3.152       -9999.25    15.802      -9999.25    13.395      3.551       2.132       1000.693    12.652      -9999.25    27.899      2.318       11760.006   19760.0     12000.0     3060.0      
199.6       13.772      153.072     6.86        2.52        9.865       3.131       -9999.25    15.982      -9999.25    13.6        3.657       2.182       999.598     11.662      -9999.25    29.268      2.297       11720.003   19940.0     12160.0     3120.0      
199.8       13.552      153.248     6.432       2.759       9.977       3.152       -9999.25    16.522      -9999.25    13.56       3.252       2.201       998.588     10.726      -9999.25    33.519      2.258       12440.0     20600.0     13280.0     3220.0      
200.0       11.376      154.116     6.552       2.673       10.052      3.43        -9999.25    16.342      -9999.25    13.417      2.862       2.04        999.69      9.857       -9999.25    35.687      2.252       14159.997   19980.0     13520.0     3300.0      
200.2       11.83       152.617     6.648       2.748       10.183      4.009       -9999.25    15.802      -9999.25    13.441      2.781       1.884       1000.2      9.781       -9999.25    33.918      2.256       13520.052   20780.0     13420.0     3120.0      
200.4       12.882      151.238     6.253       2.625       10.145      3.747       -9999.25    15.262      -9999.25    13.528      2.883       1.924       1000.574    9.792       -9999.25    32.697      2.247       12680.052   21580.0     13160.0     2940.0      
200.6       12.56       151.797     6.697       2.628       10.164      3.168       -9999.25    15.262      -9999.25    13.735      3.106       1.925       999.693     9.872       -9999.25    30.236      2.261       13759.967   20960.0     12920.0     3100.0      
200.8       14.256      151.692     6.531       2.651       10.201      3.17        -9999.25    15.262      -9999.25    13.886      3.343       2.044       998.963     10.192      -9999.25    29.391      2.294       12440.0     19860.0     12720.0     2860.0      
201.0       13.804      151.181     6.224       2.624       10.127      3.15        -9999.25    15.262      -9999.25    13.837      3.329       2.143       998.42      10.387      -9999.25    31.266      2.303       12159.984   19660.0     13680.0     3120.0      
201.2       12.882      151.281     6.858       2.628       10.145      3.15        -9999.25    15.442      -9999.25    13.8        3.12        2.064       997.872     10.76       -9999.25    32.058      2.326       13239.979   21140.0     14040.0     3500.0      
201.4       14.06       151.326     6.821       2.632       10.201      3.17        -9999.25    15.622      -9999.25    13.898      3.223       2.03        998.27      11.541      -9999.25    30.428      2.357       12479.957   20580.0     14200.0     3620.0      
201.6       15.346      150.523     6.328       -9999.25    10.183      3.168       -9999.25    15.622      -9999.25    13.976      3.622       2.146       998.37      11.905      -9999.25    29.215      2.342       11760.0     21360.0     14760.0     3700.0      
201.8       14.158      151.607     6.479       -9999.25    10.183      3.15        -9999.25    15.982      -9999.25    13.816      3.396       2.19        998.441     11.893      -9999.25    31.828      2.297       12400.0     22360.0     14660.0     3400.0      
202.0       12.078      151.988     6.587       -9999.25    10.201      3.17        -9999.25    16.522      -9999.25    13.708      3.048       2.095       999.842     10.855      -9999.25    34.701      2.257       12240.021   21300.0     13400.0     3000.0      
202.2       12.417      152.366     7.144       -9999.25    -9999.25    3.148       -9999.25    17.062      -9999.25    13.651      2.821       1.976       1001.801    10.222      -9999.25    36.033      2.236       12439.973   19860.0     12200.0     3080.0      
202.4       12.853      152.003     7.656       -9999.25    -9999.25    3.15        -9999.25    16.702      -9999.25    13.62       2.755       1.959       1003.732    10.262      -9999.25    36.118      2.235       12960.006   19060.0     12240.0     2740.0      
202.6       12.706      152.952     7.197       -9999.25    -9999.25    3.172       -9999.25    16.342      -9999.25    13.573      3.018       2.006       1004.845    10.655      -9999.25    33.067      2.236       12559.987   19120.0     12300.0     2620.0      
202.8       12.942      153.182     6.826       -9999.25    -9999.25    3.172       -9999.25    16.352      -9999.25    13.738      3.186       1.985       1006.042    10.968      -9999.25    30.635      2.222       12680.0     19640.0     12040.0     2940.0      
203.0       14.06       151.908     6.802       -9999.25    -9999.25    3.17        -9999.25    16.365      -9999.25    13.898      2.943       2.009       1005.117    11.434      -9999.25    33.467      2.226       13119.994   19780.0     12280.0     2840.0      
203.2       12.912      152.491     7.269       -9999.25    -9999.25    3.193       -9999.25    -9999.25    -9999.25    14.002      2.926       2.041       1003.96     11.364      -9999.25    34.984      2.261       13040.024   19180.0     12360.0     2700.0      
203.4       12.331      152.91      7.446       -9999.25    -9999.25    -9999.25    -9999.25    -9999.25    -9999.25    14.065      2.995       1.995       1003.084    11.49       -9999.25    33.612      2.291       13160.04    19520.0     13200.0     3140.0      
203.6       12.05       153.383     7.701       -9999.25    -9999.25    -9999.25    -9999.25    -9999.25    -9999.25    14.218      2.819       1.959       1003.084    11.282      -9999.25    34.688      2.295       13640.03    21200.0     14840.0     3580.0      
203.8       11.803      154.121     7.68        -9999.25    -9999.25    -9999.25    -9999.25    -9999.25    -9999.25    14.481      2.637       1.886       997.741     11.585      -9999.25    35.541      2.284       14240.0     22220.0     15340.0     3640.0      
204.0       17.1        146.355     7.349       -9999.25    -9999.25    -9999.25    -9999.25    -9999.25    -9999.25    14.917      2.964       1.913       984.642     11.623      -9999.25    32.408      2.283       14319.979   23120.0     14640.0     3600.0      
204.2       14.488      148.086     6.505       -9999.25    -9999.25    -9999.25    -9999.25    -9999.25    -9999.25    15.234      3.172       2.029       971.203     12.444      -9999.25    31.091      2.28        15319.979   23140.0     15160.0     3620.0      
204.4       18.408      146.13      5.551       -9999.25    -9999.25    -9999.25    -9999.25    -9999.25    -9999.25    15.462      3.377       2.173       966.072     12.904      -9999.25    30.957      2.263       16160.043   24940.0     16560.0     4080.0      
204.6       18.967      144.925     5.191       -9999.25    -9999.25    -9999.25    -9999.25    -9999.25    -9999.25    15.638      3.559       2.159       958.088     12.489      -9999.25    29.495      2.236       17079.996   26620.0     17700.0     3960.0      
204.8       19.543      145.437     5.204       -9999.25    -9999.25    -9999.25    -9999.25    -9999.25    -9999.25    15.462      3.673       2.25        951.053     12.604      -9999.25    29.175      2.231       17440.0     26660.0     17080.0     3740.0      
205.0       21.184      144.268     5.389       -9999.25    -9999.25    -9999.25    -9999.25    -9999.25    -9999.25    15.135      3.702       2.293       948.66      12.089      -9999.25    30.259      2.255       16440.045   25420.0     16200.0     3620.0      
205.2       16.711      144.962     6.057       -9999.25    -9999.25    -9999.25    -9999.25    -9999.25    -9999.25    14.687      3.531       2.321       955.342     11.786      -9999.25    31.932      2.275       15320.021   24820.0     15220.0     3480.0      
