~Version Information Section
VERS.                                         2.0:CWLS log ASCII Standart – VERSION 2.0
WRAP.                                          NO:One line per depth step
~Well Information Section
STRT.M                                        0.1:Начальная глубина
STOP.M                                      153.3:Конечная глубина
STEP.M                                          0:Шаг квантования по глубине
NULL.                                    -9999.25:Признак "Нет данных"
WELL.                                        144К:Скважина
~Parameter Information Section
~Curve Information Section
DEPTH.M                                          :Глубина
БК.Омм                                           :BK     (БК)
DСР.мм                                           :DS  (ДС)
ПЛОТНОСТЬ.г/см^3                                 :GGKp
ГК.мкР/ч                                         :GK          (ГК)
А0.4М0.1N.Омм                                    :GZ1   ГЗ1(A0.4M0.1N)
А1.0М0.1N.Омм                                    :GZ2   ГЗ2(A1.0M0.1N)
А2.0М0.5N.Омм                                    :GZ3   ГЗ3(A2.0M0.5N)
А4.0М0.5N.Oмм                                    :GZ4   ГЗ4(A4.0M0.5N)
А8.0М1.0N.Омм                                    :GZ5   ГЗ5(A8.0M0.5N)
N0.5M2.0A.Омм                                    :GZR   ГЗK(N0.5M2.0A)
ИК.мСм/м                                         :IK
БЗ.ue                                            :NNKb  (ННКб)
МЗ.ue                                            :NNKm  (ННКм)
ПС.mv                                            :PS       (ПС)
N11.0M0.5A.Омм                                   :PZ    (КС)
R.Омм                                            :RS (Резистивиметр)
ПОРИСТОСТЬ.                                      :W
~ASCII LOG DATA
# ...
137.0       44.65       151.06      2.374       5.737       25.588      31.541      29.192      31.817      24.883      6.694       11.974      3.465       1.851       25.349      61.59       1.101       28.141      
137.1       43.437      151.127     2.358       5.84        24.969      30.373      29.554      33.545      26.463      7.266       11.658      3.489       1.883       24.33       60.41       1.101       28.219      
137.2       39.965      151.071     2.35        6.061       24.804      30.025      30.878      36.579      27.882      7.962       11.289      3.452       1.902       23.294      59.363      1.101       28.161      
137.3       38.29       151.204     2.358       6.281       25.379      31.1        33.78       39.91       28.88       8.641       10.937      3.45        1.909       22.282      58.488      1.101       27.766      
137.4       40.699      151.169     2.387       6.384       27.163      34.043      37.18       41.683      29.004      8.979       10.686      3.542       1.924       21.335      57.569      1.102       27.103      
137.5       44.545      151.169     2.424       6.352       29.242      35.911      39.193      41.817      29.032      8.963       10.402      3.75        1.974       20.493      56.202      1.102       26.365      
137.6       54.252      151.184     2.45        6.239       30.112      34.842      39.748      40.418      29.371      8.553       10.074      3.966       2.052       19.805      54.435      1.102       25.687      
137.7       89.297      151.144     2.456       6.163       29.084      30.698      38.78       36.849      29.513      7.591       9.746       4.147       2.136       19.303      52.729      -9999.25    25.415      
137.8       66.968      151.214     2.454       6.232       26.325      24.279      36.155      32.371      29.513      6.534       8.914       4.137       2.182       18.992      51.377      -9999.25    25.546      
137.9       36.73       151.095     2.445       6.444       23.256      20.19       32.598      28.631      29.143      5.756       8.436       3.97        2.145       18.843      50.505      -9999.25    25.915      
138.0       32.42       151.877     2.425       6.691       21.424      18.697      29.224      26.367      27.807      5.119       7.846       3.67        2.025       18.819      50.093      -9999.25    26.568      
138.1       38.304      152.654     2.396       6.874       20.296      17.796      26.999      25.366      26.153      4.409       7.266       3.344       1.89        18.88       49.891      -9999.25    27.484      
138.2       45.685      151.721     2.368       6.897       19.016      17.616      25.89       24.944      24.557      3.841       7.021       3.149       1.823       18.988      49.611      -9999.25    28.385      
138.3       47.713      151.276     2.352       6.808       18.403      17.772      25.126      24.284      23.524      3.63        6.79        3.06        1.818       19.129      49.152      -9999.25    29.19       
138.4       42.477      150.872     2.348       6.654       18.436      17.955      24.358      23.519      23.032      3.623       6.674       3.111       1.818       19.318      48.725      -9999.25    29.5        
138.5       40.386      151.058     2.351       6.573       19.0        18.637      23.784      23.002      22.291      3.748       6.588       3.14        1.796       19.567      48.478      -9999.25    29.495      
138.6       49.661      150.862     2.366       6.585       19.864      19.519      23.427      22.775      21.096      3.955       6.347       3.143       1.779       19.875      48.289      -9999.25    29.352      
138.7       70.4        150.833     2.389       6.655       20.23       19.718      22.733      22.408      19.693      4.052       6.161       3.137       1.797       20.249      48.071      -9999.25    29.35       
138.8       46.377      150.852     2.41        6.704       19.617      19.011      20.986      21.296      18.754      4.067       5.873       3.136       1.839       20.691      47.757      -9999.25    29.393      
138.9       42.439      150.797     2.416       6.74        17.439      16.969      18.285      19.603      18.199      4.046       5.466       3.139       1.868       21.208      47.311      -9999.25    29.558      
139.0       25.015      150.797     2.406       6.755       13.847      13.852      15.456      18.134      17.607      4.035       5.005       3.09        1.86        21.781      47.129      -9999.25    29.791      
139.1       17.316      151.006     2.387       6.779       9.77        10.47       13.225      17.401      16.621      4.049       4.762       2.991       1.827       22.377      47.552      -9999.25    30.11       
139.2       14.135      151.131     2.37        6.919       6.941       8.013       11.782      17.034      15.734      4.16        4.69        2.863       1.771       22.936      48.471      -9999.25    30.397      
139.3       19.806      150.842     2.352       7.15        6.098       7.155       11.034      16.55       15.097      4.441       4.565       2.755       1.713       23.41       49.866      -9999.25    30.655      
139.4       30.286      151.207     2.332       7.448       7.029       7.277       10.82       16.115      15.097      4.755       4.705       2.707       1.672       23.754      51.797      -9999.25    30.878      
139.5       35.895      151.225     2.313       7.709       9.237       7.494       10.925      15.923      15.306      4.953       4.916       2.716       1.647       23.987      54.049      -9999.25    31.284      
139.6       48.424      151.395     2.3         7.977       11.868      7.602       11.203      15.907      15.849      5.014       5.078       2.776       1.659       24.137      56.378      -9999.25    31.734      
139.7       75.214      150.771     2.293       8.168       14.066      7.643       11.565      16.025      16.549      5.018       5.025       2.812       1.684       24.259      58.653      -9999.25    32.088      
139.8       66.045      150.695     2.282       8.273       15.438      7.733       11.961      16.422      17.063      4.997       4.933       2.787       1.692       24.404      60.71       -9999.25    32.231      
139.9       40.176      151.102     2.268       8.28        16.201      7.972       12.403      17.118      17.422      4.976       4.906       2.66        1.686       24.625      62.338      -9999.25    32.186      
140.0       39.842      151.154     2.256       8.247       16.561      8.715       12.878      17.728      17.422      5.0         4.934       2.541       1.673       24.977      63.323      -9999.25    32.04       
140.1       39.243      151.087     2.252       8.119       16.884      10.237      13.277      17.92       17.351      5.183       4.811       2.518       1.661       25.516      63.728      -9999.25    31.789      
140.2       38.583      151.246     2.253       7.983       17.466      12.486      13.437      17.594      16.853      6.093       4.563       2.59        1.647       26.245      63.717      -9999.25    31.263      
140.3       37.467      151.574     2.258       7.909       17.849      13.78       13.274      16.455      15.934      8.281       4.295       2.736       1.638       27.17       63.23       -9999.25    30.631      
140.4       34.238      151.412     2.265       7.892       17.434      13.282      12.476      14.855      14.824      11.314      4.093       2.845       1.64        28.238      62.282      -9999.25    30.081      
140.5       26.215      151.357     2.276       7.826       15.069      11.233      10.742      13.312      13.716      14.687      3.87        2.932       1.648       29.387      61.249      -9999.25    29.904      
140.6       18.737      151.592     2.285       7.768       10.783      7.455       8.307       11.714      12.438      17.855      3.393       2.938       1.671       30.556      60.373      -9999.25    30.119      
