~Version Information Section
VERS.                                         2.0:CWLS log ASCII Standart – VERSION 2.0
WRAP.                                          NO:One line per depth step
~Well Information Section
STRT.M                                        0.0:Начальная глубина
STOP.M                                      133.6:Конечная глубина
STEP.M                                          0:Шаг квантования по глубине
NULL.                                    -9999.25:Признак "Нет данных"
WELL.                                       118Мх:Скважина
~Parameter Information Section
~Curve Information Section
DEPTH.M                                          :Глубина
BK.Ohm*M                                         :BK     (БК)
DS.mm                                            :DS  (ДС)
GGK.g/cm3                                        :GGKp
ГК.mcr/h                                         :GK          (ГК)
GZ1.Ohm*M                                        :GZ1   ГЗ1(A0.4M0.1N)
GZ2.Ohm*M                                        :GZ2   ГЗ2(A1.0M0.1N)
GZ3.Ohm*M                                        :GZ3   ГЗ3(A2.0M0.5N)
GZ4.Ohm*M                                        :GZ4   ГЗ4(A4.0M0.5N)
GZ5.Ohm*M                                        :GZ5   ГЗ5(A8.0M0.5N)
GZR.Ohm*M                                        :GZK   ГЗK(N0.5M2.0A)
ИК.Ohm*M                                         :IK
НГК.усл.ед                                       :NGK
NNKM.                                            :NNKm  (ННКм)
PS.mv                                            :PS       (ПС)
PZ.Ohm*M                                         :PZ    (КС)
RS.Ohm*M                                         :RS (Резистивиметр)
U1.mV                                            :U1
U2.mV                                            :U2
U3.mV                                            :U3
W.%                                              :W
~ASCII LOG DATA
# ...
96.0        19.011      160.484     2.308       6.865       24.363      22.447      18.498      24.192      21.054      30.687      8.871       1.051       1.947       1188.406    20.288      1.029       428.812     299.566     256.499     26.775      
96.2        17.219      160.228     2.283       6.824       24.164      22.085      18.594      24.362      21.569      32.7        8.874       1.026       1.928       1188.886    21.147      1.033       476.46      357.064     326.099     29.478      
96.4        17.338      159.919     2.267       6.937       23.429      21.989      18.8        24.17       21.156      36.46       8.883       1.04        1.923       1188.886    22.651      1.038       684.057     428.426     316.683     29.061      
96.6        17.498      159.625     2.282       6.83        23.368      21.874      18.773      23.517      21.019      47.255      8.873       1.113       1.976       1187.926    24.8        1.041       879.906     450.91      255.016     31.829      
96.8        17.498      158.884     2.325       7.233       22.267      20.506      18.994      23.462      21.76       54.975      8.869       1.094       1.963       1186.246    27.351      1.044       968.381     496.989     276.122     33.033      
97.0        15.74       158.254     2.349       6.466       21.349      20.735      20.7        24.604      21.951      53.873      8.849       1.047       1.954       1183.846    29.822      1.046       836.538     485.091     312.115     31.508      
97.2        17.865      158.056     2.344       6.32        25.203      24.536      21.933      25.183      21.214      48.723      8.913       1.032       2.069       1180.246    32.158      1.049       844.138     557.248     401.833     31.835      
97.4        20.797      158.31      2.288       6.915       25.073      21.754      20.009      22.679      20.284      53.925      9.156       1.037       2.099       1175.686    34.925      1.051       896.779     568.787     399.188     28.844      
97.6        18.45       157.571     2.28        7.294       24.227      17.322      16.173      19.356      20.539      57.289      9.427       1.037       1.982       1171.126    38.685      1.055       615.116     405.427     387.666     31.067      
97.8        13.836      157.774     2.339       6.987       19.792      13.597      13.591      18.927      22.042      38.319      9.628       1.07        1.869       1166.566    43.707      1.059       607.781     488.848     553.459     33.458      
98.0        12.677      156.867     2.36        5.18        15.052      13.247      14.867      22.001      23.734      30.246      9.764       1.15        2.019       1162.246    51.012      1.062       901.123     699.565     619.498     29.531      
98.2        16.904      152.169     2.291       3.96        22.068      20.437      17.741      25.985      26.016      26.106      10.087      1.096       2.255       1159.126    62.158      1.065       1042.247    832.979     718.382     29.621      
98.4        74.817      152.351     2.284       3.767       36.127      25.323      19.519      29.495      29.916      25.902      10.825      1.004       2.438       1156.966    81.012      1.069       1536.81     1183.673    953.506     30.271      
98.6        78.705      152.481     2.327       3.845       66.65       29.169      20.495      33.574      36.541      32.645      11.929      1.001       2.368       1155.766    117.483     1.073       1703.422    1276.768    993.947     30.877      
98.8        75.858      152.384     2.384       3.961       84.895      36.451      22.479      39.599      52.333      46.551      12.773      1.064       2.386       1155.766    170.312     1.076       1555.024    1074.199    779.57      30.879      
99.0        74.989      154.805     2.43        4.901       81.306      47.995      29.595      57.651      82.628      58.738      13.207      1.07        2.454       1156.966    227.276     1.08        1303.305    885.979     638.044     31.559      
99.2        50.35       155.723     2.439       4.699       66.735      78.29       46.53       84.249      116.289     60.718      13.237      1.141       2.398       1159.606    260.927     1.083       1030.472    784.052     642.583     29.768      
99.4        72.611      155.143     2.428       4.229       85.927      134.956     69.247      110.953     153.104     61.023      13.06       1.32        2.637       1162.486    250.829     1.085       732.155     608.935     566.051     21.186      
99.6        248.886     155.031     2.464       5.866       131.107     193.463     88.289      132.321     203.156     47.773      12.781      1.521       2.718       1165.606    200.446     1.087       669.722     542.216     505.103     20.532      
99.8        567.545     155.397     2.493       6.307       187.167     246.964     111.202     160.122     228.229     27.886      12.263      1.648       2.934       1168.486    140.098     1.088       956.697     705.618     566.408     19.819      
100.0       162.555     154.024     2.48        5.782       262.744     347.613     125.941     116.017     211.462     13.217      11.63       1.522       3.054       1171.606    94.843      1.089       1010.334    681.691     496.916     17.053      
100.2       263.027     157.658     2.405       6.781       222.259     340.052     114.207     47.714      177.305     10.431      10.848      1.41        3.049       1174.726    73.384      1.09        1084.556    651.506     419.878     19.681      
100.4       31.477      158.025     2.33        7.349       76.42       141.933     81.587      16.328      130.17      10.767      10.065      1.124       2.519       1177.126    66.186      1.09        1006.234    603.186     387.176     25.773      
100.6       14.256      158.415     2.339       7.024       36.526      74.579      33.79       8.221       74.841      11.565      9.216       1.029       2.194       1179.286    60.815      1.09        851.181     506.914     327.249     25.994      
100.8       13.032      158.834     2.355       7.126       23.236      45.641      20.647      5.384       26.908      12.293      8.388       1.001       2.154       1180.726    54.611      1.09        660.129     387.923     258.67      27.648      
101.0       13.932      158.902     2.348       7.002       21.38       36.833      16.054      4.202       12.63       13.244      7.94        1.084       2.118       1181.686    48.353      1.09        603.075     471.092     439.043     32.622      
101.2       14.488      159.555     2.335       6.739       19.051      28.251      14.232      3.545       8.413       14.105      7.708       1.032       2.061       1180.726    42.794      1.089       476.276     460.635     569.369     33.66       
101.4       12.823      160.49      2.331       6.978       18.022      21.98       14.505      3.253       6.999       14.612      7.574       1.017       2.074       1178.086    38.255      1.087       236.481     255.795     425.665     34.585      
101.6       13.646      160.609     2.307       6.546       17.658      19.578      17.732      3.143       6.225       14.964      7.475       1.101       2.057       1174.726    34.065      1.084       390.263     354.552     430.331     32.317      
101.8       14.928      162.598     2.283       6.623       18.28       18.285      20.369      3.058       5.826       15.502      7.488       1.051       2.013       1171.126    30.305      1.082       767.466     592.193     523.598     28.499      
102.0       14.859      162.764     2.296       6.961       18.879      17.555      21.913      3.095       5.617       16.131      7.553       1.039       1.985       1167.046    27.19       1.079       948.472     629.528     464.41      31.689      
102.2       14.723      163.301     2.327       7.206       18.781      16.705      23.478      3.673       5.598       16.487      7.59        1.058       2.054       1162.246    24.719      1.077       643.585     393.18      297.387     33.461      
