~Version Information Section
VERS.                                         2.0:CWLS log ASCII Standart – VERSION 2.0
WRAP.                                          NO:One line per depth step
~Well Information Section
STRT.M                                        7.7:Начальная глубина
STOP.M                                      168.6:Конечная глубина
STEP.M                                          0:Шаг квантования по глубине
NULL.                                    -9999.25:Признак "Нет данных"
WELL.                                       137Мх:Скважина
~Parameter Information Section
~Curve Information Section
DEPTH.M                                          :Глубина
ГК.мкР/ч                                         :GK
U1.                                              :U1
U12.                                             :U12
U2.                                              :U2
W.усл.ед                                         :W
ЗОНД.                                            :Зонд N0
НГК.                                             :НГК
ННКМ.усл.ед                                      :ННКм
ПЛОТНОСТЬ.г/см3                                  :плотность
РЕЗИСТИВИМЕТР.Ом                                 :Резистивиметр
~ASCII LOG DATA
# ...
44.3        10.534      233.685     271.446     339.743     35.971      12.579      1.113       1.077       2.243       0.774       
44.4        10.266      233.524     219.638     245.945     35.834      12.953      1.102       1.051       2.247       0.774       
44.5        10.363      283.692     160.774     97.819      35.518      13.365      1.104       1.018       2.237       0.776       
44.6        10.476      320.46      171.277     98.858      35.307      13.752      1.124       1.005       2.214       0.78        
44.7        10.786      280.913     168.198     112.627     34.244      14.054      1.155       1.051       2.197       0.789       
44.8        10.871      324.447     180.201     114.752     33.457      14.422      1.137       1.056       2.196       0.797       
44.9        10.807      374.3       216.046     147.233     33.565      15.219      1.121       1.077       2.193       0.8         
45.0        10.639      430.473     275.731     210.071     33.942      17.134      1.124       1.096       2.2         0.801       
45.1        10.134      428.047     310.143     257.638     34.565      20.182      1.126       1.124       2.186       0.805       
45.2        9.507       520.098     324.107     235.204     35.425      23.063      1.116       1.09        2.181       0.818       
45.3        9.287       773.399     338.828     168.803     35.478      24.493      1.114       1.067       2.188       0.845       
45.4        9.413       888.316     339.465     131.948     35.175      23.986      1.143       1.045       2.204       0.865       
45.5        9.6         864.847     326.016     124.639     34.18       22.039      1.217       1.04        2.248       0.864       
45.6        9.112       733.587     374.265     210.4       32.282      19.983      1.266       1.183       2.287       0.857       
45.7        8.4         672.263     423.745     279.558     30.784      18.737      1.26        1.222       2.326       0.845       
45.8        8.009       680.876     474.455     332.113     29.719      18.197      1.21        1.319       2.336       0.836       
45.9        7.919       730.529     430.704     269.355     29.47       18.039      1.163       1.281       2.327       0.831       
46.0        8.052       848.65      388.252     197.442     29.788      18.045      1.143       1.231       2.311       0.829       
46.1        8.5         854.556     314.187     125.66      30.614      18.195      1.134       1.211       2.291       0.827       
46.2        8.835       772.758     290.501     128.113     31.169      18.594      1.139       1.196       2.274       0.824       
46.3        9.045       603.255     317.195     204.801     32.073      18.971      1.138       1.147       2.266       0.82        
46.4        9.372       498.781     363.837     293.391     32.433      18.92       1.107       1.128       2.265       0.818       
46.5        8.939       436.224     388.213     347.329     32.904      18.362      1.083       1.118       2.271       0.818       
46.6        8.27        415.585     390.321     366.616     33.61       17.542      1.093       1.117       2.271       0.818       
46.7        8.198       399.375     376.047     354.312     34.19       16.749      1.111       1.118       2.268       0.821       
46.8        8.304       317.724     304.317     292.024     34.58       16.181      1.102       1.108       2.274       0.832       
46.9        8.557       197.368     216.354     249.689     34.869      15.88       1.095       1.094       2.273       0.844       
47.0        8.597       144.151     182.635     242.532     34.588      15.624      1.116       1.12        2.283       0.852       
47.1        8.6         158.074     203.163     270.551     34.085      15.347      1.174       1.134       2.272       0.856       
47.2        8.529       193.015     205.638     228.211     33.831      15.184      1.211       1.096       2.261       0.856       
47.3        8.657       242.274     211.079     191.437     33.551      15.038      1.183       1.102       2.251       0.856       
47.4        8.63        305.852     219.484     160.229     33.572      14.864      1.147       1.114       2.247       0.858       
47.5        8.292       316.334     254.749     221.236     33.782      14.787      1.133       1.11        2.254       0.864       
47.6        7.967       364.999     323.118     303.924     33.604      14.825      1.12        1.105       2.259       0.874       
47.7        8.073       451.847     424.593     408.295     33.399      15.078      1.12        1.112       2.274       0.884       
47.8        8.452       594.641     512.073     445.785     33.721      15.774      1.13        1.115       2.279       0.887       
47.9        8.757       668.394     545.276     445.766     33.857      17.002      1.156       1.127       2.273       0.89        
48.0        8.691       701.371     543.934     423.225     34.047      18.476      1.165       1.122       2.258       0.898       
48.1        8.313       762.612     562.325     415.673     34.495      19.774      1.149       1.096       2.247       0.912       
48.2        7.793       786.25      558.156     396.898     34.375      20.938      1.135       1.102       2.243       0.926       
48.3        7.798       711.415     504.709     359.852     33.562      22.522      1.131       1.113       2.244       0.934       
48.4        8.233       538.107     401.986     304.536     32.738      25.128      1.133       1.154       2.247       0.937       
48.5        9.266       529.222     341.813     238.194     32.217      28.446      1.144       1.195       2.251       0.939       
48.6        8.925       509.735     308.402     213.258     31.892      31.448      1.166       1.265       2.248       0.957       
48.7        7.755       479.646     301.754     229.727     32.212      32.911      1.178       1.283       2.236       1.01        
48.8        7.431       281.986     254.374     274.523     32.771      31.59       1.204       1.256       2.221       1.019       
48.9        7.51        176.155     209.628     263.597     33.141      27.992      1.217       1.255       2.205       0.955       
49.0        7.782       162.154     167.516     196.949     33.285      24.17       1.221       1.249       2.199       0.905       
49.1        7.845       239.785     205.179     186.905     33.209      21.148      1.212       1.296       2.197       0.891       
49.2        7.27        357.279     302.02      257.144     32.966      19.236      1.167       1.39        2.193       0.891       
49.3        6.721       434.083     386.873     346.241     33.1        18.633      1.141       1.325       2.196       0.889       
49.4        6.781       430.337     400.561     373.911     32.974      18.925      1.153       1.277       2.201       0.883       
49.5        7.217       483.274     317.913     259.869     32.969      19.335      1.18        1.227       2.21        0.879       
49.6        8.091       553.852     292.233     198.262     33.464      19.157      1.186       1.207       2.222       0.87        
49.7        8.523       642.071     323.522     189.09      34.187      18.618      1.188       1.173       2.232       0.861       
49.8        8.594       640.775     411.549     279.188     34.281      18.073      1.194       1.192       2.256       0.857       
49.9        8.686       669.558     474.175     335.836     34.496      17.77       1.207       1.22        2.279       0.857       
50.0        8.674       649.125     487.545     369.707     34.698      17.892      1.221       1.227       2.298       0.86        
50.1        8.66        681.98      497.611     374.546     34.772      18.619      1.245       1.232       2.298       0.87        
50.2        8.694       768.123     504.373     350.353     35.15       19.777      1.245       1.18        2.281       0.88        
50.3        8.661       899.391     479.387     273.772     35.994      20.503      1.233       1.167       2.277       0.896       
