~Version Information Section
VERS.                                         2.0:CWLS log ASCII Standart – VERSION 2.0
WRAP.                                          NO:One line per depth step
~Well Information Section
STRT.M                                        0.1:Начальная глубина
STOP.M                                      167.0:Конечная глубина
STEP.M                                          0:Шаг квантования по глубине
NULL.                                    -9999.25:Признак "Нет данных"
WELL.                                        143К:Скважина
~Parameter Information Section
~Curve Information Section
DEPTH.M                                          :Глубина
БК.Омм                                           :BK     (БК)
DСР.мм                                           :DS  (ДС)
ПЛОТНОСТЬ.г/см^3                                 :GGKp
ГК.гамма                                         :GK          (ГК)
ИК.мСм/м                                         :IK
НГК.усл.ед                                       :NGK     (НГК)
ННКМ.усл.ед                                      :NNKm  (ННКм)
ПС.mv                                            :PS       (ПС)
N11.0M0.5A.Омм                                   :PZ    (КС)
R.Омм                                            :RS (Резистивиметр)
КП.%                                             :W
А0.4М0.1N.Омм                                    :GZ1   ГЗ1(A0.4M0.1N)
А1.0М0.1N.Омм                                    :GZ2   ГЗ2(A1.0M0.1N)
А2.0М0.5N.Омм                                    :GZ3   ГЗ3(A2.0M0.5N)
А4.0М0.5N.Oмм                                    :GZ4   ГЗ4(A4.0M0.5N)
А8.0М1.0N.Омм                                    :GZ5   ГЗ5(A8.0M0.5N)
N0.5M2.0A.Омм                                    :GZR   ГЗK(N0.5M2.0A)
~ASCII LOG DATA
# ...
88.9        37.745      217.506     2.247       5.16        30.445      1.211       1.95        58.005      45.098      1.141       30.29       50.324      43.144      51.942      83.234      99.29       57.102      
89.0        50.946      217.608     2.257       5.114       30.445      1.21        1.963       56.808      45.775      1.142       30.736      50.979      43.342      49.212      79.006      100.665     53.422      
89.1        64.906      217.724     2.268       5.174       30.445      1.215       1.994       55.593      46.567      1.145       31.234      51.079      43.427      46.082      74.117      100.665     49.995      
89.2        68.82       217.814     2.278       5.34        30.428      1.21        2.03        54.397      47.203      1.148       31.601      51.189      43.411      43.538      70.048      100.665     47.493      
89.3        59.348      218.172     2.28        5.361       30.347      1.203       2.058       53.319      47.684      1.152       31.699      51.299      43.411      41.701      66.843      99.611      45.664      
89.4        50.303      219.98      2.274       5.371       30.173      1.206       2.076       52.402      47.903      1.155       31.805      51.189      43.212      40.266      64.105      95.681      44.215      
89.5        47.175      220.255     2.26        5.35        29.901      1.197       2.09        51.584      47.903      1.158       31.817      50.667      42.912      38.992      61.585      92.421      43.17       
89.6        47.434      218.772     2.243       5.186       29.532      1.177       2.089       50.877      47.847      1.159       31.655      49.763      42.761      38.041      59.511      90.679      42.753      
89.7        46.863      217.52      2.224       5.053       29.099      1.158       2.073       50.288      47.453      1.16        31.552      48.543      42.653      37.691      58.535      89.736      42.753      
89.8        46.013      217.237     2.208       5.011       28.635      1.145       2.052       49.818      46.757      1.16        31.611      47.025      42.865      37.691      58.42       89.368      42.753      
89.9        44.82       217.053     2.197       4.953       28.173      1.137       2.022       49.462      45.995      1.16        31.616      45.807      43.343      37.691      58.42       88.955      42.773      
90.0        43.803      217.053     2.19        4.871       27.736      1.142       1.985       49.211      45.199      1.16        31.698      45.19       43.868      37.933      58.42       88.761      42.929      
90.1        44.197      217.244     2.187       4.997       27.339      1.151       1.955       49.053      44.541      1.16        31.845      44.685      43.797      38.862      58.748      88.424      43.007      
90.2        44.389      217.325     2.188       5.064       26.983      1.156       1.936       48.975      44.014      1.16        32.012      43.985      42.881      40.072      59.163      88.424      42.948      
90.3        43.114      217.473     2.19        4.975       26.668      1.158       1.925       48.964      43.334      1.16        32.135      43.223      41.887      41.061      59.183      88.424      42.948      
90.4        39.94       217.648     2.192       4.936       26.392      1.161       1.923       49.009      42.474      1.16        32.172      42.528      40.778      41.942      59.063      88.067      42.577      
90.5        37.489      217.284     2.193       4.926       26.158      1.166       1.927       49.096      41.6        1.16        32.09       41.806      39.46       42.456      58.921      86.762      41.593      
90.6        36.825      217.305     2.189       5.014       25.969      1.171       1.928       49.215      40.814      1.16        32.013      40.961      38.075      42.707      58.261      84.56       39.979      
90.7        37.602      217.242     2.18        5.132       25.825      1.176       1.922       49.354      40.167      1.16        32.119      40.101      36.538      42.936      56.579      81.558      37.801      
90.8        40.129      216.875     2.173       5.324       25.721      1.174       1.913       49.502      39.797      1.16        32.297      39.237      34.992      42.753      54.123      78.118      35.743      
90.9        42.269      217.062     2.17        5.442       25.651      1.17        1.909       49.653      39.693      1.159       32.548      38.494      33.955      42.49       51.929      74.632      34.344      
91.0        41.57       217.04      2.175       5.516       25.606      1.169       1.902       49.802      39.65       1.158       32.908      38.083      33.561      42.485      50.739      71.797      33.608      
91.1        38.455      217.205     2.187       5.469       25.577      1.166       1.901       49.946      39.596      1.155       33.415      37.941      33.486      42.485      50.389      69.854      33.39       
91.2        35.396      217.171     2.201       5.406       25.566      1.165       1.912       50.084      39.576      1.152       33.811      37.914      33.486      42.525      50.38       68.826      33.39       
91.3        34.855      217.249     2.214       5.352       25.566      1.172       1.929       50.219      39.651      1.148       34.109      37.914      33.486      42.684      50.38       68.607      33.39       
91.4        35.671      217.279     2.222       5.362       25.567      1.182       1.938       50.351      39.72       1.145       34.128      37.914      33.575      42.938      50.38       68.607      33.41       
91.5        37.219      217.163     2.226       5.41        25.582      1.186       1.947       50.484      39.728      1.142       33.839      38.044      33.893      43.309      50.608      68.607      33.688      
91.6        38.716      217.143     2.226       5.499       25.633      1.179       1.956       50.624      39.692      1.141       33.201      38.185      34.124      43.833      51.266      68.607      34.328      
91.7        39.782      217.394     2.224       5.488       25.732      1.175       1.957       50.774      39.581      1.14        32.475      38.197      34.219      44.418      52.222      69.317      35.124      
91.8        40.047      217.677     2.219       5.509       25.876      1.191       1.951       50.94       39.351      1.139       31.588      38.197      34.572      45.06       53.375      70.47       35.979      
91.9        39.595      217.775     2.214       5.618       26.051      1.208       1.942       51.127      38.929      1.137       30.791      37.838      35.099      45.824      54.73       71.885      36.903      
92.0        39.031      217.855     2.208       5.777       26.232      1.212       1.936       51.339      38.333      1.133       30.219      36.971      35.584      46.664      56.19       73.423      37.829      
92.1        38.704      217.878     2.204       5.947       26.39       1.218       1.931       51.58       37.678      1.127       30.039      35.815      36.003      47.622      57.772      75.076      38.799      
92.2        38.767      217.887     2.205       6.223       26.507      1.217       1.935       51.851      37.025      1.12        29.988      34.836      36.408      48.889      59.94       76.405      40.028      
92.3        38.447      218.039     2.211       6.429       26.584      1.192       1.927       52.154      36.463      1.113       30.18       34.503      36.742      50.471      62.799      77.458      41.324      
92.4        36.641      218.23      2.218       6.424       26.628      1.162       1.915       52.487      36.126      1.107       30.484      34.503      36.971      52.047      65.811      77.925      42.249      
92.5        33.349      218.474     2.225       6.446       26.652      1.142       1.902       52.847      36.022      1.103       30.919      34.503      37.364      53.151      68.672      78.029      42.75       
