~Version Information Section
VERS.                                         2.0:CWLS log ASCII Standart – VERSION 2.0
WRAP.                                          NO:One line per depth step
~Well Information Section
STRT.M                                       -0.5:Начальная глубина
STOP.M                                      184.3:Конечная глубина
STEP.M                                          0:Шаг квантования по глубине
NULL.                                    -9999.25:Признак "Нет данных"
WELL.                                       133Мх:Скважина
~Parameter Information Section
~Curve Information Section
DEPTH.M                                          :Глубина
DS.mm                                            :DS  (ДС)
GGK.g/cm3                                        :GGKp
ГК.mcr/h                                         :GK          (ГК)
GZ1.Ohm*M                                        :GZ1   ГЗ1(A0.4M0.1N)
GZ2.Ohm*M                                        :GZ2   ГЗ2(A1.0M0.1N)
GZ3.Ohm*M                                        :GZ3   ГЗ3(A2.0M0.5N)
GZ4.Ohm*M                                        :GZ4   ГЗ4(A4.0M0.5N)
GZ5.Ohm*M                                        :GZ5   ГЗ5(A8.0M0.5N)
GZR.Ohm*M                                        :GZK   ГЗK(N0.5M2.0A)
ИК.Ohm*M                                         :IK
НГК.ue                                           :NGK     (НГК)
NNKM.                                            :NNKm  (ННКм)
PS.mv                                            :PS       (ПС)
PZ.Ohm*M                                         :PZ    (КС)
RS.Ohm*M                                         :RS (Резистивиметр)
U1.mV                                            :U1
U2.mV                                            :U2
U3.mV                                            :U3
BK.Ohm*M                                         :БК
ПОРИСТОСТЬ.                                      :Пористость ННК
~ASCII LOG DATA
# ...
105.1       133.675     2.21        4.059       135.542     111.459     66.537      29.725      25.128      33.814      28.493      1.607       2.775       78.897      16.112      1.206       465.079     1275.825    2055.734    44.683      28.183      
105.2       133.186     2.19        3.805       120.517     99.483      58.425      25.356      20.909      29.718      27.716      1.575       2.748       79.864      14.671      1.206       466.312     1276.976    2056.969    52.506      27.576      
105.3       132.824     2.174       3.59        105.445     85.42       49.338      20.896      17.374      26.295      27.108      1.553       2.709       80.761      13.629      1.206       466.82      1277.505    2057.655    54.47       27.879      
105.4       133.288     2.169       3.852       87.281      69.713      40.291      16.604      14.201      24.165      26.613      1.548       2.615       81.549      12.871      1.206       468.117     1277.932    2058.897    44.16       28.61       
105.5       134.305     2.17        4.579       65.519      55.905      32.78       13.081      11.571      23.284      26.126      1.533       2.497       82.186      12.311      1.206       470.78      1278.626    2061.22     31.215      30.948      
105.6       134.974     2.178       5.629       49.33       46.649      27.524      10.513      9.705       23.146      25.545      1.451       2.372       82.656      11.905      1.206       472.682     1279.132    2062.874    25.409      33.283      
105.7       134.955     2.191       6.846       41.782      40.628      24.416      8.878       8.643       23.146      24.85       1.4         2.252       82.962      11.648      1.206       472.525     1279.02     2062.779    23.069      34.412      
105.8       134.666     2.213       7.95        37.458      36.796      23.283      8.069       8.244       23.146      24.074      1.431       2.195       83.132      11.56       1.206       471.589     1278.777    2061.912    23.263      34.913      
105.9       134.792     2.236       8.787       34.71       34.315      23.176      7.755       8.244       23.572      23.372      1.491       2.165       83.221      11.549      1.202       471.787     1279.232    2061.861    23.077      34.772      
106.0       135.489     2.244       8.989       33.265      32.738      23.176      7.659       8.244       24.872      22.923      1.483       2.162       83.299      11.549      1.202       472.376     1280.429    2062.18     22.945      33.808      
106.1       135.993     2.245       8.761       32.985      32.096      23.176      7.659       8.244       27.025      22.797      1.47        2.166       83.427      11.562      1.202       471.85      1281.522    2061.713    23.307      33.273      
106.2       135.459     2.246       8.332       32.985      31.882      23.788      7.659       8.26        30.394      22.797      1.507       2.158       83.651      11.703      1.202       471.276     1282.178    2061.237    23.327      32.95       
106.3       134.175     2.24        8.136       32.985      31.882      25.643      7.756       8.512       35.61       22.827      1.571       2.151       83.984      12.016      1.202       471.848     1283.189    2061.577    22.669      32.939      
106.4       133.169     2.239       8.23        33.283      31.882      28.995      8.101       8.78        42.557      22.974      1.594       2.154       84.417      12.508      1.202       473.005     1285.568    2062.399    21.227      32.867      
106.5       132.887     2.239       8.212       34.104      32.072      34.605      8.852       9.028       50.214      23.224      1.585       2.188       84.932      13.177      1.202       474.339     1289.156    2063.573    21.161      32.079      
106.6       132.967     2.226       7.86        35.956      32.836      42.063      10.269      9.371       57.236      23.505      1.599       2.256       85.51       14.003      1.202       477.076     1292.106    2066.06     22.858      31.218      
106.7       132.849     2.229       6.988       40.178      33.935      49.371      12.462      9.849       62.729      23.9        1.642       2.347       86.128      14.95       1.202       480.777     1293.002    2069.18     26.689      30.717      
106.8       132.373     2.245       6.264       46.651      35.088      55.326      15.038      10.322      66.383      24.534      1.728       2.448       86.756      15.986      1.202       482.434     1292.246    2070.279    30.026      30.435      
106.9       131.872     2.261       5.664       53.678      36.338      59.793      17.511      10.785      68.403      25.559      1.806       2.544       87.366      17.046      1.198       481.161     1291.316    2068.84     34.342      30.301      
107.0       131.764     2.276       5.446       61.059      37.882      62.309      19.673      11.153      69.586      26.661      1.842       2.633       87.932      18.068      1.198       479.815     1291.176    2067.449    46.689      29.692      
107.1       132.081     2.277       5.597       68.236      39.57       63.113      21.243      11.373      70.544      27.587      1.857       2.679       88.422      19.006      1.198       481.095     1291.89     2068.747    73.856      28.896      
107.2       132.478     2.273       5.791       73.431      40.929      63.265      22.199      11.473      70.52       28.021      1.878       2.663       88.805      19.851      1.198       482.874     1292.338    2070.94     64.238      28.467      
107.3       132.686     2.265       5.903       76.038      42.195      62.828      23.086      11.668      69.601      28.261      1.928       2.603       89.068      20.641      1.198       482.224     1291.382    2070.798    37.137      28.553      
107.4       132.686     2.265       5.553       77.588      43.141      61.767      24.21       12.077      69.162      28.408      1.92        2.554       89.202      21.434      1.198       480.076     1289.729    2068.737    33.644      28.766      
107.5       132.59      2.273       5.19        78.653      43.693      60.147      25.462      12.612      69.62       28.595      1.87        2.542       89.201      22.284      1.194       478.93      1289.467    2067.261    40.169      28.986      
107.6       132.576     2.273       4.789       78.869      45.163      58.323      26.749      13.2        70.539      28.849      1.789       2.558       89.064      23.195      1.194       479.685     1291.019    2067.925    51.263      28.834      
107.7       132.769     2.255       4.807       79.742      47.32       56.883      28.257      13.878      71.49       29.138      1.78        2.589       88.79       24.071      1.194       480.4       1291.077    2068.756    49.429      28.688      
107.8       133.076     2.238       5.115       81.721      49.384      55.746      30.352      14.507      72.213      29.382      1.775       2.582       88.38       24.772      1.194       479.892     1288.001    2067.821    49.021      28.464      
107.9       133.292     2.232       5.296       84.284      52.269      54.867      33.141      15.101      71.985      29.547      1.767       2.557       87.845      25.205      1.194       478.794     1284.281    2066.085    40.714      28.355      
108.0       133.322     2.23        5.549       87.879      56.519      54.161      36.186      16.049      70.877      29.666      1.776       2.571       87.204      25.348      1.194       477.889     1283.254    2065.245    39.854      28.099      
108.1       133.214     2.239       5.298       92.99       61.7        53.415      39.192      16.856      69.41       29.754      1.82        2.622       86.479      25.367      1.194       477.837     1285.523    2065.66     45.452      27.313      
108.2       133.127     2.26        5.216       97.697      66.723      52.704      41.921      17.648      67.596      29.855      1.863       2.717       85.703      25.367      1.194       478.518     1288.032    2065.881    48.264      26.746      
