~Version Information Section
VERS.                                         2.0:CWLS log ASCII Standart – VERSION 2.0
WRAP.                                          NO:One line per depth step
~Well Information Section
STRT.M                                        0.2:Начальная глубина
STOP.M                                      176.0:Конечная глубина
STEP.M                                          0:Шаг квантования по глубине
NULL.                                    -9999.25:Признак "Нет данных"
WELL.                                       112Мх:Скважина
~Parameter Information Section
~Curve Information Section
DEPTH.M                                          :Глубина
BK.Ohm*M                                         :BK     (БК)
DS.mm                                            :DS  (ДС)
GGK.g/cm3                                        :GGKp
ГК.mcr/h                                         :GK          (ГК)
GZ1.Ohm*M                                        :GZ1   ГЗ1(A0.4M0.1N)
GZ2.Ohm*M                                        :GZ2   ГЗ2(A1.0M0.1N)
GZ3.Ohm*M                                        :GZ3   ГЗ3(A2.0M0.5N)
GZ4.Ohm*M                                        :GZ4   ГЗ4(A4.0M0.5N)
GZ5.Ohm*M                                        :GZ5   ГЗ5(A8.0M0.5N)
GZR.Ohm*M                                        :GZK   ГЗK(N0.5M2.0A)
ИК.Ohm*M                                         :IK
НГК.ue                                           :NGK     (НГК)
NNKM.                                            :NNKm  (ННКм)
PS.mv                                            :PS       (ПС)
PZ.Ohm*M                                         :PZ    (КС)
U1.mV                                            :U1
U2.mV                                            :U2
U3.mV                                            :U3
КП.%                                             :Кп
~ASCII LOG DATA
# ...
163.4       106.658     127.633     2.431       6.34        23.806      15.278      14.324      12.297      13.436      14.801      15.682      1.653       2.525       251.48      64.0        247.208     2591.841    475.741     39.53       
163.5       47.873      127.836     2.412       6.927       21.294      15.106      13.331      11.536      12.798      14.35       15.298      1.645       2.344       252.52      64.0        242.404     2572.812    430.907     40.932      
163.6       34.341      127.157     2.415       7.12        19.275      14.893      12.595      10.982      12.289      13.988      14.901      1.61        2.2         253.58      64.0        237.6       2553.783    386.073     40.234      
163.7       30.762      127.444     2.434       6.625       17.888      14.639      12.061      10.584      11.919      13.67       14.511      1.587       2.115       254.68      64.0        237.6       2553.783    366.237     36.14       
163.8       30.099      127.496     2.452       5.656       17.068      14.369      11.691      10.315      11.688      13.405      14.22       1.491       2.077       255.8       64.0        305.279     2579.37     356.125     31.063      
163.9       30.66       127.041     2.467       5.016       16.688      14.109      11.458      10.156      11.582      13.21       14.073      1.319       2.242       256.9       64.0        363.52      2601.179    349.079     28.586      
164.0       34.914      127.156     2.465       4.851       16.605      13.907      11.353      10.098      11.561      13.087      14.127      1.162       2.415       257.9       64.0        268.715     2552.607    343.345     28.947      
164.1       39.221      127.1       2.461       5.131       16.605      13.805      11.345      10.098      11.561      13.037      14.335      1.109       2.495       258.74      64.0        259.227     2552.607    343.345     30.603      
164.2       35.326      127.057     2.442       5.594       16.614      13.799      11.345      10.101      11.572      13.037      14.624      1.182       2.514       259.42      64.0        259.227     2554.232    353.825     31.425      
164.3       39.136      127.092     2.423       6.112       16.695      13.799      11.36       10.134      11.652      13.039      15.091      1.292       2.447       259.98      64.0        289.8       2579.429    371.917     32.49       
164.4       47.371      127.186     2.409       6.218       16.977      13.816      11.496      10.284      11.893      13.069      15.582      1.402       2.414       260.52      63.96       287.842     2584.622    390.009     33.469      
164.5       47.94       127.124     2.405       5.909       17.559      13.973      11.963      10.665      12.36       13.222      15.986      1.489       2.416       261.14      63.84       221.462     2540.374    386.593     33.495      
164.6       42.044      127.077     2.411       5.667       18.555      14.51       12.909      11.331      13.1        13.644      16.416      1.502       2.367       261.86      63.6        221.462     2540.374    367.335     32.089      
164.7       41.394      127.056     2.434       5.416       20.096      15.568      14.454      12.327      14.115      14.415      16.8        1.456       2.352       262.62      63.16       261.975     2545.66     340.268     31.127      
164.8       47.342      127.026     2.461       5.349       22.205      17.142      16.578      13.608      15.356      15.555      17.046      1.396       2.453       263.24      62.52       364.953     2579.892    313.201     30.318      
164.9       52.088      127.188     2.488       4.769       24.703      19.016      19.022      15.026      16.719      17.0        17.3        1.37        2.582       263.5       61.72       450.047     2607.486    304.764     29.361      
165.0       94.322      127.201     2.514       4.411       27.17       20.739      21.325      16.396      18.056      18.568      17.605      1.355       2.705       263.52      60.8        352.115     2573.781    304.764     27.132      
165.1       188.052     127.065     2.543       3.884       29.085      21.861      22.976      17.535      19.222      20.042      17.93       1.337       2.781       263.52      59.8        297.216     2555.95     308.667     24.956      
165.2       211.308     127.031     2.571       3.604       30.091      22.273      23.758      18.336      20.124      21.271      18.204      1.396       2.798       263.3       58.8        273.242     2549.527    316.476     23.076      
165.3       203.613     127.11      2.573       3.629       30.33       22.272      23.901      18.85       20.732      22.291      18.302      1.469       2.909       262.64      57.76       254.927     2546.374    327.093     24.882      
165.4       182.729     127.157     2.54        3.936       30.302      22.236      23.871      19.091      21.078      22.907      18.254      1.519       2.988       261.54      56.72       241.02      2545.767    343.165     27.034      
165.5       127.412     127.228     2.478       4.467       30.067      21.998      23.625      19.08       21.237      22.813      18.029      1.609       2.888       260.12      55.72       227.113     2545.161    363.486     30.002      
165.6       60.847      127.28      2.413       5.093       29.397      21.49       22.957      -9999.25    21.289      -9999.25    17.625      1.72        2.708       258.58      54.8        227.113     2545.161    383.807     31.263      
165.7       44.975      127.389     2.364       5.444       28.486      21.147      22.134      -9999.25    21.297      -9999.25    17.165      1.799       2.493       257.0       54.08       227.556     2553.932    404.993     33.651      
165.8       41.737      127.7       2.345       5.642       27.697      21.106      21.503      -9999.25    21.296      -9999.25    16.593      1.777       2.362       255.38      53.6        240.597     2570.935    410.769     35.304      
165.9       40.713      127.3       2.358       5.4         27.221      21.106      21.154      -9999.25    21.284      -9999.25    16.058      1.699       2.33        253.8       53.36       286.367     2587.243    358.388     36.849      
166.0       37.008      127.176     2.399       5.218       26.97       21.116      21.013      -9999.25    21.236      -9999.25    15.503      1.598       2.278       252.36      53.36       363.23      2602.576    344.331     32.564      
166.1       34.82       127.063     2.464       4.505       26.753      21.18       20.959      -9999.25    21.103      -9999.25    15.033      1.493       2.286       251.02      53.36       319.552     2585.855    344.331     28.337      
166.2       38.831      126.964     2.531       4.278       26.444      21.274      20.852      -9999.25    20.815      -9999.25    14.697      1.352       2.437       249.76      53.36       264.204     2569.134    369.669     22.944      
166.3       83.083      126.936     2.586       4.082       25.982      21.272      20.577      -9999.25    20.291      -9999.25    14.491      1.32        2.686       248.6       53.36       243.865     2553.92     381.707     21.797      
166.4       163.263     126.86      2.624       4.253       25.308      21.228      20.043      -9999.25    19.458      -9999.25    14.449      1.312       2.908       247.46      53.56       243.865     2540.452    323.683     19.993      
166.5       152.593     126.793     2.647       4.227       24.376      20.918      19.183      -9999.25    18.29       -9999.25    14.419      1.353       2.97        246.24      53.84       264.048     2540.452    314.617     20.517      
166.6       140.319     126.747     2.641       4.162       23.128      19.991      17.953      -9999.25    16.829      -9999.25    14.337      1.439       2.96        244.92      54.16       292.863     2553.456    314.617     22.613      
166.7       147.824     126.839     2.594       4.182       21.6        18.418      16.458      -9999.25    15.167      -9999.25    14.132      1.518       2.973       243.52      54.44       332.496     2599.637    366.913     27.775      
