~Version Information Section
VERS.                                         2.0:CWLS log ASCII Standart – VERSION 2.0
WRAP.                                          NO:One line per depth step
~Well Information Section
STRT.M                                        2.0:Начальная глубина
STOP.M                                      201.2:Конечная глубина
STEP.M                                          0:Шаг квантования по глубине
NULL.                                    -9999.25:Признак "Нет данных"
WELL.                                       126Мх:Скважина
~Parameter Information Section
~Curve Information Section
DEPTH.M                                          :Глубина
BK.ohmm                                          :BK
ПРОФ_СР.мм                                       :DS  (ДС)
W.g/cm3                                          :GGKp
ГК.мкР/час                                       :GK          (ГК)
ГЗ1.Омм                                          :GZ1   ГЗ1(A0.4M0.1N)
ГЗ2.Омм                                          :GZ2   ГЗ2(A1.0M0.1N)
ГЗ3.Омм                                          :GZ3   ГЗ3(A2.0M0.5N)
ГЗ4.Oмм                                          :GZ4   ГЗ4(A4.0M0.5N)
ГЗ5.Oмм                                          :GZ5   ГЗ5(A8.0M0.5N)
ГЗК.Омм                                          :GZK   ГЗK(N0.5M2.0A)
ИК.ohmm                                          :IK
НГК.усл.ед.                                      :NGK
ННКМ.усл.ед                                      :NNKm  (ННКм)
PS.мВ                                            :PS       (ПС)
PZ.Омм                                           :PZ    (КС)
RIS.Омм                                          :RS (Резистивиметр)
U1.мВ                                            :U1
U2.мВ                                            :U2
U3.mv                                            :U3
~ASCII LOG DATA
# ...
158.4       15.631      122.488     2.346       6.895       46.44       11.56       32.001      22.536      11.334      12.786      7.795       1.016       2.091       199.894     9.831       1.459       571.256     508.585     356.733     
158.5       15.922      122.34      2.341       6.987       46.44       11.56       38.4        22.736      11.134      12.786      7.732       1.056       2.107       200.95      9.831       1.456       608.639     534.388     344.414     
158.6       16.368      122.254     2.337       7.103       46.44       11.356      44.558      23.536      10.334      12.786      7.676       1.081       2.12        202.006     9.831       1.455       655.377     573.1       327.985     
158.7       16.711      122.516     2.332       7.236       46.44       10.54       43.589      23.736      10.334      12.786      7.641       1.095       2.103       203.062     9.831       1.454       697.433     654.793     319.771     
158.8       17.1        122.484     2.318       7.163       45.36       10.54       43.589      24.736      10.334      12.786      7.617       1.08        2.059       204.118     9.831       1.452       725.475     616.091     340.306     
158.9       17.418      122.23      2.311       6.981       45.36       10.54       43.589      25.736      10.134      12.786      7.611       1.053       2.033       204.646     9.831       1.447       734.821     542.988     360.84      
159.0       16.827      122.233     2.301       6.918       45.36       10.54       43.589      26.536      9.334       12.786      7.606       1.048       2.022       204.646     9.831       1.439       720.803     517.192     385.478     
159.1       16.52       122.664     2.301       6.92        45.36       10.54       43.589      26.336      9.334       12.786      7.627       1.054       2.036       204.646     9.831       1.429       646.023     499.992     406.013     
159.2       16.255      122.506     2.312       7.028       45.36       10.54       43.589      25.336      9.334       12.786      7.637       1.09        2.059       204.646     9.831       1.419       575.932     487.093     414.226     
159.3       16.032      122.749     2.328       7.065       45.36       10.54       43.831      24.336      9.334       12.786      7.637       1.086       2.078       204.646     9.831       1.411       519.848     448.391     401.906     
159.4       16.218      122.732     2.328       6.95        45.36       10.54       44.401      23.536      9.334       12.786      7.63        1.092       2.095       204.646     9.831       1.406       524.522     405.39      385.478     
159.5       16.444      122.743     2.335       6.934       45.36       10.54       42.801      23.536      9.334       12.786      7.613       1.098       2.111       204.646     9.831       1.404       538.54      392.491     373.159     
159.6       16.749      122.897     2.348       6.923       45.36       10.54       42.401      23.536      9.334       12.786      7.588       1.138       2.123       204.646     9.455       1.403       575.93      422.594     381.373     
159.7       17.219      122.766     2.355       7.06        45.36       10.54       40.801      23.536      9.334       12.586      7.578       1.166       2.117       204.646     8.703       1.403       617.985     487.086     389.585     
159.8       17.701      122.696     2.364       7.266       45.36       10.54       40.801      23.736      9.334       11.586      7.586       1.171       2.089       204.646     7.951       1.403       664.721     555.891     377.266     
159.9       18.155      122.848     2.36        7.326       45.36       10.54       40.801      24.736      9.334       10.786      7.601       1.131       2.042       204.118     6.823       1.404       678.742     564.49      344.41      
160.0       18.03       122.723     2.35        7.416       45.36       10.54       40.801      25.736      9.334       10.786      7.615       1.086       2.014       203.59      5.695       1.407       655.378     517.195     295.135     
160.1       17.418      122.903     2.344       7.368       45.36       10.54       40.801      26.936      9.334       10.786      7.639       1.083       2.007       203.062     4.567       1.411       589.944     478.49      258.17      
160.2       16.482      122.729     2.338       7.255       45.36       10.948      40.801      28.336      9.334       10.786      7.652       1.098       2.054       202.534     3.439       1.418       533.87      461.29      237.639     
160.3       15.996      122.762     2.326       7.042       45.36       12.784      40.401      27.136      9.334       10.786      7.652       1.121       2.113       202.006     2.311       1.426       510.501     465.591     237.639     
160.4       15.996      122.864     2.315       6.967       45.36       13.6        38.401      25.336      9.534       10.786      7.654       1.118       2.121       202.006     1.559       1.434       524.522     448.39      254.067     
160.5       16.255      122.888     2.298       6.745       45.36       13.6        36.801      24.336      10.334      10.786      7.615       1.071       2.11        202.006     0.431       1.442       547.887     431.192     270.491     
160.6       16.558      122.971     2.286       6.666       45.36       13.6        36.801      23.336      10.534      10.786      7.595       1.044       2.063       202.006     -0.697      1.448       575.929     418.29      286.92      
160.7       16.069      123.053     2.296       6.565       45.36       13.396      36.801      22.536      11.334      10.786      7.576       0.997       2.031       202.006     -1.449      1.452       599.294     401.092     299.238     
160.8       15.885      123.127     2.298       6.762       45.36       12.58       36.801      22.336      11.134      10.786      7.571       0.97        2.043       201.478     -2.201      1.454       594.621     383.891     299.239     
160.9       15.346      123.289     2.309       6.931       45.36       12.376      36.801      21.336      10.134      10.786      7.552       0.948       2.062       200.422     -2.953      1.454       575.926     362.39      295.132     
161.0       15.136      123.391     2.317       7.035       45.36       11.356      36.801      20.336      9.334       10.786      7.533       0.985       2.084       199.366     -2.953      1.454       547.889     349.492     286.919     
161.1       15.849      123.262     2.335       6.959       45.36       10.54       36.801      19.536      9.334       10.786      7.54        1.067       2.069       198.31      -2.577      1.454       533.867     340.891     286.919     
161.2       16.558      123.336     2.352       6.819       45.36       10.54       36.401      19.536      9.134       10.786      7.528       1.126       2.041       197.254     -2.201      1.454       519.849     340.891     286.919     
161.3       17.061      123.32      2.349       6.688       45.36       10.54       34.401      19.536      8.134       10.786      7.543       1.097       2.061       196.726     -1.825      1.454       505.828     349.491     289.077     
161.4       17.022      123.316     2.347       6.707       45.36       10.54       32.401      19.536      7.334       10.786      7.542       1.046       2.09        196.198     -1.449      1.454       491.807     362.392     271.229     
161.5       16.749      123.378     2.347       6.695       45.36       10.54       30.801      19.536      7.134       10.986      7.555       1.013       2.103       195.67      -1.073      1.454       482.462     375.291     232.53      
161.6       16.368      123.589     2.332       6.822       44.28       10.54       30.801      19.536      6.334       11.986      7.597       1.079       2.106       195.142     -0.697      1.454       491.809     388.192     268.885     
161.7       16.069      123.776     2.323       6.998       44.28       10.54       30.801      19.536      6.334       12.986      7.627       1.106       2.103       194.614     -0.321      1.454       529.192     401.09      426.682     
