~Version Information Section
VERS.                                         2.0:CWLS log ASCII Standart – VERSION 2.0
WRAP.                                          NO:One line per depth step
~Well Information Section
STRT.M                                        0.4:Начальная глубина
STOP.M                                      206.4:Конечная глубина
STEP.M                                          0:Шаг квантования по глубине
NULL.                                    -9999.25:Признак "Нет данных"
WELL.                                       157Мх:Скважина
~Parameter Information Section
~Curve Information Section
DEPTH.M                                          :Глубина
BK.Ohm*M                                         :BK     (БК)
DS.mm                                            :DS  (ДС)
GGK.g/cm3                                        :GGKp
ГК.mcr/h                                         :GK          (ГК)
GZ1.Ohm*M                                        :GZ1   ГЗ1(A0.4M0.1N)
GZ2.Ohm*M                                        :GZ2   ГЗ2(A1.0M0.1N)
GZ3.Ohm*M                                        :GZ3   ГЗ3(A2.0M0.5N)
GZ4.Ohm*M                                        :GZ4   ГЗ4(A4.0M0.5N)
GZ5.Ohm*M                                        :GZ5   ГЗ5(A8.0M0.5N)
GZR.                                             :GZR   ГЗK(N0.5M2.0A)
ИК.Ohm*M                                         :IK
НГК.ue                                           :NGK     (НГК)
NNKM.                                            :NNKm  (ННКм)
PS.mv                                            :PS       (ПС)
PZ.Ohm*M                                         :PZ    (КС)
RS.Ohm*M                                         :RS (Резистивиметр)
W.%                                              :W
~ASCII LOG DATA
# ...
85.5        21.66       155.767     2.275       7.294       21.901      24.489      23.868      16.797      17.924      19.129      22.327      1.366       2.074       165.701     26.521      1.133       28.88       
85.6        19.193      155.733     2.288       7.93        21.079      23.872      22.771      16.722      17.902      17.859      22.298      1.331       2.009       165.855     25.974      1.131       30.139      
85.7        18.413      155.58      2.294       8.22        20.287      22.8        21.393      16.303      17.999      16.76       22.253      1.348       1.953       165.963     25.709      1.131       31.877      
85.8        17.553      155.592     2.293       8.284       19.638      21.792      20.048      15.75       18.226      16.29       22.216      1.378       1.917       166.065     25.567      1.132       34.998      
85.9        16.484      155.589     2.287       8.225       18.475      20.144      18.982      15.466      18.553      16.377      22.436      1.376       1.849       166.182     25.495      1.131       38.26       
86.0        15.94       155.607     2.282       8.168       16.818      18.055      18.598      15.512      18.907      16.983      22.888      1.352       1.827       166.31      25.544      1.127       39.573      
86.1        15.447      155.538     2.288       8.006       15.659      16.974      18.667      15.83       19.43       18.325      23.646      1.334       1.861       166.617     25.853      1.128       37.884      
86.2        16.678      155.541     2.304       7.751       15.695      17.064      19.183      16.524      20.28       19.828      24.662      1.349       1.99        167.138     26.458      1.131       34.616      
86.3        22.754      155.583     2.328       7.219       16.144      17.594      20.488      17.351      21.493      21.194      25.808      1.381       2.121       167.697     27.167      1.133       31.592      
86.4        26.4        155.491     2.341       6.797       17.68       18.421      22.264      18.344      22.99       22.611      26.574      1.403       2.215       168.338     27.761      1.131       29.49       
86.5        24.467      155.499     2.331       6.376       19.273      19.17       24.231      19.896      24.5        24.257      27.095      1.462       2.246       168.98      28.577      1.13        28.813      
86.6        22.773      155.555     2.305       6.198       21.025      20.043      26.274      22.273      25.828      26.005      27.509      1.506       2.238       169.218     30.073      1.129       28.984      
86.7        26.444      155.512     2.276       6.049       24.216      21.75       28.108      25.022      26.87       27.178      27.7        1.528       2.237       169.218     31.957      1.125       29.726      
86.8        32.61       155.495     2.262       6.221       28.922      23.711      29.522      27.257      27.803      27.718      27.686      1.525       2.247       169.173     33.237      1.127       30.493      
86.9        32.731      155.489     2.259       6.6         31.411      24.386      30.132      28.447      28.913      27.719      27.276      1.548       2.251       168.855     33.824      1.128       30.435      
87.0        24.943      155.537     2.262       6.784       31.754      24.267      30.069      28.646      30.28       27.723      26.987      1.601       2.216       168.245     34.163      1.129       29.693      
87.1        21.506      155.499     2.26        6.658       32.084      23.724      29.841      28.713      31.665      27.825      26.616      1.644       2.171       168.045     34.903      1.131       29.679      
87.2        22.859      155.532     2.252       6.602       31.501      23.47       29.971      28.949      32.702      28.55       26.469      1.597       2.129       168.157     36.429      1.134       30.814      
87.3        26.914      155.542     2.246       6.766       31.796      24.198      30.302      29.992      33.071      30.207      26.367      1.526       2.132       168.157     38.241      1.135       31.217      
87.4        31.687      155.522     2.249       6.858       33.599      28.109      31.606      32.035      33.114      31.919      26.193      1.48        2.169       168.157     39.006      1.136       29.995      
87.5        37.325      155.921     2.263       6.595       36.724      32.926      33.882      35.071      32.911      32.525      25.658      1.509       2.211       168.205     38.983      1.138       28.713      
87.6        39.748      158.0       2.275       6.173       40.041      36.903      35.235      37.518      32.394      32.195      25.04       1.545       2.239       168.507     38.691      1.136       28.827      
87.7        38.926      158.0       2.285       5.918       43.771      39.729      35.208      38.084      31.692      30.268      24.198      1.597       2.234       169.162     37.633      1.136       29.66       
87.8        36.996      158.0       2.284       5.779       45.968      40.23       34.6        37.772      30.761      27.187      23.379      1.672       2.23        170.335     36.231      1.136       30.255      
87.9        28.531      159.0       2.283       6.015       45.546      39.57       31.778      35.529      29.571      23.99       22.496      1.641       2.205       171.614     34.33       1.136       31.182      
88.0        20.573      160.0       2.274       6.434       42.589      35.722      27.649      30.571      27.945      21.117      21.733      1.545       2.115       172.756     32.527      1.137       32.415      
88.1        16.968      157.017     2.26        7.333       36.05       29.951      23.728      25.691      25.823      18.746      21.191      1.466       2.012       173.997     31.153      1.135       33.108      
88.2        17.21       155.9       2.244       7.986       29.416      25.895      20.65       21.341      23.52       17.059      20.783      1.46        1.913       175.236     30.063      1.134       32.824      
88.3        18.698      158.069     2.223       8.38        25.769      24.469      18.519      18.878      21.458      16.341      20.57       1.408       1.869       176.267     28.857      1.134       31.85       
88.4        18.312      154.975     2.19        8.267       23.19       23.884      17.285      17.285      19.93       16.105      20.366      1.351       1.82        177.046     27.507      1.133       31.356      
88.5        16.182      154.913     2.131       8.195       20.488      23.161      16.605      16.313      18.967      16.061      20.243      1.351       1.765       177.867     26.274      1.134       32.214      
88.6        15.168      154.858     2.062       8.146       18.012      22.028      16.408      15.68       18.5        16.087      20.095      1.351       1.67        178.761     25.451      1.133       34.197      
88.7        14.854      154.814     2.002       8.103       16.666      21.405      16.442      15.414      18.37       16.306      19.99       1.297       1.613       179.769     25.011      1.133       36.289      
88.8        15.003      154.776     1.966       7.783       16.303      21.384      16.702      15.428      18.349      16.991      20.047      1.316       1.615       180.846     24.859      1.132       37.603      
88.9        15.601      154.786     1.964       7.526       16.237      21.274      17.428      15.551      18.353      18.086      20.286      1.389       1.696       182.024     24.745      1.132       38.405      
89.0        16.816      154.776     2.008       8.094       16.225      21.161      18.551      15.873      18.426      19.276      20.617      1.421       1.79        183.195     24.611      1.132       38.148      
89.1        18.774      154.773     2.085       8.766       16.236      20.996      19.698      16.061      18.669      20.159      20.95       1.348       1.859       184.507     24.494      1.134       36.051      
