~Version Information Section
VERS.                                         2.0:CWLS log ASCII Standart – VERSION 2.0
WRAP.                                          NO:One line per depth step
~Well Information Section
STRT.M                                        0.5:Начальная глубина
STOP.M                                      158.2:Конечная глубина
STEP.M                                          0:Шаг квантования по глубине
NULL.                                    -9999.25:Признак "Нет данных"
WELL.                                       136Мх:Скважина
~Parameter Information Section
~Curve Information Section
DEPTH.M                                          :Глубина
BK.Ohm*M                                         :BK     (БК)
DS.mm                                            :DS  (ДС)
GGK.g/cm3                                        :GGKp
ГК.mcr/h                                         :GK          (ГК)
GZ1.Ohm*M                                        :GZ1   ГЗ1(A0.4M0.1N)
GZ2.Ohm*M                                        :GZ2   ГЗ2(A1.0M0.1N)
GZ3.Ohm*M                                        :GZ3   ГЗ3(A2.0M0.5N)
GZ4.Ohm*M                                        :GZ4   ГЗ4(A4.0M0.5N)
GZ5.Ohm*M                                        :GZ5   ГЗ5(A8.0M0.5N)
GZR.Ohm*M                                        :GZK   ГЗK(N0.5M2.0A)
ИК.Ohm*M                                         :IK
НГК.ue                                           :NGK     (НГК)
NNKM.                                            :NNKm  (ННКм)
PS.mv                                            :PS       (ПС)
PZ.Ohm*M                                         :PZ    (КС)
RS.Ohm*M                                         :RS (Резистивиметр)
U1.mV                                            :U1
U2.mV                                            :U2
U3.mV                                            :U3
КП.%                                             :Кп
~ASCII LOG DATA
# ...
77.3        251.08      136.97      2.288       3.006       403.65      157.147     78.396      54.269      32.398      94.437      43.916      1.877       3.305       112.407     166.628     1.087       -2132.14    216.445     -1849.42    26.291      
77.4        234.188     137.624     2.28        3.233       403.65      174.62      78.396      54.269      28.854      80.644      41.999      1.856       3.179       112.407     156.878     1.087       -2174.16    239.192     -1651.87    29.122      
77.5        171.494     137.814     2.257       3.547       382.715     181.832     74.86       51.386      24.598      66.892      41.22       1.883       3.023       112.379     145.645     1.087       -2172.04    261.937     -1508.09    31.758      
77.6        203.744     136.247     2.24        3.797       347.577     181.832     64.354      41.98       21.101      54.317      39.779      1.916       2.913       112.235     134.484     1.087       -2170.38    259.916     -1514.9     33.592      
77.7        117.001     135.069     2.235       3.848       307.406     181.832     52.946      32.68       17.616      42.79       37.666      1.891       2.804       111.984     124.505     1.087       -2173.56    224.95      -1653.01    32.25       
77.8        111.398     135.899     2.238       3.818       269.91      175.986     44.434      24.638      14.204      32.844      37.047      1.756       2.692       111.655     115.31      1.087       -2178.87    182.399     -1854.25    30.029      
77.9        119.555     136.949     2.279       4.066       236.061     160.114     38.416      19.463      11.269      25.691      35.717      1.559       2.611       111.298     106.305     1.087       -2183.71    162.632     -2017.11    25.903      
78.0        145.708     136.637     2.297       4.499       216.909     147.391     34.999      16.735      8.965       20.72       30.867      1.498       2.6         110.936     97.513      1.087       -2138.58    171.868     -2079.2     23.78       
78.1        206.198     135.848     2.314       4.791       205.272     142.321     33.843      15.957      7.061       16.972      29.64       1.47        2.655       110.551     89.152      1.087       -2082.22    177.044     -2105.14    22.502      
78.2        199.257     135.883     2.309       4.887       196.216     137.32      33.843      15.428      5.666       14.605      29.565      1.48        2.744       110.138     81.357      1.087       -2046.09    172.562     -2095.8     23.022      
78.3        197.004     135.744     2.285       5.024       187.786     131.554     33.843      14.481      4.705       12.884      29.622      1.493       2.775       109.692     74.732      1.087       -2069.91    164.44      -2080.67    23.822      
78.4        136.631     135.625     2.25        5.395       179.215     124.617     33.046      13.144      3.764       11.207      29.623      1.519       2.777       109.219     69.849      1.087       -2119.21    161.107     -2047.35    26.362      
78.5        92.285      135.451     2.242       5.677       171.22      116.766     31.548      11.782      2.853       9.897       26.474      1.597       2.686       108.732     66.562      1.087       -2165.31    159.332     -1996.44    31.36       
78.6        38.228      135.364     2.228       5.978       145.328     101.971     31.148      11.0        2.087       9.172       26.011      1.615       2.595       108.277     64.484      1.087       -2213.94    153.212     -1912.04    36.759      
78.7        23.373      136.529     2.191       6.067       117.706     86.267      31.116      10.109      1.544       9.172       25.965      1.644       2.479       107.883     63.241      1.087       -2265.67    142.021     -1808.11    40.168      
78.8        19.959      137.926     2.19        6.285       90.747      68.901      30.338      9.007       1.197       9.172       25.425      1.635       2.285       107.567     62.496      1.087       -2300.38    133.332     -1689.35    38.67       
78.9        21.536      140.396     2.179       6.534       59.98       49.938      29.672      7.395       1.082       9.172       19.174      1.614       2.052       107.326     61.942      1.087       -2317.74    148.616     -1620.3     36.375      
79.0        27.711      137.604     2.167       6.854       35.265      37.12       28.271      5.812       1.082       9.467       18.96       1.548       1.944       107.154     61.533      1.087       -2291.41    191.843     -1592.53    35.792      
79.1        31.09       135.692     2.211       6.992       28.633      32.042      26.52       5.196       1.082       10.796      19.05       1.402       2.039       107.02      61.258      1.087       -2231.53    291.181     -1590.32    36.88       
79.2        29.398      135.933     2.219       6.999       26.863      30.363      25.951      4.99        1.082       12.491      19.945      1.281       2.169       106.908     61.169      1.087       -1996.29    401.886     -1560.59    36.855      
79.3        28.437      135.813     2.205       7.038       25.299      28.137      25.158      4.727       1.157       13.977      19.627      1.224       2.273       106.811     61.169      1.087       -1787.35    489.001     -1576.44    36.267      
79.4        23.156      135.748     2.22        7.1         23.966      25.649      24.245      4.408       1.376       15.472      20.74       1.242       2.226       106.723     61.169      1.087       -1612.0     520.0       -1686.48    37.29       
79.5        21.703      136.1       2.213       6.921       22.498      22.811      23.497      3.946       1.89        17.157      20.697      1.319       2.137       106.639     61.169      1.087       -1612.0     520.0       -1846.98    40.386      
79.6        18.673      136.034     2.217       6.642       20.829      20.351      24.116      3.284       2.92        20.046      20.598      1.392       2.079       106.565     61.309      1.087       -1695.41    418.61      -1982.4     42.527      
79.7        17.605      136.566     2.24        6.537       18.901      19.226      25.029      2.546       4.332       27.095      20.843      1.401       2.037       106.495     62.378      1.087       -1778.83    317.225     -2056.76    41.096      
79.8        22.85       136.288     2.257       6.49        18.901      19.226      25.576      1.651       6.105       47.439      21.657      1.324       2.023       106.426     65.094      1.087       -1862.25    222.629     -2097.75    38.821      
79.9        28.982      136.156     2.311       6.084       18.901      19.226      27.303      -0.907      8.051       79.855      23.091      1.227       2.041       106.361     70.213      1.087       -1820.24    258.203     -2055.24    31.735      
80.0        38.708      135.932     2.341       5.143       18.901      19.226      31.564      -3.493      9.919       107.894     25.061      1.208       2.086       106.31      78.602      1.087       -1828.08    301.895     -1931.47    27.2        
80.1        196.661     135.377     2.361       4.032       20.191      22.567      37.94       -4.083      11.487      126.64      28.141      1.193       2.279       106.273     91.101      1.087       -1899.54    288.859     -1877.97    22.498      
80.2        496.281     134.879     2.368       3.123       24.335      25.856      42.981      -4.083      12.548      135.546     31.655      1.258       2.541       106.259     106.63      1.087       -2025.77    241.245     -1887.71    22.712      
80.3        438.919     134.746     2.327       2.573       31.708      29.32       47.433      -4.083      12.977      135.546     35.333      1.351       2.928       106.259     123.984     1.087       -2102.17    185.509     -1958.22    23.505      
80.4        406.269     134.872     2.296       2.248       44.539      33.657      48.97       -4.083      12.977      135.546     39.069      1.493       3.228       106.259     141.926     1.087       -2114.94    191.072     -1931.47    24.201      
