~Version Information Section
VERS.                                         2.0:CWLS log ASCII Standart – VERSION 2.0
WRAP.                                          NO:One line per depth step
~Well Information Section
STRT.M                                       -2.2:Начальная глубина
STOP.M                                      205.6:Конечная глубина
STEP.M                                          0:Шаг квантования по глубине
NULL.                                    -9999.25:Признак "Нет данных"
WELL.                                       108Мх:Скважина
~Parameter Information Section
~Curve Information Section
DEPTH.M                                          :Глубина
BK.Ohm*M                                         :BK     (БК)
DS.mm                                            :DS  (ДС)
GGK.g/cm3                                        :GGKp
ГК.mcr/h                                         :GK          (ГК)
GZ1.Ohm*M                                        :GZ1   ГЗ1(A0.4M0.1N)
GZ2.Ohm*M                                        :GZ2   ГЗ2(A1.0M0.1N)
GZ3.Ohm*M                                        :GZ3   ГЗ3(A2.0M0.5N)
GZ4.Ohm*M                                        :GZ4   ГЗ4(A4.0M0.5N)
GZ5.Ohm*M                                        :GZ5   ГЗ5(A8.0M0.5N)
GZR.Ohm*M                                        :GZK   ГЗK(N0.5M2.0A)
ИК.Ohm*M                                         :IK
НГК.ue                                           :NGK     (НГК)
NNKM.                                            :NNKm  (ННКм)
PS.mv                                            :PS       (ПС)
PZ.Ohm*M                                         :PZ    (КС)
RS.Ohm*M                                         :RS (Резистивиметр)
U1.mV                                            :U1
U2.mV                                            :U2
U3.mV                                            :U3
КП.%                                             :Кп
~ASCII LOG DATA
# ...
189.4       -9999.25    120.127     -9999.25    -9999.25    241.069     235.128     96.872      43.369      46.728      170.165     -9999.25    -9999.25    -9999.25    678.301     269.815     3.116       2737.06     2546.852    2480.864    -9999.25    
189.43      228.662     -9999.25    2.332       3.833       -9999.25    -9999.25    -9999.25    -9999.25    -9999.25    -9999.25    51.225      2.168       2.727       -9999.25    -9999.25    -9999.25    -9999.25    -9999.25    -9999.25    15.693      
189.5       -9999.25    120.104     -9999.25    -9999.25    241.069     235.128     100.608     44.93       47.516      166.13      -9999.25    -9999.25    -9999.25    650.832     275.651     3.116       2590.26     2679.437    2405.035    -9999.25    
189.53      204.806     -9999.25    2.355       3.733       -9999.25    -9999.25    -9999.25    -9999.25    -9999.25    -9999.25    52.888      2.33        2.798       -9999.25    -9999.25    -9999.25    -9999.25    -9999.25    -9999.25    14.609      
189.6       -9999.25    120.035     -9999.25    -9999.25    241.069     235.128     108.083     45.928      47.568      163.392     -9999.25    -9999.25    -9999.25    623.355     280.088     3.116       2488.61     2759.006    2291.265    -9999.25    
189.63      196.877     -9999.25    2.41        3.539       -9999.25    -9999.25    -9999.25    -9999.25    -9999.25    -9999.25    53.705      2.462       2.91        -9999.25    -9999.25    -9999.25    -9999.25    -9999.25    -9999.25    13.97       
189.7       -9999.25    120.093     -9999.25    -9999.25    241.069     235.128     119.292     46.418      46.706      159.934     -9999.25    -9999.25    -9999.25    597.67      283.115     3.116       2420.858    2776.686    2234.392    -9999.25    
189.73      202.964     -9999.25    2.471       3.397       -9999.25    -9999.25    -9999.25    -9999.25    -9999.25    -9999.25    54.952      2.523       2.978       -9999.25    -9999.25    -9999.25    -9999.25    -9999.25    -9999.25    13.464      
189.8       -9999.25    120.052     -9999.25    -9999.25    241.768     235.128     134.24      46.656      44.845      155.837     -9999.25    -9999.25    -9999.25    574.379     284.723     3.116       2381.329    2767.845    2259.669    -9999.25    
189.83      189.778     -9999.25    2.501       3.219       -9999.25    -9999.25    -9999.25    -9999.25    -9999.25    -9999.25    55.543      2.477       2.943       -9999.25    -9999.25    -9999.25    -9999.25    -9999.25    -9999.25    13.39       
189.9       -9999.25    119.897     -9999.25    -9999.25    243.173     235.476     152.926     46.813      42.079      151.333     -9999.25    -9999.25    -9999.25    553.154     284.884     3.116       2471.682    2803.207    2322.874    -9999.25    
189.93      239.274     -9999.25    2.514       3.216       -9999.25    -9999.25    -9999.25    -9999.25    -9999.25    -9999.25    56.995      2.4         2.912       -9999.25    -9999.25    -9999.25    -9999.25    -9999.25    -9999.25    13.425      
190.0       -9999.25    119.789     -9999.25    -9999.25    244.819     236.174     171.609     47.003      38.649      146.346     -9999.25    -9999.25    -9999.25    533.827     283.579     3.116       2533.784    2865.081    2392.389    -9999.25    
190.03      371.294     -9999.25    2.508       3.401       -9999.25    -9999.25    -9999.25    -9999.25    -9999.25    -9999.25    57.913      2.361       2.889       -9999.25    -9999.25    -9999.25    -9999.25    -9999.25    -9999.25    14.105      
190.1       -9999.25    120.15      -9999.25    -9999.25    246.734     235.838     186.557     47.255      34.841      140.535     -9999.25    -9999.25    -9999.25    517.505     280.785     3.116       2567.664    2962.331    2600.965    -9999.25    
190.13      471.749     -9999.25    2.485       3.509       -9999.25    -9999.25    -9999.25    -9999.25    -9999.25    -9999.25    59.044      2.365       2.859       -9999.25    -9999.25    -9999.25    -9999.25    -9999.25    -9999.25    14.933      
190.2       -9999.25    120.136     -9999.25    -9999.25    248.91      234.47      197.767     47.451      30.966      133.777     -9999.25    -9999.25    -9999.25    504.204     276.54      3.116       2511.204    3050.721    2739.979    -9999.25    
190.23      463.682     -9999.25    2.476       3.521       -9999.25    -9999.25    -9999.25    -9999.25    -9999.25    -9999.25    59.175      2.452       2.878       -9999.25    -9999.25    -9999.25    -9999.25    -9999.25    -9999.25    14.853      
190.3       -9999.25    120.083     -9999.25    -9999.25    250.665     232.07      205.241     47.577      27.244      126.345     -9999.25    -9999.25    -9999.25    494.063     270.902     3.116       2341.802    3086.085    2891.669    -9999.25    
190.33      492.726     -9999.25    2.503       3.482       -9999.25    -9999.25    -9999.25    -9999.25    -9999.25    -9999.25    59.481      2.497       2.983       -9999.25    -9999.25    -9999.25    -9999.25    -9999.25    -9999.25    13.885      
190.4       -9999.25    120.028     -9999.25    -9999.25    251.289     228.287     208.978     47.501      23.846      118.797     -9999.25    -9999.25    -9999.25    486.845     263.957     3.116       2127.213    3121.447    2771.585    -9999.25    
190.43      439.392     -9999.25    2.518       3.542       -9999.25    -9999.25    -9999.25    -9999.25    -9999.25    -9999.25    59.437      2.605       3.054       -9999.25    -9999.25    -9999.25    -9999.25    -9999.25    -9999.25    12.43       
190.5       -9999.25    119.975     -9999.25    -9999.25    253.072     222.776     208.978     47.105      20.933      111.55      -9999.25    -9999.25    -9999.25    482.256     255.844     3.116       1907.015    3156.801    2721.034    -9999.25    
190.53      252.526     -9999.25    2.531       3.496       -9999.25    -9999.25    -9999.25    -9999.25    -9999.25    -9999.25    59.139      2.657       3.043       -9999.25    -9999.25    -9999.25    -9999.25    -9999.25    -9999.25    11.599      
190.6       -9999.25    119.973     -9999.25    -9999.25    254.4       215.565     208.978     46.396      18.571      105.087     -9999.25    -9999.25    -9999.25    479.162     246.73      3.116       1901.367    3254.049    2550.381    -9999.25    
190.63      195.722     -9999.25    2.534       3.433       -9999.25    -9999.25    -9999.25    -9999.25    -9999.25    -9999.25    58.771      2.763       3.031       -9999.25    -9999.25    -9999.25    -9999.25    -9999.25    -9999.25    11.016      
190.7       -9999.25    120.005     -9999.25    -9999.25    251.396     207.757     208.978     45.512      16.712      100.034     -9999.25    -9999.25    -9999.25    477.148     236.789     3.116       2031.225    3342.439    2442.957    -9999.25    
190.73      308.495     -9999.25    2.525       3.46        -9999.25    -9999.25    -9999.25    -9999.25    -9999.25    -9999.25    59.257      2.842       3.013       -9999.25    -9999.25    -9999.25    -9999.25    -9999.25    -9999.25    11.071      
190.8       -9999.25    120.005     -9999.25    -9999.25    244.049     202.611     208.978     44.563      15.329      96.641      -9999.25    -9999.25    -9999.25    476.36      226.226     3.116       2178.049    3448.525    2335.509    -9999.25    
190.83      598.343     -9999.25    2.506       3.563       -9999.25    -9999.25    -9999.25    -9999.25    -9999.25    -9999.25    59.683      2.905       2.995       -9999.25    -9999.25    -9999.25    -9999.25    -9999.25    -9999.25    11.482      
190.9       -9999.25    120.093     -9999.25    -9999.25    233.036     200.127     208.978     43.599      14.401      94.455      -9999.25    -9999.25    -9999.25    476.378     215.274     3.116       2257.103    3501.566    2335.509    -9999.25    
190.93      759.918     -9999.25    2.498       3.688       -9999.25    -9999.25    -9999.25    -9999.25    -9999.25    -9999.25    58.589      2.939       3.014       -9999.25    -9999.25    -9999.25    -9999.25    -9999.25    -9999.25    11.528      
