~Version Information Section
VERS.                                         2.0:CWLS log ASCII Standart – VERSION 2.0
WRAP.                                          NO:One line per depth step
~Well Information Section
STRT.M                                        1.0:Начальная глубина
STOP.M                                      192.9:Конечная глубина
STEP.M                                          0:Шаг квантования по глубине
NULL.                                    -9999.25:Признак "Нет данных"
WELL.                                       123Мх:Скважина
~Parameter Information Section
~Curve Information Section
DEPTH.M                                          :Глубина
BK.lgОмм                                         :BK     (БК)
ПРОФ_СР.мм                                       :DS  (ДС)
ГК.мкР/час                                       :GK          (ГК)
ГЗ1.Омм                                          :GZ1   ГЗ1(A0.4M0.1N)
ГЗ2.Омм                                          :GZ2   ГЗ2(A1.0M0.1N)
ГЗ3.Омм                                          :GZ3   ГЗ3(A2.0M0.5N)
ГЗ4.Oмм                                          :GZ4   ГЗ4(A4.0M0.5N)
ГЗ5.Oмм                                          :GZ5   ГЗ5(A8.0M0.5N)
ГЗК.Омм                                          :GZK   ГЗK(N0.5M2.0A)
ИК.мСм/м                                         :IK
НГК.усл.ед.                                      :NGK     (НГК)
PS.мВ                                            :PS       (ПС)
PZ.Омм                                           :PZ    (КС)
RIS.Омм                                          :RS (Резистивиметр)
U1.мВ                                            :U1
U2.мВ                                            :U2
U3.mv                                            :U3
W.                                               :W
П.%                                              :п
ННКМ.усл.ед                                      :ННКм
~ASCII LOG DATA
# ...
129.0       68.234      129.043     4.71        65.88       48.28       60.801      48.536      49.001      45.453      13.118      1.355       308.652     88.039      1.39        507.268     449.919     736.054     2.442       26.602      0.223       
129.1       76.736      127.623     4.931       66.24       47.26       60.801      48.536      50.001      45.119      13.093      1.31        308.275     89.167      1.39        665.96      539.43      685.343     2.443       25.223      0.235       
129.2       87.902      127.962     5.7         66.96       46.58       60.801      48.536      51.001      44.786      13.062      1.278       307.897     90.671      1.39        635.296     545.622     732.937     2.432       24.458      0.239       
129.3       62.661      128.483     5.908       70.2        46.24       61.468      48.536      51.667      44.786      12.989      1.255       307.52      92.175      1.39        447.156     482.265     855.845     2.419       23.848      0.245       
129.4       44.771      126.752     5.969       73.8        46.24       67.468      48.536      52.334      45.119      12.868      1.234       307.143     92.927      1.39        330.146     447.414     909.333     2.4         24.034      0.254       
129.5       42.954      127.04      6.104       77.4        46.92       74.134      48.536      53.667      46.119      12.749      1.212       306.766     92.927      1.39        371.66      478.814     841.251     2.391       24.169      0.248       
129.6       43.652      128.019     6.334       79.56       47.94       80.134      48.536      54.667      47.119      12.605      1.191       306.766     92.175      1.39        469.029     523.783     739.785     2.384       25.383      0.235       
129.7       39.174      128.541     6.378       82.08       49.64       80.801      48.536      55.667      48.119      12.509      1.179       306.766     91.047      1.39        576.252     559.338     643.859     2.375       25.747      0.22        
129.8       39.084      128.612     6.255       84.6        51.34       80.801      49.536      56.334      49.119      12.406      1.194       306.766     89.543      1.39        635.029     544.142     536.693     2.364       26.024      0.214       
129.9       38.282      129.202     6.314       87.48       53.04       80.134      51.536      57.334      52.786      12.361      1.154       306.766     88.039      1.39        617.946     470.627     408.499     2.365       25.315      0.216       
130.0       35.892      128.757     6.499       89.64       54.74       79.468      54.536      58.667      55.453      12.252      1.146       306.766     86.911      1.39        562.955     397.397     322.402     2.373       25.196      0.206       
130.1       39.174      128.991     6.347       91.08       56.78       78.801      56.536      59.667      57.119      12.244      1.156       306.766     85.783      1.39        541.068     383.246     315.292     2.386       25.101      0.205       
130.2       41.976      129.153     5.835       86.76       58.82       78.801      58.203      60.334      54.786      12.209      1.157       306.766     83.903      1.39        572.543     442.53      392.982     2.417       25.567      0.21        
130.3       42.954      130.249     5.706       81.72       60.18       78.801      59.203      60.334      52.453      12.187      1.175       306.766     82.399      1.391       583.33      494.512     481.471     2.454       25.829      0.209       
130.4       43.551      130.239     5.9         74.88       60.18       78.134      60.536      59.667      49.786      12.123      1.22        306.766     80.895      1.392       551.952     515.197     558.104     2.454       26.189      0.211       
130.5       45.394      129.02      6.073       70.56       59.5        77.468      60.869      58.001      48.119      12.021      1.223       306.766     79.015      1.396       514.249     492.216     558.429     2.452       25.969      0.214       
130.6       51.404      128.958     5.878       66.24       57.8        76.801      60.203      55.667      46.453      11.914      1.218       306.766     77.135      1.403       511.905     447.471     476.881     2.455       25.633      0.217       
130.7       47.424      130.143     5.597       63.0        56.44       76.801      57.869      52.334      45.119      11.715      1.167       307.143     75.255      1.41        555.465     406.213     358.914     2.457       25.004      0.22        
130.8       31.333      128.415     5.522       61.56       54.74       76.801      55.203      49.334      43.119      11.574      1.188       307.52      72.623      1.419       609.474     384.595     277.639     2.45        25.426      0.221       
130.9       26.122      127.824     5.591       60.48       53.72       76.801      52.869      46.667      41.453      11.4        1.152       307.897     68.863      1.426       700.118     390.57      246.45      2.439       26.24       0.22        
131.0       29.242      127.446     5.903       60.48       52.36       76.801      51.536      44.667      39.786      11.309      1.122       308.275     64.351      1.432       831.626     406.298     222.114     2.421       27.372      0.224       
131.1       32.359      127.648     6.207       60.48       51.34       75.468      50.536      42.667      38.119      11.307      1.148       308.652     59.839      1.437       889.211     407.907     211.161     2.395       28.233      0.216       
131.2       34.514      128.494     6.146       60.48       49.64       74.134      49.869      41.001      36.453      11.254      1.206       309.406     55.703      1.439       821.422     387.35      217.431     2.356       28.982      0.204       
131.3       40.738      127.743     6.18        60.84       47.94       71.468      49.536      40.001      34.786      11.272      1.231       310.16      52.319      1.441       622.214     343.735     241.2       2.34        29.202      0.202       
131.4       44.259      128.787     6.482       61.56       45.9        69.468      49.536      39.334      33.453      11.181      1.205       310.537     50.439      1.442       542.095     367.868     303.792     2.346       28.869      0.199       
131.5       42.364      128.648     6.97        62.28       43.18       66.801      49.536      38.001      32.119      11.127      1.155       310.915     49.687      1.444       612.938     470.477     406.958     2.34        28.638      0.204       
131.6       39.264      129.505     7.17        62.64       40.46       64.801      49.536      37.001      30.453      11.003      1.149       311.292     49.311      1.448       761.471     547.003     444.585     2.331       28.876      0.208       
131.7       33.651      129.094     7.009       62.64       38.08       62.801      49.536      36.334      29.453      10.798      1.195       311.669     49.311      1.454       845.319     517.698     370.949     2.325       29.425      0.206       
131.8       26.122      128.492     6.726       62.64       36.72       61.468      49.536      36.334      28.786      10.647      1.233       312.423     49.311      1.462       761.33      398.763     250.887     2.324       29.671      0.207       
131.9       22.439      129.705     6.488       62.64       34.68       60.134      49.536      36.334      28.786      10.518      1.238       312.8       49.311      1.47        577.214     296.327     194.933     2.323       29.758      0.205       
132.0       24.434      129.331     6.362       62.28       32.3        58.801      49.536      36.334      28.786      10.47       1.196       313.177     48.559      1.477       419.014     273.304     235.623     2.32        29.957      0.196       
132.1       26.303      130.91      6.362       61.92       30.6        56.801      49.536      36.334      28.786      10.485      1.124       313.555     46.679      1.48        379.837     307.926     305.06      2.329       30.036      0.194       
