~Version Information Section
VERS.                                         2.0:CWLS log ASCII Standart – VERSION 2.0
WRAP.                                          NO:One line per depth step
~Well Information Section
STRT.M                                       -0.1:Начальная глубина
STOP.M                                      197.8:Конечная глубина
STEP.M                                          0:Шаг квантования по глубине
NULL.                                    -9999.25:Признак "Нет данных"
WELL.                                       134Мх:Скважина
~Parameter Information Section
~Curve Information Section
DEPTH.M                                          :Глубина
BK.Ohm*M                                         :BK     (БК)
DS.mm                                            :DS  (ДС)
GGK.g/cm3                                        :GGKp
ГК.mcr/h                                         :GK          (ГК)
GZ1.Ohm*M                                        :GZ1   ГЗ1(A0.4M0.1N)
GZ2.Ohm*M                                        :GZ2   ГЗ2(A1.0M0.1N)
GZ3.Ohm*M                                        :GZ3   ГЗ3(A2.0M0.5N)
GZ4.Ohm*M                                        :GZ4   ГЗ4(A4.0M0.5N)
GZ5.Ohm*M                                        :GZ5   ГЗ5(A8.0M0.5N)
GZR.Ohm*M                                        :GZK   ГЗK(N0.5M2.0A)
ИК.Ohm*M                                         :IK
КП.%                                             :Кп
НГК.ue                                           :NGK     (НГК)
NNKM.                                            :NNKm  (ННКм)
PS.mv                                            :PS       (ПС)
PZ.Ohm*M                                         :PZ    (КС)
RS.Ohm*M                                         :RS (Резистивиметр)
U1.mV                                            :U1
U2.mV                                            :U2
U3.mV                                            :U3
~ASCII LOG DATA
# ...
63.9        -9999.25    163.724     2.073       4.284       -9999.25    -9999.25    -9999.25    -9999.25    -9999.25    -9999.25    -9999.25    -12.149     10.013      5.423       -9999.25    -9999.25    -9999.25    -9999.25    -9999.25    -9999.25    
64.0        -9999.25    163.602     2.067       4.004       -9999.25    -9999.25    -9999.25    -9999.25    -9999.25    -9999.25    -9999.25    -12.116     10.032      5.411       -9999.25    -9999.25    -9999.25    -9999.25    -9999.25    -9999.25    
64.1        -9999.25    163.367     2.05        3.955       -9999.25    -9999.25    -9999.25    -9999.25    -9999.25    -9999.25    -9999.25    -12.201     10.076      5.394       -9999.25    -9999.25    -9999.25    -9999.25    -9999.25    -9999.25    
64.2        -9999.25    163.374     2.031       3.761       -9999.25    -9999.25    -9999.25    -9999.25    -9999.25    -9999.25    -9999.25    -11.871     10.184      5.433       -9999.25    -9999.25    -9999.25    -9999.25    -9999.25    -9999.25    
64.3        -9999.25    163.947     2.024       3.881       -9999.25    -9999.25    -9999.25    -9999.25    -9999.25    -9999.25    -9999.25    -10.878     9.789       5.528       -9999.25    -9999.25    -9999.25    -9999.25    -9999.25    -9999.25    
64.4        -9999.25    163.192     2.031       3.687       -9999.25    -9999.25    -9999.25    -9999.25    -9999.25    -9999.25    -9999.25    -4.772      8.104       5.67        -9999.25    -9999.25    -9999.25    -9999.25    -9999.25    -9999.25    
64.5        -9999.25    161.797     2.049       3.562       -9999.25    -9999.25    -9999.25    -9999.25    -9999.25    -9999.25    -9999.25    4.086       5.564       5.3         -9999.25    -9999.25    -9999.25    -9999.25    -9999.25    -9999.25    
64.6        -9999.25    160.609     2.069       3.511       -9999.25    -9999.25    -9999.25    -9999.25    -9999.25    -9999.25    -9999.25    16.938      3.252       4.071       -9999.25    -9999.25    -9999.25    -9999.25    -9999.25    -9999.25    
64.7        -9999.25    159.414     2.082       3.62        -9999.25    -9999.25    -9999.25    -9999.25    -9999.25    -9999.25    -9999.25    24.9        2.158       2.91        -9999.25    -9999.25    -9999.25    -9999.25    -9999.25    -9999.25    
64.8        -9999.25    160.038     2.087       3.56        -9999.25    -9999.25    -9999.25    -9999.25    -9999.25    -9999.25    34.883      30.331      1.629       2.363       -9999.25    -9999.25    -9999.25    -9999.25    -9999.25    -9999.25    
64.9        -9999.25    161.414     2.089       3.327       54.921      26.767      13.0        7.363       -9999.25    35.396      34.521      31.088      1.421       2.161       -9999.25    -9999.25    -9999.25    -9999.25    -9999.25    -9999.25    
65.0        -9999.25    161.014     2.091       3.311       51.723      26.802      13.0        6.894       -1.337      35.396      34.01       31.577      1.311       2.1         -9999.25    -9999.25    1.06        -9999.25    -9999.25    -9999.25    
65.1        -9999.25    159.982     2.097       3.393       49.011      27.597      13.0        6.74        0.636       35.739      32.788      31.54       1.321       2.089       -9999.25    -9999.25    1.06        -9999.25    -9999.25    -9999.25    
65.2        -9999.25    159.757     2.107       3.46        46.028      29.742      13.0        6.652       2.731       36.525      31.717      31.747      1.34        2.099       -9999.25    -9999.25    1.06        -9999.25    -9999.25    -9999.25    
65.3        46.48       159.62      2.111       3.56        43.125      32.827      13.0        6.58        4.619       37.386      31.01       32.041      1.329       2.102       -9999.25    -9999.25    1.06        -9999.25    -9999.25    -9999.25    
65.4        45.356      159.645     2.107       3.458       40.797      36.228      13.0        6.517       5.937       38.091      30.518      32.149      1.26        2.085       -9999.25    -9999.25    1.06        -9999.25    -9999.25    -9999.25    
65.5        44.655      159.9       2.096       3.522       39.081      39.146      13.5        6.451       6.735       38.493      30.729      33.148      1.223       2.039       -9999.25    -9999.25    1.06        -9999.25    -9999.25    -9999.25    
65.6        51.222      161.534     2.085       3.318       37.891      40.833      14.359      6.382       7.376       38.607      31.1        34.271      1.273       1.993       -9999.25    -9999.25    1.06        -9999.25    -9999.25    -9999.25    
65.7        59.189      162.948     2.076       3.269       37.325      41.302      14.812      6.318       8.134       38.607      30.83       35.985      1.256       1.978       -9999.25    -9999.25    1.06        -9999.25    -9999.25    -9999.25    
65.8        65.138      162.1       2.071       3.191       37.105      41.302      14.986      6.26        9.107       38.524      30.309      36.631      1.237       1.997       -9999.25    104.151     1.06        -9999.25    -9999.25    -9999.25    
65.9        65.453      160.961     2.072       3.184       36.91       41.207      15.137      6.21        10.306      38.173      29.76       35.834      1.169       2.036       -9999.25    103.669     1.06        -9999.25    -9999.25    -9999.25    
66.0        54.361      160.215     2.075       3.249       36.72       40.597      15.305      6.179       11.645      37.523      29.18       34.83       1.188       2.048       -9999.25    103.642     1.06        -9999.25    -9999.25    -9999.25    
66.1        43.157      160.455     2.083       3.236       36.511      39.291      15.559      6.148       12.831      36.637      29.158      35.927      1.172       2.035       -9999.25    103.642     1.06        -9999.25    -9999.25    -9999.25    
66.2        39.467      163.005     2.099       3.203       36.215      37.872      15.95       6.088       13.514      35.51       29.26       38.128      1.196       2.026       383.144     103.642     1.06        -9999.25    -9999.25    -9999.25    
66.3        38.305      165.285     2.113       3.168       35.764      36.831      17.068      6.0         13.693      34.204      29.251      38.727      1.189       2.019       383.952     103.84      1.06        -9999.25    -9999.25    -9999.25    
66.4        37.002      166.243     2.114       3.146       35.169      36.011      19.524      5.906       13.693      32.901      29.17       37.897      1.201       1.998       384.728     103.847     1.06        -9999.25    -9999.25    -9999.25    
66.5        36.062      164.919     2.098       3.192       34.424      35.299      23.103      5.818       13.463      31.772      29.066      38.063      1.193       1.968       385.52      104.052     1.06        -9999.25    -9999.25    -9999.25    
66.6        35.343      161.978     2.074       3.12        33.618      34.771      27.318      5.744       12.558      30.911      28.846      39.252      1.189       1.947       386.368     104.412     1.06        -9999.25    -9999.25    -9999.25    
66.7        35.113      160.211     2.052       3.205       32.914      34.368      31.689      5.714       10.896      30.403      28.803      39.628      1.195       1.93        386.414     104.941     1.06        -9999.25    -9999.25    -9999.25    
66.8        34.743      159.402     2.036       3.485       32.379      34.042      35.405      5.714       8.873       30.151      28.791      39.597      1.186       1.909       387.274     105.722     1.06        -9999.25    -9999.25    -9999.25    
66.9        33.186      158.697     2.041       3.549       32.076      33.779      37.857      5.714       6.946       29.919      28.772      39.945      1.207       1.896       388.117     106.745     1.06        -9999.25    -9999.25    -9999.25    
67.0        32.24       157.833     2.066       3.86        31.987      33.605      39.199      5.715       5.436       29.633      28.832      40.82       1.205       1.894       388.901     107.984     1.06        -9999.25    -9999.25    -9999.25    
