~Version Information Section
VERS.                                         2.0:CWLS log ASCII Standart – VERSION 2.0
WRAP.                                          NO:One line per depth step
~Well Information Section
STRT.M                                        0.0:Начальная глубина
STOP.M                                      211.0:Конечная глубина
STEP.M                                          0:Шаг квантования по глубине
NULL.                                    -9999.25:Признак "Нет данных"
WELL.                                       125Мх:Скважина
~Parameter Information Section
~Curve Information Section
DEPTH.M                                          :Глубина
BK.lgОмм                                         :BK
D.                                               :D sr
GGKP.g/sm3                                       :GGKp
ГК.гамма                                         :GK
ИК.мСм/м                                         :IK
KP.%                                             :Kp
PS.                                              :PS       (ПС)
PZ.Омм                                           :PZ
RIS.Омм                                          :RIS
U1.                                              :U1
U2.                                              :U2
U3.                                              :U3
БЗ.                                              :БЗ (ГГК-1)
ГЗ1.Омм                                          :ГЗ1
ГЗ2.Омм                                          :ГЗ2
ГЗ3.Омм                                          :ГЗ3
ГЗ4.Oмм                                          :ГЗ4
ГЗ5.Oмм                                          :ГЗ5
ГЗК.Омм                                          :ГЗК
ИКБ.мСм/м                                        :ИКБ
МЗ.                                              :МЗ жесткий (ГГК-4)
ННКМ.усл.ед                                      :ННКм
ИКМ.мСм/м                                        :ИКМ
НГК.усл.ед                                       :ННКб
~ASCII LOG DATA
# ...
81.0        36.475      131.001     2.229       3.566       28.092      28.64       171.537     31.707      1.108       320.296     103.052     204.39      17212.0     67.201      58.097      46.917      22.278      613.759     56.278      34.212      21268.0     1.165       22.653      2.505       
81.1        34.435      130.413     2.219       3.6         27.675      28.642      171.047     32.077      1.107       348.159     114.168     224.106     17520.0     67.658      57.435      46.917      22.357      518.88      56.676      34.065      21391.428   1.147       22.646      2.509       
81.2        34.356      130.3       2.203       3.586       27.203      28.411      170.528     32.391      1.107       391.823     124.634     246.542     17922.666   67.686      56.772      47.429      22.705      424.0       57.08       34.01       21198.666   1.108       22.64       2.491       
81.3        35.892      130.398     2.181       3.542       26.611      28.012      169.996     32.645      1.108       417.822     129.028     258.221     18912.857   67.744      56.109      47.94       23.249      329.12      57.38       34.071      21081.428   1.092       22.646      2.42        
81.4        38.815      130.577     2.163       3.536       26.127      27.29       169.481     32.861      1.108       418.677     121.558     252.299     19667.143   67.82       56.137      48.452      23.982      234.24      57.525      34.213      21201.428   1.079       22.689      2.458       
81.5        41.02       130.675     2.152       3.428       25.693      26.829      168.989     33.038      1.108       397.063     108.806     233.349     19987.5     67.949      56.164      48.964      24.813      139.36      57.586      34.445      20861.25    1.111       22.785      2.664       
81.6        41.976      131.126     2.151       3.314       25.248      27.005      168.522     33.181      1.108       379.07      94.638      218.917     19815.715   68.178      56.192      49.475      25.711      44.48       57.615      34.736      20835.715   1.131       22.916      2.653       
81.7        41.21       131.433     2.156       3.331       25.051      27.237      168.079     33.297      1.108       361.076     80.094      206.067     19145.334   68.353      56.22       49.846      26.536      44.462      57.638      35.065      20908.0     1.132       23.059      2.478       
81.8        39.902      130.712     2.166       3.199       25.077      27.951      167.657     33.446      1.108       333.781     70.019      191.721     18802.857   68.208      56.219      50.216      27.304      44.445      57.729      35.434      20621.428   1.136       23.201      2.434       
81.9        38.726      130.088     2.172       3.188       25.258      28.747      167.253     33.642      1.108       314.884     69.58       183.99      18711.428   68.012      56.229      50.587      28.212      44.427      57.869      35.855      20557.143   1.175       23.339      2.413       
82.0        38.637      130.26      2.171       3.236       25.427      28.905      166.861     33.891      1.108       303.85      78.841      179.933     18681.539   67.693      56.202      50.958      29.564      44.41       58.016      36.289      20916.924   1.178       23.477      2.505       
82.1        39.446      130.465     2.169       3.281       25.514      28.976      166.474     34.202      1.108       302.637     89.518      178.731     19056.25    67.33       56.251      51.84       31.249      44.392      58.081      36.697      20891.25    1.149       23.648      2.631       
82.2        40.458      130.501     2.162       3.19        25.926      29.35       166.084     34.579      1.108       301.425     100.334     177.529     19370.0     66.728      56.363      52.722      33.472      44.375      58.09       37.058      20974.285   1.142       23.828      2.475       
82.3        40.087      130.354     2.151       3.159       26.648      29.711      165.688     35.031      1.108       313.241     104.093     179.839     19490.666   66.127      56.819      53.604      36.033      44.358      58.026      37.379      21349.334   1.134       24.007      2.305       
82.4        39.084      130.362     2.146       3.161       27.454      30.379      165.278     35.562      1.108       312.044     101.774     176.9       19998.666   66.481      58.643      54.486      38.915      44.341      57.945      37.647      21089.334   1.12        24.132      2.193       
82.5        37.844      130.398     2.144       3.044       28.235      31.048      164.853     36.177      1.109       295.745     91.366      167.705     20171.428   67.556      61.099      55.368      41.774      44.324      57.971      37.878      21004.285   1.102       24.237      2.142       
82.6        37.584      130.304     2.143       3.077       28.641      31.237      164.409     36.885      1.108       255.666     81.226      149.136     20160.0     69.025      63.438      56.391      44.45       44.143      58.26       38.098      21510.666   1.077       24.379      2.237       
82.7        37.497      130.452     2.154       3.036       28.659      31.449      163.943     37.667      1.108       211.042     71.973      129.144     19984.0     70.865      65.491      57.414      46.89       43.75       59.063      38.304      21294.666   1.054       24.583      2.223       
82.8        38.371      130.906     2.171       3.02        28.555      30.991      163.453     38.481      1.108       179.386     67.236      117.622     18957.143   72.948      67.296      58.437      49.038      43.204      60.204      38.529      20720.0     1.049       24.82       2.073       
82.9        42.073      131.002     2.191       2.934       28.651      29.579      162.934     39.287      1.109       157.194     64.966      108.247     17604.0     75.441      69.059      59.46       50.636      42.555      61.548      38.783      20197.334   1.047       25.048      2.179       
83.0        49.317      131.297     2.216       2.988       28.832      28.605      162.384     40.049      1.108       138.045     64.795      97.277      16406.154   77.726      70.559      59.446      51.818      41.715      62.911      39.065      19127.691   1.043       25.265      2.48        
83.1        55.081      132.188     2.24        2.892       28.564      28.174      161.814     40.762      1.108       124.789     65.95       88.309      15428.235   80.079      71.947      59.382      52.402      40.862      64.076      39.367      18656.471   1.056       25.486      2.535       
83.2        55.208      131.971     2.257       2.875       28.07       27.21       161.223     41.416      1.108       121.444     67.106      82.454      14782.857   82.249      73.09       59.313      52.665      39.86       64.918      39.685      18620.0     1.176       25.666      2.64        
83.3        51.286      131.103     2.27        2.958       27.617      26.445      160.612     41.994      1.108       124.959     68.17       79.851      14942.857   83.285      73.107      59.287      52.599      38.795      65.293      39.973      18992.857   1.177       25.826      2.666       
83.4        49.204      130.876     2.272       2.974       27.202      26.885      159.983     42.469      1.108       133.267     69.234      81.729      15046.667   83.217      72.721      59.32       52.519      37.72       65.219      40.216      19253.334   1.142       25.985      2.66        
83.5        48.195      130.854     2.268       3.007       26.885      27.603      159.338     42.801      1.109       147.018     68.236      89.162      15352.857   82.605      72.901      59.395      52.644      37.025      64.64       40.404      19577.143   1.14        26.101      2.535       
83.6        46.881      130.676     2.26        3.024       26.783      28.011      158.682     42.99       1.108       162.013     65.682      97.972      16114.286   81.886      73.668      59.494      53.014      36.532      63.38       40.54       19962.857   1.142       26.18       2.459       
