~Version Information Section
VERS.                                         2.0:CWLS log ASCII Standart – VERSION 2.0
WRAP.                                          NO:One line per depth step
~Well Information Section
STRT.M                                       0.67:Начальная глубина
STOP.M                                     204.27:Конечная глубина
STEP.M                                          0:Шаг квантования по глубине
NULL.                                    -9999.25:Признак "Нет данных"
WELL.                                       110Мх:Скважина
~Parameter Information Section
~Curve Information Section
DEPTH.M                                          :Глубина
БК.Омм                                           :BK     (БК)
DСР.мм                                           :DS  (ДС)
ГК.гамма                                         :GK          (ГК)
А0.4М0.1N.Омм.ohmm                               :GZ1   ГЗ1(A0.4M0.1N)
А1.0М0.1N.Омм.ohmm                               :GZ2   ГЗ2(A1.0M0.1N)
А2.0М0.5N.Омм.ohmm                               :GZ3   ГЗ3(A2.0M0.5N)
А4.0М0.5N.Oмм.ohmm                               :GZ4   ГЗ4(A4.0M0.5N)
А8.0М1.0N.Омм.ohmm                               :GZ5   ГЗ5(A8.0M0.5N)
N0.5M2.0A.Омм.ohmm                               :GZK   ГЗK(N0.5M2.0A)
ИК.мСм/м                                         :IK
НГК.усл.ед                                       :NGK     (НГК)
ПС.mv                                            :PS       (ПС)
КС.Омм                                           :PZ    (КС)
R.Омм                                            :RS (Резистивиметр)
W_SI.%                                           :п
ННКМ.имп/1,25с                                   :ННКм
ПЛОТНОСТЬГГК.г/см3                               :плотностьГГК
~ASCII LOG DATA
# ...
76.07       21.804      132.981     7.325       -9999.25    -9999.25    -9999.25    -9999.25    -9999.25    -9999.25    15.805      1.242       336.006     20.579      0.96        31.521      1.622       2.351       
76.1        -9999.25    -9999.25    -9999.25    35.234      22.032      19.038      21.156      7.776       21.709      -9999.25    -9999.25    -9999.25    -9999.25    -9999.25    -9999.25    -9999.25    -9999.25    
76.17       20.816      133.182     7.576       -9999.25    -9999.25    -9999.25    -9999.25    -9999.25    -9999.25    15.891      1.258       336.264     20.909      0.96        31.572      1.641       2.34        
76.2        -9999.25    -9999.25    -9999.25    37.073      22.558      19.336      21.351      7.855       20.844      -9999.25    -9999.25    -9999.25    -9999.25    -9999.25    -9999.25    -9999.25    -9999.25    
76.27       21.67       133.187     7.853       -9999.25    -9999.25    -9999.25    -9999.25    -9999.25    -9999.25    15.966      1.268       336.831     21.152      0.96        31.403      1.603       2.332       
76.3        -9999.25    -9999.25    -9999.25    34.017      21.25       19.537      20.86       7.841       20.404      -9999.25    -9999.25    -9999.25    -9999.25    -9999.25    -9999.25    -9999.25    -9999.25    
76.37       23.07       133.271     7.895       -9999.25    -9999.25    -9999.25    -9999.25    -9999.25    -9999.25    16.007      1.297       337.679     21.325      0.96        30.968      1.584       2.333       
76.4        -9999.25    -9999.25    -9999.25    31.632      20.581      19.229      19.726      7.909       20.386      -9999.25    -9999.25    -9999.25    -9999.25    -9999.25    -9999.25    -9999.25    -9999.25    
76.47       21.675      133.956     7.621       -9999.25    -9999.25    -9999.25    -9999.25    -9999.25    -9999.25    16.025      1.324       338.604     21.809      0.96        30.666      1.58        2.338       
76.5        -9999.25    -9999.25    -9999.25    33.463      20.998      18.474      19.047      7.88        19.554      -9999.25    -9999.25    -9999.25    -9999.25    -9999.25    -9999.25    -9999.25    -9999.25    
76.57       19.818      134.192     7.355       -9999.25    -9999.25    -9999.25    -9999.25    -9999.25    -9999.25    16.032      1.322       339.333     22.344      0.96        30.393      1.551       2.35        
76.6        -9999.25    -9999.25    -9999.25    33.801      21.231      17.933      19.051      7.816       18.853      -9999.25    -9999.25    -9999.25    -9999.25    -9999.25    -9999.25    -9999.25    -9999.25    
76.67       19.992      133.93      7.329       -9999.25    -9999.25    -9999.25    -9999.25    -9999.25    -9999.25    16.065      1.288       339.676     22.375      0.96        30.148      1.54        2.369       
76.7        -9999.25    -9999.25    -9999.25    31.179      21.169      17.727      18.916      8.043       18.395      -9999.25    -9999.25    -9999.25    -9999.25    -9999.25    -9999.25    -9999.25    -9999.25    
76.77       20.329      133.888     7.382       -9999.25    -9999.25    -9999.25    -9999.25    -9999.25    -9999.25    16.042      1.253       339.482     22.172      0.96        30.114      1.547       2.389       
76.8        -9999.25    -9999.25    -9999.25    29.896      20.972      17.174      18.548      8.846       17.925      -9999.25    -9999.25    -9999.25    -9999.25    -9999.25    -9999.25    -9999.25    -9999.25    
76.87       19.385      133.788     7.506       -9999.25    -9999.25    -9999.25    -9999.25    -9999.25    -9999.25    16.015      1.23        338.731     21.925      0.96        30.142      1.55        2.406       
76.9        -9999.25    -9999.25    -9999.25    29.049      20.063      16.762      18.447      8.924       17.813      -9999.25    -9999.25    -9999.25    -9999.25    -9999.25    -9999.25    -9999.25    -9999.25    
76.97       18.386      133.983     7.602       -9999.25    -9999.25    -9999.25    -9999.25    -9999.25    -9999.25    16.017      1.192       337.633     21.655      0.96        29.591      1.543       2.417       
77.0        -9999.25    -9999.25    -9999.25    28.85       20.005      16.602      19.184      9.626       17.388      -9999.25    -9999.25    -9999.25    -9999.25    -9999.25    -9999.25    -9999.25    -9999.25    
77.07       17.691      134.188     7.577       -9999.25    -9999.25    -9999.25    -9999.25    -9999.25    -9999.25    15.99       1.153       336.463     21.595      0.96        28.796      1.537       2.422       
77.1        -9999.25    -9999.25    -9999.25    29.403      20.209      16.564      20.432      10.659      17.204      -9999.25    -9999.25    -9999.25    -9999.25    -9999.25    -9999.25    -9999.25    -9999.25    
77.17       17.33       134.044     7.483       -9999.25    -9999.25    -9999.25    -9999.25    -9999.25    -9999.25    15.982      1.125       335.428     21.529      0.96        28.154      1.541       2.422       
77.2        -9999.25    -9999.25    -9999.25    27.973      19.618      17.336      20.9        14.637      18.043      -9999.25    -9999.25    -9999.25    -9999.25    -9999.25    -9999.25    -9999.25    -9999.25    
77.27       17.722      133.811     7.299       -9999.25    -9999.25    -9999.25    -9999.25    -9999.25    -9999.25    15.999      1.128       334.645     21.365      0.96        27.636      1.548       2.418       
77.3        -9999.25    -9999.25    -9999.25    27.59       21.904      18.186      20.757      24.573      19.524      -9999.25    -9999.25    -9999.25    -9999.25    -9999.25    -9999.25    -9999.25    -9999.25    
77.37       17.611      133.78      7.104       -9999.25    -9999.25    -9999.25    -9999.25    -9999.25    -9999.25    16.036      1.15        334.148     21.444      0.96        27.438      1.534       2.41        
77.4        -9999.25    -9999.25    -9999.25    30.957      25.092      18.776      21.753      28.942      20.296      -9999.25    -9999.25    -9999.25    -9999.25    -9999.25    -9999.25    -9999.25    -9999.25    
77.47       17.382      133.701     7.146       -9999.25    -9999.25    -9999.25    -9999.25    -9999.25    -9999.25    16.081      1.156       333.83      21.674      0.96        27.644      1.498       2.403       
77.5        -9999.25    -9999.25    -9999.25    32.381      24.641      20.485      23.519      29.777      20.819      -9999.25    -9999.25    -9999.25    -9999.25    -9999.25    -9999.25    -9999.25    -9999.25    
77.57       19.597      133.276     7.39        -9999.25    -9999.25    -9999.25    -9999.25    -9999.25    -9999.25    16.099      1.126       333.56      21.777      0.96        27.785      1.486       2.396       
77.6        -9999.25    -9999.25    -9999.25    29.409      23.084      21.77       25.096      30.601      23.516      -9999.25    -9999.25    -9999.25    -9999.25    -9999.25    -9999.25    -9999.25    -9999.25    
77.67       22.377      133.136     7.702       -9999.25    -9999.25    -9999.25    -9999.25    -9999.25    -9999.25    16.151      1.114       333.301     21.864      0.96        27.528      1.472       2.386       
77.7        -9999.25    -9999.25    -9999.25    29.238      24.205      21.548      26.949      31.396      24.893      -9999.25    -9999.25    -9999.25    -9999.25    -9999.25    -9999.25    -9999.25    -9999.25    
77.77       20.796      134.175     7.83        -9999.25    -9999.25    -9999.25    -9999.25    -9999.25    -9999.25    16.2        1.169       332.994     22.084      0.96        27.137      1.465       2.378       
77.8        -9999.25    -9999.25    -9999.25    32.613      24.399      21.844      29.385      31.85       24.043      -9999.25    -9999.25    -9999.25    -9999.25    -9999.25    -9999.25    -9999.25    -9999.25    
77.87       19.526      133.968     7.574       -9999.25    -9999.25    -9999.25    -9999.25    -9999.25    -9999.25    16.255      1.232       332.674     22.104      0.96        27.011      1.516       2.375       
