~Version Information Section
VERS.                                         2.0:CWLS log ASCII Standart – VERSION 2.0
WRAP.                                          NO:One line per depth step
~Well Information Section
STRT.M                                        0.6:Начальная глубина
STOP.M                                      191.4:Конечная глубина
STEP.M                                          0:Шаг квантования по глубине
NULL.                                    -9999.25:Признак "Нет данных"
WELL.                                       129Мх:Скважина
~Parameter Information Section
~Curve Information Section
DEPTH.M                                          :Глубина
BK.lgОмм                                         :BK     (БК)
ПРОФ_СР.мм                                       :DS  (ДС)
ГК.имп/мин                                       :GK          (ГК)
ГЗ1.Омм                                          :GZ1   ГЗ1(A0.4M0.1N)
ГЗ2.Омм                                          :GZ2   ГЗ2(A1.0M0.1N)
ГЗ3.Омм                                          :GZ3   ГЗ3(A2.0M0.5N)
ГЗ4.Oмм                                          :GZ4   ГЗ4(A4.0M0.5N)
ГЗ5.Oмм                                          :GZ5   ГЗ5(A8.0M0.5N)
ГЗК.Омм                                          :GZK   ГЗK(N0.5M2.0A)
ИК.мСм/м                                         :IK
НГК.усл.ед                                       :NNKb  (ННКб)
ННКМ.усл.ед                                      :NNKm  (ННКм)
PZ.Омм                                           :PZ    (КС)
РЕЗ.Омм                                          :RS (Резистивиметр)
U1.мВ                                            :U1
U2.mV                                            :U2
U3.мВ                                            :U3
КП.%                                             :Кп
ПС.                                              :ПС
~ASCII LOG DATA
# ...
143.4       33.143      132.908     6.182       18.827      15.346      16.508      27.677      46.244      16.787      11.375      2.901       2.112       31.954      1.12        776.0       1224.0      709.334     35.597      -127.4      
143.5       29.719      132.562     6.096       18.475      15.187      16.234      27.233      45.8        17.6        11.379      3.003       2.084       31.87       1.12        799.998     1221.334    717.333     35.877      -127.2      
143.6       29.696      133.484     5.664       18.087      14.99       15.956      26.806      44.911      18.327      11.463      3.016       2.064       31.712      1.12        837.336     1213.333    714.666     36.215      -127.0      
143.7       29.673      133.689     5.962       17.699      14.798      15.682      26.418      43.844      18.923      11.463      2.85        2.07        31.472      1.12        874.665     1210.667    706.667     35.628      -126.76     
143.8       30.108      134.087     6.259       17.334      14.662      15.417      26.08       42.778      19.362      11.493      2.821       2.1         31.165      1.12        890.667     1221.333    698.667     34.099      -126.48     
143.9       29.615      134.191     6.444       17.015      14.639      15.165      25.787      41.933      19.613      11.498      2.914       2.11        30.835      1.12        920.002     1234.667    693.333     33.465      -126.16     
144.0       29.123      134.604     6.566       16.747      14.639      14.931      25.524      41.356      19.668      11.498      2.926       2.102       30.53       1.12        951.997     1255.999    690.667     33.355      -125.84     
144.1       28.207      134.284     6.528       16.515      14.739      14.717      25.286      41.089      19.668      11.62       2.964       2.103       30.323      1.12        1008.002    1269.334    706.668     33.371      -125.52     
144.2       28.164      132.828     6.509       16.294      14.897      14.526      25.096      40.956      19.577      11.614      3.049       2.106       30.249      1.12        1023.999    1274.667    725.332     33.713      -125.28     
144.3       28.12       131.485     6.765       16.07       15.009      14.367      25.003      40.822      19.471      11.614      3.106       2.101       30.249      1.12        1029.333    1269.333    744.0       34.706      -125.12     
144.4       27.868      131.074     6.784       15.849      15.009      14.27       25.003      40.556      19.471      11.579      2.995       2.085       30.249      1.12        1005.332    1264.0      744.0       35.288      -125.04     
144.5       27.464      131.471     6.624       15.664      14.983      14.269      25.054      40.156      19.479      11.579      2.899       2.048       30.249      1.12        992.001     1264.0      759.999     35.626      -125.0      
144.6       27.06       131.704     6.33        15.55       14.789      14.269      25.251      39.622      19.619      11.62       2.855       2.038       30.323      1.12        981.333     1258.666    776.001     35.435      -125.0      
144.7       27.102      131.556     5.741       15.524      14.434      14.382      25.537      39.0        19.751      11.614      2.851       2.067       30.532      1.12        981.333     1258.667    784.001     34.782      -124.96     
144.8       27.123      131.83      6.038       15.524      13.931      14.586      25.799      38.378      19.751      11.614      2.864       2.06        30.846      1.12        986.667     1264.0      770.667     33.747      -124.88     
144.9       26.877      132.265     6.336       15.566      13.279      14.832      25.915      37.889      19.673      11.579      2.89        2.035       31.212      1.12        994.667     1288.001    757.333     32.439      -124.72     
145.0       26.63       132.116     6.707       15.625      12.487      15.048      25.915      37.578      19.258      11.678      2.998       2.039       31.605      1.12        1000.0      1306.666    754.666     30.956      -124.44     
145.1       25.72       131.826     6.893       15.649      11.584      15.165      25.789      37.489      18.505      11.678      3.221       2.058       32.023      1.12        1018.668    1320.0      757.334     30.048      -124.0      
145.2       27.21       131.274     6.106       15.649      10.646      15.165      25.39       37.489      17.48       11.504      3.394       2.115       32.491      1.12        1029.333    1322.667    760.0       30.091      -123.48     
145.3       32.674      130.633     5.962       15.589      9.783       15.117      24.718      37.667      16.254      11.563      3.444       2.184       33.049      1.12        1034.667    1330.667    760.0       30.618      -122.88     
145.4       38.782      130.549     5.242       15.421      9.128       14.873      23.779      38.2        14.904      11.563      3.421       2.228       33.732      1.12        1018.666    1336.0      760.0       32.286      -122.28     
145.5       41.177      130.863     5.453       15.118      8.79        14.429      22.556      39.089      13.536      11.544      3.281       2.226       34.538      1.12        1016.0      1336.0      762.666     33.614      -121.76     
145.6       35.453      131.327     5.664       14.671      8.79        13.799      21.053      40.2        12.304      11.568      3.162       2.186       35.429      1.12        1013.333    1344.001    765.334     34.413      -121.36     
145.7       29.731      129.589     6.048       14.084      8.844       13.006      19.317      41.4        11.422      11.696      3.003       2.128       36.344      1.12        1008.001    1354.666    768.0       35.227      -121.0      
145.8       24.485      128.35      6.125       13.399      9.295       12.1        17.431      42.556      11.08       11.696      2.881       2.065       37.243      1.12        997.333     1368.0      770.667     36.453      -120.68     
145.9       22.825      128.444     6.893       12.701      10.089      11.153      15.5        43.711      11.08       11.661      2.709       2.032       38.117      1.12        992.0       1368.0      778.667     36.649      -120.32     
146.0       20.693      128.624     6.973       12.205      11.144      10.249      13.644      44.911      11.391      11.667      2.798       2.017       38.991      1.12        992.0       1368.0      794.666     37.086      -119.88     
146.1       19.645      128.982     7.373       12.191      12.376      9.471       12.008      46.289      12.287      11.667      2.853       2.009       39.893      1.12        1010.668    1370.667    813.334     37.914      -119.4      
146.2       19.157      129.214     7.11        12.191      13.749      8.9         10.808      47.711      13.669      11.949      2.718       2.004       40.838      1.12        1023.999    1389.332    831.999     38.143      -118.96     
146.3       18.883      128.98      6.586       13.032      15.279      8.602       10.222      49.089      15.429      12.169      2.712       2.002       41.827      1.12        1037.333    1400.0      845.333     37.396      -118.52     
146.4       18.282      128.706     6.355       14.997      17.084      8.602       10.222      50.2        17.521      12.415      2.936       2.005       42.882      1.12        1032.0      1407.999    858.667     36.044      -118.16     
146.5       18.065      128.955     6.24        18.247      19.334      8.61        10.324      51.089      19.87       12.415      3.117       2.011       44.069      1.12        1032.0      1410.666    871.999     34.109      -117.88     
146.6       24.764      129.702     5.808       22.653      22.211      8.893       10.937      51.756      22.359      12.829      3.466       2.116       45.491      1.12        1040.001    1421.334    869.333     31.431      -117.56     
146.7       31.803      129.775     5.722       27.876      25.832      9.383       11.778      52.378      24.802      13.387      3.642       2.237       47.258      1.12        1047.999    1426.667    864.001     28.701      -117.16     
