~Version Information Section
VERS.                                         2.0:CWLS log ASCII Standart – VERSION 2.0
WRAP.                                          NO:One line per depth step
~Well Information Section
STRT.M                                        0.6:Начальная глубина
STOP.M                                      209.2:Конечная глубина
STEP.M                                          0:Шаг квантования по глубине
NULL.                                    -9999.25:Признак "Нет данных"
WELL.                                       107Мх:Скважина
~Parameter Information Section
~Curve Information Section
DEPTH.M                                          :Глубина
PS.mv                                            :PS       (ПС)
PZ.Ohm*M                                         :PZ    (КС)
RS.Ohm*M                                         :RS (Резистивиметр)
U1.mV                                            :U1
U2.mV                                            :U2
U3.mV                                            :U3
КП.%                                             :Кп
BK.Ohm*M                                         :BK     (БК)
DS.mm                                            :DS  (ДС)
GGK.g/cm3                                        :GGKp
ГК.mcr/h                                         :GK          (ГК)
GZ1.Ohm*M                                        :GZ1   ГЗ1(A0.4M0.1N)
GZ2.Ohm*M                                        :GZ2   ГЗ2(A1.0M0.1N)
GZ3.Ohm*M                                        :GZ3   ГЗ3(A2.0M0.5N)
GZ4.Ohm*M                                        :GZ4   ГЗ4(A4.0M0.5N)
GZ5.Ohm*M                                        :GZ5   ГЗ5(A8.0M0.5N)
GZR.Ohm*M                                        :GZK   ГЗK(N0.5M2.0A)
ИК.Ohm*M                                         :IK
НГК.u.e.                                         :NGK
NNKM.                                            :NNKm  (ННКм)
~ASCII LOG DATA
# ...
128.6       1051.846    65.855      1.006       2995.891    2488.0      2206.536    27.939      67.453      151.801     2.157       4.174       91.53       40.114      54.662      15.623      15.73       46.2        14.733      1.138       15.791      
128.7       1051.846    68.863      1.008       2966.857    2443.151    2149.183    26.703      73.114      151.354     2.147       4.283       91.95       41.154      54.662      15.623      15.59       50.36       14.733      1.158       15.897      
128.8       1051.846    71.119      1.009       2822.728    2286.99     1985.324    26.736      72.611      151.538     2.17        4.174       95.31       41.154      54.662      15.623      15.59       49.32       14.808      1.192       15.87       
128.9       1051.846    72.623      1.009       2542.06     2046.922    1779.136    28.27       71.45       151.399     2.196       4.022       96.15       42.194      54.662      15.623      15.45       48.28       14.818      1.219       15.931      
129.0       1051.846    72.999      1.009       2158.572    1757.514    1565.275    29.603      74.302      151.118     2.22        3.947       96.15       42.714      54.662      15.743      15.31       48.28       14.818      1.234       16.341      
129.1       1051.846    72.999      1.009       1881.117    1555.151    1422.878    29.502      82.985      151.334     2.267       3.976       95.73       42.714      54.662      15.863      15.31       47.24       14.882      1.256       16.742      
129.2       1051.846    71.871      1.009       1780.169    1486.173    1379.025    28.871      82.985      151.682     2.275       3.927       95.31       42.194      54.662      15.983      15.31       46.2        14.882      1.236       17.112      
129.3       1051.846    69.991      1.009       1841.537    1544.356    1432.94     28.278      82.604      151.459     2.278       4.168       94.89       41.674      54.662      15.983      15.31       46.2        14.946      1.24        17.408      
129.4       1051.846    68.487      1.009       2060.451    1730.669    1589.677    27.405      70.958      151.782     2.267       4.117       95.31       41.674      54.662      16.103      15.31       46.2        14.946      1.237       16.923      
129.5       1051.846    67.735      1.009       2426.451    2048.036    1862.406    26.668      71.614      151.858     2.247       4.224       95.73       42.194      55.102      16.103      15.31       46.2        14.914      1.219       16.438      
129.6       1051.846    67.359      1.009       2877.913    2453.201    2223.009    26.4        76.384      151.875     2.242       3.97        96.15       43.754      55.542      16.103      15.31       46.2        15.011      1.221       16.653      
129.7       1051.846    67.359      1.009       3277.156    2818.906    2554.954    26.965      76.384      151.2       2.207       3.982       96.15       44.274      55.982      15.863      15.31       46.2        14.978      1.222       16.868      
129.8       1051.846    68.111      1.009       3511.661    3040.513    2761.802    27.64       84.333      151.538     2.226       4.036       96.57       45.314      56.422      15.863      15.45       46.2        14.957      1.287       16.697      
129.9       1051.846    68.863      1.009       3547.977    3078.033    2800.244    28.436      87.902      151.556     2.254       4.179       96.99       45.834      57.302      15.623      15.59       46.2        14.924      1.2         16.412      
130.0       1051.846    70.367      1.009       3384.924    2896.46     2612.968    28.84       87.096      151.175     2.282       4.222       96.57       46.354      57.742      15.623      15.59       46.2        14.924      1.231       16.549      
130.1       1051.821    71.495      1.009       3086.193    2573.869    2284.408    29.555      91.411      151.03      2.309       4.075       95.73       44.794      57.302      15.503      15.59       47.24       15.011      1.241       16.966      
130.2       1051.72     72.623      1.009       2784.978    2257.219    1966.458    29.788      91.411      151.346     2.301       3.82        94.89       43.754      55.982      15.503      15.59       48.28       14.978      1.341       16.811      
130.3       1051.594    73.751      1.009       2532.818    1999.467    1711.823    29.192      91.201      151.257     2.281       3.735       92.79       43.754      55.542      15.383      15.59       49.32       14.924      1.309       16.381      
130.4       1051.444    74.879      1.009       2313.357    1791.876    1517.803    28.306      91.201      151.033     2.212       3.684       92.37       42.194      55.102      15.263      15.45       50.36       14.924      1.234       16.346      
130.5       1051.268    75.255      1.009       2121.352    1653.694    1419.849    27.561      83.753      150.955     2.174       3.597       92.37       41.674      55.102      15.263      15.45       51.4        14.924      1.196       16.465      
130.6       1051.067    75.631      1.009       1958.692    1567.384    1390.155    27.671      82.035      151.191     2.165       3.829       93.63       41.674      54.662      15.263      15.31       51.4        14.968      1.191       16.388      
130.7       1050.84     75.631      1.009       1823.815    1510.051    1393.045    27.963      79.25       151.052     2.203       4.054       96.15       41.154      54.222      15.263      15.31       52.44       14.924      1.122       16.073      
130.8       1050.614    76.007      1.009       1699.909    1443.381    1374.138    28.229      81.846      150.964     2.231       4.201       97.83       40.634      54.222      15.263      15.17       52.44       14.882      1.135       15.957      
130.9       1050.438    77.511      1.009       1597.407    1364.762    1319.523    28.851      81.846      151.307     2.255       3.942       98.25       40.114      54.222      15.263      15.17       53.48       14.85       1.161       16.325      
131.0       1050.262    78.639      1.009       1516.135    1274.637    1229.384    29.541      82.985      151.142     2.266       3.802       99.09       39.594      54.222      15.263      15.03       54.52       14.85       1.215       16.585      
131.1       1050.086    79.015      1.009       1397.522    1129.189    1071.516    30.503      80.353      150.768     2.255       3.756       99.51       39.594      54.222      15.263      15.03       55.56       14.599      1.169       16.421      
131.2       1049.91     79.015      1.009       1216.326    916.383     843.703     31.421      77.625      151.631     2.257       3.966       99.51       39.594      54.222      15.383      14.89       55.56       14.599      1.145       16.289      
131.3       1049.734    77.887      1.009       1035.363    713.288     630.912     31.041      73.79       151.518     2.243       4.048       99.51       38.554      54.222      15.623      14.75       56.6        14.498      1.19        16.201      
131.4       1049.558    75.631      1.009       895.874     571.178     490.252     29.447      76.208      151.421     2.228       4.037       99.93       38.554      54.222      15.623      14.75       57.64       14.368      1.232       16.091      
131.5       1049.382    73.375      1.009       768.924     470.902     411.638     27.414      76.208      151.871     2.202       3.885       99.93       38.554      54.222      15.863      14.75       57.64       14.268      1.231       16.046      
131.6       1049.231    71.495      1.009       646.854     397.662     376.794     26.263      80.538      151.721     2.17        3.793       99.93       38.554      54.222      15.983      14.75       57.64       14.227      1.201       16.016      
131.7       1049.156    69.615      1.009       557.962     365.733     394.855     26.385      80.353      151.3       2.161       3.783       100.35      38.554      54.222      16.103      14.75       57.64       14.227      1.161       16.286      
