~Version Information Section
VERS.                                         2.0:CWLS log ASCII Standart – VERSION 2.0
WRAP.                                          NO:One line per depth step
~Well Information Section
STRT.M                                        0.6:Начальная глубина
STOP.M                                      209.2:Конечная глубина
STEP.M                                          0:Шаг квантования по глубине
NULL.                                    -9999.25:Признак "Нет данных"
WELL.                                       107Мх:Скважина
~Parameter Information Section
~Curve Information Section
DEPTH.M                                          :Глубина
PS.mv                                            :PS       (ПС)
PZ.Ohm*M                                         :PZ    (КС)
RS.Ohm*M                                         :RS (Резистивиметр)
U1.mV                                            :U1
U2.mV                                            :U2
U3.mV                                            :U3
КП.%                                             :Кп
BK.Ohm*M                                         :BK     (БК)
DS.mm                                            :DS  (ДС)
GGK.g/cm3                                        :GGKp
ГК.mcr/h                                         :GK          (ГК)
GZ1.Ohm*M                                        :GZ1   ГЗ1(A0.4M0.1N)
GZ2.Ohm*M                                        :GZ2   ГЗ2(A1.0M0.1N)
GZ3.Ohm*M                                        :GZ3   ГЗ3(A2.0M0.5N)
GZ4.Ohm*M                                        :GZ4   ГЗ4(A4.0M0.5N)
GZ5.Ohm*M                                        :GZ5   ГЗ5(A8.0M0.5N)
GZR.Ohm*M                                        :GZK   ГЗK(N0.5M2.0A)
ИК.Ohm*M                                         :IK
НГК.u.e.                                         :NGK
NNKM.                                            :NNKm  (ННКм)
~ASCII LOG DATA
# ...
42.2        -9999.25    -9999.25    0.923       -9999.25    -9999.25    -9999.25    28.39       20.137      155.382     -9999.25    4.008       134.37      58.247      92.942      26.663      29.45       155.4       13.629      1.203       16.43       
42.3        -9999.25    -9999.25    0.923       -9999.25    -9999.25    -9999.25    29.215      38.371      155.359     -9999.25    4.453       134.37      47.394      93.382      26.783      29.45       155.4       13.289      1.174       17.122      
42.4        -9999.25    -9999.25    0.924       -9999.25    -9999.25    -9999.25    28.824      97.499      154.488     -9999.25    4.49        134.37      47.394      93.382      26.783      29.45       155.4       13.112      1.198       17.72       
42.5        -9999.25    -9999.25    0.926       -9999.25    -9999.25    -9999.25    28.845      108.393     153.762     -9999.25    4.062       134.37      49.994      93.382      26.663      29.45       155.4       13.068      1.195       18.349      
42.6        -9999.25    -9999.25    0.928       -9999.25    -9999.25    -9999.25    29.522      68.234      154.252     -9999.25    3.267       134.37      50.514      93.382      26.903      29.45       156.44      12.994      1.196       18.602      
42.7        -9999.25    -9999.25    0.93        -9999.25    -9999.25    -9999.25    30.056      56.885      154.709     -9999.25    2.426       134.79      52.594      92.942      26.903      29.45       157.48      12.989      1.095       17.977      
42.8        -9999.25    -9999.25    0.931       -9999.25    -9999.25    -9999.25    30.154      44.771      154.634     -9999.25    2.038       134.79      55.194      92.502      26.903      29.31       158.52      12.994      1.083       17.484      
42.9        -9999.25    -9999.25    0.931       -9999.25    -9999.25    -9999.25    30.214      40.551      154.467     -9999.25    2.187       135.63      57.274      92.502      26.783      29.31       159.56      13.032      1.1         17.517      
43.0        -9999.25    -9999.25    0.931       -9999.25    -9999.25    -9999.25    30.462      44.157      154.244     -9999.25    2.592       135.63      58.314      92.502      26.663      29.31       161.64      13.038      1.127       17.543      
43.1        -9999.25    -9999.25    0.931       -9999.25    -9999.25    -9999.25    30.583      38.994      153.412     2.31        2.783       135.63      59.354      92.502      26.543      29.17       162.68      13.019      1.093       16.978      
43.2        -9999.25    -9999.25    0.931       -9999.25    -9999.25    -9999.25    30.168      42.364      153.111     2.341       2.759       136.05      60.394      92.502      26.543      29.03       161.64      13.019      1.059       16.414      
43.3        -9999.25    -9999.25    0.931       -9999.25    -9999.25    -9999.25    29.731      51.404      152.873     2.349       2.824       136.05      62.474      92.942      26.423      28.89       159.56      12.946      1.065       16.611      
43.4        -9999.25    -9999.25    0.931       -9999.25    -9999.25    -9999.25    30.05       64.417      153.0       2.344       2.807       136.47      62.994      93.382      26.183      28.75       157.48      12.959      1.093       16.859      
43.5        -9999.25    -9999.25    0.932       -9999.25    -9999.25    -9999.25    30.743      61.518      153.041     2.318       2.762       136.89      63.514      93.382      25.943      28.75       155.4       12.91       1.118       16.927      
43.6        -9999.25    -9999.25    0.933       -9999.25    -9999.25    -9999.25    30.055      55.976      153.943     2.313       2.429       136.89      65.594      93.822      25.823      28.47       152.28      12.868      1.128       16.964      
43.7        -9999.25    -9999.25    0.934       -9999.25    -9999.25    -9999.25    28.764      57.412      153.967     2.285       2.241       136.89      66.634      94.262      25.823      28.47       148.12      12.825      1.112       17.047      
43.8        -9999.25    -9999.25    0.937       -9999.25    -9999.25    -9999.25    28.128      58.479      153.958     2.282       2.142       136.89      67.154      95.582      25.703      28.47       147.08      12.767      1.094       17.207      
43.9        -9999.25    -9999.25    0.938       -9999.25    -9999.25    -9999.25    28.893      58.076      153.963     2.3         2.022       136.89      67.674      96.022      25.583      28.33       145.0       12.726      1.066       17.352      
44.0        -9999.25    -9999.25    0.939       -9999.25    -9999.25    -9999.25    29.921      58.21       153.68      2.33        1.804       136.89      68.194      96.022      25.463      28.19       142.92      12.694      1.041       17.55       
44.1        -9999.25    -9999.25    0.94        -9999.25    -9999.25    -9999.25    30.413      53.951      153.36      2.361       1.658       136.05      69.234      96.022      25.343      28.05       141.88      12.614      1.048       17.694      
44.2        -9999.25    -9999.25    0.94        -9999.25    -9999.25    -9999.25    31.468      50.466      153.631     2.345       1.706       135.63      69.754      96.022      25.223      28.05       140.84      12.605      1.06        17.674      
44.3        -9999.25    -9999.25    0.94        -9999.25    -9999.25    -9999.25    32.795      48.865      154.223     2.303       2.03        135.21      70.794      95.142      25.223      27.77       139.8       12.628      1.059       17.624      
44.4        -9999.25    -9999.25    0.94        -9999.25    -9999.25    -9999.25    32.558      46.881      154.001     2.245       2.222       134.79      72.874      94.702      25.103      27.63       138.76      12.587      1.054       17.454      
44.5        -9999.25    -9999.25    0.94        -9999.25    -9999.25    -9999.25    30.702      37.325      153.963     2.248       2.195       134.37      74.434      93.822      24.983      27.63       137.72      12.518      1.048       17.318      
44.6        -9999.25    -9999.25    0.94        -9999.25    -9999.25    -9999.25    28.484      31.989      154.122     2.304       2.29        133.53      75.474      92.502      24.863      27.49       136.68      12.495      1.053       17.282      
44.7        -9999.25    -9999.25    0.94        -9999.25    -9999.25    -9999.25    28.017      36.058      154.61      2.334       2.663       132.69      75.474      89.862      24.863      27.35       135.64      12.451      1.024       17.237      
44.8        -9999.25    -9999.25    0.94        -9999.25    -9999.25    -9999.25    28.443      48.417      154.275     2.312       3.081       131.85      75.474      89.422      24.623      27.21       135.64      12.383      1.033       17.344      
44.9        -9999.25    -9999.25    0.94        -9999.25    -9999.25    -9999.25    29.786      44.259      153.853     2.296       3.186       131.01      75.474      88.982      24.623      27.07       134.6       12.295      1.054       17.489      
45.0        -9999.25    -9999.25    0.94        -9999.25    -9999.25    -9999.25    30.876      39.994      154.606     2.323       2.976       130.59      74.954      88.542      24.263      26.93       133.56      12.274      1.089       17.453      
45.1        -9999.25    -9999.25    0.94        -9999.25    -9999.25    -9999.25    30.853      35.156      154.428     2.33        2.567       129.75      74.434      87.662      24.143      26.79       133.56      12.098      1.085       17.346      
45.2        -9999.25    -9999.25    0.94        -9999.25    -9999.25    -9999.25    29.74       33.963      154.059     2.311       2.263       128.07      73.914      86.782      24.023      26.09       132.52      11.99       1.069       16.976      
45.3        -9999.25    -9999.25    0.94        -9999.25    -9999.25    -9999.25    28.843      49.091      153.916     2.293       2.3         127.23      73.394      85.462      23.783      25.95       131.48      11.749      1.035       16.432      
