~Version Information Section
VERS.                                         2.0:CWLS log ASCII Standart – VERSION 2.0
WRAP.                                          NO:One line per depth step
~Well Information Section
STRT.M                                        1.0:Начальная глубина
STOP.M                                      208.3:Конечная глубина
STEP.M                                          0:Шаг квантования по глубине
NULL.                                    -9999.25:Признак "Нет данных"
WELL.                                       131Мх:Скважина
~Parameter Information Section
~Curve Information Section
DEPTH.M                                          :Глубина
БК.Омм                                           :BK     (БК)
DСР.мм                                           :DS  (ДС)
ГК.гамма                                         :GK          (ГК)
А0.4М0.1N.Омм.ohmm                               :GZ1   ГЗ1(A0.4M0.1N)
А1.0М0.1N.Омм.ohmm                               :GZ2   ГЗ2(A1.0M0.1N)
А2.0М0.5N.Омм.ohmm                               :GZ3   ГЗ3(A2.0M0.5N)
А4.0М0.5N.Oмм.ohmm                               :GZ4   ГЗ4(A4.0M0.5N)
А8.0М1.0N.Омм.ohmm                               :GZ5   ГЗ5(A8.0M0.5N)
N0.5M2.0A.Омм.ohmm                               :GZK   ГЗK(N0.5M2.0A)
ИК.мСм/м                                         :IK
НГК.усл.ед                                       :NGK     (НГК)
ПС.mv                                            :PS       (ПС)
П.%                                              :п
PZ.Омм                                           :PZ    (КС)
R.Омм                                            :RS (Резистивиметр)
U1.мВ                                            :U1
U2.mV                                            :U2
U3.мВ                                            :U3
W.г/см3                                          :ГГКп
~ASCII LOG DATA
# ...
181.6       144.912     129.273     3.509       -9999.25    -9999.25    -9999.25    -9999.25    -9999.25    -9999.25    62.031      1.34        87.387      30.204      316.348     1.12        2925.0      2683.2      2862.0      2.276       
181.65      -9999.25    -9999.25    -9999.25    233.023     206.503     177.794     102.959     91.406      128.268     -9999.25    -9999.25    -9999.25    -9999.25    -9999.25    -9999.25    -9999.25    -9999.25    -9999.25    -9999.25    
181.7       151.267     129.291     3.451       -9999.25    -9999.25    -9999.25    -9999.25    -9999.25    -9999.25    61.993      1.343       87.118      29.984      315.963     1.12        2875.0      2683.2      2700.0      2.279       
181.75      -9999.25    -9999.25    -9999.25    238.726     209.024     179.32      103.702     95.619      127.172     -9999.25    -9999.25    -9999.25    -9999.25    -9999.25    -9999.25    -9999.25    -9999.25    -9999.25    -9999.25    
181.8       153.221     129.27      3.551       -9999.25    -9999.25    -9999.25    -9999.25    -9999.25    -9999.25    62.189      1.352       87.066      29.902      315.476     1.12        2825.0      2786.4      2673.0      2.279       
181.85      -9999.25    -9999.25    -9999.25    244.916     211.958     181.178     104.632     99.855      125.665     -9999.25    -9999.25    -9999.25    -9999.25    -9999.25    -9999.25    -9999.25    -9999.25    -9999.25    -9999.25    
181.9       148.202     130.042     3.551       -9999.25    -9999.25    -9999.25    -9999.25    -9999.25    -9999.25    62.214      1.359       87.058      29.959      314.828     1.12        2675.0      2786.4      2646.0      2.282       
181.95      -9999.25    -9999.25    -9999.25    249.508     214.881     183.255     105.385     103.477     123.662     -9999.25    -9999.25    -9999.25    -9999.25    -9999.25    -9999.25    -9999.25    -9999.25    -9999.25    -9999.25    
182.0       145.159     130.405     3.369       -9999.25    -9999.25    -9999.25    -9999.25    -9999.25    -9999.25    61.962      1.361       87.029      30.106      313.984     1.12        2675.0      2838.0      2619.0      2.277       
182.05      -9999.25    -9999.25    -9999.25    251.977     217.212     185.276     105.705     105.82      121.288     -9999.25    -9999.25    -9999.25    -9999.25    -9999.25    -9999.25    -9999.25    -9999.25    -9999.25    -9999.25    
182.1       152.76      130.615     3.187       -9999.25    -9999.25    -9999.25    -9999.25    -9999.25    -9999.25    61.858      1.337       86.989      30.496      312.967     1.12        2700.0      2863.8      2619.0      2.265       
182.15      -9999.25    -9999.25    -9999.25    252.115     218.669     186.906     105.705     106.773     118.734     -9999.25    -9999.25    -9999.25    -9999.25    -9999.25    -9999.25    -9999.25    -9999.25    -9999.25    -9999.25    
182.2       165.16      130.686     3.128       -9999.25    -9999.25    -9999.25    -9999.25    -9999.25    -9999.25    61.897      1.327       86.947      31.0        311.781     1.12        2600.0      2889.6      2700.0      2.248       
182.25      -9999.25    -9999.25    -9999.25    252.115     218.856     187.865     105.705     106.933     116.028     -9999.25    -9999.25    -9999.25    -9999.25    -9999.25    -9999.25    -9999.25    -9999.25    -9999.25    -9999.25    
182.3       168.591     130.5       2.985       -9999.25    -9999.25    -9999.25    -9999.25    -9999.25    -9999.25    61.868      1.308       86.84       30.613      310.49      1.12        2600.0      2889.6      2700.0      2.243       
182.35      -9999.25    -9999.25    -9999.25    252.115     218.856     188.038     105.511     106.933     113.164     -9999.25    -9999.25    -9999.25    -9999.25    -9999.25    -9999.25    -9999.25    -9999.25    -9999.25    -9999.25    
182.4       162.844     130.913     2.904       -9999.25    -9999.25    -9999.25    -9999.25    -9999.25    -9999.25    61.854      1.302       86.548      30.204      308.943     1.12        2625.0      2863.8      2592.0      2.239       
182.45      -9999.25    -9999.25    -9999.25    249.517     218.856     188.038     104.802     106.55      110.246     -9999.25    -9999.25    -9999.25    -9999.25    -9999.25    -9999.25    -9999.25    -9999.25    -9999.25    -9999.25    
182.5       160.455     131.031     3.016       -9999.25    -9999.25    -9999.25    -9999.25    -9999.25    -9999.25    61.862      1.323       85.924      30.336      307.048     1.12        2575.0      2812.2      2592.0      2.228       
182.55      -9999.25    -9999.25    -9999.25    244.952     217.907     188.038     103.744     105.338     107.364     -9999.25    -9999.25    -9999.25    -9999.25    -9999.25    -9999.25    -9999.25    -9999.25    -9999.25    -9999.25    
182.6       191.382     130.068     3.048       -9999.25    -9999.25    -9999.25    -9999.25    -9999.25    -9999.25    61.981      1.331       84.795      30.38       304.659     1.12        2575.0      2786.4      2511.0      2.246       
182.65      -9999.25    -9999.25    -9999.25    240.54      216.475     187.627     102.719     103.567     104.481     -9999.25    -9999.25    -9999.25    -9999.25    -9999.25    -9999.25    -9999.25    -9999.25    -9999.25    -9999.25    
182.7       196.827     131.128     3.035       -9999.25    -9999.25    -9999.25    -9999.25    -9999.25    -9999.25    61.823      1.297       83.059      30.226      301.321     1.12        2525.0      2631.6      2511.0      2.258       
182.75      -9999.25    -9999.25    -9999.25    236.511     215.085     186.862     101.784     101.617     101.667     -9999.25    -9999.25    -9999.25    -9999.25    -9999.25    -9999.25    -9999.25    -9999.25    -9999.25    -9999.25    
182.8       145.746     131.474     3.155       -9999.25    -9999.25    -9999.25    -9999.25    -9999.25    -9999.25    61.33       1.284       80.796      30.094      296.75      1.12        2525.0      2631.6      2619.0      2.253       
182.85      -9999.25    -9999.25    -9999.25    233.135     213.888     186.013     100.989     99.472      99.059      -9999.25    -9999.25    -9999.25    -9999.25    -9999.25    -9999.25    -9999.25    -9999.25    -9999.25    -9999.25    
182.9       118.823     131.72      3.217       -9999.25    -9999.25    -9999.25    -9999.25    -9999.25    -9999.25    60.876      1.273       78.201      30.006      291.476     1.12        2525.0      2657.4      2619.0      2.265       
182.95      -9999.25    -9999.25    -9999.25    230.944     213.118     185.156     100.246     97.087      96.66       -9999.25    -9999.25    -9999.25    -9999.25    -9999.25    -9999.25    -9999.25    -9999.25    -9999.25    -9999.25    
183.0       127.096     131.744     3.209       -9999.25    -9999.25    -9999.25    -9999.25    -9999.25    -9999.25    60.29       1.242       75.548      29.722      285.714     1.12        2550.0      2657.4      2727.0      2.259       
183.05      -9999.25    -9999.25    -9999.25    229.308     212.59      184.19      99.303      94.558      94.384      -9999.25    -9999.25    -9999.25    -9999.25    -9999.25    -9999.25    -9999.25    -9999.25    -9999.25    -9999.25    
183.1       135.677     131.822     3.256       -9999.25    -9999.25    -9999.25    -9999.25    -9999.25    -9999.25    59.605      1.263       73.196      29.17       279.57      1.12        2550.0      2657.4      2862.0      2.255       
183.15      -9999.25    -9999.25    -9999.25    227.933     211.921     182.873     97.923      92.044      92.228      -9999.25    -9999.25    -9999.25    -9999.25    -9999.25    -9999.25    -9999.25    -9999.25    -9999.25    -9999.25    
183.2       139.306     132.229     3.267       -9999.25    -9999.25    -9999.25    -9999.25    -9999.25    -9999.25    58.93       1.339       71.435      28.766      273.888     1.12        2525.0      2838.0      2835.0      2.257       
183.25      -9999.25    -9999.25    -9999.25    226.426     210.26      181.067     96.137      89.692      90.386      -9999.25    -9999.25    -9999.25    -9999.25    -9999.25    -9999.25    -9999.25    -9999.25    -9999.25    -9999.25    
