~Version Information Section
VERS.                                         2.0:CWLS log ASCII Standart – VERSION 2.0
WRAP.                                          NO:One line per depth step
~Well Information Section
STRT.M                                        0.6:Начальная глубина
STOP.M                                      208.2:Конечная глубина
STEP.M                                          0:Шаг квантования по глубине
NULL.                                    -9999.25:Признак "Нет данных"
WELL.                                       156Мх:Скважина
~Parameter Information Section
~Curve Information Section
DEPTH.M                                          :Глубина
БК.Ом                                            :BK     (БК)
DСР.мм                                           :DS  (ДС)
ПЛОТНОСТЬ.г/см^3                                 :GGKp
ГК.мкР/час                                       :GK          (ГК)
А0.4М0.1N.Ом                                     :GZ1   ГЗ1(A0.4M0.1N)
А1.0М0.1N.Ом                                     :GZ2   ГЗ2(A1.0M0.1N)
А2.0М0.5N.Ом                                     :GZ3   ГЗ3(A2.0M0.5N)
А4.0М0.5N.Oм                                     :GZ4   ГЗ4(A4.0M0.5N)
А8.0М1.0N.Ом                                     :GZ5   ГЗ5(A8.0M0.5N)
N0.5M2.0A.Ом                                     :GZR   ГЗK(N0.5M2.0A)
ИК.мСм/м                                         :IK
НГК.усл.ед                                       :NGK     (НГК)
ННКМ.усл.ед                                      :NNKm  (ННКм)
ПС.mv                                            :PS       (ПС)
N11.0M0.5A.Ом                                    :PZ    (КС)
РЕЗИСТИВИМЕТР.Ом                                 :RS (Резистивиметр)
КПSIO.%                                          :W
~ASCII LOG DATA
# ...
196.7       21.507      147.184     2.166       8.469       35.954      12.762      12.935      -9999.25    13.58       -9999.25    17.649      1.237       1.323       -9999.25    25.118      -9999.25    25.93       
196.8       20.26       149.308     2.157       8.418       35.419      16.394      13.243      -9999.25    13.899      -9999.25    18.216      1.217       1.281       -9999.25    28.169      -9999.25    26.674      
196.9       23.239      149.753     2.153       8.272       35.47       20.443      13.42       -9999.25    14.636      -9999.25    18.629      1.196       1.259       -9999.25    29.545      -9999.25    27.203      
197.0       23.784      146.93      2.152       8.003       35.391      23.269      13.535      -9999.25    15.542      -9999.25    18.996      1.178       1.237       -9999.25    29.903      -9999.25    27.504      
197.1       24.119      147.346     2.154       7.749       35.303      24.517      13.791      -9999.25    16.323      -9999.25    19.362      1.165       1.221       -9999.25    29.99       -9999.25    27.519      
197.2       25.215      147.693     2.154       7.478       35.338      25.81       14.355      -9999.25    16.763      -9999.25    19.707      1.152       1.227       -9999.25    29.976      -9999.25    27.378      
197.3       26.422      147.55      2.152       7.161       35.371      27.745      15.214      -9999.25    17.037      -9999.25    19.999      1.143       1.235       -9999.25    29.973      -9999.25    27.103      
197.4       26.194      147.561     2.151       6.902       35.394      29.157      16.131      -9999.25    17.317      -9999.25    20.22       1.148       1.244       -9999.25    30.081      -9999.25    26.718      
197.5       24.629      147.848     2.154       6.777       35.393      29.241      16.711      -9999.25    17.689      -9999.25    20.363      1.17        1.251       -9999.25    30.218      -9999.25    26.427      
197.6       24.209      147.976     2.155       6.669       35.39       28.419      16.82       -9999.25    18.427      -9999.25    20.437      1.191       1.252       -9999.25    30.345      -9999.25    26.366      
197.7       24.314      147.956     2.157       6.602       35.389      27.743      16.592      -9999.25    20.907      -9999.25    20.454      1.205       1.248       -9999.25    30.438      -9999.25    26.331      
197.8       25.417      147.993     2.161       6.648       34.4        27.332      16.57       -9999.25    24.552      -9999.25    20.439      1.205       1.26        -9999.25    30.476      -9999.25    26.415      
197.9       29.891      148.128     2.166       6.737       32.916      26.963      18.822      -9999.25    27.88       -9999.25    20.391      1.185       1.273       -9999.25    30.476      -9999.25    26.766      
198.0       32.555      148.067     2.172       6.832       -9999.25    26.802      25.288      -9999.25    29.367      -9999.25    20.284      1.158       1.272       -9999.25    30.474      -9999.25    27.221      
198.1       27.578      147.953     2.179       6.927       -9999.25    26.789      34.32       -9999.25    29.531      -9999.25    20.08       1.143       1.27        -9999.25    30.474      -9999.25    27.688      
198.2       24.687      148.222     2.191       7.022       -9999.25    26.79       41.813      -9999.25    29.369      -9999.25    19.792      1.146       1.279       -9999.25    29.734      -9999.25    27.946      
198.3       25.322      148.027     2.207       7.074       -9999.25    26.792      45.836      -9999.25    28.85       -9999.25    19.471      1.162       1.28        -9999.25    28.622      -9999.25    27.842      
198.4       27.323      146.885     2.222       7.101       -9999.25    26.41       45.746      -9999.25    28.268      -9999.25    19.169      1.192       1.279       -9999.25    -9999.25    -9999.25    27.539      
198.5       28.244      146.943     2.236       7.068       -9999.25    25.835      39.759      -9999.25    27.876      -9999.25    18.911      1.217       1.295       -9999.25    -9999.25    -9999.25    27.058      
198.6       27.301      147.034     2.248       7.127       -9999.25    -9999.25    29.383      -9999.25    27.777      -9999.25    18.693      1.227       1.344       -9999.25    -9999.25    -9999.25    26.541      
198.7       29.159      147.108     2.257       7.461       -9999.25    -9999.25    19.996      -9999.25    27.756      -9999.25    18.509      1.221       1.381       -9999.25    -9999.25    -9999.25    26.402      
198.8       35.604      147.296     2.258       7.949       -9999.25    -9999.25    15.895      -9999.25    27.751      -9999.25    18.307      1.202       1.411       -9999.25    -9999.25    -9999.25    26.683      
198.9       32.917      147.296     2.253       8.581       -9999.25    -9999.25    15.455      -9999.25    27.771      -9999.25    18.035      1.165       1.387       -9999.25    -9999.25    -9999.25    27.31       
199.0       21.149      147.489     2.245       9.262       -9999.25    -9999.25    15.324      -9999.25    27.812      -9999.25    17.655      1.126       1.362       -9999.25    -9999.25    -9999.25    28.269      
199.1       15.207      148.005     2.238       9.791       -9999.25    -9999.25    15.198      -9999.25    27.814      -9999.25    17.173      1.085       1.283       -9999.25    -9999.25    -9999.25    29.372      
199.2       13.591      148.823     2.231       9.926       -9999.25    -9999.25    15.135      -9999.25    27.828      -9999.25    16.642      1.046       1.195       -9999.25    -9999.25    -9999.25    30.233      
199.3       13.351      149.158     2.232       9.852       -9999.25    -9999.25    15.129      -9999.25    27.823      -9999.25    16.141      1.026       1.104       -9999.25    -9999.25    -9999.25    30.631      
199.4       13.408      151.423     2.241       9.526       -9999.25    -9999.25    15.129      -9999.25    25.666      -9999.25    15.737      1.029       1.068       -9999.25    -9999.25    -9999.25    30.353      
199.5       13.905      155.23      2.258       9.199       -9999.25    -9999.25    15.125      -9999.25    24.584      -9999.25    15.463      1.049       1.041       -9999.25    -9999.25    -9999.25    29.597      
199.6       14.206      156.022     2.279       8.91        -9999.25    -9999.25    15.062      -9999.25    -9999.25    -9999.25    15.313      1.087       1.047       -9999.25    -9999.25    -9999.25    28.457      
199.7       16.139      156.143     2.3         8.71        -9999.25    -9999.25    14.97       -9999.25    -9999.25    -9999.25    15.273      1.116       1.074       -9999.25    -9999.25    -9999.25    27.514      
199.8       20.805      156.258     2.313       8.57        -9999.25    -9999.25    -9999.25    -9999.25    -9999.25    -9999.25    15.304      1.126       1.136       -9999.25    -9999.25    -9999.25    27.088      
199.9       26.295      157.486     2.314       8.68        -9999.25    -9999.25    -9999.25    -9999.25    -9999.25    -9999.25    15.356      1.123       1.157       -9999.25    -9999.25    -9999.25    27.48       
200.0       25.427      158.177     2.304       9.067       -9999.25    -9999.25    -9999.25    -9999.25    -9999.25    -9999.25    15.356      1.101       1.171       -9999.25    -9999.25    -9999.25    28.469      
200.1       17.432      154.972     2.285       9.503       -9999.25    -9999.25    -9999.25    -9999.25    -9999.25    -9999.25    15.25       1.059       1.175       -9999.25    -9999.25    -9999.25    29.979      
200.2       14.381      153.509     2.262       9.933       -9999.25    -9999.25    -9999.25    -9999.25    -9999.25    -9999.25    15.014      1.021       1.141       -9999.25    -9999.25    -9999.25    31.488      
200.3       12.528      150.422     2.243       10.286      -9999.25    -9999.25    -9999.25    -9999.25    -9999.25    -9999.25    14.702      0.991       1.076       -9999.25    -9999.25    -9999.25    32.943      
