~Version Information Section
VERS.                                         2.0:CWLS log ASCII Standart – VERSION 2.0
WRAP.                                          NO:One line per depth step
~Well Information Section
STRT.M                                        0.6:Начальная глубина
STOP.M                                      202.6:Конечная глубина
STEP.M                                          0:Шаг квантования по глубине
NULL.                                    -9999.25:Признак "Нет данных"
WELL.                                       130Мх:Скважина
~Parameter Information Section
~Curve Information Section
DEPTH.M                                          :Глубина
БК.Омм                                           :BK     (БК)
DСР.мм                                           :DS  (ДС)
W.g/cm3                                          :GGKp
ГК.гамма                                         :GK          (ГК)
А0.4М0.1N.Омм.ohmm                               :GZ1   ГЗ1(A0.4M0.1N)
А1.0М0.1N.Омм.ohmm                               :GZ2   ГЗ2(A1.0M0.1N)
А2.0М0.5N.Омм.ohmm                               :GZ3   ГЗ3(A2.0M0.5N)
А4.0М0.5N.Oмм.ohmm                               :GZ4   ГЗ4(A4.0M0.5N)
А8.0М1.0N.Омм.ohmm                               :GZ5   ГЗ5(A8.0M0.5N)
N0.5M2.0A.Омм.ohmm                               :GZK   ГЗK(N0.5M2.0A)
ИК.мСм/м                                         :IK
НГК.усл.ед                                       :NNKb  (ННКб)
ННКМ.усл.ед                                      :NNKm  (ННКм)
ПС.мВ                                            :PS       (ПС)
КС.Омм                                           :PZ    (КС)
R.Омм                                            :RS (Резистивиметр)
U1.мВ                                            :U1
U2.mV                                            :U2
U3.мВ                                            :U3
КП.%                                             :Кп
~ASCII LOG DATA
# ...
71.0        20.119      141.206     2.203       5.631       18.042      20.399      3.371       8.0         14.0        14.391      14.573      1.692       1.403       316.551     55.232      1.08        1623.638    1543.637    1315.638    36.622      
71.1        20.088      136.702     2.201       5.711       17.675      20.546      3.255       8.0         14.0        14.864      14.697      1.725       1.395       318.209     55.976      1.08        1619.638    1563.637    1315.638    36.088      
71.2        20.256      136.639     2.199       5.718       17.553      20.596      3.223       8.0         14.0        15.465      14.828      1.807       1.409       319.45      56.728      1.08        1615.637    1579.639    1335.638    34.843      
71.3        21.727      136.106     2.194       5.72        17.553      20.645      3.223       8.0         14.0        16.2        15.017      1.978       1.457       320.133     57.376      1.08        1611.638    1595.638    1347.638    34.361      
71.4        24.402      137.699     2.19        5.32        17.553      20.657      3.223       8.5         14.0        16.975      15.168      2.101       1.487       320.218     57.736      1.08        1603.638    1607.638    1359.638    34.397      
71.5        24.445      138.221     2.197       5.044       17.612      20.637      3.33        9.5         15.0        17.826      15.26       2.109       1.487       320.218     57.736      1.08        1599.638    1599.638    1359.638    34.301      
71.6        22.344      137.211     2.207       4.827       17.86       20.54       3.93        10.0        18.0        18.919      15.323      2.097       1.472       320.218     57.712      1.08        1595.638    1579.638    1351.639    34.159      
71.7        21.417      132.708     2.215       5.013       18.291      20.261      5.214       10.0        18.0        20.254      15.424      2.052       1.449       319.716     57.272      1.08        1583.637    1539.636    1323.637    33.987      
71.8        21.681      131.706     2.223       4.969       18.832      20.046      7.068       10.0        19.0        21.66       15.555      2.066       1.482       318.677     56.456      1.08        1559.638    1483.637    1307.638    32.93       
71.9        22.982      131.798     2.225       5.164       19.434      20.046      9.56        10.0        20.0        23.15       15.737      2.163       1.542       317.214     55.416      1.08        1527.638    1423.638    1283.638    31.799      
72.0        27.317      131.898     2.215       4.958       20.096      20.184      12.669      10.0        22.0        24.742      15.918      2.223       1.572       315.471     54.384      1.08        1487.639    1359.639    1263.638    30.371      
72.1        28.699      131.963     2.202       4.869       20.901      20.552      16.118      11.0        23.0        26.219      16.054      2.252       1.588       313.512     53.496      1.08        1447.639    1299.639    1247.639    29.764      
72.2        26.887      132.073     2.188       4.79        21.927      20.94       19.924      11.5        26.0        27.549      16.15       2.269       1.611       311.372     52.832      1.08        1419.637    1251.637    1227.637    29.471      
72.3        25.385      132.409     2.178       5.014       23.108      21.29       23.58       11.0        27.0        28.785      16.241      2.274       1.632       309.101     52.4        1.08        1383.638    1219.637    1195.638    29.509      
72.4        27.984      132.273     2.175       5.005       24.417      21.501      26.361      14.5        27.0        29.808      16.301      2.268       1.639       306.736     52.16       1.08        1363.638    1191.638    1171.638    32.339      
72.5        29.922      131.983     2.184       4.793       25.491      21.587      28.117      19.0        27.0        30.411      16.31       2.25        1.641       304.312     52.048      1.08        1351.638    1171.638    1132.089    35.065      
72.6        27.327      132.126     2.199       4.569       26.327      21.824      28.715      20.0        20.0        30.583      16.377      2.271       1.628       301.868     52.008      1.08        1335.639    1157.878    1049.611    37.491      
72.7        29.113      132.748     2.216       4.539       26.799      21.994      28.715      19.5        20.0        30.583      16.422      2.336       1.611       299.429     52.0        1.08        1315.637    1114.665    937.246     37.63       
72.8        29.766      135.164     2.23        4.572       26.799      21.974      28.611      19.0        20.0        30.459      16.395      2.369       1.601       296.992     52.0        1.08        1311.638    1051.512    809.445     38.672      
72.9        25.251      136.792     2.237       4.77        26.349      21.576      27.657      19.0        20.0        29.912      16.341      2.417       1.594       294.568     52.0        1.08        1307.638    975.093     685.086     39.653      
73.0        22.292      139.51      2.239       5.102       25.2        20.621      25.891      18.0        21.0        28.838      16.309      2.35        1.6         292.176     52.0        1.08        1293.917    890.995     584.275     39.55       
73.1        21.527      139.964     2.235       5.455       23.609      19.41       23.813      16.0        21.0        27.422      16.26       2.174       1.609       289.841     52.0        1.08        1284.196    812.656     551.661     38.701      
73.2        20.979      138.515     2.23        5.704       21.673      18.241      21.558      14.5        21.0        26.038      16.223      2.066       1.53        287.619     52.0        1.08        1300.928    803.184     591.727     38.761      
73.3        17.868      139.852     2.227       5.78        19.756      17.196      19.554      13.0        21.0        25.122      16.191      1.813       1.451       285.594     52.0        1.08        1336.116    824.734     613.692     38.766      
73.4        16.579      140.742     2.225       5.658       18.17       16.373      17.883      11.5        21.0        24.824      16.216      1.802       1.416       283.834     52.0        1.08        1394.67     808.35      578.238     37.383      
73.5        16.866      139.871     2.224       5.538       17.167      15.998      16.568      11.0        21.0        24.824      16.275      1.772       1.382       282.393     52.0        1.08        1476.046    772.149     516.434     34.311      
73.6        17.258      140.769     2.228       5.449       16.76       15.93       15.904      11.0        22.0        24.824      16.432      1.75        1.359       281.303     52.0        1.08        1561.336    735.95      433.365     30.941      
73.7        17.599      143.291     2.237       5.527       16.639      15.924      15.792      11.0        24.0        24.837      16.669      1.747       1.343       280.559     52.0        1.08        1620.441    687.303     333.807     28.857      
73.8        17.779      141.197     2.248       5.654       16.639      15.952      15.792      11.5        26.0        25.324      16.954      1.836       1.364       280.106     52.008      1.08        1650.955    697.664     351.739     27.97       
73.9        17.921      136.611     2.26        5.463       16.678      16.03       15.792      12.0        27.0        26.815      17.359      1.949       1.395       279.885     52.032      1.08        1658.586    816.485     497.349     28.425      
74.0        18.609      134.011     2.271       5.22        16.935      16.387      16.0        12.5        29.0        29.074      17.966      2.057       1.443       279.844     52.08       1.08        1657.117    979.474     690.84      29.061      
74.1        20.524      132.161     2.269       4.845       17.709      17.172      16.633      13.5        30.0        31.697      18.692      2.248       1.502       279.844     52.16       1.08        1680.998    1156.098    888.562     29.775      
