~Version Information Section
VERS.                                         2.0:CWLS log ASCII Standart – VERSION 2.0
WRAP.                                          NO:One line per depth step
~Well Information Section
STRT.M                                        0.6:Начальная глубина
STOP.M                                      202.6:Конечная глубина
STEP.M                                          0:Шаг квантования по глубине
NULL.                                    -9999.25:Признак "Нет данных"
WELL.                                       130Мх:Скважина
~Parameter Information Section
~Curve Information Section
DEPTH.M                                          :Глубина
БК.Омм                                           :BK     (БК)
DСР.мм                                           :DS  (ДС)
W.g/cm3                                          :GGKp
ГК.гамма                                         :GK          (ГК)
А0.4М0.1N.Омм.ohmm                               :GZ1   ГЗ1(A0.4M0.1N)
А1.0М0.1N.Омм.ohmm                               :GZ2   ГЗ2(A1.0M0.1N)
А2.0М0.5N.Омм.ohmm                               :GZ3   ГЗ3(A2.0M0.5N)
А4.0М0.5N.Oмм.ohmm                               :GZ4   ГЗ4(A4.0M0.5N)
А8.0М1.0N.Омм.ohmm                               :GZ5   ГЗ5(A8.0M0.5N)
N0.5M2.0A.Омм.ohmm                               :GZK   ГЗK(N0.5M2.0A)
ИК.мСм/м                                         :IK
НГК.усл.ед                                       :NNKb  (ННКб)
ННКМ.усл.ед                                      :NNKm  (ННКм)
ПС.мВ                                            :PS       (ПС)
КС.Омм                                           :PZ    (КС)
R.Омм                                            :RS (Резистивиметр)
U1.мВ                                            :U1
U2.mV                                            :U2
U3.мВ                                            :U3
КП.%                                             :Кп
~ASCII LOG DATA
# ...
83.8        47.085      131.478     2.163       3.393       66.461      51.821      49.556      30.159      26.346      43.358      30.144      2.497       1.701       275.723     78.2        1.08        1627.638    1719.638    1535.638    27.796      
83.9        46.007      133.006     2.17        3.18        66.825      51.957      49.768      30.235      26.81       43.0        30.143      2.426       1.7         276.581     78.792      1.08        1639.638    1707.638    1523.638    26.604      
84.0        44.156      132.684     2.175       3.331       67.345      52.194      49.971      30.377      26.971      42.583      30.183      2.385       1.709       277.221     79.368      1.08        1623.638    1699.638    1515.638    25.854      
84.1        45.226      133.264     2.173       3.195       67.817      52.194      50.172      30.701      27.403      41.853      30.319      2.488       1.733       277.582     79.92       1.08        1615.638    1679.638    1503.638    25.646      
84.2        48.307      132.372     2.164       3.326       68.541      52.131      50.412      31.179      28.116      40.615      30.42       2.605       1.745       277.649     80.432      1.08        1615.638    1663.638    1487.638    26.305      
84.3        51.372      133.327     2.149       3.473       69.648      52.168      50.686      31.92       29.098      39.193      30.459      2.627       1.737       277.649     80.88       1.08        1611.638    1643.638    1475.638    27.016      
84.4        50.738      132.706     2.134       3.417       71.028      52.742      51.16       33.175      30.192      38.118      30.505      2.665       1.747       277.649     81.232      1.08        1603.638    1623.638    1463.638    28.023      
84.5        54.509      132.656     2.124       3.399       72.667      53.794      51.806      34.644      31.217      37.447      30.557      2.733       1.779       277.432     81.504      1.08        1599.638    1595.638    1443.638    28.561      
84.6        50.972      133.831     2.121       3.348       74.163      54.745      52.626      36.129      31.563      37.055      30.541      2.807       1.795       276.946     81.704      1.08        1615.637    1575.638    1423.638    28.041      
84.7        48.822      134.515     2.121       3.482       75.203      55.631      53.802      37.89       31.563      36.597      30.414      2.922       1.795       276.222     81.84       1.08        1607.638    1559.638    1399.637    26.983      
84.8        49.634      134.31      2.123       3.385       75.61       56.398      55.028      39.663      31.563      35.972      30.301      2.975       1.81        275.299     81.912      1.08        1603.638    1555.638    1371.637    25.547      
84.9        49.855      132.686     2.129       3.215       75.839      57.177      55.948      41.003      31.031      35.479      30.269      2.959       1.835       274.17      81.912      1.08        1599.638    1567.638    1339.638    25.019      
85.0        54.19       134.201     2.134       3.031       76.303      58.267      56.761      42.036      30.174      35.375      30.17       2.885       1.843       272.824     81.912      1.08        1599.638    1579.638    1275.639    26.013      
85.1        56.648      133.647     2.137       3.044       77.393      59.683      57.488      42.955      29.114      35.563      29.942      2.702       1.842       271.267     81.8        1.08        1579.638    1559.638    1207.64     27.313      
85.2        53.498      132.872     2.141       3.062       78.306      60.854      57.977      43.602      27.959      35.822      29.704      2.71        1.793       269.522     81.536      1.08        1583.638    1539.637    1135.635    28.403      
85.3        47.316      131.813     2.15        3.209       78.615      61.581      58.201      43.961      27.177      35.911      29.397      2.84        1.733       267.643     81.072      1.08        1563.638    1519.637    1071.637    28.152      
85.4        47.574      132.83      2.154       3.258       79.226      62.287      58.15       44.104      26.995      35.717      28.982      2.884       1.791       265.705     80.376      1.08        1539.638    1479.638    1007.638    27.565      
85.5        52.857      132.64      2.161       3.271       79.609      62.651      57.875      44.087      26.889      35.458      28.501      2.922       1.878       263.797     79.456      1.08        1495.639    1435.638    975.638     27.064      
85.6        56.697      132.471     2.171       3.127       79.538      62.584      57.449      44.07       26.693      35.231      27.954      2.95        1.865       261.996     78.368      1.08        1451.64     1423.639    959.638     26.021      
85.7        51.958      132.029     2.178       3.003       79.647      62.516      56.998      43.989      26.581      34.928      27.419      2.996       1.828       260.368     77.168      1.08        1427.638    1407.637    955.638     25.443      
85.8        54.015      132.014     2.182       3.04        79.826      62.516      56.506      43.593      26.555      34.433      26.779      2.931       1.825       258.929     75.92       1.08        1367.637    1363.637    971.638     25.669      
85.9        59.587      132.142     2.189       3.093       79.826      62.33       56.056      43.093      26.566      33.691      26.094      2.779       1.829       257.677     74.672      1.08        1311.638    1315.638    979.638     26.16       
86.0        64.816      132.312     2.195       3.151       79.686      62.144      55.858      42.908      26.566      32.731      25.419      2.773       1.826       256.584     73.456      1.08        1267.639    1271.639    975.638     25.364      
86.1        66.183      132.307     2.208       3.223       79.495      62.144      55.858      42.908      26.473      31.736      24.672      2.757       1.822       255.616     72.24       1.08        1211.64     1215.64     971.638     24.194      
86.2        61.34       132.386     2.23        3.563       79.851      62.585      55.689      42.908      26.382      30.825      23.707      2.788       1.806       254.743     70.968      1.08        1123.637    1155.637    967.637     23.179      
86.3        57.616      132.41      2.26        3.839       80.014      62.884      55.254      42.592      26.125      29.956      22.767      2.874       1.785       253.966     69.6        1.08        1095.637    1123.637    927.638     23.889      
86.4        57.726      132.209     2.288       4.304       79.191      62.249      54.76       42.03       25.604      29.125      22.1        2.936       1.801       253.294     68.12       1.08        1075.638    1087.638    891.638     25.16       
86.5        59.472      132.04      2.318       4.42        76.965      61.025      53.897      41.112      24.95       28.527      21.435      3.027       1.823       252.74      66.512      1.08        1055.638    1055.638    863.639     24.906      
86.6        57.756      132.288     2.342       4.66        69.73       56.319      51.8        38.986      24.324      28.33       20.711      2.963       1.84        252.321     64.824      1.08        1039.638    1031.639    728.669     22.438      
86.7        48.048      134.361     2.357       4.962       58.217      48.536      48.049      35.661      23.602      28.33       20.433      2.879       1.852       252.046     63.176      1.08        1035.638    1015.637    593.685     20.108      
86.8        28.44       133.337     2.373       5.453       46.557      42.253      43.578      31.975      22.486      28.33       20.388      2.983       1.839       251.894     61.672      1.08        1031.638    995.638     501.426     20.724      
86.9        11.687      131.865     2.388       6.342       35.56       37.251      39.324      28.274      21.192      29.062      19.602      3.094       1.83        251.869     60.4        1.08        1054.159    987.638     410.942     25.466      
