~Version Information Section
VERS.                                         2.0:CWLS log ASCII Standart – VERSION 2.0
WRAP.                                          NO:One line per depth step
~Well Information Section
STRT.M                                        0.6:Начальная глубина
STOP.M                                      205.9:Конечная глубина
STEP.M                                          0:Шаг квантования по глубине
NULL.                                    -9999.25:Признак "Нет данных"
WELL.                                       106Мх:Скважина
~Parameter Information Section
~Curve Information Section
DEPTH.M                                          :Глубина
BK.Ohm*M                                         :BK     (БК)
DS.mm                                            :DS  (ДС)
GGK.g/cm3                                        :GGKp
ГК.mcr/h                                         :GK          (ГК)
GZ1.Ohm*M                                        :GZ1   ГЗ1(A0.4M0.1N)
GZ2.Ohm*M                                        :GZ2   ГЗ2(A1.0M0.1N)
GZ3.Ohm*M                                        :GZ3   ГЗ3(A2.0M0.5N)
U2.mV                                            :U2
U3.mV                                            :U3
КП.%                                             :Кп
GZ4.Ohm*M                                        :GZ4   ГЗ4(A4.0M0.5N)
GZ5.Ohm*M                                        :GZ5   ГЗ5(A8.0M0.5N)
GZR.Ohm*M                                        :GZK   ГЗK(N0.5M2.0A)
ИК.Ohm*M                                         :IK
НГК.u.e.                                         :NGK
NNKM.                                            :NNKm  (ННКм)
PS.mv                                            :PS       (ПС)
PZ.Ohm*M                                         :PZ    (КС)
RS.Ohm*M                                         :RS (Резистивиметр)
U1.mV                                            :U1
~ASCII LOG DATA
# ...
128.6       51.761      122.469     2.208       6.927       48.634      20.858      22.882      640.0       708.792     32.241      27.108      59.892      48.595      23.206      1.357       2.437       998.947     34.385      1.1         640.356     
128.7       93.756      122.506     2.198       6.331       55.818      24.067      22.907      640.0       789.773     30.462      34.14       64.501      46.177      24.748      1.388       2.571       990.391     36.904      1.1         716.738     
128.8       88.716      122.608     2.18        5.824       62.558      28.411      23.32       640.0       837.778     30.731      44.419      69.394      43.771      26.443      1.393       2.496       980.467     40.385      1.1         780.0       
128.9       77.09       122.669     2.17        5.546       67.98       32.042      23.72       650.0       846.667     31.183      55.379      75.508      41.141      28.934      1.375       2.455       968.489     44.311      1.1         786.666     
129.0       75.162      122.752     2.169       5.621       71.948      35.36       24.032      680.0       828.651     31.632      66.005      82.376      36.158      30.662      1.353       2.475       944.533     48.193      1.1         786.667     
129.1       75.858      122.632     2.175       5.689       75.087      39.144      24.157      680.0       785.955     31.802      73.519      89.243      33.566      31.992      1.345       2.514       907.231     51.659      1.1         786.666     
129.2       80.91       122.828     2.194       5.642       77.245      42.873      24.101      680.0       730.842     30.688      73.626      94.699      31.396      33.109      1.336       2.562       860.689     54.652      1.1         780.0       
129.3       86.896      122.964     2.219       5.46        77.594      46.419      24.18       680.0       709.138     28.836      64.967      99.121      29.675      34.367      1.284       2.586       825.098     57.067      1.1         786.667     
129.4       86.696      122.87      2.239       5.7         77.594      50.264      24.387      690.0       715.083     26.504      50.813      104.107     28.795      34.911      1.318       2.594       803.88      59.052      1.1         796.666     
129.5       89.95       122.836     2.247       5.884       76.684      53.811      24.761      710.0       725.065     25.143      48.931      111.351     28.437      36.193      1.385       2.634       793.613     60.607      1.1         769.306     
129.6       101.391     122.765     2.239       6.093       75.946      56.888      25.404      588.921     708.363     25.165      48.931      121.417     28.335      36.528      1.461       2.682       784.373     61.837      1.1         653.356     
129.7       102.565     122.819     2.222       6.078       75.946      60.986      26.375      442.101     673.448     25.838      52.571      131.858     28.546      37.089      1.422       2.557       771.711     62.904      1.1         534.097     
129.8       75.858      122.892     2.201       6.197       76.631      65.257      27.556      442.101     636.815     28.201      53.611      140.232     31.117      37.619      1.331       2.39        758.022     64.015      1.1         459.322     
129.9       61.376      122.793     2.184       6.269       78.236      68.788      28.948      444.489     603.807     30.262      55.171      144.653     30.904      37.799      1.269       2.385       743.649     65.2        1.1         457.914     
130.0       64.269      122.937     2.187       6.26        79.299      71.59       30.187      403.548     573.615     30.786      55.691      146.252     30.153      37.703      1.28        2.42        731.329     66.296      1.1         440.811     
130.1       59.156      122.982     2.207       6.189       79.299      73.773      31.194      360.219     547.218     29.898      63.491      146.44      29.41       37.571      1.321       2.503       720.036     67.348      1.1         416.563     
130.2       59.841      122.814     2.231       6.056       79.209      71.971      32.028      360.219     528.293     28.449      62.451      146.534     28.592      37.089      1.381       2.595       710.453     68.519      1.1         445.278     
130.3       77.983      122.8       2.26        5.947       77.922      70.21       33.099      416.199     516.112     28.371      60.891      147.193     27.289      36.915      1.444       2.694       705.662     70.059      1.1         534.113     
130.4       96.605      122.798     2.283       5.901       75.996      68.799      34.424      472.18      517.484     26.378      59.331      149.168     25.971      37.043      1.5         2.795       705.662     71.644      1.1         614.407     
130.5       100.462     122.568     2.297       5.804       73.571      68.0        36.318      493.846     529.402     24.61       58.811      152.931     24.643      37.089      1.529       2.777       705.662     72.933      1.1         597.367     
130.6       96.161      122.538     2.304       5.755       70.776      66.722      38.197      459.531     540.64      24.099      57.771      157.635     23.436      37.393      1.501       2.744       709.769     73.526      1.1         535.908     
130.7       90.365      122.329     2.309       5.886       67.816      65.226      39.844      459.531     533.185     25.442      57.771      161.586     22.717      37.441      1.45        2.666       714.218     73.585      1.1         524.425     
130.8       82.414      122.136     2.309       6.222       64.993      63.671      41.637      471.731     509.708     27.119      57.251      163.656     22.31       37.265      1.392       2.588       718.667     73.585      1.1         600.032     
130.9       63.68       122.437     2.311       6.484       63.079      61.555      43.239      482.097     491.881     27.572      56.895      163.938     22.028      36.574      1.429       2.521       723.116     73.304      1.1         665.014     
131.0       55.463      123.119     2.312       6.793       62.054      61.92       44.785      479.303     490.319     28.072      56.398      163.279     21.857      35.792      1.372       2.465       727.564     72.889      1.1         688.555     
131.1       44.361      123.697     2.315       6.847       61.693      61.952      45.865      479.303     503.76      28.039      55.391      162.338     21.868      35.111      1.394       2.521       732.013     72.356      1.1         685.187     
131.2       50.466      123.84      2.319       7.04        61.256      61.322      47.199      500.432     517.079     27.235      54.191      161.398     21.605      34.541      1.371       2.572       735.778     71.704      1.1         700.867     
131.3       76.56       124.172     2.324       7.007       60.451      60.633      47.974      523.172     521.019     26.325      53.434      160.175     20.969      33.718      1.389       2.604       739.542     70.859      1.1         724.994     
131.4       85.114      124.011     2.327       6.914       59.01       59.168      48.044      535.103     512.144     25.721      53.527      158.199     20.246      33.532      1.375       2.631       743.307     69.704      1.1         755.379     
131.5       69.984      123.766     2.329       6.702       56.747      56.44       47.692      520.864     522.63      26.067      54.12       153.966     19.476      33.291      1.327       2.631       747.413     67.719      1.1         719.481     
131.6       61.235      123.661     2.33        6.512       52.623      53.729      46.757      484.97      584.115     26.712      54.305      146.345     18.853      32.875      1.367       2.629       751.178     64.652      1.1         592.384     
131.7       57.016      123.874     2.333       6.503       48.429      51.096      45.436      446.333     681.49      27.162      53.132      134.399     18.062      32.603      1.415       2.621       754.6       60.341      1.1         451.811     
