~Version Information Section
VERS.                                         2.0:CWLS log ASCII Standart – VERSION 2.0
WRAP.                                          NO:One line per depth step
~Well Information Section
STRT.M                                        1.0:Начальная глубина
STOP.M                                      208.3:Конечная глубина
STEP.M                                          0:Шаг квантования по глубине
NULL.                                    -9999.25:Признак "Нет данных"
WELL.                                       131Мх:Скважина
~Parameter Information Section
~Curve Information Section
DEPTH.M                                          :Глубина
БК.Омм                                           :BK     (БК)
DСР.мм                                           :DS  (ДС)
ГК.гамма                                         :GK          (ГК)
А0.4М0.1N.Омм.ohmm                               :GZ1   ГЗ1(A0.4M0.1N)
А1.0М0.1N.Омм.ohmm                               :GZ2   ГЗ2(A1.0M0.1N)
А2.0М0.5N.Омм.ohmm                               :GZ3   ГЗ3(A2.0M0.5N)
А4.0М0.5N.Oмм.ohmm                               :GZ4   ГЗ4(A4.0M0.5N)
А8.0М1.0N.Омм.ohmm                               :GZ5   ГЗ5(A8.0M0.5N)
N0.5M2.0A.Омм.ohmm                               :GZK   ГЗK(N0.5M2.0A)
ИК.мСм/м                                         :IK
НГК.усл.ед                                       :NGK     (НГК)
ПС.mv                                            :PS       (ПС)
П.%                                              :п
PZ.Омм                                           :PZ    (КС)
R.Омм                                            :RS (Резистивиметр)
U1.мВ                                            :U1
U2.mV                                            :U2
U3.мВ                                            :U3
W.г/см3                                          :ГГКп
~ASCII LOG DATA
# ...
83.0        26.402      142.469     5.569       -9999.25    -9999.25    -9999.25    -9999.25    -9999.25    -9999.25    13.209      1.099       179.263     37.266      23.073      1.12        1445.603    1404.184    1383.344    2.318       
83.05       -9999.25    -9999.25    -9999.25    14.065      13.369      13.192      9.121       12.013      13.51       -9999.25    -9999.25    -9999.25    -9999.25    -9999.25    -9999.25    -9999.25    -9999.25    -9999.25    -9999.25    
83.1        26.286      145.328     5.473       -9999.25    -9999.25    -9999.25    -9999.25    -9999.25    -9999.25    13.19       1.117       178.963     38.613      23.368      1.12        1454.323    1419.342    1404.79     2.264       
83.15       -9999.25    -9999.25    -9999.25    14.065      13.491      13.218      9.185       12.593      14.463      -9999.25    -9999.25    -9999.25    -9999.25    -9999.25    -9999.25    -9999.25    -9999.25    -9999.25    -9999.25    
83.2        25.469      149.233     5.529       -9999.25    -9999.25    -9999.25    -9999.25    -9999.25    -9999.25    13.259      1.11        177.903     40.083      23.864      1.12        1503.334    1462.056    1442.391    2.236       
83.25       -9999.25    -9999.25    -9999.25    14.065      13.741      13.487      9.532       13.455      15.975      -9999.25    -9999.25    -9999.25    -9999.25    -9999.25    -9999.25    -9999.25    -9999.25    -9999.25    -9999.25    
83.3        24.446      154.834     5.515       -9999.25    -9999.25    -9999.25    -9999.25    -9999.25    -9999.25    13.399      1.078       175.936     39.747      24.432      1.12        1617.252    1542.909    1493.406    2.162       
83.35       -9999.25    -9999.25    -9999.25    14.274      14.186      14.086      10.309      14.624      18.047      -9999.25    -9999.25    -9999.25    -9999.25    -9999.25    -9999.25    -9999.25    -9999.25    -9999.25    -9999.25    
83.4        23.853      150.562     5.597       -9999.25    -9999.25    -9999.25    -9999.25    -9999.25    -9999.25    13.581      1.076       173.404     39.026      25.115      1.12        1711.088    1628.73     1572.544    2.073       
83.45       -9999.25    -9999.25    -9999.25    15.153      14.826      15.059      11.569      16.07       20.578      -9999.25    -9999.25    -9999.25    -9999.25    -9999.25    -9999.25    -9999.25    -9999.25    -9999.25    -9999.25    
83.5        23.487      156.318     5.688       -9999.25    -9999.25    -9999.25    -9999.25    -9999.25    -9999.25    13.791      1.077       170.676     38.513      25.949      1.12        1786.719    1686.008    1576.01     2.039       
83.55       -9999.25    -9999.25    -9999.25    16.774      15.75       16.411      13.319      17.764      23.464      -9999.25    -9999.25    -9999.25    -9999.25    -9999.25    -9999.25    -9999.25    -9999.25    -9999.25    -9999.25    
83.6        23.354      167.668     5.849       -9999.25    -9999.25    -9999.25    -9999.25    -9999.25    -9999.25    14.033      1.101       168.012     37.95       26.882      1.12        1893.723    1713.488    1552.459    2.019       
83.65       -9999.25    -9999.25    -9999.25    19.062      16.971      18.167      15.685      19.722      26.607      -9999.25    -9999.25    -9999.25    -9999.25    -9999.25    -9999.25    -9999.25    -9999.25    -9999.25    -9999.25    
83.7        24.736      183.799     5.776       -9999.25    -9999.25    -9999.25    -9999.25    -9999.25    -9999.25    14.294      1.145       165.651     36.938      27.878      1.12        2007.332    1752.39     1552.459    2.0         
83.75       -9999.25    -9999.25    -9999.25    22.009      18.327      20.242      18.498      21.965      29.736      -9999.25    -9999.25    -9999.25    -9999.25    -9999.25    -9999.25    -9999.25    -9999.25    -9999.25    -9999.25    
83.8        30.025      189.75      5.73        -9999.25    -9999.25    -9999.25    -9999.25    -9999.25    -9999.25    14.64       1.203       163.778     35.857      29.04       1.12        2114.837    1815.262    1580.261    2.013       
83.85       -9999.25    -9999.25    -9999.25    25.739      19.941      22.537      21.44       24.371      32.469      -9999.25    -9999.25    -9999.25    -9999.25    -9999.25    -9999.25    -9999.25    -9999.25    -9999.25    -9999.25    
83.9        42.89       163.483     5.548       -9999.25    -9999.25    -9999.25    -9999.25    -9999.25    -9999.25    15.153      1.22        162.488     34.778      30.229      1.12        2221.761    1885.317    1622.421    2.075       
83.95       -9999.25    -9999.25    -9999.25    29.821      21.663      24.896      24.265      26.696      34.306      -9999.25    -9999.25    -9999.25    -9999.25    -9999.25    -9999.25    -9999.25    -9999.25    -9999.25    -9999.25    
84.0        56.91       146.957     5.252       -9999.25    -9999.25    -9999.25    -9999.25    -9999.25    -9999.25    15.747      1.255       161.774     32.948      31.309      1.12        2310.28     1928.5      1601.212    2.144       
84.05       -9999.25    -9999.25    -9999.25    33.977      23.142      26.847      26.385      28.544      34.865      -9999.25    -9999.25    -9999.25    -9999.25    -9999.25    -9999.25    -9999.25    -9999.25    -9999.25    -9999.25    
84.1        65.006      135.465     4.722       -9999.25    -9999.25    -9999.25    -9999.25    -9999.25    -9999.25    16.346      1.294       161.511     30.347      32.311      1.12        2339.042    1920.553    1601.212    2.219       
84.15       -9999.25    -9999.25    -9999.25    38.192      24.417      27.828      27.261      29.433      34.865      -9999.25    -9999.25    -9999.25    -9999.25    -9999.25    -9999.25    -9999.25    -9999.25    -9999.25    -9999.25    
84.2        69.395      134.974     4.311       -9999.25    -9999.25    -9999.25    -9999.25    -9999.25    -9999.25    16.972      1.317       161.467     28.845      33.213      1.12        2187.202    1886.648    1602.461    2.285       
84.25       -9999.25    -9999.25    -9999.25    41.334      24.997      27.828      27.261      29.589      34.865      -9999.25    -9999.25    -9999.25    -9999.25    -9999.25    -9999.25    -9999.25    -9999.25    -9999.25    -9999.25    
84.3        71.672      134.908     3.977       -9999.25    -9999.25    -9999.25    -9999.25    -9999.25    -9999.25    17.527      1.313       161.467     27.664      33.849      1.12        2061.554    1850.467    1655.146    2.34        
84.35       -9999.25    -9999.25    -9999.25    42.522      24.997      27.828      27.261      29.589      33.944      -9999.25    -9999.25    -9999.25    -9999.25    -9999.25    -9999.25    -9999.25    -9999.25    -9999.25    -9999.25    
84.4        70.91       134.844     3.853       -9999.25    -9999.25    -9999.25    -9999.25    -9999.25    -9999.25    17.884      1.339       161.556     26.591      34.308      1.12        2023.288    1846.72     1685.379    2.341       
84.45       -9999.25    -9999.25    -9999.25    42.522      24.997      27.588      26.733      29.089      31.736      -9999.25    -9999.25    -9999.25    -9999.25    -9999.25    -9999.25    -9999.25    -9999.25    -9999.25    -9999.25    
84.5        65.839      134.889     3.662       -9999.25    -9999.25    -9999.25    -9999.25    -9999.25    -9999.25    18.053      1.346       161.978     25.522      34.649      1.12        2023.288    1846.72     1709.537    2.319       
84.55       -9999.25    -9999.25    -9999.25    42.522      24.817      26.028      24.901      27.519      28.673      -9999.25    -9999.25    -9999.25    -9999.25    -9999.25    -9999.25    -9999.25    -9999.25    -9999.25    -9999.25    
84.6        61.634      135.025     3.712       -9999.25    -9999.25    -9999.25    -9999.25    -9999.25    -9999.25    18.074      1.348       162.943     24.706      34.844      1.12        2030.42     1879.941    1765.405    2.314       
84.65       -9999.25    -9999.25    -9999.25    41.704      24.071      23.364      22.06       24.956      25.504      -9999.25    -9999.25    -9999.25    -9999.25    -9999.25    -9999.25    -9999.25    -9999.25    -9999.25    -9999.25    
