~Version Information Section
VERS.                                         2.0:CWLS log ASCII Standart – VERSION 2.0
WRAP.                                          NO:One line per depth step
~Well Information Section
STRT.M                                        0.8:Начальная глубина
STOP.M                                      209.6:Конечная глубина
STEP.M                                          0:Шаг квантования по глубине
NULL.                                    -9999.25:Признак "Нет данных"
WELL.                                         5Мх:Скважина
~Parameter Information Section
~Curve Information Section
DEPTH.M                                          :Глубина
BK.Ohm*M                                         :BK     (БК)
DS.mm                                            :DS  (ДС)
ГК.mcr/h                                         :GK          (ГК)
GZ1.Ohm*M                                        :GZ1   ГЗ1(A0.4M0.1N)
GZ2.Ohm*M                                        :GZ2   ГЗ2(A1.0M0.1N)
GZ3.Ohm*M                                        :GZ3   ГЗ3(A2.0M0.5N)
GZ4.Ohm*M                                        :GZ4   ГЗ4(A4.0M0.5N)
GZ5.Ohm*M                                        :GZ5   ГЗ5(A8.0M0.5N)
GZR.Ohm*M                                        :GZK   ГЗK(N0.5M2.0A)
ИК.Ohm*M                                         :IK
НГК.                                             :NNKb  (ННКб)
NNKM.                                            :NNKm  (ННКм)
PS.mv                                            :PS       (ПС)
PZ.Ohm*M                                         :PZ    (КС)
RS.Ohm*M                                         :RS (Резистивиметр)
W.%                                              :W
ГГК.g/cm3                                        :ГГК
SGDT1.1/min                                      :ПЛ1
SGDT2.1/min                                      :ПЛ2
SGDT3.1/min                                      :ПЛ3
SGDT4.1/min                                      :ПЛ4
~ASCII LOG DATA
# ...
69.0        18.197      176.162     5.563       3.215       10.314      4.714       4.324       18.322      2.813       15.387      2.796       1.908       912.218     13.011      0.875       34.658      2.201       16770.586   22700.0     16600.0     5201.445    
69.2        19.099      182.491     5.737       3.286       10.202      5.074       4.324       18.322      2.907       15.495      2.653       1.882       912.473     12.993      0.871       35.774      2.185       17721.115   22638.125   16690.615   5489.551    
69.4        14.689      180.877     5.923       3.588       10.276      5.254       4.644       18.502      2.702       15.393      2.571       1.856       919.274     12.673      0.865       36.885      2.164       17873.789   23419.102   16710.752   5231.953    
69.6        13.092      175.612     5.855       3.658       10.463      5.074       4.724       19.042      2.459       15.155      2.5         1.785       923.38      12.746      0.863       36.187      2.172       17815.008   23219.922   16253.379   4784.297    
69.8        14.555      171.883     5.622       3.592       10.481      4.894       4.724       19.222      2.403       15.28       2.623       1.855       925.437     13.825      0.863       36.048      2.211       16909.805   22586.875   14935.547   4101.797    
70.0        16.788      170.308     5.459       3.374       10.388      4.894       4.644       18.862      2.403       15.578      2.699       1.944       922.829     14.611      0.862       36.451      2.241       14486.445   21417.109   14785.986   4091.094    
70.2        14.388      169.814     5.708       3.316       10.314      4.894       4.324       18.322      2.609       15.881      2.722       1.939       919.621     14.689      0.859       36.624      2.246       14927.82    21008.574   15386.787   4585.625    
70.4        13.335      166.904     6.048       3.465       10.37       4.894       4.164       17.782      2.944       15.989      2.525       1.822       916.277     14.65       0.857       37.662      2.269       15004.961   21192.5     15206.885   4604.082    
70.6        14.757      164.761     5.355       3.439       10.425      4.714       4.324       17.422      3.317       16.323      2.594       1.891       914.969     14.917      0.857       37.339      2.294       14745.023   20912.07    15554.219   4988.516    
70.8        17.1        161.492     4.721       3.383       10.332      4.714       4.324       17.602      3.559       17.164      2.819       1.981       915.763     16.2        0.857       35.978      2.282       15082.969   20974.883   17115.146   5691.797    
71.0        16.672      153.99      4.831       3.495       10.202      4.714       4.404       18.142      3.522       17.854      2.737       2.006       911.608     19.131      0.857       37.236      2.227       15715.0     22624.668   17809.893   5538.438    
71.2        23.388      153.374     4.669       3.79        10.202      5.074       4.484       18.502      3.187       18.633      2.889       2.06        901.041     21.681      0.857       37.114      2.17        17953.055   23077.422   17448.926   5360.0      
71.4        22.803      153.033     4.777       3.957       10.165      5.074       5.204       18.862      3.391       19.388      2.891       2.035       892.36      24.463      0.857       35.727      2.138       19201.523   22931.406   17367.266   5516.055    
71.6        26.669      152.859     5.074       4.46        10.314      5.794       5.604       19.582      3.801       19.898      2.919       2.043       891.337     24.84       0.857       35.478      2.128       20121.328   23283.867   17587.852   5521.621    
71.8        24.434      153.804     5.661       4.423       10.724      6.154       5.364       20.122      4.435       20.329      2.926       2.097       892.95      22.478      0.857       37.203      2.131       20231.191   23734.961   17034.873   5395.156    
72.0        20.417      152.652     5.994       4.78        11.208      7.054       5.124       19.942      4.809       20.798      2.81        2.054       892.843     21.236      0.857       36.586      2.114       19817.695   24135.938   17141.865   5254.395    
72.2        23.067      151.75      4.931       4.803       11.45       6.514       4.964       19.402      4.697       21.079      3.207       2.02        890.896     21.478      0.857       30.421      2.075       20558.996   24088.027   17467.949   5269.609    
72.4        31.189      151.504     4.558       4.202       11.264      6.334       4.724       19.402      4.25        21.288      3.625       2.099       888.888     24.07       0.857       26.953      2.059       22455.02    24136.094   17395.596   5204.043    
72.6        33.884      151.666     4.092       3.913       11.077      6.334       4.564       20.122      3.522       21.562      3.942       2.247       891.249     26.274      0.857       26.336      2.09        22332.006   24044.004   16126.485   5045.625    
72.8        44.157      153.403     4.635       4.065       11.245      6.334       4.564       20.482      3.075       21.682      3.847       2.331       894.846     26.585      0.857       28.761      2.124       21454.414   24143.125   16431.592   5281.563    
73.0        40.926      154.212     4.952       4.117       11.077      7.414       5.124       20.122      4.081       21.562      3.762       2.389       906.698     25.465      0.857       30.998      2.156       21445.527   26117.422   17485.947   5527.188    
73.2        29.923      155.963     5.052       4.542       11.283      7.414       5.364       19.582      6.28        21.041      3.271       2.245       920.746     21.519      0.857       33.865      2.176       20277.539   26134.414   17996.396   5480.801    
73.4        27.04       159.413     5.048       4.907       11.767      6.874       4.964       19.042      9.376       20.78       3.085       2.17        926.226     17.25       0.857       35.395      2.181       17574.336   24600.059   17836.797   5320.0      
73.6        20.941      153.764     4.844       4.236       11.413      6.334       4.644       18.142      11.65       20.742      3.055       2.022       927.741     15.847      0.857       32.428      2.211       18269.477   23820.0     17044.336   4923.809    
73.8        19.099      150.196     4.351       4.005       11.338      5.794       4.404       17.782      11.519      20.651      3.594       2.021       924.657     19.481      0.857       26.974      2.26        16321.953   22166.66    16061.161   4873.75     
74.0        15.311      150.463     3.99        3.532       11.04       5.254       4.324       17.602      9.877       20.401      4.225       2.24        924.992     31.153      0.857       24.619      2.251       14736.855   21530.938   16460.742   5129.277    
74.2        13.709      150.511     3.877       3.32        10.705      4.534       4.244       17.062      8.425       20.835      4.312       2.411       921.374     44.162      0.857       25.325      2.187       17141.031   22699.648   17091.709   5182.148    
74.4        31.477      150.098     3.909       3.618       10.276      3.994       4.404       16.342      7.51        22.39       4.471       2.442       924.008     52.726      0.859       25.607      2.116       19187.07    23707.344   17489.307   4959.824    
74.6        44.875      150.124     4.278       2.515       8.264       3.454       4.244       16.162      6.002       23.967      4.081       2.428       923.425     53.682      0.862       27.792      2.063       20779.963   24665.195   17816.348   4950.469    
74.8        42.756      150.156     4.309       2.343       7.313       3.274       4.084       16.162      5.014       25.667      4.049       2.36        923.178     50.061      0.863       27.526      2.066       23090.703   24075.391   17223.984   5246.602    
75.0        53.211      150.271     4.08        3.346       7.5         3.274       3.764       16.702      4.585       26.242      4.131       2.416       919.097     45.147      0.863       27.538      2.092       21438.437   23230.488   17120.332   5415.43     
