~Version Information Section
VERS.                                         2.0:CWLS log ASCII Standart – VERSION 2.0
WRAP.                                          NO:One line per depth step
~Well Information Section
STRT.M                                       1.07:Начальная глубина
STOP.M                                     192.17:Конечная глубина
STEP.M                                          0:Шаг квантования по глубине
NULL.                                    -9999.25:Признак "Нет данных"
WELL.                                        151К:Скважина
~Parameter Information Section
~Curve Information Section
DEPTH.M                                          :Глубина
BK.Ohm*M                                         :BK     (БК)
DS.mm                                            :DS  (ДС)
GGK.g/cm3                                        :GGKp
ГК.mcr/h                                         :GK          (ГК)
GZ1.Ohm*M                                        :GZ1   ГЗ1(A0.4M0.1N)
GZ2.Ohm*M                                        :GZ2   ГЗ2(A1.0M0.1N)
GZ3.Ohm*M                                        :GZ3   ГЗ3(A2.0M0.5N)
GZ4.Ohm*M                                        :GZ4   ГЗ4(A4.0M0.5N)
GZ5.Ohm*M                                        :GZ5   ГЗ5(A8.0M0.5N)
GZR.                                             :GZR   ГЗK(N0.5M2.0A)
ИК.Ohm*M                                         :IK
НГК.ue                                           :NGK     (НГК)
NNKM.                                            :NNKm  (ННКм)
PS.mv                                            :PS       (ПС)
PZ.Ohm*M                                         :PZ    (КС)
RS.Ohm*M                                         :RS (Резистивиметр)
W.%                                              :W
~ASCII LOG DATA
# ...
75.77       15.818      154.732     2.05        9.26        -9999.25    -9999.25    -9999.25    -9999.25    -9999.25    -9999.25    18.055      0.804       1.003       475.306     21.862      1.13        41.398      
75.8        -9999.25    -9999.25    -9999.25    -9999.25    21.616      19.007      20.98       16.732      14.732      27.547      -9999.25    -9999.25    -9999.25    -9999.25    -9999.25    -9999.25    -9999.25    
75.87       16.4        156.477     2.057       9.21        -9999.25    -9999.25    -9999.25    -9999.25    -9999.25    -9999.25    18.247      0.794       1.013       474.197     22.206      1.131       40.264      
75.9        -9999.25    -9999.25    -9999.25    -9999.25    21.715      19.276      21.023      16.9        15.368      28.526      -9999.25    -9999.25    -9999.25    -9999.25    -9999.25    -9999.25    -9999.25    
75.97       17.668      156.428     2.061       9.055       -9999.25    -9999.25    -9999.25    -9999.25    -9999.25    -9999.25    18.449      0.793       1.022       473.74      22.949      1.13        39.463      
76.0        -9999.25    -9999.25    -9999.25    -9999.25    22.063      19.495      21.324      17.136      16.037      29.602      -9999.25    -9999.25    -9999.25    -9999.25    -9999.25    -9999.25    -9999.25    
76.07       17.89       151.207     2.061       8.882       -9999.25    -9999.25    -9999.25    -9999.25    -9999.25    -9999.25    18.617      0.815       1.03        473.913     23.683      1.13        38.792      
76.1        -9999.25    -9999.25    -9999.25    -9999.25    22.687      19.865      22.274      17.99       16.548      31.826      -9999.25    -9999.25    -9999.25    -9999.25    -9999.25    -9999.25    -9999.25    
76.17       18.097      148.865     2.059       8.709       -9999.25    -9999.25    -9999.25    -9999.25    -9999.25    -9999.25    18.739      0.839       1.034       473.104     24.032      1.129       38.072      
76.2        -9999.25    -9999.25    -9999.25    -9999.25    24.276      21.433      24.013      19.169      16.683      34.115      -9999.25    -9999.25    -9999.25    -9999.25    -9999.25    -9999.25    -9999.25    
76.27       18.441      148.228     2.055       8.536       -9999.25    -9999.25    -9999.25    -9999.25    -9999.25    -9999.25    18.847      0.852       1.037       470.24      23.898      1.127       37.222      
76.3        -9999.25    -9999.25    -9999.25    -9999.25    26.162      23.408      25.334      20.104      16.713      35.609      -9999.25    -9999.25    -9999.25    -9999.25    -9999.25    -9999.25    -9999.25    
76.37       18.511      148.188     2.052       8.323       -9999.25    -9999.25    -9999.25    -9999.25    -9999.25    -9999.25    19.049      0.836       1.056       466.109     23.355      1.127       36.238      
76.4        -9999.25    -9999.25    -9999.25    -9999.25    28.164      24.822      25.598      20.723      16.453      35.621      -9999.25    -9999.25    -9999.25    -9999.25    -9999.25    -9999.25    -9999.25    
76.47       19.161      148.628     2.05        8.11        -9999.25    -9999.25    -9999.25    -9999.25    -9999.25    -9999.25    19.237      0.815       1.082       462.661     22.915      1.13        35.203      
76.5        -9999.25    -9999.25    -9999.25    -9999.25    28.994      24.874      25.033      21.03       16.171      34.563      -9999.25    -9999.25    -9999.25    -9999.25    -9999.25    -9999.25    -9999.25    
76.57       20.238      148.15      2.049       7.948       -9999.25    -9999.25    -9999.25    -9999.25    -9999.25    -9999.25    19.389      0.801       1.107       461.154     22.678      1.13        34.903      
76.6        -9999.25    -9999.25    -9999.25    -9999.25    27.726      23.278      23.334      20.907      15.744      32.732      -9999.25    -9999.25    -9999.25    -9999.25    -9999.25    -9999.25    -9999.25    
76.67       21.312      148.576     2.048       7.826       -9999.25    -9999.25    -9999.25    -9999.25    -9999.25    -9999.25    19.547      0.806       1.111       460.928     22.463      1.13        35.471      
76.7        -9999.25    -9999.25    -9999.25    -9999.25    27.283      22.221      21.397      20.082      15.262      30.011      -9999.25    -9999.25    -9999.25    -9999.25    -9999.25    -9999.25    -9999.25    
76.77       20.529      151.193     2.047       7.704       -9999.25    -9999.25    -9999.25    -9999.25    -9999.25    -9999.25    19.675      0.817       1.107       461.172     22.245      1.135       36.369      
76.8        -9999.25    -9999.25    -9999.25    -9999.25    27.431      21.782      19.611      18.583      14.845      27.397      -9999.25    -9999.25    -9999.25    -9999.25    -9999.25    -9999.25    -9999.25    
76.87       18.438      153.144     2.046       8.135       -9999.25    -9999.25    -9999.25    -9999.25    -9999.25    -9999.25    19.77       0.819       1.096       461.683     22.091      1.138       36.844      
76.9        -9999.25    -9999.25    -9999.25    -9999.25    24.928      20.175      17.863      17.298      14.295      26.001      -9999.25    -9999.25    -9999.25    -9999.25    -9999.25    -9999.25    -9999.25    
76.97       17.624      154.597     2.047       8.927       -9999.25    -9999.25    -9999.25    -9999.25    -9999.25    -9999.25    19.877      0.799       1.076       463.348     22.122      1.137       36.631      
77.0        -9999.25    -9999.25    -9999.25    -9999.25    21.819      17.725      16.767      16.683      13.777      25.993      -9999.25    -9999.25    -9999.25    -9999.25    -9999.25    -9999.25    -9999.25    
77.07       17.022      155.204     2.05        9.718       -9999.25    -9999.25    -9999.25    -9999.25    -9999.25    -9999.25    19.953      0.773       1.051       466.941     22.24       1.133       35.943      
77.1        -9999.25    -9999.25    -9999.25    -9999.25    19.704      16.866      16.258      16.428      13.713      26.28       -9999.25    -9999.25    -9999.25    -9999.25    -9999.25    -9999.25    -9999.25    
77.17       15.227      155.048     2.058       9.825       -9999.25    -9999.25    -9999.25    -9999.25    -9999.25    -9999.25    19.991      0.755       1.024       472.183     22.325      1.132       35.071      
77.2        -9999.25    -9999.25    -9999.25    -9999.25    18.477      17.495      16.051      16.473      14.107      26.765      -9999.25    -9999.25    -9999.25    -9999.25    -9999.25    -9999.25    -9999.25    
77.27       13.25       156.67      2.072       9.49        -9999.25    -9999.25    -9999.25    -9999.25    -9999.25    -9999.25    20.003      0.757       1.0         477.322     22.462      1.132       34.283      
77.3        -9999.25    -9999.25    -9999.25    -9999.25    18.399      18.166      16.383      17.043      14.474      28.243      -9999.25    -9999.25    -9999.25    -9999.25    -9999.25    -9999.25    -9999.25    
77.37       12.992      157.035     2.089       9.155       -9999.25    -9999.25    -9999.25    -9999.25    -9999.25    -9999.25    19.999      0.766       0.977       480.326     22.856      1.132       34.084      
77.4        -9999.25    -9999.25    -9999.25    -9999.25    18.155      18.438      17.425      18.43       14.938      30.654      -9999.25    -9999.25    -9999.25    -9999.25    -9999.25    -9999.25    -9999.25    
77.47       14.299      154.365     2.11        8.908       -9999.25    -9999.25    -9999.25    -9999.25    -9999.25    -9999.25    19.973      0.777       0.982       480.679     23.755      1.124       35.036      
77.5        -9999.25    -9999.25    -9999.25    -9999.25    17.824      19.944      18.369      19.847      15.313      32.545      -9999.25    -9999.25    -9999.25    -9999.25    -9999.25    -9999.25    -9999.25    
77.57       15.619      152.981     2.131       8.705       -9999.25    -9999.25    -9999.25    -9999.25    -9999.25    -9999.25    20.016      0.793       1.013       479.451     25.055      1.121       36.578      
