~Version Information Section
VERS.                                         2.0:CWLS log ASCII Standart – VERSION 2.0
WRAP.                                          NO:One line per depth step
~Well Information Section
STRT.M                                        1.2:Начальная глубина
STOP.M                                      208.4:Конечная глубина
STEP.M                                          0:Шаг квантования по глубине
NULL.                                    -9999.25:Признак "Нет данных"
WELL.                                       109Мх:Скважина
~Parameter Information Section
~Curve Information Section
DEPTH.M                                          :Глубина
BK.Ohm*M                                         :BK     (БК)
DS.mm                                            :DS  (ДС)
GGK.g/cm3                                        :GGKp
ГК.mcr/h                                         :GK          (ГК)
GZ1.Ohm*M                                        :GZ1   ГЗ1(A0.4M0.1N)
GZ2.Ohm*M                                        :GZ2   ГЗ2(A1.0M0.1N)
GZ3.Ohm*M                                        :GZ3   ГЗ3(A2.0M0.5N)
GZ4.Ohm*M                                        :GZ4   ГЗ4(A4.0M0.5N)
GZ5.Ohm*M                                        :GZ5   ГЗ5(A8.0M0.5N)
GZR.Ohm*M                                        :GZK   ГЗK(N0.5M2.0A)
ИК.Ohm*M                                         :IK
НГК.u.e.                                         :NGK
NNKM.                                            :NNKm  (ННКм)
U1.mV                                            :U1
U2.mV                                            :U2
U3.mV                                            :U3
КП.%                                             :Кп
PS.mv                                            :PS       (ПС)
PZ.Ohm*M                                         :PZ    (КС)
RS.Ohm*M                                         :RS (Резистивиметр)
~ASCII LOG DATA
# ...
126.0       258.226     127.018     2.25        2.25        93.21       43.754      58.182      16.103      15.73       52.44       14.733      1.258       2.89        1719.261    1327.031    1310.637    20.703      1050.086    36.882      1.0         
126.1       258.226     134.058     2.237       2.332       93.63       44.274      57.302      15.983      15.73       50.36       14.755      1.272       2.57        1791.369    1336.498    1278.578    23.729      1049.96     36.593      1.0         
126.2       194.984     136.637     2.279       2.632       93.63       44.274      56.862      15.983      15.73       49.32       14.702      1.322       2.418       1823.477    1358.195    1243.758    25.62       1049.835    36.233      1.0         
126.3       121.06      135.131     2.322       2.816       93.63       44.274      56.862      15.983      15.73       48.28       14.702      1.33        2.358       1666.12     1248.267    1103.02     25.544      1049.717    35.8        1.0         
126.4       67.92       134.368     2.395       3.083       93.21       44.274      56.862      15.983      15.73       47.24       14.661      1.272       2.331       1376.662    966.489     830.952     25.997      1049.625    35.368      1.0         
126.5       67.92       133.866     2.426       2.898       91.53       43.754      56.862      15.983      15.73       46.2        14.63       1.259       2.368       1062.539    663.065     553.745     26.6        1049.541    34.935      1.0         
126.6       44.157      134.391     2.448       2.876       91.11       42.194      56.862      15.983      15.73       46.2        14.661      1.252       2.409       895.87      508.341     411.683     26.944      1049.466    34.503      1.0         
126.7       49.431      133.531     2.402       2.957       90.27       41.674      56.862      15.983      15.73       46.2        14.661      1.254       2.46        830.12      492.562     416.41      26.812      1049.399    34.07       1.0         
126.8       49.431      133.604     2.38        3.253       89.85       41.154      56.862      15.983      15.73       45.16       14.661      1.158       2.499       833.378     564.846     520.934     25.434      1049.34     33.709      1.0         
126.9       93.325      134.718     2.325       3.466       89.43       40.634      57.302      15.863      16.01       45.16       14.63       1.114       2.497       895.315     690.203     681.732     23.874      1049.29     33.421      1.0         
127.0       165.196     137.373     2.301       3.69        88.17       40.634      57.302      15.623      16.01       45.16       14.578      1.088       2.495       991.771     799.39      797.742     23.502      1049.248    33.133      1.0         
127.1       165.196     135.455     2.26        4.243       88.17       39.594      57.302      15.623      16.01       45.16       14.58       1.123       2.361       1084.132    843.856     807.938     25.423      1049.214    32.844      1.0         
127.2       78.705      133.795     2.252       4.524       88.17       39.074      57.302      15.623      16.01       46.2        14.58       1.147       2.193       1173.755    872.879     790.5       28.248      1049.189    32.628      1.0         
127.3       78.705      134.368     2.229       4.584       89.43       38.554      56.862      15.623      16.01       47.24       14.538      1.141       2.104       1260.398    942.251     840.792     30.39       1049.181    32.339      1.0         
127.4       43.954      133.802     2.187       4.124       91.53       38.554      56.422      15.623      16.01       51.4        14.507      1.176       2.012       1263.087    968.84      880.573     31.08       1049.189    31.979      1.0         
127.5       53.951      133.535     2.156       4.116       94.05       38.554      55.982      15.623      16.01       52.44       14.559      1.212       1.989       1136.788    864.167     795.68      30.807      1049.214    31.546      1.001       
127.6       53.951      133.69      2.144       4.174       99.51       38.554      55.542      15.623      16.01       52.44       14.559      1.276       2.007       904.811     639.574     587.77      29.962      1049.256    30.897      1.002       
127.7       71.945      133.574     2.124       4.283       98.25       39.074      55.102      15.623      15.87       51.4        14.517      1.309       2.026       706.119     452.022     415.751     29.323      1049.315    30.248      1.004       
127.8       75.162      133.548     2.117       4.174       96.15       39.594      55.102      15.863      15.73       51.4        14.63       1.335       2.055       587.801     357.995     340.211     29.269      1049.382    29.527      1.006       
127.9       67.453      133.531     2.107       4.022       94.05       40.114      55.102      15.983      15.59       50.36       14.63       1.312       2.069       529.768     346.444     363.432     30.163      1049.441    28.806      1.008       
128.0       67.453      133.033     2.131       3.947       93.63       40.634      54.662      16.103      15.59       49.32       14.651      1.328       2.065       513.033     386.084     449.739     31.04       1049.508    28.013      1.009       
128.1       73.114      131.798     2.157       3.976       91.95       41.154      54.222      16.103      15.45       48.28       14.65       1.326       2.073       692.269     591.224     673.818     30.934      1049.583    27.364      1.009       
128.2       72.611      131.107     2.181       3.927       91.53       41.674      54.222      16.103      15.31       48.28       14.65       1.343       2.127       1089.476    961.587     1011.854    29.947      1049.667    26.932      1.009       
128.3       71.45       130.972     2.228       4.168       91.11       42.194      54.222      16.103      15.31       47.24       14.733      1.29        2.179       1506.005    1296.491    1269.581    27.939      1049.768    26.715      1.009       
128.4       74.302      131.183     2.235       4.117       91.11       42.194      54.222      15.983      15.17       46.2        14.733      1.226       2.227       1708.872    1401.547    1295.465    26.703      1049.885    26.715      1.009       
128.5       82.985      131.076     2.238       4.224       91.11       41.674      54.222      15.983      15.03       46.2        14.808      1.245       2.266       1611.026    1222.005    1068.951    26.736      1050.019    27.076      1.009       
128.6       82.985      131.075     2.228       3.97        91.11       41.154      54.222      15.863      14.89       45.16       14.818      1.295       2.203       1390.045    944.811     776.627     28.27       1050.17     27.509      1.009       
128.7       82.604      131.098     2.207       3.982       91.11       40.634      54.222      15.743      14.89       45.16       14.818      1.339       2.14        1250.812    759.575     583.116     29.603      1050.337    28.085      1.009       
128.8       70.958      131.146     2.203       4.036       91.11       40.114      54.222      15.623      14.89       44.12       14.882      1.304       2.167       1302.205    752.067     545.793     29.502      1050.513    28.518      1.009       
128.9       71.614      131.14      2.168       4.179       91.11       39.594      55.542      15.623      14.89       43.08       14.882      1.294       2.195       1505.068    901.889     656.978     28.871      1050.698    28.951      1.009       
129.0       76.384      131.109     2.187       4.222       91.11       39.074      56.422      15.623      14.89       43.08       14.946      1.314       2.173       1613.01     1064.807    852.609     28.278      1050.891    29.311      1.009       
129.1       76.384      131.204     2.215       4.075       91.11       38.554      55.982      15.623      15.17       42.04       14.946      1.373       2.136       1599.702    1212.195    1103.284    27.405      1051.092    29.527      1.009       
