~Version Information Section
VERS.                                         2.0:CWLS log ASCII Standart – VERSION 2.0
WRAP.                                          NO:One line per depth step
~Well Information Section
STRT.M                                        7.7:Начальная глубина
STOP.M                                      168.6:Конечная глубина
STEP.M                                          0:Шаг квантования по глубине
NULL.                                    -9999.25:Признак "Нет данных"
WELL.                                       137Мх:Скважина
~Parameter Information Section
~Curve Information Section
DEPTH.M                                          :Глубина
ГК.мкР/ч                                         :GK
U1.                                              :U1
U12.                                             :U12
U2.                                              :U2
W.усл.ед                                         :W
ЗОНД.                                            :Зонд N0
НГК.                                             :НГК
ННКМ.усл.ед                                      :ННКм
ПЛОТНОСТЬ.г/см3                                  :плотность
РЕЗИСТИВИМЕТР.Ом                                 :Резистивиметр
~ASCII LOG DATA
# ...
26.0        5.238       290.525     236.606     197.538     9.571       -13.837     3.866       3.693       -9999.25    6.332       
26.1        5.46        266.091     230.866     212.991     9.33        -14.628     3.906       3.634       -9999.25    2.968       
26.2        5.626       248.942     234.844     234.837     9.145       -15.424     4.054       3.536       -9999.25    2.284       
26.3        5.734       239.076     248.542     263.075     8.98        -15.432     4.235       3.611       -9999.25    2.113       
26.4        6.045       252.233     246.88      244.352     8.803       -15.432     4.25        3.711       2.205       2.103       
26.5        6.41        247.149     244.118     242.626     8.642       -15.434     4.194       3.575       2.235       2.087       
26.6        6.478       269.775     217.745     194.931     8.456       -15.429     4.161       3.474       2.251       2.065       
26.7        6.053       285.768     203.375     164.07      8.24        -15.419     3.921       3.516       2.27        2.038       
26.8        5.763       295.125     201.009     150.043     8.156       -5.932      3.152       3.532       2.269       2.005       
26.9        5.842       271.771     219.541     185.174     8.097       14.382      2.181       3.694       2.264       1.981       
27.0        5.994       268.29      224.455     189.662     8.077       27.345      1.573       3.726       2.256       1.973       
27.1        5.918       329.317     233.367     169.486     8.261       30.605      1.322       3.651       2.265       1.973       
27.2        5.926       354.274     260.109     213.131     9.041       32.13       1.256       3.604       2.284       1.962       
27.3        5.988       343.159     304.682     320.597     11.819      32.379      1.248       3.367       2.294       1.942       
27.4        6.269       308.622     357.801     446.708     18.891      31.907      1.238       2.608       2.292       1.933       
27.5        6.587       331.367     419.253     533.621     26.92       31.454      1.218       1.471       2.287       1.933       
27.6        6.706       398.431     439.094     494.865     31.606      31.33       1.198       1.356       2.282       1.934       
27.7        7.009       477.539     448.979     436.749     35.774      31.483      1.189       1.298       2.286       1.947       
27.8        7.052       568.692     448.908     359.274     37.907      31.877      1.188       1.207       2.295       1.972       
27.9        6.895       608.036     472.608     375.368     35.456      32.572      1.191       1.197       2.302       1.979       
28.0        6.563       570.561     480.089     417.922     32.082      33.306      1.205       1.27        2.302       1.965       
28.1        6.422       498.067     464.431     442.002     32.488      33.356      1.23        1.26        2.298       1.958       
28.2        6.444       467.374     441.85      421.146     32.847      33.104      1.251       1.236       2.285       1.958       
28.3        6.531       523.548     425.299     353.708     33.028      33.082      1.286       1.224       2.274       1.955       
28.4        6.62        568.841     418.803     312.034     33.304      33.993      1.284       1.164       2.263       1.951       
28.5        6.788       603.252     422.362     296.125     32.957      36.222      1.266       1.221       2.255       1.948       
28.6        7.276       477.943     407.098     390.52      32.208      37.539      1.245       1.277       2.251       1.948       
28.7        7.553       357.063     367.749     425.294     31.862      39.026      1.221       1.25        2.245       1.955       
28.8        7.492       240.612     304.314     400.446     31.685      42.194      1.211       1.213       2.247       1.973       
28.9        7.111       246.084     270.914     306.788     31.902      45.242      1.217       1.167       2.247       1.999       
29.0        7.042       265.277     275.703     286.834     32.72       47.692      1.228       1.149       2.257       2.029       
29.1        7.145       284.411     286.58      292.534     32.477      49.988      1.224       1.228       2.261       2.054       
29.2        7.375       289.767     265.353     250.183     31.752      53.309      1.204       1.228       2.257       2.069       
29.3        7.35        327.01      294.196     270.174     31.369      58.239      1.183       1.218       2.239       2.091       
29.4        7.195       368.402     342.951     323.22      30.973      63.965      1.181       1.234       2.209       2.12        
29.5        6.489       413.944     411.618     409.32      30.327      69.659      1.189       1.314       2.177       2.146       
29.6        5.549       401.542     459.448     459.361     31.049      74.947      1.212       1.297       2.164       2.181       
29.7        5.231       372.717     548.699     550.679     32.302      79.493      1.226       1.23        2.17        2.25        
29.8        5.274       349.171     570.203     683.274     33.003      82.452      1.239       1.254       2.188       2.338       
29.9        5.448       347.329     482.536     573.812     33.525      82.963      1.267       1.279       2.183       2.386       
30.0        5.621       475.576     473.326     544.858     34.102      82.311      1.283       1.309       2.167       2.393       
30.1        5.674       543.936     490.743     446.414     34.16       82.061      1.283       1.329       2.152       2.413       
30.2        5.787       552.411     534.786     520.536     34.199      82.188      1.258       1.301       2.154       2.448       
30.3        5.837       610.958     507.287     443.39      34.426      82.37       1.24        1.294       2.164       2.464       
30.4        5.933       683.386     496.428     379.15      33.95       82.565      1.257       1.324       2.165       2.464       
30.5        6.195       769.695     502.209     327.815     33.294      83.089      1.297       1.329       2.158       2.451       
30.6        6.263       665.973     463.605     328.496     32.696      83.053      1.298       1.343       2.146       2.415       
30.7        6.153       576.682     453.435     367.02      31.731      81.282      1.234       1.339       2.148       2.392       
30.8        5.776       549.065     466.339     403.464     30.671      78.335      1.187       1.333       2.15        2.38        
30.9        5.106       568.693     473.882     399.988     30.379      75.225      1.178       1.336       2.159       2.329       
31.0        4.745       599.075     457.977     353.246     30.633      72.339      1.184       1.339       2.164       2.261       
31.1        4.853       548.191     419.984     331.44      31.07       69.788      1.202       1.342       2.173       2.233       
31.2        5.069       416.039     359.902     334.571     31.616      68.236      1.255       1.345       2.171       2.216       
31.3        4.986       351.557     335.45      343.442     32.438      67.861      1.29        1.346       2.16        2.164       
31.4        5.021       399.527     350.627     329.771     33.213      68.346      1.27        1.346       2.148       2.11        
31.5        5.278       442.524     394.705     373.703     33.262      69.54       1.242       1.336       2.14        2.09        
31.6        5.706       453.987     415.935     400.258     32.648      70.567      1.256       1.344       2.153       2.068       
31.7        5.7         433.915     414.315     409.436     31.755      70.677      1.289       1.372       2.171       2.031       
31.8        5.407       470.046     378.451     318.267     30.945      70.068      1.294       1.368       2.188       2.007       
31.9        4.895       476.491     320.464     224.274     30.605      69.232      1.26        1.36        2.196       1.989       
32.0        4.679       443.198     274.917     175.316     30.968      68.59       1.251       1.348       2.186       1.972       
