~Version Information Section
VERS.                                         2.0:CWLS log ASCII Standart – VERSION 2.0
WRAP.                                          NO:One line per depth step
~Well Information Section
STRT.M                                        0.1:Начальная глубина
STOP.M                                      167.0:Конечная глубина
STEP.M                                          0:Шаг квантования по глубине
NULL.                                    -9999.25:Признак "Нет данных"
WELL.                                        143К:Скважина
~Parameter Information Section
~Curve Information Section
DEPTH.M                                          :Глубина
БК.Омм                                           :BK     (БК)
DСР.мм                                           :DS  (ДС)
ПЛОТНОСТЬ.г/см^3                                 :GGKp
ГК.гамма                                         :GK          (ГК)
ИК.мСм/м                                         :IK
НГК.усл.ед                                       :NGK     (НГК)
ННКМ.усл.ед                                      :NNKm  (ННКм)
ПС.mv                                            :PS       (ПС)
N11.0M0.5A.Омм                                   :PZ    (КС)
R.Омм                                            :RS (Резистивиметр)
КП.%                                             :W
А0.4М0.1N.Омм                                    :GZ1   ГЗ1(A0.4M0.1N)
А1.0М0.1N.Омм                                    :GZ2   ГЗ2(A1.0M0.1N)
А2.0М0.5N.Омм                                    :GZ3   ГЗ3(A2.0M0.5N)
А4.0М0.5N.Oмм                                    :GZ4   ГЗ4(A4.0M0.5N)
А8.0М1.0N.Омм                                    :GZ5   ГЗ5(A8.0M0.5N)
N0.5M2.0A.Омм                                    :GZR   ГЗK(N0.5M2.0A)
~ASCII LOG DATA
# ...
59.3        -9999.25    249.133     2.15        19.702      -9999.25    13.95       4.018       39.08       22.748      41.19       -4.306      66.209      10.485      17.913      26622.41    10.049      70.398      
59.4        -9999.25    247.794     2.153       20.273      -9999.25    13.998      4.07        40.113      22.833      41.392      -4.298      66.933      10.429      17.032      27162.242   2.064       68.83       
59.5        -9999.25    245.038     2.156       20.173      -9999.25    13.944      4.139       41.234      23.02       41.587      -4.29       66.989      10.446      15.581      27319.889   -4.446      67.247      
59.6        -9999.25    245.049     2.154       19.763      -9999.25    13.797      4.208       42.416      23.122      41.724      -4.281      66.52       10.577      13.348      27412.479   -10.906     65.587      
59.7        -9999.25    245.136     2.144       18.506      -9999.25    13.69       4.249       43.626      23.122      41.816      -4.275      65.799      10.67       11.623      27781.039   -11.402     65.406      
59.8        -9999.25    245.666     2.121       16.991      -9999.25    13.673      4.256       44.824      22.992      41.828      -4.277      64.722      10.729      10.543      28233.531   -11.404     65.406      
59.9        -9999.25    244.79      2.091       15.102      -9999.25    13.703      4.231       45.973      22.862      41.828      -4.281      64.722      10.865      10.101      28650.387   -11.406     66.767      
60.0        -9999.25    244.428     2.064       13.56       -9999.25    13.757      4.184       47.036      22.862      41.812      -4.286      65.451      11.068      8.912       29070.172   -11.408     69.869      
60.1        -9999.25    244.401     2.05        12.233      -9999.25    13.834      4.141       47.983      22.948      41.715      -4.288      65.76       11.545      6.677       29576.105   -11.41      74.182      
60.2        -9999.25    244.027     2.059       11.72       -9999.25    13.874      4.127       48.795      22.686      41.556      -4.283      65.93       12.281      5.097       29786.131   -11.412     76.875      
60.3        -9999.25    244.04      2.086       11.354      -9999.25    13.855      4.122       49.463      22.016      41.386      -4.269      65.93       13.083      4.448       29317.254   -11.415     76.996      
60.4        23.788      243.816     2.119       11.13       -9999.25    13.796      4.134       49.987      20.818      41.138      -4.254      66.202      14.382      4.27        28677.766   -11.421     75.543      
60.5        31.355      243.532     2.146       11.192      -9999.25    13.777      4.157       50.376      18.923      40.78       -4.238      65.201      15.265      4.439       28087.5     -11.426     72.347      
60.6        36.814      243.424     2.161       11.216      -9999.25    13.834      4.174       50.641      17.094      39.05       -4.225      61.189      15.265      4.538       25888.865   -11.43      67.412      
60.7        38.268      243.322     2.158       11.013      -9999.25    13.949      4.193       50.799      15.096      35.835      -4.219      53.758      14.206      4.477       21161.393   -11.427     60.892      
60.8        37.343      243.019     2.145       10.864      -9999.25    14.19       4.226       50.875      12.856      31.151      -4.208      46.288      12.269      4.484       15269.045   -11.427     53.296      
60.9        33.385      245.35      2.129       10.72       -9999.25    14.704      4.261       50.895      11.369      25.055      -4.159      39.378      9.656       4.293       9712.297    -11.427     45.961      
61.0        31.801      249.272     2.115       10.436      -9999.25    14.598      4.317       50.882      10.935      17.611      -3.959      31.633      6.71        3.93        4848.28     -11.427     42.451      
61.1        31.364      253.222     2.109       10.093      -9999.25    13.672      4.417       50.857      10.935      11.323      -3.21       23.867      4.41        3.714       1329.654    -11.424     41.375      
61.2        32.756      248.215     2.119       9.797       -9999.25    11.811      4.544       50.835      10.935      6.585       -1.647      19.499      3.212       3.523       55.657      -11.22      40.031      
61.3        122.273     242.112     2.147       9.214       -9999.25    9.29        4.593       50.826      11.452      3.382       0.874       18.926      3.089       3.185       10.217      -8.858      38.283      
61.4        477.707     240.797     2.19        8.558       -9999.25    6.391       4.382       50.833      13.408      1.689       4.236       18.178      3.074       2.902       3.856       -6.422      36.383      
61.5        477.997     245.274     2.239       7.961       -9999.25    3.997       3.965       50.85       16.579      1.462       8.271       19.023      3.074       2.793       2.949       -3.988      34.261      
61.6        385.142     239.442     2.281       7.553       -9999.25    2.33        3.464       50.867      20.23       1.455       12.621      21.272      3.142       2.776       2.391       -1.545      31.623      
61.7        25.323      238.905     2.309       7.319       -9999.25    1.537       2.901       50.871      24.26       1.451       17.03       22.521      3.903       2.776       1.926       0.711       29.356      
61.8        22.213      237.186     2.319       7.28        -9999.25    1.288       2.394       50.845      28.425      1.448       20.834      23.245      6.586       2.794       1.57        0.808       28.073      
61.9        21.84       237.03      2.316       7.262       -9999.25    1.18        2.116       50.769      31.183      1.446       23.874      23.737      10.685      2.824       1.366       0.839       27.493      
62.0        20.795      234.894     2.306       7.236       19.493      1.168       2.019       50.624      32.944      1.443       26.088      23.737      15.334      2.875       1.252       0.874       27.184      
62.1        18.842      232.034     2.296       7.146       19.175      1.187       1.961       50.396      34.657      1.439       27.598      23.737      20.943      2.903       1.213       0.902       26.82       
62.2        18.407      230.499     2.293       7.002       18.849      1.208       1.926       50.076      36.108      1.436       28.423      23.739      26.526      2.901       1.213       0.915       26.31       
62.3        20.615      226.696     2.296       6.783       18.675      1.227       1.921       49.658      37.516      1.431       29.02       24.194      30.429      2.982       1.213       0.915       25.849      
62.4        24.179      225.307     2.3         6.524       18.881      1.243       1.955       49.14       38.667      1.424       29.575      25.156      32.469      3.136       1.236       0.915       25.662      
62.5        28.86       224.264     2.304       6.248       19.47       1.22        1.993       48.527      38.888      1.416       30.313      25.951      33.524      3.262       1.26        0.937       25.662      
62.6        32.542      223.42      2.304       5.954       19.509      1.169       2.014       47.83       37.932      1.406       31.011      26.38       34.511      3.333       1.259       0.953       25.662      
62.7        36.224      222.796     2.303       5.728       19.583      1.116       2.016       47.069      36.682      1.395       31.548      26.578      35.706      3.398       1.271       0.967       25.72       
62.8        38.678      222.092     2.302       5.764       19.63       1.069       1.999       46.266      35.429      1.384       31.954      26.636      36.804      3.496       1.308       1.008       26.156      
62.9        39.905      220.694     2.302       5.986       19.643      1.027       1.977       45.445      34.624      1.372       32.346      26.58       37.77       4.377       1.35        1.09        27.578      
