~Version Information Section
VERS.                                         2.0:CWLS log ASCII Standart – VERSION 2.0
WRAP.                                          NO:One line per depth step
~Well Information Section
STRT.M                                        0.5:Начальная глубина
STOP.M                                      158.2:Конечная глубина
STEP.M                                          0:Шаг квантования по глубине
NULL.                                    -9999.25:Признак "Нет данных"
WELL.                                       136Мх:Скважина
~Parameter Information Section
~Curve Information Section
DEPTH.M                                          :Глубина
BK.Ohm*M                                         :BK     (БК)
DS.mm                                            :DS  (ДС)
GGK.g/cm3                                        :GGKp
ГК.mcr/h                                         :GK          (ГК)
GZ1.Ohm*M                                        :GZ1   ГЗ1(A0.4M0.1N)
GZ2.Ohm*M                                        :GZ2   ГЗ2(A1.0M0.1N)
GZ3.Ohm*M                                        :GZ3   ГЗ3(A2.0M0.5N)
GZ4.Ohm*M                                        :GZ4   ГЗ4(A4.0M0.5N)
GZ5.Ohm*M                                        :GZ5   ГЗ5(A8.0M0.5N)
GZR.Ohm*M                                        :GZK   ГЗK(N0.5M2.0A)
ИК.Ohm*M                                         :IK
НГК.ue                                           :NGK     (НГК)
NNKM.                                            :NNKm  (ННКм)
PS.mv                                            :PS       (ПС)
PZ.Ohm*M                                         :PZ    (КС)
RS.Ohm*M                                         :RS (Резистивиметр)
U1.mV                                            :U1
U2.mV                                            :U2
U3.mV                                            :U3
КП.%                                             :Кп
~ASCII LOG DATA
# ...
96.5        88.158      134.637     2.109       4.483       66.657      52.32       41.481      30.509      23.096      52.371      44.691      1.295       2.21        87.675      73.198      1.087       -1756.83    462.974     -1600.36    34.611      
96.6        69.871      134.555     2.111       4.279       69.445      53.968      41.987      31.534      23.248      52.511      43.837      1.282       2.21        87.606      74.642      1.087       -1887.96    380.341     -1638.11    35.899      
96.7        66.227      134.215     2.105       4.089       71.468      55.375      42.694      32.318      23.452      53.177      43.328      1.275       2.224       87.606      75.975      1.087       -2027.08    291.043     -1703.87    35.799      
96.8        91.017      134.177     2.115       4.046       73.524      56.559      43.496      32.78       23.452      53.432      42.889      1.336       2.204       87.606      76.966      1.087       -2125.38    242.897     -1757.49    35.405      
96.9        202.555     134.309     2.135       4.281       75.839      58.571      44.82       33.454      23.637      53.222      43.076      1.348       2.172       87.606      77.526      1.087       -2127.07    230.046     -1802.96    34.634      
97.0        205.705     134.408     2.151       4.478       93.504      61.643      46.74       35.069      23.564      53.044      43.223      1.362       2.236       87.689      77.638      1.087       -2147.6     202.752     -1852.42    33.836      
97.1        98.189      135.074     2.168       4.606       111.864     64.243      48.435      36.08       23.593      52.617      43.651      1.351       2.305       87.917      77.638      1.087       -2168.12    174.662     -1893.34    33.351      
97.2        87.851      135.464     2.169       4.654       112.985     65.754      49.926      36.275      23.593      51.904      43.51       1.372       2.308       88.274      77.638      1.087       -2186.95    178.878     -1921.73    33.23       
97.3        84.869      134.588     2.166       4.724       111.341     66.684      50.816      36.022      23.593      50.484      43.241      1.429       2.302       88.766      77.319      1.087       -2133.66    216.201     -1937.59    35.154      
97.4        70.09       134.216     2.161       4.785       111.341     67.136      51.103      35.938      23.408      49.118      42.915      1.452       2.279       89.351      76.67       1.087       -2037.29    260.742     -1948.16    37.045      
97.5        57.271      134.521     2.16        4.796       111.341     67.136      51.408      36.194      23.168      48.616      41.957      1.383       2.271       89.977      75.858      1.087       -2004.45    275.186     -1915.56    38.267      
97.6        68.144      134.21      2.183       4.643       109.848     66.988      52.093      36.344      22.984      48.616      41.675      1.274       2.281       90.613      74.995      1.087       -2024.9     270.969     -1883.96    37.824      
97.7        76.711      134.023     2.18        4.416       91.931      65.452      52.512      36.057      22.851      48.616      41.44       1.243       2.268       91.253      74.172      1.087       -2088.42    263.598     -1897.59    38.229      
97.8        78.184      133.955     2.175       4.304       73.524      65.452      52.512      36.057      22.851      48.616      41.358      1.289       2.242       91.907      73.433      1.087       -2038.68    271.12      -1949.11    37.91       
97.9        73.898      133.691     2.189       4.304       73.181      65.452      52.512      36.057      22.851      50.438      41.551      1.363       2.272       92.599      72.789      1.087       -1960.69    277.71      -1989.59    35.031      
98.0        72.899      133.823     2.214       4.438       72.424      65.241      52.815      36.057      22.851      53.307      41.533      1.376       2.311       93.369      72.251      1.087       -1882.71    280.234     -1977.82    32.572      
98.1        88.993      134.615     2.207       4.511       71.587      64.014      54.038      36.369      22.911      55.776      41.413      1.352       2.293       94.209      71.809      1.087       -1854.46    286.346     -1956.14    32.45       
98.2        98.502      133.998     2.223       4.639       71.385      63.414      55.138      37.749      23.264      57.241      41.331      1.325       2.286       95.072      71.428      1.087       -1845.77    300.968     -1929.11    34.447      
98.3        83.344      133.662     2.23        4.689       72.045      63.228      55.799      38.61       23.597      57.888      41.387      1.307       2.34        95.911      71.081      1.087       -1826.95    319.569     -1917.88    35.062      
98.4        77.669      133.717     2.214       4.562       73.317      62.371      55.964      38.621      23.666      57.889      41.458      1.316       2.367       96.64       70.745      1.087       -1798.01    326.38      -1938.41    36.239      
98.5        79.645      133.037     2.217       4.476       74.689      61.323      56.064      38.621      23.666      58.134      41.278      1.353       2.317       97.071      70.403      1.087       -1830.95    313.646     -1969.05    37.464      
98.6        79.914      132.475     2.206       4.541       74.689      59.958      56.237      38.621      23.666      57.924      41.059      1.382       2.284       97.127      70.056      1.087       -1973.33    284.056     -1870.69    37.929      
98.7        80.864      132.255     2.184       4.769       74.689      58.661      56.05       37.897      23.663      56.978      41.032      1.401       2.284       97.127      69.714      1.087       -2125.83    255.927     -1661.74    36.607      
98.8        81.103      132.347     2.162       4.887       73.747      57.667      55.371      36.591      23.595      56.978      40.825      1.366       2.279       97.127      69.373      1.087       -2225.12    237.936     -1530.82    35.08       
98.9        76.095      132.897     2.148       4.931       72.813      56.357      54.53       34.561      23.436      56.978      40.603      1.35        2.272       96.761      69.042      1.087       -2220.33    231.001     -1598.16    34.443      
99.0        76.172      133.59      2.147       4.978       70.799      55.616      53.674      33.687      23.258      56.978      40.548      1.307       2.259       95.981      68.723      1.087       -2194.89    217.906     -1811.54    34.089      
99.1        72.194      132.4       2.166       5.029       70.737      55.616      53.15       33.101      23.2        57.053      40.456      1.311       2.246       94.867      68.415      1.087       -2148.8     195.721     -2000.17    34.057      
99.2        70.243      133.605     2.188       5.018       70.843      55.616      52.54       32.465      23.153      57.407      40.43       1.279       2.23        93.629      68.118      1.087       -2085.66    171.707     -2110.75    33.994      
99.3        76.913      134.805     2.187       4.896       68.984      54.679      51.958      32.27       23.128      57.443      40.576      1.281       2.217       92.394      67.855      1.087       -2100.45    155.092     -2129.95    34.846      
99.4        98.239      136.879     2.191       4.726       66.463      53.457      51.627      32.013      23.128      57.443      40.776      1.25        2.221       91.276      67.631      1.087       -2135.88    149.394     -2042.4     35.81       
99.5        79.021      136.208     2.187       4.495       65.448      52.981      51.348      31.587      23.101      57.45       40.603      1.306       2.243       90.306      67.458      1.087       -2193.16    157.56      -1941.91    36.975      
99.6        63.746      135.064     2.174       4.338       65.254      53.496      50.972      31.545      23.06       57.337      40.708      1.378       2.285       89.471      67.334      1.087       -2185.7     181.067     -1872.9     36.638      
