~Version Information Section
VERS.                                         2.0:CWLS log ASCII Standart – VERSION 2.0
WRAP.                                          NO:One line per depth step
~Well Information Section
STRT.M                                        0.4:Начальная глубина
STOP.M                                      191.4:Конечная глубина
STEP.M                                          0:Шаг квантования по глубине
NULL.                                    -9999.25:Признак "Нет данных"
WELL.                                       113Мх:Скважина
~Parameter Information Section
~Curve Information Section
DEPTH.M                                          :Глубина
БК.Омм                                           :BK     (БК)
DСР.мм                                           :DS  (ДС)
GGKP.g/cm3                                       :GGKp
ГК.гамма                                         :GK          (ГК)
А0.4М0.1N.Омм                                    :GZ1   ГЗ1(A0.4M0.1N)
А1.0М0.1N.Омм                                    :GZ2   ГЗ2(A1.0M0.1N)
А2.0М0.5N.Омм                                    :GZ3   ГЗ3(A2.0M0.5N)
А4.0М0.5N.Oмм                                    :GZ4   ГЗ4(A4.0M0.5N)
А8.0М1.0N.Омм                                    :GZ5   ГЗ5(A8.0M0.5N)
N0.5M2.0A.Омм                                    :GZK   ГЗK(N0.5M2.0A)
ИК.мСм/м                                         :IK
НГК.усл.ед                                       :NNKb  (ННКб)
ННКМ.усл.ед                                      :NNKm  (ННКм)
ПС.мВ                                            :PS       (ПС)
PZ.Омм                                           :PZ    (КС)
R.Омм                                            :RS (Резистивиметр)
U1.мВ                                            :U1
U2.mV                                            :U2
U3.мВ                                            :U3
КП.%                                             :Кп
~ASCII LOG DATA
# ...
70.8        96.678      138.623     2.219       3.377       54.278      43.94       29.589      19.662      18.152      29.204      24.932      3.018       1.858       151.089     67.773      1.1         542.145     168.191     73.715      29.071      
71.0        93.468      138.707     2.246       3.557       49.863      42.487      26.611      16.965      15.165      23.34       24.263      2.938       1.87        148.941     66.678      1.1         490.46      169.406     93.619      29.127      
71.2        65.801      138.372     2.268       4.119       41.006      36.374      23.071      13.856      12.906      18.87       23.465      2.596       1.802       147.397     65.115      1.1         430.957     224.806     138.707     29.665      
71.4        36.91       138.237     2.282       4.609       31.264      29.982      21.866      12.332      12.08       17.734      22.39       2.428       1.666       146.34      63.418      1.1         552.086     284.277     177.504     32.055      
71.6        25.395      142.555     2.279       5.422       26.744      28.144      21.866      12.246      12.041      17.734      21.098      2.148       1.545       145.665     61.837      1.1         541.896     308.013     248.749     34.95       
71.8        21.73       142.399     2.252       5.891       26.617      28.144      23.659      12.563      12.457      19.401      20.489      1.955       1.459       145.288     60.442      1.1         358.784     292.421     351.682     37.271      
72.0        34.129      137.849     2.207       5.686       27.777      30.115      29.505      15.248      14.074      23.863      21.459      2.075       1.524       145.163     59.266      1.101       253.249     260.528     383.073     38.779      
72.2        67.456      138.904     2.165       4.784       36.762      35.175      36.473      19.288      16.321      28.93       23.523      2.16        1.601       145.275     58.338      1.108       287.503     237.869     302.76      37.686      
72.4        97.127      138.556     2.155       4.175       48.675      39.19       40.405      22.143      18.14       32.696      24.848      2.257       1.652       145.661     57.683      1.116       400.597     259.237     255.007     36.833      
72.6        100.524     137.926     2.171       3.807       56.289      40.397      41.171      22.918      19.187      35.304      25.386      2.431       1.713       146.347     57.302      1.12        502.601     285.489     243.451     36.168      
72.8        79.365      138.225     2.199       3.749       59.573      40.572      41.186      23.006      19.83       37.274      25.629      2.442       1.767       147.294     57.13       1.12        553.009     259.311     186.347     34.631      
73.0        53.514      138.302     2.232       3.729       61.743      40.641      41.2        23.082      20.399      38.293      25.798      2.417       1.747       148.389     57.114      1.12        573.598     271.537     189.371     34.168      
73.2        44.548      137.911     2.249       3.607       62.924      40.896      41.18       24.08       20.948      38.417      25.766      2.529       1.728       149.498     57.274      1.12        502.713     308.894     293.422     34.029      
73.4        58.915      137.974     2.235       3.896       64.854      43.121      41.121      26.765      21.129      37.987      25.882      2.482       1.72        150.55      57.682      1.12        358.078     278.23      307.146     32.847      
73.6        77.687      137.248     2.199       4.621       65.431      46.136      39.945      28.687      21.001      36.024      25.875      2.561       1.744       151.56      58.405      1.12        304.326     216.39      246.002     32.555      
73.8        79.589      138.338     2.185       5.08        65.052      47.024      35.994      28.749      19.855      32.404      25.093      2.68        1.764       152.581     59.358      1.12        347.258     230.559     228.209     31.928      
74.0        66.083      137.925     2.188       5.163       60.171      46.374      29.736      26.806      17.333      27.589      24.01       2.577       1.765       153.643     60.339      1.12        355.74      262.264     280.585     31.555      
74.2        49.127      138.117     2.19        4.96        50.704      41.521      23.903      21.876      14.226      22.493      22.822      2.421       1.705       154.736     61.139      1.12        281.318     237.816     292.931     32.417      
74.4        36.031      139.538     2.199       5.088       40.453      34.612      20.34       17.271      11.613      18.431      21.549      2.271       1.617       155.856     61.658      1.12        212.598     219.402     349.444     33.27       
74.6        28.53       140.603     2.217       5.532       32.231      29.486      19.264      14.813      10.122      16.258      20.166      2.107       1.541       157.036     61.982      1.12        203.738     216.143     385.361     34.458      
74.8        23.997      140.594     2.246       5.624       27.509      27.724      19.264      14.517      9.716       15.898      19.12       2.072       1.478       158.343     62.315      1.12        283.247     226.693     332.065     34.748      
75.0        23.894      139.924     2.286       5.396       26.598      27.709      19.821      14.544      9.704       15.898      18.509      2.108       1.503       159.834     62.686      1.12        370.031     227.003     233.195     35.524      
75.2        25.438      140.823     2.296       5.416       26.598      28.044      22.421      15.615      9.891       16.754      18.115      2.135       1.507       161.512     62.998      1.12        522.697     265.683     203.74      35.821      
75.4        27.323      139.854     2.277       5.419       27.552      29.444      26.16       16.982      10.45       18.979      17.767      2.12        1.518       163.324     62.911      1.12        478.498     289.851     290.542     35.412      
75.6        30.704      138.747     2.285       5.307       29.259      29.619      28.264      17.173      10.756      20.421      17.526      2.333       1.61        165.202     61.987      1.12        353.533     280.386     363.12      34.135      
75.8        38.028      139.786     2.324       5.053       29.625      28.771      28.352      16.46       10.724      20.499      17.186      2.609       1.692       167.106     60.255      1.12        212.19      220.867     353.495     31.77       
76.0        37.806      138.616     2.321       5.189       29.112      25.343      27.242      14.099      10.129      19.639      16.658      2.572       1.739       169.053     57.889      1.12        257.956     229.482     345.529     31.825      
76.2        33.262      138.565     2.259       5.36        26.262      22.187      24.774      12.142      9.044       18.031      15.903      2.271       1.621       171.1       55.369      1.12        338.531     260.366     333.394     32.671      
76.4        25.34       138.898     2.204       5.681       22.466      20.374      23.109      11.528      8.149       17.371      15.028      2.071       1.544       173.31      53.062      1.12        403.93      311.122     381.546     36.306      
76.6        20.966      139.22      2.199       5.995       19.809      19.199      21.948      11.489      7.658       17.347      14.056      1.937       1.467       175.717     51.111      1.12        403.005     319.565     386.093     39.124      
76.8        19.168      140.008     2.233       6.485       18.348      18.417      20.589      11.508      7.386       17.362      13.443      1.847       1.452       178.321     49.583      1.12        386.778     299.429     343.989     38.189      
77.0        20.057      139.236     2.268       6.492       17.36       17.987      19.013      11.602      7.171       17.399      13.296      2.037       1.528       181.081     48.495      1.12        285.455     253.698     334.878     36.889      
