~Version Information Section
VERS.                                         2.0:CWLS log ASCII Standart – VERSION 2.0
WRAP.                                          NO:One line per depth step
~Well Information Section
STRT.M                                        0.1:Начальная глубина
STOP.M                                      202.9:Конечная глубина
STEP.M                                          0:Шаг квантования по глубине
NULL.                                    -9999.25:Признак "Нет данных"
WELL.                                       155Мх:Скважина
~Parameter Information Section
~Curve Information Section
DEPTH.M                                          :Глубина
BK.Ohm*M                                         :BK     (БК)
DS.mm                                            :DS  (ДС)
GGK.g/cm3                                        :GGKp
ГК.mcr/h                                         :GK          (ГК)
GZ1.Ohm*M                                        :GZ1   ГЗ1(A0.4M0.1N)
GZ2.Ohm*M                                        :GZ2   ГЗ2(A1.0M0.1N)
GZ3.Ohm*M                                        :GZ3   ГЗ3(A2.0M0.5N)
GZ4.Ohm*M                                        :GZ4   ГЗ4(A4.0M0.5N)
GZ5.Ohm*M                                        :GZ5   ГЗ5(A8.0M0.5N)
GZR.                                             :GZR   ГЗK(N0.5M2.0A)
ИК.Ohm*M                                         :IK
НГК.ue                                           :NGK     (НГК)
NNKM.                                            :NNKm  (ННКм)
PS.mv                                            :PS       (ПС)
PZ.Ohm*M                                         :PZ    (КС)
RS.Ohm*M                                         :RS (Резистивиметр)
W.%                                              :W
~ASCII LOG DATA
# ...
133.3       61.57       157.531     2.232       5.627       144.415     121.304     126.289     113.946     95.531      51.516      49.065      1.092       1.388       30.423      116.656     1.267       25.668      
133.4       53.949      157.344     2.251       5.654       126.6       116.626     130.372     118.298     106.063     53.929      48.468      1.112       1.362       30.401      117.669     1.27        25.582      
133.5       60.22       157.349     2.27        5.655       132.413     126.256     131.971     120.618     116.949     54.652      47.667      1.12        1.357       29.654      115.575     1.268       25.09       
133.6       73.461      157.348     2.284       5.707       151.285     145.501     128.123     119.352     121.568     53.025      46.514      1.112       1.375       28.639      110.202     1.261       24.73       
133.7       76.001      157.478     2.29        5.792       156.46      145.54      120.528     115.657     120.905     50.524      45.424      1.077       1.391       28.039      105.887     1.252       25.04       
133.8       56.415      157.733     2.287       5.889       133.867     112.913     106.633     107.529     123.259     47.209      44.316      1.026       1.383       28.293      102.573     1.245       25.778      
133.9       40.623      157.923     2.275       6.036       108.804     85.609      92.658      93.911      121.678     44.351      43.029      0.985       1.341       29.49       90.54       1.249       26.963      
134.0       37.204      158.21      2.259       6.274       89.013      77.441      85.557      81.868      116.884     45.282      41.857      0.968       1.284       31.877      78.38       1.254       28.096      
134.1       37.799      159.021     2.246       6.491       75.446      81.578      86.179      79.756      109.343     49.759      40.56       0.978       1.238       35.548      74.653      1.255       28.276      
134.2       42.681      158.99      2.24        6.566       78.911      96.702      91.962      85.648      104.479     55.82       39.348      0.994       1.207       39.948      73.308      1.243       27.572      
134.3       61.538      158.857     2.24        6.501       99.267      109.741     95.18       92.25       100.958     59.425      38.188      1.011       1.235       43.784      74.017      1.224       26.366      
134.4       92.588      159.031     2.244       6.399       122.489     114.6       94.033      93.828      98.574      58.483      37.277      1.022       1.298       46.46       75.897      1.221       25.33       
134.5       81.87       161.446     2.247       6.326       123.0       103.796     89.648      76.949      96.49       54.65       36.688      1.023       1.356       48.832      75.527      1.22        25.65       
134.6       34.953      165.341     2.247       6.356       95.605      80.994      81.33       68.521      94.667      48.649      36.381      1.018       1.37        52.574      71.385      1.222       26.73       
134.7       30.555      166.093     2.242       6.515       77.353      71.996      70.63       71.256      89.689      42.22       36.026      1.014       1.325       57.576      63.81       1.233       27.803      
134.8       33.993      165.759     2.233       6.767       76.128      71.675      63.015      64.268      80.468      38.665      35.618      1.014       1.256       61.463      57.104      1.247       29.031      
134.9       35.813      162.003     2.223       6.992       70.029      66.819      59.329      60.721      71.222      37.726      34.734      1.016       1.207       61.83       55.719      1.237       29.993      
135.0       34.742      159.673     2.212       7.115       62.727      58.625      55.482      56.807      62.093      36.647      33.759      1.014       1.2         58.976      55.736      1.219       30.046      
135.1       34.182      159.585     2.203       7.145       55.924      49.259      50.491      51.225      58.88       35.187      32.993      1.0         1.216       55.657      53.92       1.214       30.19       
135.2       32.472      160.103     2.196       7.158       52.239      45.094      46.194      46.449      55.874      34.026      32.362      0.974       1.209       54.623      51.097      1.214       30.416      
135.3       32.736      163.604     2.193       7.177       51.796      45.6        43.752      43.142      51.888      34.015      31.942      0.96        1.184       56.788      48.509      1.216       30.089      
135.4       33.846      169.314     2.196       7.186       53.548      47.786      43.078      40.971      48.763      35.192      31.526      0.963       1.168       60.994      47.104      1.215       29.506      
135.5       33.742      168.06      2.205       7.197       54.389      48.452      42.988      39.828      45.533      35.706      31.287      0.968       1.171       64.871      47.398      1.213       28.931      
135.6       31.344      166.177     2.219       7.273       53.148      47.045      42.704      38.973      42.445      33.355      30.952      0.954       1.188       66.715      48.377      1.212       28.139      
135.7       30.822      165.421     2.233       7.408       51.472      45.449      41.643      37.634      40.292      30.088      30.824      0.935       1.199       66.992      48.353      1.211       27.281      
135.8       30.825      167.391     2.243       7.524       48.513      43.656      40.317      35.728      38.844      27.765      30.952      0.924       1.19        67.33       47.271      1.212       26.868      
135.9       30.839      170.915     2.246       7.603       45.413      41.419      39.106      34.001      38.306      26.495      30.73       0.923       1.168       68.742      46.008      1.212       26.417      
136.0       31.412      171.611     2.242       7.648       44.329      39.848      37.263      32.712      38.33       26.118      30.596      0.921       1.159       70.909      44.888      1.21        26.044      
136.1       32.019      171.442     2.233       7.635       44.609      38.821      35.536      31.331      38.129      26.255      30.534      0.921       1.161       73.161      44.088      1.21        26.503      
136.2       31.788      171.475     2.224       7.594       44.957      37.469      34.922      30.447      39.743      27.215      30.492      0.925       1.148       75.449      43.957      1.21        27.36       
136.3       31.088      171.317     2.219       7.604       44.591      36.202      36.192      31.247      43.75       29.975      30.611      0.936       1.129       77.982      44.567      1.21        28.295      
136.4       30.511      171.734     2.222       7.672       44.603      38.285      39.385      33.751      50.897      35.009      30.75       0.954       1.118       80.72       45.371      1.21        29.002      
136.5       30.769      172.197     2.235       7.708       48.274      44.131      45.286      38.855      55.177      41.534      30.859      0.974       1.13        83.293      46.189      1.21        28.662      
136.6       32.909      172.557     2.253       7.636       49.819      48.951      56.92       47.449      56.511      51.19       30.903      0.996       1.171       85.137      47.132      1.21        27.178      
136.7       34.952      176.018     2.274       7.465       50.403      58.03       68.262      58.379      57.872      62.171      30.904      1.024       1.221       86.287      47.926      1.21        24.91       
136.8       43.052      180.287     2.29        7.261       57.97       73.662      71.79       65.209      59.434      63.972      31.19       1.061       1.294       86.847      47.891      1.209       22.874      
136.9       64.172      181.95      2.298       7.132       70.11       76.695      70.354      64.321      60.371      57.265      31.507      1.076       1.333       86.952      47.59       1.21        22.421      
