~Version Information Section
VERS.                                         2.0:CWLS log ASCII Standart – VERSION 2.0
WRAP.                                          NO:One line per depth step
~Well Information Section
STRT.M                                        1.6:Начальная глубина
STOP.M                                      212.2:Конечная глубина
STEP.M                                          0:Шаг квантования по глубине
NULL.                                    -9999.25:Признак "Нет данных"
WELL.                                       139Мх:Скважина
~Parameter Information Section
~Curve Information Section
DEPTH.M                                          :Глубина
BK.Ohm*M                                         :BK     (БК)
DS.mm                                            :DS  (ДС)
GGK.g/cm3                                        :GGKp
ГК.mcr/h                                         :GK          (ГК)
GZ1.Ohm*M                                        :GZ1   ГЗ1(A0.4M0.1N)
GZ2.Ohm*M                                        :GZ2   ГЗ2(A1.0M0.1N)
GZ3.Ohm*M                                        :GZ3   ГЗ3(A2.0M0.5N)
GZ4.Ohm*M                                        :GZ4   ГЗ4(A4.0M0.5N)
GZ5.Ohm*M                                        :GZ5   ГЗ5(A8.0M0.5N)
GZR.Ohm*M                                        :GZK   ГЗK(N0.5M2.0A)
ИК.Ohm*M                                         :IK
НГК.ue                                           :NGK     (НГК)
NNKM.                                            :NNKm  (ННКм)
PS.mv                                            :PS       (ПС)
PZ.Ohm*M                                         :PZ    (КС)
U1.mV                                            :U1
U2.mV                                            :U2
U3.mV                                            :U3
КП.%                                             :Кп
~ASCII LOG DATA
# ...
198.8       14.131      126.954     2.202       7.093       10.079      8.677       62.079      9.704       8.127       17.626      11.035      1.004       1.989       227.949     25.5        280.23      284.767     281.923     37.203      
198.9       13.754      126.736     2.213       7.087       10.084      8.655       61.685      11.461      8.121       18.975      11.238      1.022       2.029       228.054     25.8        289.226     287.171     281.389     36.21       
199.0       15.545      126.806     2.233       6.713       10.138      8.632       61.372      12.993      8.106       20.15       11.479      1.071       2.176       228.054     26.2        243.426     235.599     229.607     36.161      
199.1       19.175      126.972     2.271       6.866       10.373      8.619       61.101      14.014      8.071       20.948      11.728      1.096       2.316       228.054     26.6        165.723     171.76      183.986     35.77       
199.2       19.475      127.035     2.305       6.955       10.918      8.617       60.822      14.416      8.006       21.306      12.006      1.09        2.314       227.989     27.0        131.407     145.905     164.82      34.49       
199.3       19.594      126.982     2.301       6.941       11.741      8.632       60.475      14.419      7.899       21.345      12.309      1.138       2.369       227.651     27.4        172.372     170.293     172.105     30.319      
199.4       25.259      126.863     2.301       6.392       12.727      8.651       59.992      14.384      7.744       21.324      12.592      1.203       2.481       226.908     27.9        261.997     217.032     185.742     27.486      
199.5       32.063      126.898     2.31        5.761       13.717      8.667       59.326      14.106      7.546       21.156      12.804      1.305       2.609       225.605     28.4        318.717     262.556     202.093     25.209      
199.6       32.085      126.791     2.326       5.294       14.493      8.673       58.464      13.362      7.309       20.724      12.931      1.387       2.709       223.671     28.9        293.833     284.497     255.806     25.65       
199.7       30.391      126.53      2.325       5.133       14.986      8.675       57.423      12.413      7.054       20.24       12.988      1.45        2.585       221.109     29.5        220.293     284.08      293.135     26.321      
199.8       29.283      126.425     2.341       5.222       15.213      8.682       56.257      11.524      6.81        19.934      13.027      1.467       2.412       218.025     30.1        187.936     282.128     324.119     28.775      
199.9       29.445      127.022     2.338       5.395       15.253      8.699       55.051      10.831      6.604       19.852      13.097      1.44        2.355       214.623     30.3        181.398     281.167     348.678     32.078      
200.0       30.692      127.67      2.31        5.658       15.26       8.738       53.895      10.344      6.454       19.852      13.251      1.411       2.281       211.22      30.5        174.862     263.493     341.962     35.095      
200.1       32.785      126.157     2.316       5.602       15.253      8.836       52.852      9.995       6.376       19.866      13.482      1.393       2.21        208.096     30.7        188.554     219.666     259.354     36.143      
200.2       35.411      126.179     2.311       5.576       15.208      9.043       51.955      9.735       6.359       19.983      13.765      1.341       2.19        205.453     30.8        257.097     183.749     142.19      35.926      
200.3       36.656      126.014     2.294       5.56        15.183      9.363       51.218      9.551       6.359       20.342      14.104      1.326       2.213       203.392     31.0        296.24      162.044     70.746      34.502      
200.4       35.035      125.847     2.277       5.619       15.183      9.781       50.644      9.424       6.362       20.944      14.436      1.271       2.221       201.911     31.3        286.398     157.054     79.63       32.027      
200.5       37.759      125.801     2.271       5.672       15.19       10.267      50.226      9.369       6.391       21.799      14.73       1.22        2.238       200.683     31.6        286.18      171.441     98.267      31.074      
200.6       37.344      125.793     2.266       5.479       15.243      10.758      49.962      9.369       6.477       22.985      15.021      1.181       2.297       199.771     31.9        335.06      205.208     122.215     32.021      
200.7       30.127      125.319     2.279       5.418       15.406      11.206      49.852      9.371       6.613       24.511      15.367      1.135       2.305       199.045     32.2        374.412     272.345     208.919     34.583      
200.8       28.867      125.278     2.31        5.298       15.764      11.619      49.847      9.4         6.772       26.317      15.828      1.172       2.239       198.489     32.4        384.571     355.992     325.815     35.602      
200.9       36.97       125.068     2.316       4.933       16.548      12.068      49.847      9.531       6.919       28.348      16.372      1.158       2.285       198.04      32.5        401.353     422.797     405.65      34.266      
201.0       48.52       125.305     2.31        4.46        17.984      12.646      49.859      9.823       7.008       30.437      17.02       1.225       2.404       197.8       32.5        422.767     456.29      418.288     31.947      
201.1       52.377      125.036     2.284       3.964       20.143      13.342      49.957      10.231      7.034       32.309      17.693      1.264       2.525       197.56      32.6        412.982     469.056     462.481     28.887      
201.2       56.366      125.115     2.243       3.551       23.0        14.174      50.254      10.701      7.036       33.77       18.251      1.313       2.646       197.32      32.6        376.901     463.801     514.228     27.592      
201.3       69.1        125.402     2.248       3.491       26.396      15.102      50.752      11.169      7.021       34.811      18.69       1.359       2.797       197.0       32.6        362.39      427.871     474.794     26.893      
201.4       82.346      125.5       2.263       3.047       29.77       15.993      51.428      11.566      6.949       35.435      18.97       1.452       2.896       196.6       32.7        374.693     379.299     363.906     25.88       
201.5       81.189      125.429     2.265       2.984       32.389      16.752      52.235      11.891      6.804       35.757      19.162      1.52        2.856       196.2       32.9        365.935     362.62      324.777     24.569      
201.6       73.482      125.305     2.253       2.718       33.911      17.42       53.096      12.09       6.605       35.89       19.252      1.554       2.821       195.8       33.5        340.49      390.501     399.755     26.544      
201.7       68.31       125.348     2.236       2.944       34.423      17.97       53.93       12.08       6.384       35.889      19.34       1.552       2.802       195.4       34.2        422.72      449.766     445.565     29.485      
201.8       63.688      125.329     2.199       3.027       34.409      18.446      54.674      -9999.25    6.164       -9999.25    19.445      1.519       2.761       195.08      35.0        573.956     526.499     439.313     31.298      
201.9       64.37       125.28      2.167       3.059       34.244      18.962      55.287      -9999.25    5.962       -9999.25    19.516      1.453       2.723       194.84      36.1        669.774     642.865     585.582     29.846      
202.0       68.66       125.15      2.177       3.083       33.557      19.522      55.759      -9999.25    5.797       -9999.25    19.52       1.432       2.773       194.76      37.3        662.301     781.447     819.381     28.571      
202.1       66.434      125.162     2.181       3.17        32.247      20.053      56.102      -9999.25    5.686       -9999.25    19.475      1.47        2.808       194.76      38.3        778.689     917.558     936.074     29.416      
