~Version Information Section
VERS.                                         2.0:CWLS log ASCII Standart – VERSION 2.0
WRAP.                                          NO:One line per depth step
~Well Information Section
STRT.M                                        1.6:Начальная глубина
STOP.M                                      212.2:Конечная глубина
STEP.M                                          0:Шаг квантования по глубине
NULL.                                    -9999.25:Признак "Нет данных"
WELL.                                       139Мх:Скважина
~Parameter Information Section
~Curve Information Section
DEPTH.M                                          :Глубина
BK.Ohm*M                                         :BK     (БК)
DS.mm                                            :DS  (ДС)
GGK.g/cm3                                        :GGKp
ГК.mcr/h                                         :GK          (ГК)
GZ1.Ohm*M                                        :GZ1   ГЗ1(A0.4M0.1N)
GZ2.Ohm*M                                        :GZ2   ГЗ2(A1.0M0.1N)
GZ3.Ohm*M                                        :GZ3   ГЗ3(A2.0M0.5N)
GZ4.Ohm*M                                        :GZ4   ГЗ4(A4.0M0.5N)
GZ5.Ohm*M                                        :GZ5   ГЗ5(A8.0M0.5N)
GZR.Ohm*M                                        :GZK   ГЗK(N0.5M2.0A)
ИК.Ohm*M                                         :IK
НГК.ue                                           :NGK     (НГК)
NNKM.                                            :NNKm  (ННКм)
PS.mv                                            :PS       (ПС)
PZ.Ohm*M                                         :PZ    (КС)
U1.mV                                            :U1
U2.mV                                            :U2
U3.mV                                            :U3
КП.%                                             :Кп
~ASCII LOG DATA
# ...
86.6        -9999.25    136.395     2.342       4.94        -9999.25    -9999.25    -9999.25    -9999.25    -9999.25    -9999.25    -9999.25    3.028       4.318       -9999.25    -9999.25    -9999.25    -9999.25    -9999.25    4.745       
86.7        -9999.25    133.584     2.291       4.949       -9999.25    -9999.25    -9999.25    -9999.25    -9999.25    -9999.25    -9999.25    3.102       4.463       -9999.25    -9999.25    -9999.25    -9999.25    -9999.25    5.181       
86.8        -9999.25    134.094     2.216       5.402       -9999.25    -9999.25    -9999.25    -9999.25    -9999.25    -9999.25    -9999.25    3.373       4.428       -9999.25    -9999.25    -9999.25    -9999.25    -9999.25    5.498       
86.9        -9999.25    133.495     2.16        5.2         -9999.25    -9999.25    -9999.25    -9999.25    -9999.25    -9999.25    -9999.25    3.751       4.382       -9999.25    -9999.25    -9999.25    -9999.25    -9999.25    5.205       
87.0        -9999.25    133.538     2.141       4.993       -9999.25    -9999.25    -9999.25    -9999.25    -9999.25    -9999.25    -9999.25    4.049       4.423       -9999.25    -9999.25    -9999.25    -9999.25    -9999.25    4.742       
87.1        -9999.25    135.539     2.124       4.653       -9999.25    -9999.25    -9999.25    -9999.25    -9999.25    -9999.25    -9999.25    4.259       4.512       -9999.25    -9999.25    -9999.25    -9999.25    -9999.25    3.572       
87.2        -9999.25    139.146     2.097       4.57        -9999.25    -9999.25    -9999.25    -9999.25    -9999.25    -9999.25    -9999.25    4.308       4.635       -9999.25    -9999.25    -9999.25    -9999.25    -9999.25    2.6         
87.3        -9999.25    141.624     2.065       4.575       -9999.25    -9999.25    -9999.25    -9999.25    -9999.25    -9999.25    -9999.25    4.263       4.706       -9999.25    -9999.25    -9999.25    -9999.25    -9999.25    2.174       
87.4        -9999.25    141.345     2.061       4.915       -9999.25    -9999.25    -9999.25    -9999.25    -9999.25    -9999.25    -9999.25    4.253       4.721       -9999.25    -9999.25    -9999.25    -9999.25    -9999.25    2.42        
87.5        -9999.25    140.296     2.081       5.408       -9999.25    -9999.25    -9999.25    -9999.25    -9999.25    -9999.25    -9999.25    4.338       4.621       -9999.25    -9999.25    -9999.25    -9999.25    -9999.25    2.745       
87.6        -9999.25    140.287     2.093       5.75        -9999.25    -9999.25    -9999.25    -9999.25    -9999.25    -9999.25    -9999.25    4.436       4.495       -9999.25    -9999.25    -9999.25    -9999.25    -9999.25    3.328       
87.7        -9999.25    140.822     2.108       5.533       -9999.25    -9999.25    -9999.25    -9999.25    -9999.25    -9999.25    -9999.25    4.549       4.43        -9999.25    -9999.25    -9999.25    -9999.25    -9999.25    5.673       
87.8        -9999.25    141.529     2.126       5.054       -9999.25    -9999.25    -9999.25    -9999.25    -9999.25    -9999.25    -9999.25    4.647       4.281       -9999.25    -9999.25    -9999.25    -9999.25    -9999.25    8.17        
87.9        -9999.25    142.233     2.147       5.205       -9999.25    -9999.25    -9999.25    -9999.25    -9999.25    -9999.25    -9999.25    4.616       3.912       -9999.25    -9999.25    -9999.25    -9999.25    -9999.25    10.062      
88.0        -9999.25    142.886     2.172       5.193       -9999.25    -9999.25    -9999.25    -9999.25    -9999.25    -9999.25    -9999.25    4.392       3.64        -9999.25    -9999.25    -9999.25    -9999.25    -9999.25    10.617      
88.1        -9999.25    142.979     2.221       5.584       -9999.25    -9999.25    -9999.25    -9999.25    -9999.25    -9999.25    -9999.25    4.017       3.618       -9999.25    -9999.25    -9999.25    -9999.25    -9999.25    11.153      
88.2        -9999.25    142.477     2.269       5.584       -9999.25    -9999.25    -9999.25    -9999.25    -9999.25    -9999.25    -9999.25    3.701       3.65        -9999.25    -9999.25    -9999.25    -9999.25    -9999.25    10.891      
88.3        -9999.25    142.404     2.275       5.896       -9999.25    -9999.25    -9999.25    -9999.25    -9999.25    -9999.25    16.867      3.272       3.72        -9999.25    -9999.25    -9999.25    -9999.25    -9999.25    10.095      
88.4        -9999.25    142.532     2.269       5.92        -9999.25    -9999.25    -9999.25    -9999.25    -9999.25    -9999.25    17.029      2.982       3.804       -9999.25    -9999.25    -9999.25    -9999.25    -9999.25    8.955       
88.5        -9999.25    136.514     2.261       5.733       -9999.25    -9999.25    -9999.25    -9999.25    -9999.25    -9999.25    17.089      2.818       3.877       -9999.25    -9999.25    -9999.25    -9999.25    -9999.25    8.554       
88.6        -9999.25    132.979     2.247       5.649       -9999.25    -9999.25    -9999.25    -9999.25    -9999.25    -9999.25    17.02       2.878       3.968       -9999.25    -9999.25    -9999.25    -9999.25    -9999.25    8.273       
88.7        -9999.25    131.578     2.236       5.718       57.63       19.909      34.035      6.547       -9999.25    8.701       16.952      2.948       4.005       -9999.25    -9999.25    -9999.25    -9999.25    -9999.25    7.679       
88.8        -9999.25    131.416     2.255       5.88        58.662      19.909      34.074      7.924       5.21        8.899       16.972      3.015       3.877       -9999.25    -9999.25    -9999.25    -9999.25    -9999.25    6.842       
88.9        64.931      132.271     2.292       6.293       66.901      19.958      34.104      11.919      5.0         10.001      16.983      3.125       3.899       -9999.25    -9999.25    -9999.25    -9999.25    -9999.25    5.753       
89.0        241.282     134.485     2.296       6.302       89.747      20.378      34.124      18.273      5.0         12.935      17.039      3.167       4.114       -9999.25    -9999.25    -9999.25    -9999.25    -9999.25    5.264       
89.1        761.741     136.477     2.261       6.224       119.958     21.704      34.139      26.055      5.21        17.555      17.098      3.217       4.272       -9999.25    -9999.25    -9999.25    -9999.25    -9999.25    4.997       
89.2        1392.563    136.061     2.218       5.86        147.35      24.031      34.172      32.145      5.79        22.484      17.118      3.335       4.348       -9999.25    -9999.25    180.801     144.508     110.82      4.883       
89.3        2398.656    138.212     2.159       5.67        165.489     26.746      34.276      34.276      6.0         25.26       17.063      3.596       4.415       -9999.25    -9999.25    147.987     142.56      124.863     4.528       
89.4        4786.493    140.078     2.119       5.399       170.25      28.489      34.522      34.166      6.0         25.632      16.973      3.928       4.461       -9999.25    -9999.25    126.111     141.262     143.586     4.149       
89.5        6348.112    137.135     2.113       5.239       168.896     29.067      35.038      33.269      6.0         25.589      16.767      4.194       4.446       -9999.25    -9999.25    135.974     159.583     178.658     3.82        
89.6        1901.96     139.629     2.119       5.305       158.07      28.971      36.003      30.66       6.0         25.239      16.437      4.279       4.385       -9999.25    -9999.25    177.573     197.52      213.752     3.939       
89.7        216.925     142.025     2.145       5.416       128.97      28.134      37.536      26.453      6.0         24.153      16.152      4.185       4.261       -9999.25    -9999.25    231.896     237.811     232.525     4.173       
89.8        131.88      143.467     2.177       5.805       91.852      25.485      39.655      20.895      5.79        22.191      15.872      4.109       4.178       -9999.25    -9999.25    227.526     229.805     219.967     3.752       
89.9        708.834     142.213     2.188       5.984       57.07       21.125      42.313      15.932      5.21        19.862      15.675      4.079       4.179       -9999.25    141.703     202.358     200.273     190.659     2.972       
