~Version Information Section
VERS.                                         2.0:CWLS log ASCII Standart – VERSION 2.0
WRAP.                                          NO:One line per depth step
~Well Information Section
STRT.M                                        1.2:Начальная глубина
STOP.M                                      169.7:Конечная глубина
STEP.M                                          0:Шаг квантования по глубине
NULL.                                    -9999.25:Признак "Нет данных"
WELL.                                       115Мх:Скважина
~Parameter Information Section
~Curve Information Section
DEPTH.M                                          :Глубина
BK.Ohm*M                                         :BK     (БК)
DS.mm                                            :DS  (ДС)
GGK.g/cm3                                        :GGKp
ГК.mcr/h                                         :GK          (ГК)
GZ1.Ohm*M                                        :GZ1   ГЗ1(A0.4M0.1N)
GZ2.Ohm*M                                        :GZ2   ГЗ2(A1.0M0.1N)
GZ3.Ohm*M                                        :GZ3   ГЗ3(A2.0M0.5N)
GZ4.Ohm*M                                        :GZ4   ГЗ4(A4.0M0.5N)
GZ5.Ohm*M                                        :GZ5   ГЗ5(A8.0M0.5N)
GZR.Ohm*M                                        :GZK   ГЗK(N0.5M2.0A)
ИК.Ohm*M                                         :IK
НГК.ue                                           :NGK     (НГК)
NNKM.                                            :NNKm  (ННКм)
PS.mv                                            :PS       (ПС)
PZ.Ohm*M                                         :PZ    (КС)
RS.Ohm*M                                         :RS (Резистивиметр)
U1.mV                                            :U1
U2.mV                                            :U2
U3.mV                                            :U3
КП.%                                             :Кп
~ASCII LOG DATA
# ...
94.0        74.473      128.938     2.303       4.64        17.469      19.991      21.677      14.925      13.071      23.819      36.464      1.266       2.499       1052.57     80.115      1.048       1875.91     1607.798    1368.694    29.562      
94.1        93.111      128.996     2.298       4.869       17.243      20.049      23.177      15.025      13.171      24.119      37.016      1.246       2.371       1053.363    79.525      1.048       1657.458    1461.109    1279.709    30.312      
94.2        105.925     128.563     2.286       4.956       17.204      20.717      23.877      15.325      13.471      24.319      37.403      1.22        2.277       1053.664    78.826      1.048       1551.367    1390.787    1237.919    29.504      
94.3        83.56       129.227     2.269       5.197       18.185      22.429      24.077      15.425      22.071      24.719      37.642      1.257       2.359       1053.64     78.049      1.048       1546.162    1385.215    1231.476    28.66       
94.4        66.222      130.149     2.264       5.254       17.362      22.094      24.377      15.525      22.171      23.219      37.736      1.299       2.426       1052.535    77.21       1.048       1775.301    1564.551    1367.955    28.135      
94.5        61.235      129.968     2.299       5.305       17.29       23.782      23.677      16.425      22.771      23.019      37.918      1.306       2.42        1051.324    76.293      1.039       2183.623    1901.015    1641.47     27.242      
94.6        60.674      129.301     2.3         5.021       16.764      24.004      21.577      16.725      22.871      15.519      37.969      1.307       2.422       1050.583    75.283      1.039       2749.004    2401.936    2081.937    26.813      
94.7        60.256      128.522     2.287       4.856       16.521      24.652      19.077      16.825      22.971      14.719      37.847      1.196       2.456       1050.311    74.196      1.039       3336.479    2951.613    2590.735    27.251      
94.8        64.121      128.065     2.29        4.8         20.133      28.06       14.677      17.425      23.471      13.719      38.085      1.19        2.477       1050.05     73.046      1.039       3663.727    3278.246    2909.869    28.156      
94.9        69.343      127.669     2.291       4.905       19.563      26.61       14.477      17.625      23.871      13.319      38.36       1.194       2.458       1049.27     71.803      1.039       3664.661    3294.263    2937.046    28.88       
95.0        75.336      127.643     2.259       4.798       20.418      25.87       13.277      26.625      19.671      12.819      38.676      1.294       2.439       1048.244    70.529      1.039       3340.798    2995.224    2663.327    28.689      
95.1        74.645      129.133     2.248       4.802       19.306      23.811      11.777      26.625      10.571      12.819      38.942      1.35        2.417       1047.123    69.239      1.039       2921.406    2530.444    2182.765    27.986      
95.2        72.778      129.223     2.27        4.819       16.999      20.955      11.377      26.525      10.271      11.819      38.87       1.289       2.413       1045.827    67.919      1.039       2569.348    2119.286    1744.855    27.306      
95.3        77.268      129.254     2.278       4.91        13.834      17.528      10.977      26.425      10.171      11.719      38.992      1.308       2.44        1045.245    66.649      1.039       2319.678    1826.25     1431.181    27.074      
95.4        83.176      129.193     2.286       4.689       9.262       13.03       10.877      26.125      9.671       11.619      39.276      1.284       2.468       1044.116    65.42       1.039       2196.03     1747.346    1381.993    27.504      
95.5        84.723      128.893     2.278       4.701       6.669       11.747      10.477      14.025      9.571       10.919      39.153      1.308       2.498       1044.034    64.255      1.039       2050.373    1677.861    1363.979    28.031      
95.6        80.168      128.203     2.275       4.728       6.474       11.772      10.277      13.725      9.471       10.419      39.067      1.237       2.485       1044.127    63.198      1.039       1824.059    1530.506    1274.691    28.251      
95.7        72.611      128.343     2.245       5.001       7.127       12.087      9.877       11.025      8.971       10.119      38.939      1.242       2.424       1044.209    62.274      1.039       1610.789    1399.688    1209.686    28.18       
95.8        68.865      127.528     2.251       4.933       6.087       10.904      9.677       11.225      8.771       8.619       38.617      1.3         2.416       1044.513    61.497      1.039       1510.217    1383.416    1262.834    27.101      
95.9        67.453      128.195     2.264       4.986       4.324       9.283       9.477       11.225      8.671       7.819       38.574      1.332       2.462       1045.123    60.896      1.039       1495.401    1413.314    1333.07     25.783      
96.0        63.387      128.479     2.297       5.121       4.193       8.873       8.677       11.225      8.371       7.619       38.507      1.371       2.566       1046.383    60.526      1.034       1447.451    1349.557    1264.085    23.581      
96.1        64.417      128.663     2.346       5.364       4.961       9.476       8.577       10.625      7.871       7.519       38.644      1.419       2.687       1047.839    60.369      1.034       1323.786    1149.24     1012.452    21.957      
96.2        69.663      129.331     2.4         5.318       5.265       9.21        7.777       10.425      7.871       7.319       38.411      1.525       2.817       1049.019    60.472      1.034       1134.887    896.187     719.365     20.363      
96.3        71.779      128.546     2.431       5.127       6.514       9.742       7.677       10.425      7.771       7.319       38.823      1.606       2.967       1049.848    60.882      1.034       883.097     631.638     456.559     19.633      
96.4        71.779      128.551     2.424       4.8         9.103       13.101      7.377       10.325      7.671       7.019       38.823      1.644       2.965       1050.533    61.46       1.034       666.932     441.221     293.561     20.252      
96.5        72.946      129.188     2.423       4.712       6.78        11.579      7.177       10.225      7.571       7.019       38.803      1.607       2.887       1050.875    62.21       1.034       587.602     385.404     254.223     21.271      
96.6        74.989      128.644     2.386       4.679       5.228       9.065       6.977       9.325       7.471       6.919       38.623      1.505       2.761       1050.941    63.11       1.034       581.161     406.431     289.108     22.95       
96.7        71.285      127.562     2.371       4.831       4.353       8.364       6.777       9.125       7.371       6.819       38.7        1.429       2.622       1051.005    64.132      1.034       490.45      376.83      302.73      23.829      
96.8        70.469      127.796     2.342       5.006       3.846       7.76        6.477       9.125       7.271       6.719       38.945      1.402       2.535       1050.828    65.272      1.034       317.451     293.799     303.396     26.395      
96.9        74.473      128.546     2.342       5.308       3.642       7.18        6.277       8.925       7.171       6.619       38.638      1.403       2.474       1049.689    66.534      1.034       195.427     256.329     367.398     27.931      
97.0        81.47       128.844     2.333       5.359       4.449       7.204       5.777       8.425       6.971       6.519       38.506      1.393       2.498       1047.812    67.885      1.034       183.044     306.292     520.734     27.325      
97.1        84.333      131.072     2.367       5.268       3.957       6.793       5.777       8.225       6.871       6.419       38.516      1.396       2.552       1045.24     69.301      1.034       224.017     369.684     633.535     24.883      
