~Version Information Section
VERS.                                         2.0:CWLS log ASCII Standart – VERSION 2.0
WRAP.                                          NO:One line per depth step
~Well Information Section
STRT.M                                        0.4:Начальная глубина
STOP.M                                      190.1:Конечная глубина
STEP.M                                          0:Шаг квантования по глубине
NULL.                                    -9999.25:Признак "Нет данных"
WELL.                                       135Мх:Скважина
~Parameter Information Section
~Curve Information Section
DEPTH.M                                          :Глубина
DS.mm                                            :DS  (ДС)
GGK.g/cm3                                        :GGKp
ГК.mcr/h                                         :GK          (ГК)
GZ1.Ohm*M                                        :GZ1   ГЗ1(A0.4M0.1N)
GZ2.Ohm*M                                        :GZ2   ГЗ2(A1.0M0.1N)
GZ3.Ohm*M                                        :GZ3   ГЗ3(A2.0M0.5N)
GZ4.Ohm*M                                        :GZ4   ГЗ4(A4.0M0.5N)
GZ5.Ohm*M                                        :GZ5   ГЗ5(A8.0M0.5N)
GZR.Ohm*M                                        :GZK   ГЗK(N0.5M2.0A)
ИК.Ohm*M                                         :IK
НГК.ue                                           :NGK     (НГК)
NNKM.                                            :NNKm  (ННКм)
PS.mv                                            :PS       (ПС)
PZ.Ohm*M                                         :PZ    (КС)
RS.Ohm*M                                         :RS (Резистивиметр)
U1.mV                                            :U1
U2.mV                                            :U2
U3.mV                                            :U3
BK.Ohm*M                                         :БК
ПОРИСТОСТЬ.                                      :Пористость ННК
~ASCII LOG DATA
# ...
109.2       132.259     2.353       2.494       124.942     122.25      61.69       48.55       13.582      80.453      35.871      1.789       3.0         460.751     48.0        1.42        264.0       165.333     249.333     63.581      26.192      
109.3       131.809     2.36        2.607       133.588     128.243     63.668      55.101      15.725      90.493      36.058      1.841       2.987       462.621     48.0        1.4         272.0       146.667     244.0       60.091      26.445      
109.4       131.351     2.383       2.573       140.85      132.403     66.468      65.598      19.533      97.861      36.128      1.872       2.986       464.139     48.0        1.38        258.667     130.667     230.667     56.038      26.226      
109.5       131.196     2.417       2.533       146.758     135.548     71.261      81.331      25.411      100.208     36.131      1.918       3.016       465.411     48.336      1.38        240.0       109.334     217.334     55.96       25.219      
109.6       131.196     2.445       2.656       150.699     138.73      79.468      102.193     33.998      97.1        36.131      1.981       3.075       466.527     48.564      1.38        224.0       93.333      198.666     56.993      24.324      
109.7       131.223     2.462       2.874       152.132     143.611     92.14       125.577     45.767      89.608      36.131      2.064       3.185       467.509     48.6        1.38        216.0       82.667      182.667     57.394      21.947      
109.8       131.316     2.484       3.249       151.531     152.003     109.025     147.224     59.572      79.276      36.117      2.2         3.357       468.367     49.272      1.36        205.333     77.333      161.333     58.062      19.345      
109.9       131.49      2.505       3.468       150.053     164.332     128.029     162.873     72.867      68.134      36.039      2.357       3.545       468.991     50.736      1.36        194.667     72.0        150.667     48.856      17.868      
110.0       131.76      2.536       3.713       148.731     178.065     145.542     169.005     82.67       57.782      35.874      2.453       3.718       469.197     52.164      1.36        178.667     66.667      145.333     54.968      16.245      
110.1       131.828     2.561       3.834       148.095     188.614     157.447     164.419     85.867      48.738      35.658      2.44        3.803       468.873     53.736      1.36        170.667     64.0        145.333     118.664     15.97       
110.2       131.753     2.568       3.65        147.977     191.79      160.585     150.982     81.124      41.405      35.393      2.365       3.748       467.97      58.524      1.36        176.0       66.667      142.667     263.174     16.534      
110.3       131.494     2.564       3.219       147.902     185.402     154.258     131.891     70.217      36.139      35.096      2.212       3.58        466.494     62.376      1.36        186.667     72.0        137.333     275.315     18.603      
110.4       131.333     2.548       2.712       147.336     170.286     140.502     110.627     56.321      32.807      34.779      2.041       3.386       464.756     64.5        1.34        192.0       77.333      124.0       183.226     20.086      
110.5       131.333     2.511       2.579       145.917     149.788     122.898     90.574      42.655      30.959      34.467      1.869       3.198       462.877     66.3        1.34        181.334     74.667      110.667     130.735     22.218      
110.6       131.67      2.463       2.566       143.32      127.474     105.061     73.543      31.896      30.002      34.103      1.757       3.051       460.873     68.1        1.34        170.666     66.666      100.0       91.711      23.632      
110.7       132.024     2.421       2.825       138.664     105.673     89.341      59.787      24.71       29.493      33.663      1.729       2.973       458.763     69.228      1.34        160.0       56.0        100.0       55.611      24.074      
110.8       132.349     2.389       3.372       132.111     86.001      76.235      49.151      20.121      29.202      33.119      1.746       2.949       456.639     69.228      1.34        149.333     50.667      110.667     37.818      23.518      
110.9       132.63      2.373       4.267       124.163     69.603      65.097      40.99       17.119      29.064      32.445      1.792       2.944       454.552     68.364      1.34        141.333     48.0        124.0       39.272      22.861      
111.0       132.69      2.369       5.208       114.39      56.666      55.264      34.437      14.997      29.044      31.685      1.789       2.919       452.672     67.2        1.32        136.0       48.0        140.0       49.843      21.58       
111.1       132.69      2.375       5.756       103.572     47.162      46.573      29.168      13.317      29.194      30.925      1.726       2.841       451.196     65.664      1.32        136.0       48.0        145.333     52.067      21.779      
111.2       132.736     2.389       5.754       92.687      41.025      39.358      25.219      11.916      29.618      30.208      1.693       2.678       450.144     63.564      1.32        138.667     50.667      148.0       47.256      22.675      
111.3       133.009     2.389       5.618       82.467      37.408      34.006      22.455      10.802      30.254      29.558      1.672       2.492       449.554     61.2        1.32        144.0       56.0        148.0       29.3        25.959      
111.4       133.417     2.37        5.979       74.162      35.292      30.486      20.578      9.983       30.961      28.965      1.659       2.365       449.399     58.8        1.32        149.333     64.0        148.0       21.909      28.953      
111.5       133.7       2.352       7.057       67.929      34.246      28.446      19.281      9.426       31.61       28.373      1.609       2.338       449.371     54.912      1.32        149.333     74.666      148.0       19.051      30.31       
111.6       133.697     2.344       8.148       63.013      33.965      27.408      18.266      8.763       32.21       27.726      1.62        2.391       449.387     50.849      1.32        146.667     80.0        145.333     18.7        30.917      
111.7       132.922     2.341       8.741       58.673      33.955      26.893      17.413      7.595       32.866      27.034      1.653       2.466       449.401     47.441      1.32        141.333     82.667      142.667     22.099      31.072      
111.8       132.035     2.345       8.583       54.598      34.115      26.655      16.752      5.968       33.756      26.402      1.642       2.491       449.334     44.564      1.32        141.333     74.667      140.0       29.015      31.174      
111.9       131.801     2.343       8.164       51.026      34.567      26.597      16.281      4.149       34.968      25.95       1.579       2.45        449.176     42.098      1.32        146.667     69.333      140.0       32.42       31.245      
112.0       131.801     2.319       7.586       48.275      35.114      26.634      15.941      2.642       36.392      25.626      1.538       2.383       448.888     39.887      1.32        152.0       64.0        140.0       24.963      31.205      
112.1       132.018     2.29        7.449       46.385      35.624      26.8        15.663      1.806       37.897      25.434      1.565       2.329       448.405     37.74       1.32        152.0       64.0        137.333     21.62       30.669      
112.2       132.246     2.271       7.72        45.324      36.13       27.094      15.446      1.525       39.491      25.372      1.616       2.332       447.715     35.554      1.32        144.0       64.0        132.0       21.076      30.396      
112.3       132.139     2.262       8.201       45.01       36.682      27.679      15.357      1.525       41.329      25.358      1.661       2.362       446.936     33.342      1.32        136.0       64.0        126.667     21.693      30.211      
