~Version Information Section
VERS.                                         2.0:CWLS log ASCII Standart – VERSION 2.0
WRAP.                                          NO:One line per depth step
~Well Information Section
STRT.M                                        0.0:Начальная глубина
STOP.M                                      211.0:Конечная глубина
STEP.M                                          0:Шаг квантования по глубине
NULL.                                    -9999.25:Признак "Нет данных"
WELL.                                       125Мх:Скважина
~Parameter Information Section
~Curve Information Section
DEPTH.M                                          :Глубина
BK.lgОмм                                         :BK
D.                                               :D sr
GGKP.g/sm3                                       :GGKp
ГК.гамма                                         :GK
ИК.мСм/м                                         :IK
KP.%                                             :Kp
PS.                                              :PS       (ПС)
PZ.Омм                                           :PZ
RIS.Омм                                          :RIS
U1.                                              :U1
U2.                                              :U2
U3.                                              :U3
БЗ.                                              :БЗ (ГГК-1)
ГЗ1.Омм                                          :ГЗ1
ГЗ2.Омм                                          :ГЗ2
ГЗ3.Омм                                          :ГЗ3
ГЗ4.Oмм                                          :ГЗ4
ГЗ5.Oмм                                          :ГЗ5
ГЗК.Омм                                          :ГЗК
ИКБ.мСм/м                                        :ИКБ
МЗ.                                              :МЗ жесткий (ГГК-4)
ННКМ.усл.ед                                      :ННКм
ИКМ.мСм/м                                        :ИКМ
НГК.усл.ед                                       :ННКб
~ASCII LOG DATA
# ...
194.4       89.125      120.784     2.5         2.831       50.551      16.285      19.151      234.014     -9999.25    1095.127    323.286     649.939     10017.143   244.392     355.494     222.215     96.826      29.291      136.437     88.418      16748.572   1.667       58.282      5.344       
194.5       106.66      120.582     2.508       2.877       50.015      16.748      18.923      224.993     -9999.25    1091.198    322.662     642.239     9844.0      232.452     337.032     210.084     95.016      29.402      131.153     84.116      16417.334   1.556       55.377      4.92        
194.6       125.026     120.517     2.519       3.042       49.581      16.932      18.77       217.282     -9999.25    1092.847    323.079     636.169     9328.0      222.596     320.484     231.758     94.479      28.333      118.871     79.814      16770.666   1.506       55.377      4.943       
194.7       137.088     120.504     2.538       3.185       49.215      16.607      18.617      210.808     -9999.25    1111.878    328.218     637.514     8598.667    214.552     305.456     224.806     95.388      28.432      107.948     76.427      16498.666   1.528       55.377      5.308       
194.8       140.605     120.815     2.56        3.199       48.95       16.126      18.541      205.449     -9999.25    1149.525    340.642     648.225     8252.857    212.692     295.431     245.122     96.947      28.812      98.613      73.041      16215.714   1.584       52.748      5.727       
194.9       143.219     120.789     2.576       3.117       48.731      15.571      18.541      201.033     -9999.25    1193.711    356.802     663.913     8195.0      215.919     291.017     240.04      98.39       28.994      100.872     70.006      16502.5     1.745       50.358      6.235       
195.0       149.969     120.935     2.587       3.055       48.525      15.132      18.541      197.484     -9999.25    1237.897    372.961     680.44      7922.857    220.422     285.889     257.909     99.065      29.661      104.28      67.27       16311.429   1.766       50.358      6.323       
195.1       155.239     121.011     2.597       2.977       48.34       14.874      18.541      194.618     -9999.25    1268.191    383.794     691.723     7973.333    223.583     278.417     252.608     99.065      29.328      108.581     64.534      16158.667   1.77        50.358      6.428       
195.2       151.356     121.028     2.598       2.951       48.054      14.733      18.541      192.301     -9999.25    1272.394    386.172     692.251     7641.429    225.558     269.382     267.249     99.065      29.025      113.086     63.303      16020.0     1.759       50.358      6.498       
195.3       138.038     120.976     2.592       3.061       47.744      14.626      18.541      190.264     -9999.25    1255.815    380.818     685.156     7403.75     226.728     260.142     257.261     99.065      29.236      117.262     61.537      15851.25    1.746       48.174      6.536       
195.4       121.899     120.581     2.585       3.117       47.49       14.703      18.465      188.375     -9999.25    1233.681    371.908     677.476     7664.286    224.975     249.994     246.071     99.065      28.247      120.373     59.925      15571.429   1.774       48.174      6.505       
195.5       110.918     120.594     2.568       3.167       47.176      14.991      18.388      186.563     -9999.25    1214.419    365.88      673.08      7749.333    220.264     239.279     234.759     99.065      29.041      131.345     58.448      15365.333   1.785       44.33       6.276       
195.6       104.472     120.379     2.543       3.187       46.9        15.637      18.312      184.875     -9999.25    1206.078    367.605     677.445     8229.333    215.34      231.4       223.967     99.065      28.935      141.946     56.554      15969.333   1.694       44.33       5.752       
195.7       104.472     121.02      2.519       3.182       46.57       16.694      18.16       183.404     -9999.25    1209.334    376.065     692.01      8817.333    209.527     224.823     215.049     99.065      29.275      152.309     54.275      16465.334   1.67        41.054      5.323       
195.8       110.408     120.675     2.49        3.067       46.281      17.714      17.931      182.207     -9999.25    1220.668    386.791     714.173     9350.0      205.566     222.466     208.064     99.065      29.958      152.309     52.173      16984.285   1.616       41.054      4.787       
195.9       112.202     120.435     2.464       3.141       45.941      18.548      17.473      181.415     -9999.25    1241.693    399.725     739.879     10157.333   203.114     221.637     202.644     99.065      30.696      152.309     50.562      17445.334   1.577       39.591      4.626       
196.0       108.143     120.624     2.449       3.091       45.735      19.184      16.557      181.12      -9999.25    1273.056    410.175     764.725     10643.333   202.604     221.587     198.201     99.065      31.177      152.309     49.402      17370.0     1.515       38.229      4.456       
196.1       103.039     120.467     2.439       3.024       45.764      19.411      15.413      181.319     -9999.25    1303.554    417.236     786.046     10593.75    203.395     221.565     194.786     99.065      31.471      152.309     48.013      16876.25    1.472       38.229      4.368       
196.2       102.094     120.956     2.446       2.992       45.905      19.313      14.192      181.998     -9999.25    1332.156    416.797     799.25      10204.286   204.854     220.826     191.776     99.065      31.934      152.309     47.011      16792.857   1.432       36.958      4.353       
196.3       110.408     121.16      2.46        2.993       45.758      19.255      12.971      183.026     -9999.25    1335.072    406.739     794.149     9942.667    207.506     221.425     189.339     99.065      32.897      152.309     46.075      16733.334   1.478       36.958      4.465       
196.4       120.504     120.889     2.471       2.959       45.735      19.235      11.75       184.335     -9999.25    1310.44     391.608     769.363     9588.0      211.899     223.766     187.546     99.065      33.866      152.309     44.611      17200.0     1.521       36.958      4.513       
196.5       130.317     121.143     2.476       2.978       45.741      19.414      10.53       184.626     -9999.25    1268.272    376.081     734.983     9830.0      216.238     226.597     186.537     99.065      35.116      152.309     42.678      17615.0     1.546       35.768      4.565       
196.6       131.522     120.906     2.471       2.913       45.781      19.772      9.385       183.751     -9999.25    1225.342    364.694     700.61      10260.0     220.745     230.09      186.26      99.065      36.279      152.309     41.389      17820.0     1.543       34.652      4.422       
196.7       129.122     121.149     2.452       2.988       45.744      20.246      8.317       181.564     -9999.25    1184.365    358.35      669.238     10324.0     223.873     233.077     186.622     99.065      37.935      152.309     39.682      17712.0     1.457       32.618      4.131       
196.8       127.057     121.223     2.431       3.06        45.825      20.779      7.401       179.053     -9999.25    1164.143    360.709     648.387     10661.333   213.648     237.351     187.41      99.065      40.337      152.309     38.074      17372.0     1.44        29.978      3.97        
196.9       125.603     121.45      2.415       3.038       45.79       21.259      6.943       176.179     -9999.25    1161.778    366.646     640.535     10850.667   202.988     242.877     188.722     99.065      42.47       152.309     36.813      17234.666   1.411       29.978      3.788       
197.0       124.165     121.499     2.398       2.924       45.639      21.538      6.714       172.874     -9999.25    1168.074    375.635     639.852     11011.429   191.611     248.356     190.893     99.065      45.447      152.309     35.846      17191.428   1.411       27.733      3.808       
