~Version Information Section
VERS.                                         2.0:CWLS log ASCII Standart – VERSION 2.0
WRAP.                                          NO:One line per depth step
~Well Information Section
STRT.M                                        0.8:Начальная глубина
STOP.M                                      209.6:Конечная глубина
STEP.M                                          0:Шаг квантования по глубине
NULL.                                    -9999.25:Признак "Нет данных"
WELL.                                         5Мх:Скважина
~Parameter Information Section
~Curve Information Section
DEPTH.M                                          :Глубина
BK.Ohm*M                                         :BK     (БК)
DS.mm                                            :DS  (ДС)
ГК.mcr/h                                         :GK          (ГК)
GZ1.Ohm*M                                        :GZ1   ГЗ1(A0.4M0.1N)
GZ2.Ohm*M                                        :GZ2   ГЗ2(A1.0M0.1N)
GZ3.Ohm*M                                        :GZ3   ГЗ3(A2.0M0.5N)
GZ4.Ohm*M                                        :GZ4   ГЗ4(A4.0M0.5N)
GZ5.Ohm*M                                        :GZ5   ГЗ5(A8.0M0.5N)
GZR.Ohm*M                                        :GZK   ГЗK(N0.5M2.0A)
ИК.Ohm*M                                         :IK
НГК.                                             :NNKb  (ННКб)
NNKM.                                            :NNKm  (ННКм)
PS.mv                                            :PS       (ПС)
PZ.Ohm*M                                         :PZ    (КС)
RS.Ohm*M                                         :RS (Резистивиметр)
W.%                                              :W
ГГК.g/cm3                                        :ГГК
SGDT1.1/min                                      :ПЛ1
SGDT2.1/min                                      :ПЛ2
SGDT3.1/min                                      :ПЛ3
SGDT4.1/min                                      :ПЛ4
~ASCII LOG DATA
# ...
112.4       37.239      148.069     4.285       4.949       11.637      8.494       5.844       20.662      7.813       26.903      3.175       2.199       917.27      45.335      1.005       35.364      2.168       20400.0     24900.0     17180.0     5100.0      
112.6       37.325      147.957     4.437       4.879       11.525      9.394       6.004       20.482      10.047      27.136      3.008       2.153       927.925     48.473      1.005       35.891      2.186       18480.053   24320.0     17200.0     5020.0      
112.8       36.559      148.003     5.125       4.875       11.507      9.214       6.004       20.482      13.784      27.343      3.242       2.166       938.709     51.658      1.005       33.043      2.17        17760.0     24280.0     17120.0     5040.0      
113.0       35.4        149.271     5.458       4.957       11.562      8.674       6.004       19.402      16.287      27.928      3.336       2.2         941.241     54.616      1.005       32.819      2.171       19520.0     24760.0     17060.0     4860.0      
113.2       35.156      149.536     5.476       5.02        11.451      8.314       5.924       18.862      16.704      28.038      3.242       2.197       941.995     58.447      1.002       33.76       2.196       18799.945   24360.0     17060.0     5040.0      
113.4       35.892      149.217     5.164       5.032       11.19       8.494       5.764       18.862      16.875      28.631      3.44        2.223       938.714     66.723      0.998       32.25       2.217       16880.0     24500.0     16080.0     5180.0      
113.6       41.4        148.27      4.79        4.987       10.63       8.314       5.764       25.162      17.951      29.546      3.543       2.288       930.614     67.901      0.993       31.682      2.218       16880.012   23900.0     16280.001   4760.0      
113.8       83.176      148.079     5.183       4.908       9.643       9.934       6.084       27.142      16.799      30.519      3.672       2.437       923.453     62.395      0.989       32.814      2.211       16320.0     22540.0     16500.0     4680.0      
114.0       98.628      149.19      5.827       5.382       8.244       11.374      6.404       28.042      13.706      30.923      3.702       2.516       920.768     56.971      0.987       33.671      2.214       16680.0     23320.0     16299.999   4880.0      
114.2       119.95      148.794     5.134       7.206       8.822       28.114      7.044       30.022      9.264       30.976      3.729       2.443       922.292     54.212      0.987       32.007      2.257       16519.996   22220.0     15780.0     5040.0      
114.4       112.461     148.025     4.068       9.581       9.829       27.214      7.444       35.782      6.141       30.129      4.023       2.412       926.907     54.102      0.987       29.735      2.289       14080.0     21540.0     15759.999   4880.0      
114.6       129.122     150.172     3.982       11.553      11.637      25.414      8.244       38.302      4.718       29.179      3.898       2.606       936.421     50.275      0.987       32.649      2.304       13719.973   20280.0     15560.001   4520.0      
114.8       90.365      149.523     3.395       13.478      14.434      21.994      10.324      39.742      4.668       28.269      3.712       2.559       948.72      45.309      0.987       34.66       2.333       14800.0     21040.0     14960.0     4980.0      
115.0       76.208      151.389     3.632       14.672      19.318      20.194      10.564      41.722      5.01        26.865      3.442       2.464       963.126     35.601      0.987       35.977      2.346       14240.0     22780.0     15800.001   5600.0      
115.2       30.974      156.66      4.013       13.861      21.443      17.494      10.404      43.702      5.345       25.193      3.414       2.385       969.774     25.731      0.984       35.66       2.282       14720.011   24300.0     17460.0     5560.0      
115.4       25.468      151.396     4.484       10.368      23.604      14.974      10.164      30.202      5.571       23.649      3.248       2.232       970.939     19.628      0.977       33.772      2.21        17200.0     25820.0     17700.0     5240.0      
115.6       26.242      148.609     4.967       6.459       15.079      11.014      8.484       28.222      5.457       23.0        3.426       2.176       974.524     18.344      0.971       31.772      2.2         18840.039   24960.0     17400.0     5080.0      
115.8       34.119      148.397     5.212       5.663       13.189      9.934       7.284       26.602      5.444       22.62       3.291       2.269       989.976     19.198      0.968       34.259      2.22        16800.0     23940.0     16800.0     4840.0      
116.0       24.774      153.057     5.601       6.029       13.449      9.574       6.164       25.702      5.794       22.212      3.179       2.214       1001.705    21.409      0.962       35.734      2.211       16000.0     22960.0     16380.0     4480.0      
116.2       26.303      151.816     5.914       5.195       12.373      9.574       6.004       23.722      7.849       21.944      2.92        2.098       1001.796    23.412      0.958       36.963      2.187       17040.004   22780.0     15999.999   4320.0      
116.4       24.831      152.31      6.28        4.932       12.71       9.214       5.764       23.182      9.655       21.944      2.842       2.037       992.526     25.67       0.958       36.738      2.171       17400.0     23180.0     16160.001   4320.0      
116.6       29.444      152.514     6.378       4.806       12.247      8.674       5.444       22.102      11.654      22.086      2.992       2.051       979.457     26.536      0.958       34.679      2.165       16840.018   22400.0     16260.0     4400.0      
116.8       23.388      151.374     6.26        4.833       11.918      8.674       5.284       21.742      12.12       22.273      3.124       2.039       966.48      27.719      0.958       32.577      2.217       17040.0     21640.0     15000.0     4040.0      
117.0       22.856      152.452     6.004       4.431       11.205      8.494       4.884       21.022      12.054      22.471      3.038       2.019       955.126     34.096      0.958       32.364      2.313       15560.0     21260.0     14140.0     4540.0      
117.2       21.33       155.474     4.75        4.169       11.034      7.594       4.804       20.842      11.026      23.11       3.253       2.044       952.397     43.736      0.958       30.899      2.365       12679.991   21300.0     15080.0     4780.0      
117.4       34.914      156.175     3.83        3.714       10.422      7.054       4.724       20.482      11.035      24.54       3.418       2.218       952.857     49.889      0.958       32.441      2.34        13080.0     21580.0     15620.001   4940.0      
117.6       32.961      156.651     3.314       3.892       10.652      7.054       4.724       20.122      11.187      25.815      3.323       2.336       946.195     59.29       0.958       35.255      2.28        14799.998   22740.0     16580.0     4440.0      
117.8       39.355      148.176     3.031       3.89        10.439      7.594       5.124       19.582      11.079      27.028      3.438       2.317       936.522     67.694      0.958       33.768      2.233       15960.0     24060.0     16700.0     4980.0      
118.0       53.827      148.607     2.83        4.315       10.044      7.414       5.204       19.942      11.311      28.402      3.692       2.434       931.512     71.764      0.958       32.357      2.239       17360.0     24500.0     16480.0     4840.0      
118.2       49.431      149.448     3.278       4.533       10.111      7.234       5.204       21.562      12.935      29.107      3.953       2.527       926.785     73.407      0.955       30.986      2.281       15199.94    22920.0     15999.999   4340.0      
118.4       48.865      147.714     2.87        4.498       10.196      7.054       5.204       21.742      14.827      29.873      4.092       2.571       922.913     75.672      0.952       30.388      2.283       13200.0     21520.0     15160.0     4100.0      
