~Version Information Section
VERS.                                         2.0:CWLS log ASCII Standart – VERSION 2.0
WRAP.                                          NO:One line per depth step
~Well Information Section
STRT.M                                        0.6:Начальная глубина
STOP.M                                      191.4:Конечная глубина
STEP.M                                          0:Шаг квантования по глубине
NULL.                                    -9999.25:Признак "Нет данных"
WELL.                                       129Мх:Скважина
~Parameter Information Section
~Curve Information Section
DEPTH.M                                          :Глубина
BK.lgОмм                                         :BK     (БК)
ПРОФ_СР.мм                                       :DS  (ДС)
ГК.имп/мин                                       :GK          (ГК)
ГЗ1.Омм                                          :GZ1   ГЗ1(A0.4M0.1N)
ГЗ2.Омм                                          :GZ2   ГЗ2(A1.0M0.1N)
ГЗ3.Омм                                          :GZ3   ГЗ3(A2.0M0.5N)
ГЗ4.Oмм                                          :GZ4   ГЗ4(A4.0M0.5N)
ГЗ5.Oмм                                          :GZ5   ГЗ5(A8.0M0.5N)
ГЗК.Омм                                          :GZK   ГЗK(N0.5M2.0A)
ИК.мСм/м                                         :IK
НГК.усл.ед                                       :NNKb  (ННКб)
ННКМ.усл.ед                                      :NNKm  (ННКм)
PZ.Омм                                           :PZ    (КС)
РЕЗ.Омм                                          :RS (Резистивиметр)
U1.мВ                                            :U1
U2.mV                                            :U2
U3.мВ                                            :U3
КП.%                                             :Кп
ПС.                                              :ПС
~ASCII LOG DATA
# ...
119.6       43.099      128.291     4.581       25.274      14.446      0.195       18.299      33.311      54.145      75.971      3.359       2.259       10.8        1.12        1093.334    1197.642    778.667     35.091      -49.194     
119.7       30.664      128.35      5.088       25.851      16.813      0.179       19.461      35.622      51.209      60.742      3.157       2.215       11.6        1.12        1069.333    1224.461    757.333     36.223      -48.789     
119.8       19.866      128.158     5.677       26.13       19.264      0.164       20.329      36.867      48.022      60.742      2.95        2.121       13.2        1.12        1058.667    1244.438    741.333     36.274      -48.676     
119.9       18.762      127.99      6.854       26.239      21.798      0.15        20.892      37.889      44.843      53.582      2.995       2.04        14.8        1.12        1056.0      1224.784    738.667     35.837      -48.649     
120.0       22.321      127.979     6.406       26.418      24.401      0.139       21.207      39.444      42.006      45.531      3.109       2.037       16.4        1.12        1069.333    1193.487    744.0       34.261      -48.609     
120.1       40.557      127.915     5.51        26.804      26.936      0.139       21.343      41.489      39.69       34.848      3.33        2.089       19.218      1.12        1077.333    1161.976    762.666     33.013      -48.509     
120.2       57.755      127.819     5.098       27.587      29.133      0.147       21.392      43.756      38.027      29.076      3.486       2.251       22.568      1.12        1080.0      1152.468    784.001     32.796      -48.291     
120.3       73.414      127.596     4.685       28.894      30.872      0.207       21.41       45.933      37.05       27.54       3.491       2.397       25.246      1.12        1069.333    1149.929    789.333     32.876      -47.846     
120.4       76.124      127.36      3.757       30.731      32.129      0.392       21.424      47.711      36.791      26.045      3.562       2.452       28.059      1.12        1064.0      1149.451    781.333     31.961      -47.127     
120.5       80.7        127.354     3.571       33.068      33.042      0.798       21.424      49.0        36.791      24.375      3.738       2.449       31.388      1.12        1072.0      1160.274    768.0       31.616      -46.061     
120.6       82.88       127.403     3.884       35.849      33.782      1.546       21.395      49.889      37.293      23.691      3.711       2.418       33.947      1.12        1090.666    1179.562    783.999     32.203      -44.616     
120.7       86.876      127.36      3.936       39.01       34.544      2.711       21.25       50.689      38.528      22.548      3.543       2.435       36.314      1.12        1104.0      1205.208    805.334     32.102      -42.954     
120.8       90.799      127.396     4.339       42.203      35.208      4.316       20.879      51.578      40.311      22.188      3.632       2.47        38.367      1.12        1104.0      1221.876    824.0       31.572      -41.16      
120.9       93.582      127.52      4.013       44.829      35.475      6.298       20.206      52.644      42.329      21.975      3.893       2.472       39.883      1.12        1093.333    1229.173    818.667     32.132      -39.24      
121.0       91.984      128.912     3.36        46.417      35.475      8.558       19.189      53.756      44.26       21.515      3.775       2.465       40.739      1.12        1101.333    1224.719    794.667     32.503      -37.48      
121.1       88.525      128.962     3.446       46.842      35.192      10.974      17.852      54.911      45.937      21.25       3.619       2.451       40.979      1.12        1114.666    1215.989    768.001     32.2        -36.32      
121.2       84.995      127.47      3.533       46.842      34.507      13.445      16.263      56.067      47.256      20.284      3.697       2.445       40.979      1.12        1141.334    1208.164    760.0       32.157      -35.8       
121.3       81.621      127.412     3.853       46.453      33.826      15.902      14.523      57.267      48.27       19.944      3.772       2.483       40.979      1.12        1144.0      1203.726    765.333     32.636      -35.8       
121.4       77.48       127.392     4.013       45.545      33.34       18.278      12.709      58.378      49.1        19.617      3.73        2.513       40.741      1.12        1136.0      1202.274    768.0       33.151      -35.8       
121.5       68.515      127.402     3.951       44.474      33.17       20.488      10.867      59.356      49.853      19.454      3.627       2.51        40.212      1.12        1109.333    1192.354    754.667     33.183      -36.04      
121.6       59.695      127.015     3.936       43.182      33.17       22.422      9.052       60.2        50.542      19.348      3.467       2.498       39.737      1.12        1088.0      1178.325    746.667     32.967      -37.08      
121.7       55.002      126.688     4.166       41.722      33.239      24.009      7.349       61.0        51.106      19.297      3.423       2.467       39.477      1.12        1077.333    1165.585    749.334     32.722      -38.56      
121.8       58.289      126.72      4.125       40.237      33.635      25.239      5.87        61.844      51.466      19.297      3.479       2.405       39.465      1.12        1090.667    1167.756    768.0       32.081      -40.0       
121.9       64.123      127.188     3.917       39.334      34.434      26.186      4.696       62.778      51.562      19.402      3.526       2.343       39.465      1.12        1096.0      1180.652    792.0       31.048      -41.2       
122.0       68.816      127.674     3.926       39.334      35.814      26.964      3.869       63.889      51.562      19.243      3.619       2.373       39.465      1.12        1122.667    1193.547    813.333     30.521      -42.0       
122.1       70.84       128.238     3.974       39.433      37.683      27.712      3.379       65.089      51.275      19.193      3.618       2.434       39.465      1.12        1125.333    1200.0      818.667     30.101      -42.36      
122.2       69.906      128.239     4.166       40.699      40.034      28.548      3.176       66.289      50.563      19.247      3.613       2.426       39.728      1.12        1133.333    1221.334    813.333     29.623      -42.4       
122.3       67.618      128.088     4.55        42.775      42.6        29.545      3.176       67.267      49.39       19.351      3.746       2.404       40.314      1.12        1114.667    1248.0      810.667     29.339      -42.4       
122.4       69.207      128.001     4.481       45.33       45.267      30.734      3.176       68.022      47.895      19.086      3.874       2.392       41.248      1.12        1101.333    1277.333    818.667     29.625      -42.4       
122.5       72.419      127.893     4.435       47.869      47.631      32.114      3.299       68.511      46.199      19.14       3.822       2.392       42.63       1.12        1101.333    1293.333    837.333     29.938      -42.4       
122.6       75.52       127.653     4.641       50.223      49.557      33.661      3.486       68.822      44.518      18.836      3.815       2.418       44.505      1.12        1101.333    1309.333    845.333     29.533      -42.2       
122.7       72.545      127.679     4.723       52.142      50.812      35.314      3.71        68.956      42.977      18.836      3.897       2.423       46.802      1.12        1077.332    1314.667    834.666     29.137      -41.8       
122.8       68.83       127.843     3.875       53.654      51.494      36.993      3.949       69.0        41.684      18.79       3.907       2.399       49.355      1.12        1048.0      1298.667    810.667     28.82       -41.24      
122.9       70.538      127.784     3.926       54.703      51.649      38.619      4.192       69.0        40.576      18.883      3.847       2.418       51.913      1.12        1018.667    1272.0      808.0       28.235      -40.48      
