~Version Information Section
VERS.                                         2.0:CWLS log ASCII Standart – VERSION 2.0
WRAP.                                          NO:One line per depth step
~Well Information Section
STRT.M                                        0.0:Начальная глубина
STOP.M                                      166.2:Конечная глубина
STEP.M                                          0:Шаг квантования по глубине
NULL.                                    -9999.25:Признак "Нет данных"
WELL.                                         1Мх:Скважина
~Parameter Information Section
~Curve Information Section
DEPTH.M                                          :Глубина
BK.lgОмм                                         :BK
ПРОФ_СР.мм                                       :ПРОФ_СР
GGKP.имп/мин                                     :GGKp
ГК.мкР/час                                       :GK
ИК.мСм/м                                         :IK
PS.мВ                                            :PS
PZ.Омм                                           :PZ
RIS.Омм                                          :RIS
U1.мВ                                            :U1
U2.мВ                                            :U2
U3.mv                                            :U3
WS.%                                             :WS
ГЗ1.Омм                                          :ГЗ1
ГЗ2.Омм                                          :ГЗ2
ГЗ3.Омм                                          :ГЗ3
ГЗ4.Oмм                                          :ГЗ4
ГЗК.Омм                                          :ГЗК
НГК.усл.ед                                       :ННКб
ННКМ.усл.ед                                      :ННКм
ГЗ5.Oмм                                          :ГЗ5
ПЛ1.имп/мин                                      :ПЛ1
ПЛ2.имп/мин                                      :ПЛ2
ПЛ3.имп/мин                                      :ПЛ3
ПЛ4.имп/мин                                      :ПЛ4
~ASCII LOG DATA
# ...
56.7        52.299      166.418     2.391       3.936       20.263      149.055     33.105      1.065       1306.49     943.004     755.621     24.52       5.51        6.5         5.277       5.125       4.919       4.997       2.918       2.371       13320.0     21120.0     14280.0     3880.0      
56.8        29.073      163.16      2.384       4.612       19.68       151.07      33.838      1.065       1274.831    963.919     793.214     26.716      3.35        6.113       5.877       5.125       5.019       4.351       2.753       2.571       13440.0     21180.0     14380.0     3920.0      
56.9        20.186      162.227     2.388       5.145       19.17       152.138     33.679      1.065       1175.49     892.657     735.113     28.729      2.702       5.461       5.777       5.125       5.119       3.808       2.526       2.771       14520.0     21540.0     14020.0     4000.0      
57.0        21.15       163.3       2.361       5.702       19.07       151.843     32.661      1.065       1010.198    731.448     583.76      29.984      2.324       4.905       5.477       5.125       5.219       3.605       2.311       3.071       16920.0     21740.0     13760.0     4000.0      
57.1        25.867      162.447     2.353       5.706       19.311      150.281     30.324      1.065       864.978     593.452     463.86      31.329      3.741       4.929       5.377       5.225       5.519       3.436       2.203       4.171       13200.0     21560.0     14440.0     4200.0      
57.2        29.994      161.652     2.338       5.642       19.555      147.805     27.739      1.065       778.042     561.499     480.011     31.89       2.538       5.775       5.277       5.225       5.719       3.386       2.196       4.371       13800.0     21460.0     14600.0     4260.0      
57.3        32.819      160.747     2.336       5.543       19.764      144.918     25.661      1.065       694.197     542.784     512.315     32.635      2.76        6.234       5.277       5.425       5.719       3.326       2.241       4.571       11640.0     21440.0     14580.0     4220.0      
57.4        30.583      160.209     2.335       5.52        19.764      142.087     24.073      1.065       639.283     541.074     545.672     31.709      2.446       6.403       5.277       5.525       5.919       3.256       2.256       4.771       12960.0     21280.0     15120.0     4240.0      
57.5        26.6        158.886     2.353       5.669       19.871      139.822     22.507      1.065       612.514     555.584     579.672     30.629      2.195       6.234       5.477       5.625       6.119       3.207       2.22        4.771       14160.0     21440.0     15280.0     4080.0      
57.6        23.215      161.167     2.342       5.736       19.978      138.467     21.583      1.065       563.081     529.134     567.504     29.671      2.403       5.92        5.677       5.725       6.219       3.249       2.161       4.771       12720.0     21780.0     14580.0     4080.0      
57.7        25.697      163.52      2.369       5.541       20.286      138.43      20.996      1.065       491.447     460.483     506.146     28.565      2.669       6.017       5.977       5.825       6.319       3.411       2.105       4.771       13080.0     22380.0     14520.0     4160.0      
57.8        36.528      163.035     2.362       4.938       20.718      139.666     20.999      1.065       463.293     417.907     454.559     28.127      3.992       6.645       5.977       5.925       6.219       3.716       2.122       4.771       12600.0     22580.0     14520.0     4200.0      
57.9        41.369      162.539     2.377       4.56        20.93       141.792     20.976      1.065       480.876     402.701     414.579     27.495      3.703       6.983       5.877       6.025       6.019       3.96        2.24        4.771       12240.0     22780.0     14120.0     4180.0      
58.0        40.553      162.126     2.382       4.123       20.977      144.278     21.042      1.065       573.746     430.408     408.454     27.189      3.417       6.911       5.777       6.225       6.019       4.054       2.363       4.871       13800.0     22700.0     14140.0     4120.0      
58.1        32.351      162.516     2.372       4.09        20.977      146.668     20.995      1.055       702.964     449.1       365.628     28.325      3.383       7.032       5.677       6.225       5.919       3.925       2.403       4.971       12840.0     22560.0     14420.0     4140.0      
58.2        27.674      162.6       2.34        4.41        20.788      148.515     20.852      1.045       803.292     446.391     295.179     29.575      3.016       7.128       5.577       6.225       5.819       3.644       2.33        5.171       16560.0     21920.0     14540.0     4100.0      
58.3        25.099      160.974     2.319       4.941       20.603      149.506     20.0        1.045       865.342     446.979     257.421     30.158      2.977       6.814       5.677       6.225       5.819       3.41        2.226       5.471       13680.0     21460.0     14380.0     4000.0      
58.4        22.751      161.524     2.284       5.344       20.671      149.237     19.035      1.045       889.516     452.498     253.938     30.178      2.784       6.597       5.777       6.225       5.819       3.245       2.14        5.571       14880.0     20780.0     14280.0     3940.0      
58.5        24.171      162.193     2.271       5.635       20.811      147.719     18.224      1.045       864.959     467.554     285.679     29.719      3.369       6.379       5.877       6.325       5.919       3.296       2.083       5.871       14880.0     20760.0     14060.0     3920.0      
58.6        30.243      162.14      2.278       5.739       21.025      145.264     17.87       1.035       802.418     492.87      348.315     29.183      3.983       6.524       5.977       6.525       6.019       3.466       2.091       5.771       13680.0     20580.0     13760.0     3820.0      
58.7        39.41       160.994     2.286       5.646       21.241      142.314     17.778      1.035       795.392     538.422     412.138     28.952      5.355       6.862       5.977       6.625       6.219       3.74        2.154       5.671       12120.0     20520.0     13500.0     3740.0      
58.8        44.181      158.242     2.309       5.644       21.267      139.255     18.014      1.035       836.911     604.492     483.063     28.8        6.067       7.249       6.377       6.725       6.319       3.972       2.263       5.571       12000.0     20800.0     13660.0     3840.0      
58.9        38.317      158.017     2.315       5.645       21.025      136.153     18.79       1.035       886.847     689.756     589.63      28.454      4.653       7.273       6.977       6.725       6.519       4.026       2.355       5.571       11040.0     21260.0     13900.0     3760.0      
59.0        29.372      157.527     2.313       5.814       20.858      133.258     19.965      1.035       925.032     767.802     698.701     28.809      3.737       6.742       6.977       6.925       6.719       3.912       2.381       5.571       13920.0     21020.0     14120.0     3760.0      
59.1        26.454      158.493     2.329       5.967       20.718      130.85      21.095      1.035       944.448     816.776     777.162     29.547      4.196       6.717       6.877       7.025       6.919       3.683       2.343       5.471       11880.0     20820.0     13840.0     3860.0      
59.2        32.286      158.939     2.359       6.028       20.74       129.132     22.189      1.035       916.366     840.328     848.661     29.955      4.328       6.766       6.777       7.025       7.319       3.562       2.282       5.371       14280.0     20680.0     13940.0     3680.0      
59.3        40.636      156.901     2.366       5.992       20.955      128.129     23.063      1.035       846.969     827.951     890.773     30.105      5.521       7.152       6.677       7.125       7.119       3.589       2.263       5.371       13200.0     20640.0     13680.0     3540.0      
