~Version Information Section
VERS.                                         2.0:CWLS log ASCII Standart – VERSION 2.0
WRAP.                                          NO:One line per depth step
~Well Information Section
STRT.M                                        0.6:Начальная глубина
STOP.M                                      191.4:Конечная глубина
STEP.M                                          0:Шаг квантования по глубине
NULL.                                    -9999.25:Признак "Нет данных"
WELL.                                       129Мх:Скважина
~Parameter Information Section
~Curve Information Section
DEPTH.M                                          :Глубина
BK.lgОмм                                         :BK     (БК)
ПРОФ_СР.мм                                       :DS  (ДС)
ГК.имп/мин                                       :GK          (ГК)
ГЗ1.Омм                                          :GZ1   ГЗ1(A0.4M0.1N)
ГЗ2.Омм                                          :GZ2   ГЗ2(A1.0M0.1N)
ГЗ3.Омм                                          :GZ3   ГЗ3(A2.0M0.5N)
ГЗ4.Oмм                                          :GZ4   ГЗ4(A4.0M0.5N)
ГЗ5.Oмм                                          :GZ5   ГЗ5(A8.0M0.5N)
ГЗК.Омм                                          :GZK   ГЗK(N0.5M2.0A)
ИК.мСм/м                                         :IK
НГК.усл.ед                                       :NNKb  (ННКб)
ННКМ.усл.ед                                      :NNKm  (ННКм)
PZ.Омм                                           :PZ    (КС)
РЕЗ.Омм                                          :RS (Резистивиметр)
U1.мВ                                            :U1
U2.mV                                            :U2
U3.мВ                                            :U3
КП.%                                             :Кп
ПС.                                              :ПС
~ASCII LOG DATA
# ...
184.2       35.741      122.216     6.31        -9999.25    -9999.25    8.587       -9999.25    -9999.25    -9999.25    10.481      3.809       2.347       155.911     -9999.25    1016.0      1242.664    781.333     29.131      -181.44     
184.3       36.757      122.393     5.798       -9999.25    -9999.25    8.502       -9999.25    -9999.25    -9999.25    10.59       3.835       2.359       155.911     -9999.25    1016.0      1288.0      789.333     29.888      -182.36     
184.4       36.941      122.858     5.875       -9999.25    -9999.25    8.399       -9999.25    -9999.25    -9999.25    10.751      3.785       2.399       154.667     -9999.25    1018.667    1325.335    786.666     30.413      -183.28     
184.5       35.504      122.557     6.029       -9999.25    -9999.25    8.297       -9999.25    -9999.25    -9999.25    10.84       3.681       2.334       152.089     -9999.25    1026.666    1341.333    797.332     30.406      -184.24     
184.6       34.621      123.464     6.605       -9999.25    -9999.25    8.218       -9999.25    -9999.25    -9999.25    10.902      3.529       2.275       148.489     -9999.25    1042.668    1352.0      813.335     29.949      -185.28     
184.7       34.944      124.551     6.893       -9999.25    -9999.25    8.174       -9999.25    -9999.25    -9999.25    10.933      3.477       2.287       144.489     -9999.25    1055.999    1352.0      832.0       29.168      -186.24     
184.8       35.515      121.488     5.837       -9999.25    -9999.25    8.169       -9999.25    -9999.25    -9999.25    11.168      3.57        2.306       140.667     -9999.25    1061.333    1344.0      837.333     28.928      -187.04     
184.9       36.313      121.037     5.92        -9999.25    -9999.25    8.169       -9999.25    -9999.25    -9999.25    11.288      3.621       2.326       137.733     -9999.25    1029.331    1335.999    842.667     28.893      -187.8      
185.0       36.395      121.087     6.336       -9999.25    -9999.25    8.195       -9999.25    -9999.25    -9999.25    11.417      3.672       2.315       136.0       -9999.25    994.669     1325.333    845.333     29.78       -188.44     
185.1       35.079      121.167     6.309       -9999.25    -9999.25    8.244       -9999.25    -9999.25    -9999.25    11.573      3.66        2.292       135.467     -9999.25    965.333     1314.666    842.666     30.483      -188.92     
185.2       33.386      121.216     6.24        -9999.25    -9999.25    8.309       -9999.25    -9999.25    -9999.25    11.733      3.622       2.274       135.467     -9999.25    968.0       1304.001    837.334     30.023      -189.36     
185.3       33.636      121.304     6.509       -9999.25    -9999.25    8.379       -9999.25    -9999.25    -9999.25    11.93       3.538       2.26        135.467     -9999.25    976.0       1293.333    832.0       29.531      -189.88     
185.4       34.17       121.387     6.643       -9999.25    -9999.25    8.448       -9999.25    -9999.25    -9999.25    12.065      3.483       2.265       135.467     -9999.25    984.0       1290.667    832.0       29.061      -190.4      
185.5       33.714      121.268     6.659       -9999.25    -9999.25    8.51        -9999.25    -9999.25    -9999.25    12.192      3.52        2.252       135.911     -9999.25    989.333     1285.333    832.0       28.71       -190.96     
185.6       33.032      121.213     6.662       -9999.25    -9999.25    8.566       -9999.25    -9999.25    -9999.25    12.4        3.728       2.221       136.978     -9999.25    984.867     1282.667    829.333     28.91       -191.56     
185.7       36.532      121.375     6.125       -9999.25    -9999.25    8.613       -9999.25    -9999.25    -9999.25    12.362      4.015       2.287       138.267     -9999.25    977.735     1280.0      826.667     30.481      -192.2      
185.8       39.596      120.878     6.109       -9999.25    -9999.25    -9999.25    -9999.25    -9999.25    -9999.25    12.839      3.836       2.382       139.511     -9999.25    972.401     1282.667    824.0       31.703      -192.72     
185.9       40.419      120.866     6.029       -9999.25    -9999.25    -9999.25    -9999.25    -9999.25    -9999.25    12.776      3.586       2.392       140.711     -9999.25    974.201     1290.667    824.0       31.59       -193.2      
186.0       37.507      120.64      6.152       -9999.25    -9999.25    -9999.25    -9999.25    -9999.25    -9999.25    12.745      3.425       2.354       141.956     -9999.25    976.0       1309.332    826.666     30.649      -193.64     
186.1       35.741      120.683     6.317       -9999.25    -9999.25    -9999.25    -9999.25    -9999.25    -9999.25    12.571      3.455       2.253       143.467     -9999.25    962.666     1325.334    834.667     29.096      -194.0      
186.2       35.106      120.925     6.829       -9999.25    -9999.25    -9999.25    -9999.25    -9999.25    -9999.25    12.935      3.722       2.22        145.378     -9999.25    944.001     1336.0      847.999     27.277      -194.32     
186.3       38.258      121.225     7.085       -9999.25    -9999.25    -9999.25    -9999.25    -9999.25    -9999.25    13.137      4.034       2.273       148.667     -9999.25    925.333     1325.333    858.667     25.771      -194.8      
186.4       47.45       121.298     5.293       -9999.25    -9999.25    -9999.25    -9999.25    -9999.25    -9999.25    13.094      4.545       2.437       154.178     -9999.25    928.001     1314.666    864.0       25.128      -195.36     
186.5       57.032      121.368     4.77        -9999.25    -9999.25    -9999.25    -9999.25    -9999.25    -9999.25    13.084      4.612       2.591       162.489     -9999.25    935.999     1317.332    866.666     24.501      -196.0      
186.6       62.477      121.369     4.358       -9999.25    -9999.25    -9999.25    -9999.25    -9999.25    -9999.25    13.052      4.676       2.64        172.533     -9999.25    938.666     1330.668    869.334     24.628      -196.8      
186.7       61.274      121.453     4.493       -9999.25    -9999.25    -9999.25    -9999.25    -9999.25    -9999.25    13.029      4.618       2.68        183.289     -9999.25    933.334     1338.667    856.001     24.762      -197.68     
186.8       59.582      121.335     4.627       -9999.25    -9999.25    -9999.25    -9999.25    -9999.25    -9999.25    12.977      4.591       2.678       193.111     -9999.25    928.0       1328.0      837.333     24.982      -198.44     
186.9       57.436      121.398     4.742       -9999.25    -9999.25    -9999.25    -9999.25    -9999.25    -9999.25    12.935      4.627       2.661       200.889     -9999.25    914.666     1306.665    807.999     25.567      -199.12     
187.0       55.197      121.505     4.8         -9999.25    -9999.25    -9999.25    -9999.25    -9999.25    -9999.25    12.935      4.485       2.632       205.689     -9999.25    901.334     1285.335    781.335     26.223      -199.72     
187.1       51.605      121.537     5.136       -9999.25    -9999.25    -9999.25    -9999.25    -9999.25    -9999.25    12.821      4.135       2.569       208.178     -9999.25    898.667     1258.665    749.332     26.773      -200.2      
187.2       48.032      121.557     5.203       -9999.25    -9999.25    -9999.25    -9999.25    -9999.25    -9999.25    12.66       4.097       2.512       209.289     -9999.25    914.665     1242.667    728.001     27.534      -200.64     
187.3       45.84       121.619     5.971       -9999.25    -9999.25    -9999.25    -9999.25    -9999.25    -9999.25    12.742      4.041       2.45        209.822     -9999.25    930.667     1234.667    730.667     27.826      -201.08     
187.4       44.299      121.408     5.862       -9999.25    -9999.25    -9999.25    -9999.25    -9999.25    -9999.25    12.857      4.052       2.396       209.822     -9999.25    936.0       1236.0      736.0       28.164      -201.56     
187.5       44.574      121.263     5.645       -9999.25    -9999.25    -9999.25    -9999.25    -9999.25    -9999.25    12.974      4.015       2.383       209.822     -9999.25    -9999.25    -9999.25    -9999.25    29.342      -202.08     
