~Version Information Section
VERS.                                         2.0:CWLS log ASCII Standart – VERSION 2.0
WRAP.                                          NO:One line per depth step
~Well Information Section
STRT.M                                        1.6:Начальная глубина
STOP.M                                      212.2:Конечная глубина
STEP.M                                          0:Шаг квантования по глубине
NULL.                                    -9999.25:Признак "Нет данных"
WELL.                                       139Мх:Скважина
~Parameter Information Section
~Curve Information Section
DEPTH.M                                          :Глубина
BK.Ohm*M                                         :BK     (БК)
DS.mm                                            :DS  (ДС)
GGK.g/cm3                                        :GGKp
ГК.mcr/h                                         :GK          (ГК)
GZ1.Ohm*M                                        :GZ1   ГЗ1(A0.4M0.1N)
GZ2.Ohm*M                                        :GZ2   ГЗ2(A1.0M0.1N)
GZ3.Ohm*M                                        :GZ3   ГЗ3(A2.0M0.5N)
GZ4.Ohm*M                                        :GZ4   ГЗ4(A4.0M0.5N)
GZ5.Ohm*M                                        :GZ5   ГЗ5(A8.0M0.5N)
GZR.Ohm*M                                        :GZK   ГЗK(N0.5M2.0A)
ИК.Ohm*M                                         :IK
НГК.ue                                           :NGK     (НГК)
NNKM.                                            :NNKm  (ННКм)
PS.mv                                            :PS       (ПС)
PZ.Ohm*M                                         :PZ    (КС)
U1.mV                                            :U1
U2.mV                                            :U2
U3.mV                                            :U3
КП.%                                             :Кп
~ASCII LOG DATA
# ...
110.4       54.061      127.878     2.151       3.892       58.923      47.639      48.453      15.333      9.801       37.032      26.303      1.286       2.257       238.6       41.799      93.366      112.938     126.488     36.794      
110.5       44.336      129.35      2.157       3.652       57.948      47.016      50.675      15.863      9.8         36.418      26.174      1.332       2.233       238.287     41.931      118.928     138.671     160.768     36.572      
110.6       51.619      130.447     2.168       3.741       57.21       46.402      52.573      16.613      9.795       35.692      26.044      1.368       2.257       237.98      42.068      155.628     176.97      201.76      36.591      
110.7       64.008      131.265     2.176       3.83        56.628      45.806      54.133      17.798      9.781       34.812      25.985      1.347       2.314       237.681     42.196      146.908     195.277     279.154     36.354      
110.8       62.747      131.15      2.188       3.996       56.042      45.178      55.388      19.626      9.764       33.863      25.847      1.306       2.364       237.394     42.304      97.127      184.438     330.939     36.223      
110.9       55.481      129.301     2.21        4.14        55.405      44.429      56.393      22.088      9.734       32.944      25.692      1.237       2.348       237.122     42.379      93.223      177.011     311.529     36.468      
111.0       51.389      130.151     2.211       4.156       54.716      43.542      57.213      25.015      9.706       32.091      25.338      1.26        2.322       236.859     42.412      171.288     202.146     246.523     38.033      
111.1       50.026      130.98      2.227       4.236       53.985      42.542      57.867      28.115      9.68        31.409      25.205      1.263       2.295       236.592     42.412      244.368     232.308     204.207     39.82       
111.2       44.284      132.151     2.215       4.102       53.406      41.655      58.379      31.026      9.653       30.984      25.19       1.337       2.268       236.308     42.412      275.933     254.934     230.163     41.985      
111.3       46.528      132.258     2.206       3.949       53.274      41.242      58.78       33.448      9.62        30.803      25.195      1.294       2.248       235.986     42.397      276.391     268.819     258.394     42.251      
111.4       63.369      131.879     2.212       3.802       53.188      40.932      59.124      35.385      9.575       30.803      25.11       1.265       2.297       235.609     42.331      266.013     263.599     261.394     40.591      
111.5       70.199      131.485     2.217       3.947       53.057      40.677      59.455      36.997      9.521       30.803      24.985      1.223       2.363       235.164     42.207      234.385     235.446     236.887     38.613      
111.6       54.466      131.28      2.215       4.084       53.069      40.569      59.867      38.646      9.459       30.811      24.741      1.229       2.315       234.648     42.024      197.324     203.472     208.481     37.662      
111.7       47.834      129.46      2.212       4.239       53.203      40.491      60.49       40.676      9.382       30.87       24.457      1.222       2.263       234.066     41.786      201.145     195.695     190.7       38.832      
111.8       52.475      128.728     2.22        4.175       53.465      40.308      61.444      43.052      9.287       30.984      24.274      1.186       2.288       233.433     41.499      168.559     180.088     187.447     40.142      
111.9       56.695      129.586     2.231       4.148       53.639      40.076      62.821      45.363      9.172       31.038      24.134      1.179       2.295       232.763     41.163      135.976     153.767     170.723     39.261      
112.0       53.203      129.554     2.249       4.127       53.748      40.008      64.667      47.14       9.035       31.019      23.931      1.184       2.275       232.076     40.787      91.486      106.602     120.526     37.497      
112.1       57.869      129.363     2.264       3.965       53.727      39.944      66.901      48.036      8.867       30.854      23.708      1.189       2.308       231.381     40.374      117.815     85.17       70.334      35.686      
112.2       73.831      130.552     2.262       3.761       53.544      39.611      69.281      48.222      8.673       30.315      23.392      1.157       2.373       230.682     39.916      144.974     78.062      38.85       35.886      
112.3       82.447      132.43      2.26        3.579       52.977      38.858      71.495      48.196      8.477       29.327      22.929      1.141       2.33        229.975     39.405      158.521     85.277      46.072      36.492      
112.4       70.403      132.845     2.242       3.547       52.161      37.98       73.212      47.982      8.3         28.006      22.345      1.093       2.265       229.25      38.839      157.625     98.57       62.753      36.494      
112.5       60.405      130.073     2.234       3.911       51.331      37.222      74.202      47.358      8.158       26.642      21.776      1.096       2.263       228.496     38.222      147.928     114.334     85.283      35.869      
112.6       56.532      127.66      2.222       4.107       50.229      36.534      74.534      46.453      8.071       25.439      21.335      1.102       2.261       227.709     37.559      130.708     135.808     140.699     35.818      
112.7       51.801      127.643     2.21        4.493       48.727      35.796      74.525      45.499      8.043       24.524      20.948      1.186       2.259       226.889     36.874      105.855     148.678     210.788     36.501      
112.8       48.52       128.959     2.207       4.42        46.831      35.074      74.423      44.572      8.04        23.846      20.563      1.243       2.241       226.041     36.191      80.063      143.623     259.05      38.098      
112.9       46.562      130.346     2.213       4.52        44.533      34.354      73.963      43.607      8.04        23.229      20.226      1.306       2.192       225.182     35.531      62.242      129.248     262.112     38.956      
113.0       44.546      132.292     2.21        4.387       41.585      33.436      72.918      42.446      8.046       22.518      19.918      1.295       2.149       224.327     34.911      64.174      123.877     232.339     38.153      
113.1       45.073      134.693     2.206       4.427       38.143      32.203      71.42       41.004      8.064       21.668      19.537      1.301       2.134       223.488     34.349      85.858      136.827     198.435     36.783      
113.2       46.774      135.895     2.225       4.372       34.484      30.645      69.551      39.218      8.076       20.727      19.11       1.27        2.186       222.672     33.851      142.936     155.123     156.731     36.253      
113.3       43.436      136.281     2.266       4.279       30.907      28.642      67.37       36.953      8.078       19.782      18.771      1.283       2.256       221.881     33.422      189.944     158.617     121.166     36.874      
113.4       31.401      137.335     2.292       4.134       27.818      26.109      65.069      34.166      8.075       18.958      18.463      1.24        2.246       221.106     33.064      191.491     141.967     99.54       37.625      
113.5       27.004      137.65      2.317       4.124       25.386      23.288      62.862      31.187      8.059       18.361      18.277      1.223       2.218       220.336     32.777      157.641     119.97      94.415      38.955      
113.6       27.275      137.764     2.326       4.133       23.844      20.729      60.996      28.455      8.023       18.051      18.235      1.178       2.186       219.555     32.552      187.711     153.536     126.062     41.161      
113.7       27.096      137.393     2.305       4.035       23.233      18.706      59.695      26.358      7.975       17.989      18.334      1.12        2.151       218.749     32.382      280.141     229.616     189.904     41.92       
