~Version Information Section
VERS.                                         2.0:CWLS log ASCII Standart – VERSION 2.0
WRAP.                                          NO:One line per depth step
~Well Information Section
STRT.M                                        0.6:Начальная глубина
STOP.M                                      209.2:Конечная глубина
STEP.M                                          0:Шаг квантования по глубине
NULL.                                    -9999.25:Признак "Нет данных"
WELL.                                       107Мх:Скважина
~Parameter Information Section
~Curve Information Section
DEPTH.M                                          :Глубина
PS.mv                                            :PS       (ПС)
PZ.Ohm*M                                         :PZ    (КС)
RS.Ohm*M                                         :RS (Резистивиметр)
U1.mV                                            :U1
U2.mV                                            :U2
U3.mV                                            :U3
КП.%                                             :Кп
BK.Ohm*M                                         :BK     (БК)
DS.mm                                            :DS  (ДС)
GGK.g/cm3                                        :GGKp
ГК.mcr/h                                         :GK          (ГК)
GZ1.Ohm*M                                        :GZ1   ГЗ1(A0.4M0.1N)
GZ2.Ohm*M                                        :GZ2   ГЗ2(A1.0M0.1N)
GZ3.Ohm*M                                        :GZ3   ГЗ3(A2.0M0.5N)
GZ4.Ohm*M                                        :GZ4   ГЗ4(A4.0M0.5N)
GZ5.Ohm*M                                        :GZ5   ГЗ5(A8.0M0.5N)
GZR.Ohm*M                                        :GZK   ГЗK(N0.5M2.0A)
ИК.Ohm*M                                         :IK
НГК.u.e.                                         :NGK
NNKM.                                            :NNKm  (ННКм)
~ASCII LOG DATA
# ...
179.8       1025.371    208.359     1.035       1309.021    875.221     710.994     28.777      111.686     150.892     2.234       3.477       126.39      78.594      97.782      24.263      26.51       133.56      16.107      1.247       17.306      
179.9       1024.239    210.991     1.035       1363.05     905.064     725.209     29.359      116.145     150.913     2.219       3.523       126.81      78.594      99.542      24.263      26.51       134.6       16.145      1.217       17.324      
180.0       1023.083    213.999     1.035       1329.895    885.275     713.128     30.916      113.763     150.576     2.204       3.502       127.23      78.594      100.862     24.263      26.51       135.64      16.093      1.225       17.338      
180.1       1021.851    217.759     1.035       1215.439    817.2       674.228     32.21       113.763     150.982     2.183       3.332       127.23      78.594      103.942     24.263      26.51       136.68      16.206      1.199       16.811      
180.2       1020.568    220.767     1.035       1124.796    773.848     659.753     32.269      109.396     151.057     2.167       3.215       127.65      78.594      104.822     24.263      26.51       137.72      16.206      1.193       16.284      
180.3       1019.261    223.023     1.035       1058.453    752.087     665.512     31.424      112.202     150.566     2.159       3.561       127.65      78.594      110.102     24.263      26.65       137.72      16.221      1.161       16.404      
180.4       1017.953    224.903     1.035       976.544     718.209     664.631     30.762      112.202     151.255     2.163       3.885       128.07      78.594      111.862     24.263      26.65       139.8       16.221      1.194       16.553      
180.5       1016.646    226.031     1.035       885.709     678.149     663.521     30.566      121.619     150.669     2.144       4.031       133.11      78.594      114.942     24.263      26.93       142.92      16.23       1.204       16.425      
180.6       1015.339    226.031     1.035       789.722     635.167     666.264     30.575      119.399     150.888     2.147       3.679       136.05      78.594      117.142     24.263      27.91       145.0       16.192      1.224       16.16       
180.7       1014.056    226.031     1.035       695.495     592.713     673.353     30.741      133.045     150.702     2.126       3.564       133.53      78.594      118.902     24.383      28.05       149.16      16.282      1.261       16.065      
180.8       1012.824    226.031     1.035       648.216     574.047     687.59      31.458      142.889     150.549     2.157       3.477       130.17      79.114      121.542     24.383      28.61       153.32      16.321      1.22        16.087      
180.9       1011.643    226.031     1.035       714.593     613.816     713.964     32.153      142.889     150.42      2.164       3.604       127.23      79.634      122.862     24.383      28.75       157.48      16.321      1.187       16.196      
181.0       1010.536    226.031     1.035       867.511     689.135     735.674     31.713      152.055     150.341     2.198       3.658       125.13      80.674      124.182     24.383      29.31       158.52      16.244      1.118       16.438      
181.1       1009.531    225.279     1.035       1040.264    755.098     728.99      30.035      158.489     150.525     2.197       3.673       123.03      81.194      125.942     24.383      30.57       162.68      16.282      1.149       16.573      
181.2       1008.6      224.527     1.035       1213.02     826.647     729.583     29.582      152.405     150.722     2.181       3.438       122.19      85.354      129.022     24.383      30.99       164.76      16.282      1.174       16.523      
181.3       1007.695    223.399     1.035       1361.77     932.896     800.265     31.322      152.405     150.544     2.153       3.248       121.77      88.994      130.782     24.503      30.99       166.84      16.268      1.187       16.483      
181.4       1006.815    222.271     1.035       1455.882    1056.378    938.863     32.431      124.738     150.094     2.11        3.357       121.35      90.554      132.542     24.503      31.13       171.0       16.259      1.206       16.501      
181.5       1005.985    221.143     1.035       1496.971    1169.876    1098.114    31.367      118.032     150.585     2.094       3.574       119.67      93.674      140.902     24.503      31.27       182.44      16.221      1.234       16.518      
181.6       1005.231    220.767     1.035       1474.481    1243.042    1229.35     29.513      118.032     150.74      2.102       3.457       122.19      94.714      143.982     24.623      32.53       193.88      16.297      1.254       16.536      
181.7       1004.527    220.767     1.035       1360.158    1218.96     1260.747    29.407      129.718     150.586     2.13        3.174       126.39      98.354      154.542     24.983      34.49       203.24      16.297      1.252       16.559      
181.8       1003.848    221.143     1.035       1195.989    1102.113    1176.441    30.223      130.017     150.248     2.185       2.991       128.49      108.754     159.382     25.103      36.73       206.36      16.259      1.194       16.617      
181.9       1003.195    222.271     1.035       1040.779    960.563     1047.791    31.113      121.619     150.507     2.198       3.324       128.49      133.714     159.822     25.223      38.55       212.6       16.282      1.232       16.685      
182.0       1002.591    223.775     1.035       909.063     836.016     932.93      31.286      127.644     150.826     2.215       3.642       127.23      143.594     165.102     25.463      39.95       224.04      16.282      1.244       16.85       
182.1       1002.038    226.783     1.035       801.774     740.267     859.149     30.294      127.644     150.64      2.186       3.713       124.71      149.834     169.502     27.263      42.19       232.36      16.282      1.285       17.102      
182.2       1001.485    229.415     1.035       725.654     682.342     842.908     28.962      121.339     150.578     2.19        3.573       123.87      152.954     172.582     29.183      44.29       234.44      16.259      1.244       16.881      
182.3       1000.881    234.303     1.035       687.538     652.768     846.696     29.011      119.674     150.921     2.174       3.563       122.61      157.634     170.822     30.983      44.57       239.64      16.235      1.225       16.344      
182.4       1000.228    241.447     1.035       685.331     634.801     826.53      30.105      119.674     150.575     2.164       3.506       122.61      160.754     169.502     31.103      45.83       244.84      16.235      1.183       16.093      
182.5       999.524     248.967     1.035       717.538     637.876     804.348     30.462      126.183     151.011     2.144       3.449       122.61      164.394     168.182     32.783      46.53       263.56      16.206      1.162       16.003      
182.6       998.769     259.12      1.035       805.601     692.314     817.512     29.726      129.122     150.674     2.142       3.112       122.61      166.994     166.862     34.703      46.81       283.32      16.206      1.153       15.983      
182.7       997.99      270.399     1.035       940.961     792.49      859.551     28.87       136.144     151.13      2.138       3.113       122.61      168.554     166.422     36.503      47.65       305.16      16.168      1.178       16.068      
182.8       997.185     284.687     1.035       1051.015    885.048     909.921     28.751      136.144     151.014     2.159       3.226       122.61      169.074     165.982     38.663      47.93       312.44      16.131      1.197       16.111      
182.9       996.381     299.35      1.035       1110.364    945.232     960.887     29.479      136.144     150.697     2.162       3.315       122.61      169.074     165.982     43.943      48.21       314.52      16.131      1.215       16.071      
