~Version Information Section
VERS.                                         2.0:CWLS log ASCII Standart – VERSION 2.0
WRAP.                                          NO:One line per depth step
~Well Information Section
STRT.M                                       -0.3:Начальная глубина
STOP.M                                      200.8:Конечная глубина
STEP.M                                          0:Шаг квантования по глубине
NULL.                                    -9999.25:Признак "Нет данных"
WELL.                                       124Мх:Скважина
~Parameter Information Section
~Curve Information Section
DEPTH.M                                          :Глубина
U1.мВ                                            :U1
U2.                                              :U2
U3.мВ                                            :U3
БЗ.имп/мин                                       :БЗ
ГГКП.имп/мин                                     :ГГКп
ГЗ1.Омм                                          :ГЗ1
ГЗ2.Омм                                          :ГЗ2
ГЗ3.Омм                                          :ГЗ3
ГЗ4.Oмм                                          :ГЗ4
ГЗ5.Oмм                                          :ГЗ5
ГЗК.Омм                                          :ГЗК
КП.%                                             :Кп
МЗ.                                              :МЗ жесткий
НГК.усл.ед                                       :ННКб
ННКМ.усл.ед                                      :ННКм
ПРОФ_СР.мм                                       :ПРОФ_СР
ПС.мВ                                            :ПС
BK.lgОмм                                         :BK
ГК.имп/мин                                       :GK
ИК.мСм/м                                         :IK
PZ.Омм                                           :PZ
RIS.Омм                                          :RIS
~ASCII LOG DATA
# ...
159.2       1317.243286 3312.618896 1238.006836 12546.6669922.556967    9.749       12.454      24.879999   24.48       24.063999   21.360001   17.581175   17880.0     5.005341    2.791805    150.908005  591.359985  156.314774  4.934       25.65484    80.32       1.04        
159.3       1313.93396  3312.715576 1243.807983 12321.5380862.570278    9.765       12.175      24.719999   24.143999   23.903999   21.559999   17.004211   17023.0761725.276397    2.792161    150.520004  591.359985  134.586014  5.059       25.540174   80.800003   1.04        
159.4       1286.093384 3313.157471 1272.069214 12074.2861332.583837    9.807       11.837      24.620001   23.808001   23.768      21.799999   16.192343   16178.5712895.495167    2.799936    150.625     591.359985  136.458313  5.683       25.068312   81.440002   1.04        
159.5       1289.66272  3329.60083  1301.427124 12188.5712892.598885    9.879       11.458      24.5        23.52       23.672001   22.040001   14.872692   15861.4287115.889194    2.929838    150.970993  591.359985  234.963303  5.146       24.467825   81.919998   1.04        
159.6       1349.172852 3361.70752  1309.434326 12317.1425782.612251    10.023      11.151      24.4        23.296      23.608      22.280001   14.028096   15885.7138676.091631    3.08417     151.380005  590.744019  280.543335  4.608       24.109747   82.239998   1.04        
159.7       1421.47876  3397.175537 1310.140625 12588.5712892.623868    10.275      10.944      24.34       23.143999   23.576      22.440001   12.746966   15722.8574226.599986    3.092589    151.238007  590.127991  266.685944  4.25        23.232582   82.480003   1.04        
159.8       1450.672607 3420.360107 1324.899658 12687.0     2.639173    10.526      10.87       24.34       23.048      23.568001   22.68       12.309926   15604.0     6.8298      3.105223    150.895004  589.512024  206.53804   4.07        22.548931   82.800003   1.04        
159.9       1436.740601 3431.25415  1353.712769 12534.1669922.647957    10.696      10.87       24.34       23.007999   23.568001   23.0        13.008351   15661.6669927.055417    3.254868    151.100998  588.895996  214.783051  4.593       21.418779   83.040001   1.04        
160.0       1424.090942 3441.427734 1382.046631 12312.0     2.644968    10.76       10.87       24.34       23.0        23.568001   23.280001   14.382419   15432.0     6.565558    3.361011    151.828003  588.280029  324.339569  4.723       20.83724    83.199997   1.04        
160.1       1412.719482 3450.884033 1409.911377 12518.5712892.630935    10.76       10.87       24.34       23.0        23.568001   23.6        15.997211   15647.1425785.730907    3.292974    152.774994  588.280029  438.53067   5.731       19.616304   83.360001   1.04        
160.2       1412.026123 3447.425781 1407.475586 12770.6669922.606298    10.76       10.94       24.360001   23.0        23.6        23.92       18.346987   16197.3330084.707666    3.105482    154.091995  588.280029  78.886002   5.933       18.456995   83.519997   1.04        
160.3       1420.728638 3431.771973 1375.217285 12973.8457032.572375    10.7        11.14       24.4        23.0        23.664      24.16       20.122444   16438.4609383.942871    2.70625     154.826996  587.664001  49.090786   5.549       17.898693   83.599998   1.04        
160.4       1438.828247 3419.268799 1313.134521 13045.3330082.537659    10.47       11.401      24.459999   23.048      23.784      24.32       20.50701    16832.0     3.805805    2.399479    155.024002  587.047974  30.902954   5.594       16.77599    83.599998   1.04        
160.5       1469.043213 3416.04834  1277.699463 13147.6923832.509956    10.142      11.718      24.700001   23.152      23.968      24.52       20.826084   17112.3085943.667949    2.318227    155.220993  586.432007  28.313921   5.818       16.225864   83.599998   1.04        
160.6       1511.385132 3426.751465 1268.900269 13206.6669922.492854    9.739       12.086      24.92       23.32       24.208      24.639999   21.741247   17113.3339843.461715    2.267366    155.447006  585.815979  26.302677   5.818       15.231829   83.599998   1.04        
160.7       1516.491943 3431.390625 1309.070068 13132.8574222.485785    9.302       12.425      25.120001   23.591999   24.48       24.639999   22.144045   17295.7148443.462804    2.252012    155.682007  584.583984  25.409725   5.658       14.719954   83.519997   1.04        
160.8       1472.252319 3436.031006 1371.577637 13047.1425782.489753    8.88        12.714      25.32       23.983999   24.775999   24.639999   22.35191    17571.4277343.53119     2.235232    155.830994  583.968018  24.547089   5.626       13.876361   83.360001   1.04        
160.9       1419.914063 3436.031006 1425.059937 13044.0     2.495775    8.503       12.915      25.5        24.408001   25.048      24.6        22.969868   17724.0     3.364046    2.221238    156.039001  582.119995  24.099052   6.24        13.524296   83.120003   1.04        
161.0       1408.827393 3436.031006 1447.182129 13324.2861332.497853    8.199       13.011      25.540001   24.864      25.280001   24.48       23.477076   17677.1425783.118342    2.191888    156.257996  579.656006  25.644842   6.173       13.008469   82.800003   1.04        
161.1       1452.609497 3436.031006 1437.948853 13628.0     2.498883    8.016       13.011      25.58       25.351999   25.472      24.32       22.850019   17796.0     3.185803    2.162829    156.511002  575.960022  26.546057   5.837       12.791649   82.480003   1.04        
161.2       1489.661865 3440.67041  1453.463257 13698.5712892.498313    7.923       13.011      25.620001   25.792      25.615999   24.120001   22.231455   17442.8574223.230218    2.150585    156.546997  572.263977  26.424091   5.773       12.44927    82.239998   1.04        
161.3       1520.0      3449.950684 1493.727661 13608.5712892.496011    7.868       13.008      25.66       26.167999   25.704      23.76       21.886156   17231.4277343.22231     2.14592     156.546997  567.335999  25.941795   5.645       12.283051   82.0        1.04        
161.4       1530.000488 3459.230957 1553.944336 13334.2861332.496826    7.836       12.988      25.700001   26.544001   25.76       23.559999   21.553555   17144.2851563.263706    2.156998    156.462997  563.640015  26.121616   5.501       12.260612   81.760002   1.04        
161.5       1546.665649 3463.871094 1609.355469 13127.6923832.499485    7.816       12.972      25.700001   26.896      25.792      23.4        21.284458   17129.2304693.379076    2.162798    156.466003  559.328003  28.054333   5.357       12.166486   81.519997   1.04        
161.6       1560.000732 3463.871094 1659.980591 12781.4287112.502887    7.803       12.957      25.700001   27.200001   25.799999   23.120001   21.505547   17315.7148443.392329    2.163186    156.473007  555.632019  28.840317   5.971       12.134449   81.199997   1.04        
161.7       1570.0      3463.871094 1620.860229 13042.8574222.50458     7.796       12.938      25.700001   27.496      25.799999   22.799999   22.099592   17262.8574223.359925    2.139369    156.630997  552.552002  29.512094   6.278       12.105218   80.800003   1.04        
161.8       1570.0      3440.671143 1491.991943 13073.3330082.501205    7.793       12.915      25.700001   27.768      25.799999   22.445999   22.527819   17077.3339843.323255    2.109437    156.789993  550.703979  30.269131   6.118       12.150373   80.480003   1.04        
161.9       1563.332764 3417.469238 1332.878662 13292.8574222.494825    7.792       12.889      25.68       27.959999   25.799999   22.083      22.502016   16850.0     3.243941    2.118188    156.945007  548.23999   30.060766   6.086       12.131505   80.160004   1.04        
162.0       1556.667236 3384.991455 1233.280029 13521.3330082.485917    7.792       12.858      25.66       28.087999   25.799999   21.756001   22.325542   16216.0     3.187654    2.135878    156.897003  547.007996  29.648314   5.91        12.182494   79.919998   1.04        
