~Version Information Section
VERS.                                         2.0:CWLS log ASCII Standart – VERSION 2.0
WRAP.                                          NO:One line per depth step
~Well Information Section
STRT.M                                        2.0:Начальная глубина
STOP.M                                      201.2:Конечная глубина
STEP.M                                          0:Шаг квантования по глубине
NULL.                                    -9999.25:Признак "Нет данных"
WELL.                                       126Мх:Скважина
~Parameter Information Section
~Curve Information Section
DEPTH.M                                          :Глубина
BK.ohmm                                          :BK
ПРОФ_СР.мм                                       :DS  (ДС)
W.g/cm3                                          :GGKp
ГК.мкР/час                                       :GK          (ГК)
ГЗ1.Омм                                          :GZ1   ГЗ1(A0.4M0.1N)
ГЗ2.Омм                                          :GZ2   ГЗ2(A1.0M0.1N)
ГЗ3.Омм                                          :GZ3   ГЗ3(A2.0M0.5N)
ГЗ4.Oмм                                          :GZ4   ГЗ4(A4.0M0.5N)
ГЗ5.Oмм                                          :GZ5   ГЗ5(A8.0M0.5N)
ГЗК.Омм                                          :GZK   ГЗK(N0.5M2.0A)
ИК.ohmm                                          :IK
НГК.усл.ед.                                      :NGK
ННКМ.усл.ед                                      :NNKm  (ННКм)
PS.мВ                                            :PS       (ПС)
PZ.Омм                                           :PZ    (КС)
RIS.Омм                                          :RS (Резистивиметр)
U1.мВ                                            :U1
U2.мВ                                            :U2
U3.mv                                            :U3
~ASCII LOG DATA
# ...
134.6       44.566      121.685     2.296       6.551       64.8        45.016      74.801      50.736      43.134      38.386      12.982      1.147       2.35        209.926     74.127      1.463       1088.752    895.423     808.244     
134.7       44.259      121.648     2.28        5.96        63.72       43.996      74.801      51.736      42.334      36.786      12.921      1.148       2.309       209.926     74.503      1.459       1114.195    984.02      937.601     
134.8       47.206      121.915     2.285       5.457       61.56       42.976      74.401      52.536      42.334      36.986      12.852      1.149       2.265       209.926     74.503      1.452       1156.482    998.017     921.311     
134.9       46.132      122.894     2.271       5.438       59.4        41.752      72.801      52.736      42.334      37.986      12.774      1.152       2.232       209.926     74.127      1.444       1163.289    940.07      807.474     
135.0       43.853      123.611     2.276       5.364       59.4        40.12       73.2        53.736      42.334      38.986      12.701      1.204       2.241       209.926     73.375      1.436       1113.107    876.055     730.204     
135.1       44.361      123.37      2.274       5.125       59.4        40.12       75.2        54.536      42.334      39.786      12.661      1.253       2.333       209.926     72.247      1.428       1007.06     801.529     680.593     
135.2       44.361      123.408     2.281       5.062       59.4        40.12       76.801      54.536      42.334      39.986      12.581      1.248       2.425       209.926     71.119      1.422       862.086     694.063     604.278     
135.3       42.855      123.526     2.275       5.453       59.4        40.12       76.801      54.536      42.334      40.986      12.527      1.256       2.477       209.926     69.239      1.418       700.438     576.748     525.852     
135.4       40.551      123.107     2.287       5.684       60.48       40.12       76.801      54.336      42.334      41.786      12.46       1.27        2.483       209.926     67.735      1.416       631.683     562.014     563.671     
135.5       37.411      123.858     2.288       5.838       61.56       40.12       76.801      53.136      42.734      41.786      12.392      1.318       2.46        209.926     65.855      1.416       673.22      655.445     710.545     
135.6       32.509      124.307     2.298       5.626       62.64       40.12       76.801      51.336      44.334      41.786      12.316      1.272       2.433       209.926     63.975      1.416       740.103     743.788     821.195     
135.7       31.55       126.102     2.304       5.693       62.64       40.528      76.801      50.336      44.334      41.786      12.213      1.235       2.406       210.454     62.471      1.416       763.971     745.738     800.919     
135.8       36.475      126.556     2.324       5.843       63.72       42.16       76.401      49.336      44.534      41.786      12.128      1.199       2.39        210.982     61.719      1.416       886.678     777.013     749.566     
135.9       38.459      126.211     2.331       6.31        63.72       42.364      74.801      48.536      45.334      41.786      11.982      1.221       2.382       211.51      60.967      1.416       1115.546    891.581     767.02      
136.0       35.727      126.448     2.325       6.433       63.72       43.384      74.801      48.536      45.534      41.786      11.925      1.216       2.401       212.038     60.591      1.416       1237.112    946.793     766.609     
136.1       35.892      126.372     2.33        6.328       63.72       44.2        74.801      48.536      46.534      41.586      11.857      1.213       2.414       212.566     60.591      1.417       1148.625    866.852     691.296     
136.2       35.156      127.053     2.328       5.86        63.72       44.2        74.801      48.536      47.334      40.786      11.788      1.218       2.381       212.566     60.591      1.419       974.008     739.404     600.068     
136.3       32.137      126.32      2.333       5.179       63.72       43.996      74.801      48.536      47.334      40.786      11.76       1.261       2.352       212.566     60.591      1.421       891.557     681.084     560.088     
136.4       35.481      128.881     2.331       4.45        63.72       43.18       74.801      48.536      47.334      40.786      11.7        1.333       2.349       213.094     60.967      1.425       942.301     718.378     587.549     
136.5       38.194      129.413     2.324       4.12        63.72       43.18       74.801      48.536      47.334      40.786      11.641      1.394       2.436       213.622     61.719      1.429       1218.749    909.993     717.405     
136.6       35.563      129.056     2.315       4.27        63.72       43.18       74.401      48.536      47.334      40.786      11.59       1.45        2.614       214.15      62.471      1.433       1591.495    1178.923    912.528     
136.7       33.037      129.242     2.336       4.687       63.72       43.18       72.801      48.536      47.334      40.786      11.571      1.455       2.722       214.678     63.599      1.437       1702.384    1306.27     1059.3      
136.8       29.785      128.594     2.346       5.076       63.72       43.18       72.401      48.536      47.334      40.786      11.555      1.447       2.759       215.734     64.727      1.439       1474.572    1213.222    1075.865    
136.9       29.648      128.898     2.361       5.4         63.72       43.18       70.401      48.536      47.334      40.986      11.56       1.37        2.65        216.262     65.855      1.441       1211.501    1041.445    981.102     
137.0       28.973      129.276     2.357       5.69        63.72       43.384      68.401      48.536      47.334      41.786      11.573      1.345       2.491       216.79      66.607      1.441       1206.531    965.547     859.25      
137.1       30.903      128.334     2.373       5.607       63.72       44.2        66.401      48.536      47.334      41.786      11.558      1.287       2.431       217.318     67.359      1.441       1305.692    938.677     743.064     
137.2       29.785      127.205     2.361       5.373       63.72       44.2        64.401      48.536      47.334      41.986      11.562      1.261       2.387       217.846     67.735      1.441       1208.61     868.06      694.232     
137.3       24.774      126.414     2.374       5.216       63.72       44.608      62.801      48.536      47.334      42.986      11.581      1.2         2.318       217.846     68.111      1.441       1053.139    816.439     718.828     
137.4       25.586      124.985     2.369       5.175       65.88       46.24       62.401      48.536      47.334      43.986      11.583      1.17        2.267       218.374     67.359      1.441       1138.309    903.738     803.036     
137.5       33.266      127.305     2.353       5.3         65.88       46.444      60.801      48.736      47.334      44.986      11.542      1.161       2.274       218.902     66.231      1.441       1487.103    1118.293    908.765     
137.6       43.251      129.145     2.338       5.394       65.88       47.464      60.801      49.736      47.334      45.786      11.574      1.173       2.278       219.43      65.103      1.44        1803.807    1336.583    1038.071    
137.7       47.098      129.446     2.341       5.585       65.88       48.484      60.801      49.737      47.334      45.986      11.666      1.217       2.274       219.958     63.223      1.439       1828.794    1405.905    1123.665    
137.8       46.452      130.081     2.323       5.871       65.88       49.504      60.801      46.736      47.334      46.786      11.767      1.25        2.303       220.486     61.343      1.436       1622.687    1298.09     1079.863    
137.9       37.931      129.419     2.331       5.91        65.88       50.32       60.801      47.936      47.334      46.786      11.944      1.248       2.364       220.486     60.215      1.433       1397.232    1126.407    948.557     
