~Version Information Section
VERS.                                         2.0:CWLS log ASCII Standart – VERSION 2.0
WRAP.                                          NO:One line per depth step
~Well Information Section
STRT.M                                        1.0:Начальная глубина
STOP.M                                      199.5:Конечная глубина
STEP.M                                          0:Шаг квантования по глубине
NULL.                                    -9999.25:Признак "Нет данных"
WELL.                                       122Мх:Скважина
~Parameter Information Section
~Curve Information Section
DEPTH.M                                          :Глубина
БК.Омм                                           :BK     (БК)
DСР.мм                                           :DS  (ДС)
ГК.гамма                                         :GK          (ГК)
А0.4М0.1N.Омм.ohmm                               :GZ1   ГЗ1(A0.4M0.1N)
А1.0М0.1N.Омм.ohmm                               :GZ2   ГЗ2(A1.0M0.1N)
А2.0М0.5N.Омм.ohmm                               :GZ3   ГЗ3(A2.0M0.5N)
А4.0М0.5N.Oмм.ohmm                               :GZ4   ГЗ4(A4.0M0.5N)
А8.0М1.0N.Омм.ohmm                               :GZ5   ГЗ5(A8.0M0.5N)
N0.5M2.0A.Омм.ohmm                               :GZK   ГЗK(N0.5M2.0A)
ИК.мСм/м                                         :IK
НГК.усл.ед                                       :NGK     (НГК)
ПС.mv                                            :PS       (ПС)
КС.Омм                                           :PZ    (КС)
R.Омм                                            :RS (Резистивиметр)
ПЛОТНОСТЬ.г/см3                                  :ГГКп
П.                                               :п
ННКМ.усл.ед                                      :ННКм
~ASCII LOG DATA
# ...
78.7        46.724      159.263     4.251       49.44       72.286      61.373      63.724      40.427      43.068      38.023      1.209       76.875      76.83       1.219       2.128       36.589      124.919     
78.8        44.85       158.91      4.491       51.183      72.375      60.679      63.822      40.572      39.82       37.279      1.205       76.125      76.414      1.218       2.139       37.206      123.446     
78.9        41.625      158.203     4.654       60.511      80.786      62.819      65.495      40.232      38.462      36.535      1.178       75.0        73.671      1.218       2.148       37.524      121.699     
79.0        39.504      156.48      4.706       67.459      89.118      67.526      68.796      39.666      39.249      35.797      1.138       72.75       70.268      1.219       2.158       37.872      121.244     
79.1        37.818      154.001     4.786       67.983      92.947      74.953      73.03       39.612      41.268      35.099      1.112       71.875      66.927      1.22        2.164       37.823      122.176     
79.2        37.543      155.737     4.869       67.782      96.131      80.693      76.082      40.31       42.763      34.463      1.109       73.125      64.657      1.221       2.171       37.773      124.052     
79.3        39.419      156.632     5.004       67.856      98.111      83.111      76.458      41.037      42.723      33.522      1.111       72.5        63.789      1.221       2.17        36.977      125.573     
79.4        43.885      155.849     5.115       66.649      97.819      83.85       75.009      41.817      41.681      32.698      1.103       71.25       63.501      1.221       2.171       36.018      126.344     
79.5        46.341      152.241     5.05        61.967      91.193      83.646      73.08       42.094      40.67       31.691      1.105       70.125      63.368      1.22        2.167       35.169      127.03      
79.6        44.745      152.068     4.791       58.321      85.554      83.442      71.354      41.977      39.472      30.777      1.127       68.5        63.352      1.22        2.17        34.62       129.114     
79.7        42.329      152.496     4.622       58.087      84.208      84.48       70.024      41.863      38.103      29.949      1.152       68.625      63.317      1.22        2.176       34.269      130.879     
79.8        40.442      152.042     4.789       59.367      82.568      87.099      68.655      41.561      35.813      29.041      1.162       68.625      62.952      1.221       2.19        34.0        131.729     
79.9        40.688      151.86      5.06        61.312      80.687      88.945      68.275      40.907      33.333      28.262      1.158       66.0        62.578      1.222       2.204       33.664      132.487     
80.0        40.268      150.84      5.167       61.616      78.778      88.976      69.992      40.558      30.811      27.635      1.156       63.625      62.222      1.223       2.219       33.743      133.051     
80.1        37.452      148.381     5.113       61.826      78.789      87.979      72.44       40.512      29.033      27.1        1.157       62.625      61.418      1.222       2.23        33.942      134.252     
80.2        35.999      147.771     5.203       65.502      80.849      86.805      73.975      40.441      28.227      26.471      1.155       59.5        60.128      1.221       2.235       34.155      134.843     
80.3        36.366      147.03      5.428       69.157      82.316      86.261      74.756      40.158      27.42       25.586      1.147       57.125      57.605      1.221       2.232       34.418      134.226     
80.4        36.254      146.463     5.641       69.803      82.311      85.999      75.219      39.454      27.078      24.915      1.136       60.25       54.237      1.222       2.228       34.922      132.95      
80.5        33.878      148.456     5.735       68.102      81.579      85.164      74.884      38.811      26.957      24.257      1.127       63.25       51.895      1.221       2.223       35.168      132.502     
80.6        28.972      148.21      5.671       65.103      80.049      83.734      72.887      37.993      26.677      23.844      1.13        62.625      50.305      1.221       2.224       35.927      132.628     
80.7        22.477      147.573     5.475       62.467      78.317      82.528      70.733      36.498      26.113      23.407      1.145       62.0        48.148      1.221       2.23        36.524      133.414     
80.8        17.332      153.584     5.396       60.158      76.682      79.676      69.647      34.516      25.307      23.195      1.154       64.875      44.698      1.22        2.247       37.277      134.909     
80.9        16.034      157.127     5.686       60.764      77.721      74.476      67.626      32.955      23.672      23.082      1.13        68.25       40.929      1.219       2.27        38.248      135.498     
81.0        19.43       160.108     6.195       64.172      79.144      68.193      62.734      31.508      21.244      22.946      1.078       66.75       38.685      1.218       2.293       39.192      134.266     
81.1        26.184      149.631     6.818       62.888      68.38       59.688      56.367      30.616      19.197      22.834      1.022       62.375      37.797      1.215       2.308       39.945      133.542     
81.2        29.92       143.997     7.195       54.58       52.213      52.198      50.779      30.202      18.649      22.565      0.99        60.0        37.498      1.212       2.31        40.81       132.311     
81.3        31.239      142.954     7.293       41.581      40.554      47.302      46.524      30.245      19.253      22.107      1.003       56.25       37.323      1.212       2.303       40.875      128.074     
81.4        32.542      142.55      7.006       31.293      35.746      45.479      44.522      30.75       21.288      21.565      1.053       52.0        36.265      1.212       2.289       40.723      125.903     
81.5        33.938      145.072     6.619       29.767      40.238      48.36       45.866      31.123      24.217      20.807      1.106       51.5        34.442      1.212       2.276       40.246      124.649     
81.6        34.072      144.804     6.299       31.505      46.337      52.107      50.708      32.063      27.237      20.367      1.136       53.75       33.491      1.213       2.269       39.613      123.262     
81.7        28.819      144.556     6.107       32.461      49.005      55.69       56.463      33.934      29.561      19.97       1.148       56.75       34.157      1.215       2.267       38.569      123.366     
81.8        20.946      146.776     5.922       33.481      49.271      58.863      61.241      35.783      30.236      19.414      1.167       58.875      35.008      1.217       2.266       37.153      123.913     
81.9        17.188      149.466     5.912       36.805      50.356      60.285      65.88       36.742      29.981      18.999      1.176       60.625      34.647      1.217       2.268       35.704      125.24      
82.0        17.92       155.04      6.117       44.0        53.209      59.853      68.911      36.995      28.947      18.763      1.152       62.875      32.674      1.217       2.275       34.477      126.486     
82.1        18.304      157.583     6.481       51.428      55.162      58.198      67.918      36.291      26.797      18.613      1.101       68.125      30.593      1.216       2.289       33.374      128.282     
82.2        17.198      158.723     6.957       54.625      52.363      55.033      62.033      35.457      23.9        18.485      1.052       72.625      29.663      1.214       2.309       32.455      129.836     
82.3        16.848      159.922     7.344       47.637      41.45       48.046      54.673      34.699      21.182      18.381      1.028       73.75       28.849      1.212       2.331       31.67       129.35      
