~Version Information Section
VERS.                                         2.0:CWLS log ASCII Standart – VERSION 2.0
WRAP.                                          NO:One line per depth step
~Well Information Section
STRT.M                                        0.2:Начальная глубина
STOP.M                                      176.0:Конечная глубина
STEP.M                                          0:Шаг квантования по глубине
NULL.                                    -9999.25:Признак "Нет данных"
WELL.                                       112Мх:Скважина
~Parameter Information Section
~Curve Information Section
DEPTH.M                                          :Глубина
BK.Ohm*M                                         :BK     (БК)
DS.mm                                            :DS  (ДС)
GGK.g/cm3                                        :GGKp
ГК.mcr/h                                         :GK          (ГК)
GZ1.Ohm*M                                        :GZ1   ГЗ1(A0.4M0.1N)
GZ2.Ohm*M                                        :GZ2   ГЗ2(A1.0M0.1N)
GZ3.Ohm*M                                        :GZ3   ГЗ3(A2.0M0.5N)
GZ4.Ohm*M                                        :GZ4   ГЗ4(A4.0M0.5N)
GZ5.Ohm*M                                        :GZ5   ГЗ5(A8.0M0.5N)
GZR.Ohm*M                                        :GZK   ГЗK(N0.5M2.0A)
ИК.Ohm*M                                         :IK
НГК.ue                                           :NGK     (НГК)
NNKM.                                            :NNKm  (ННКм)
PS.mv                                            :PS       (ПС)
PZ.Ohm*M                                         :PZ    (КС)
U1.mV                                            :U1
U2.mV                                            :U2
U3.mV                                            :U3
КП.%                                             :Кп
~ASCII LOG DATA
# ...
102.2       76.747      135.492     2.394       5.427       66.43       53.892      56.18       30.353      5.141       53.216      32.711      1.376       2.418       360.28      88.32       201.878     2608.987    632.484     36.095      
102.3       46.778      135.334     2.394       5.161       64.896      53.386      54.743      31.723      5.561       54.287      32.507      1.391       2.274       360.28      88.32       201.878     2608.987    708.878     31.41       
102.4       44.467      135.105     2.397       4.796       63.709      53.073      54.125      33.607      6.081       55.663      32.695      1.351       2.369       360.24      88.32       267.699     2667.875    688.022     29.372      
102.5       55.691      134.496     2.402       4.491       62.974      52.947      54.058      36.118      6.738       57.658      33.199      1.341       2.512       359.66      88.32       351.597     2738.666    688.022     29.667      
102.6       78.553      134.498     2.411       4.651       62.733      52.927      54.058      39.253      7.565       60.631      33.573      1.35        2.593       358.06      88.6        790.0       2907.001    713.303     33.36       
102.7       99.331      135.171     2.424       4.874       62.733      52.933      54.1        42.949      8.591       64.831      34.08       1.368       2.624       354.92      89.56       790.0       3000.0      747.487     37.259      
102.8       75.058      136.618     2.437       5.156       62.744      52.991      54.444      47.018      9.832       70.334      34.648      1.404       2.461       349.7       91.28       790.0       3000.0      656.322     37.356      
102.9       47.285      136.089     2.45        5.041       62.859      53.206      55.447      51.18       11.283      76.834      34.988      1.426       2.327       342.42      93.84       790.0       3000.0      493.231     35.291      
103.0       33.917      134.662     2.459       4.829       63.333      53.651      56.979      55.192      12.922      83.485      35.344      1.456       2.33        333.84      96.96       790.0       3000.0      426.475     30.084      
103.1       37.568      135.388     2.458       4.422       64.465      54.323      58.825      58.902      14.719      89.172      35.913      1.416       2.449       324.7       100.6       581.458     2695.831    385.49      26.443      
103.2       74.224      134.236     2.453       4.291       66.503      55.255      60.753      62.165      16.653      92.907      36.717      1.341       2.686       316.06      104.52      581.458     2695.831    344.505     26.445      
103.3       150.426     134.156     2.434       4.32        69.748      56.411      62.57       64.912      18.715      94.365      37.993      1.276       2.806       309.12      108.4       703.856     2716.223    344.505     28.598      
103.4       176.24      135.994     2.412       4.227       74.499      57.606      64.154      67.125      20.903      94.397      39.595      1.307       2.809       304.16      112.0       686.464     2802.555    470.502     32.221      
103.5       117.226     135.408     2.394       4.073       81.081      58.878      65.426      68.777      23.194      94.276      41.065      1.378       2.728       300.94      115.6       561.871     2826.907    592.045     33.263      
103.6       73.258      135.163     2.386       3.722       89.773      60.309      66.394      69.778      25.543      93.301      41.869      1.506       2.629       299.1       119.8       402.792     2677.115    451.506     34.142      
103.7       91.306      135.188     2.391       3.653       100.858     62.077      67.126      70.169      27.873      90.625      42.557      1.581       2.578       298.04      125.92      370.881     2659.707    451.019     33.268      
103.8       140.732     135.133     2.398       3.7         114.452     64.429      67.709      70.22       30.067      86.985      43.34       1.637       2.544       297.06      135.0       370.881     2659.707    451.019     31.819      
103.9       173.864     134.796     2.415       3.651       130.43      67.675      68.241      70.205      31.994      83.145      44.326      1.621       2.566       295.86      147.28      388.442     2693.802    505.019     29.833      
104.0       191.966     135.151     2.438       3.682       148.308     72.107      68.818      70.073      33.529      79.49       45.887      1.603       2.6         294.26      162.2       406.004     2709.629    498.857     28.196      
104.1       198.907     134.345     2.458       3.787       167.191     77.91       69.56       69.669      34.571      76.157      46.969      1.551       2.67        292.28      178.6       435.835     2667.871    387.486     26.831      
104.2       189.12      134.482     2.482       3.898       185.672     84.993      70.502      69.017      35.088      73.253      47.663      1.53        2.744       290.06      193.72      436.302     2641.304    369.694     26.099      
104.3       151.547     133.95      2.501       3.889       202.593     93.095      71.558      68.248      35.2        70.85       48.072      1.497       2.776       287.74      205.32      366.951     2622.198    369.694     26.002      
104.4       128.512     133.938     2.513       3.947       217.167     101.537     72.505      67.41       35.201      68.909      48.133      1.511       2.801       285.54      212.8       297.6       2603.093    397.865     26.484      
104.5       168.145     134.083     2.516       3.977       228.635     109.104     73.092      66.351      35.111      67.255      47.603      1.489       2.816       283.68      216.32      297.6       2603.093    426.036     27.533      
104.6       191.167     134.703     2.513       4.089       235.659     114.476     73.265      64.93       34.699      65.637      46.604      1.504       2.785       282.24      216.48      328.342     2662.448    514.558     28.175      
104.7       166.2       134.519     2.511       3.987       238.094     116.921     73.238      63.05       33.948      63.817      45.928      1.527       2.742       281.24      216.48      395.466     2747.972    624.465     28.385      
104.8       112.412     134.479     2.502       4.021       237.979     117.195     72.993      60.597      32.947      61.643      45.29       1.647       2.759       280.64      216.48      310.903     2656.416    529.935     27.769      
104.9       105.058     134.215     2.484       3.866       236.704     117.024     72.156      57.52       31.745      59.134      44.62       1.707       2.788       280.44      214.44      301.954     2628.565    478.93      26.878      
105.0       170.109     134.606     2.468       3.906       231.231     115.631     70.633      54.001      30.39       56.536      44.35       1.8         2.802       280.44      211.4       301.954     2628.565    456.751     28.097      
105.1       320.07      134.823     2.453       4.077       219.018     111.721     68.756      50.378      28.954      54.216      44.414      1.805       2.803       280.44      207.88      343.082     2642.906    434.573     30.195      
105.2       360.021     134.741     2.444       4.4         201.764     106.316     66.978      47.053      27.523      52.475      44.567      1.741       2.775       280.58      204.0       384.209     2657.113    410.827     33.523      
105.3       240.045     134.766     2.435       4.531       182.892     101.002     65.63       44.414      26.209      51.459      44.045      1.638       2.651       281.18      199.72      405.059     2646.147    385.907     35.108      
105.4       81.036      134.72      2.425       4.436       166.034     97.023      64.933      42.686      25.136      51.159      43.036      1.614       2.437       282.38      195.64      410.734     2639.365    365.806     35.279      
105.5       48.808      134.507     2.415       4.471       153.794     94.952      64.808      41.892      24.374      51.159      42.227      1.666       2.348       284.14      191.88      423.004     2635.973    349.61      34.7        
