~Version Information Section
VERS.                                         2.0:CWLS log ASCII Standart – VERSION 2.0
WRAP.                                          NO:One line per depth step
~Well Information Section
STRT.M                                        0.6:Начальная глубина
STOP.M                                      208.2:Конечная глубина
STEP.M                                          0:Шаг квантования по глубине
NULL.                                    -9999.25:Признак "Нет данных"
WELL.                                       156Мх:Скважина
~Parameter Information Section
~Curve Information Section
DEPTH.M                                          :Глубина
БК.Ом                                            :BK     (БК)
DСР.мм                                           :DS  (ДС)
ПЛОТНОСТЬ.г/см^3                                 :GGKp
ГК.мкР/час                                       :GK          (ГК)
А0.4М0.1N.Ом                                     :GZ1   ГЗ1(A0.4M0.1N)
А1.0М0.1N.Ом                                     :GZ2   ГЗ2(A1.0M0.1N)
А2.0М0.5N.Ом                                     :GZ3   ГЗ3(A2.0M0.5N)
А4.0М0.5N.Oм                                     :GZ4   ГЗ4(A4.0M0.5N)
А8.0М1.0N.Ом                                     :GZ5   ГЗ5(A8.0M0.5N)
N0.5M2.0A.Ом                                     :GZR   ГЗK(N0.5M2.0A)
ИК.мСм/м                                         :IK
НГК.усл.ед                                       :NGK     (НГК)
ННКМ.усл.ед                                      :NNKm  (ННКм)
ПС.mv                                            :PS       (ПС)
N11.0M0.5A.Ом                                    :PZ    (КС)
РЕЗИСТИВИМЕТР.Ом                                 :RS (Резистивиметр)
КПSIO.%                                          :W
~ASCII LOG DATA
# ...
59.8        24.324      158.428     2.249       6.638       25.143      11.616      16.017      15.927      21.636      34.694      15.609      1.117       1.252       29.508      16.942      1.31        27.506      
59.9        33.82       158.391     2.223       6.632       24.477      11.254      13.926      14.734      17.543      29.474      15.611      1.108       1.239       30.001      15.603      1.31        27.773      
60.0        22.465      158.507     2.203       6.867       22.386      11.191      12.958      14.681      14.709      23.497      15.517      1.105       1.224       30.433      15.976      1.31        28.344      
60.1        16.373      159.31      2.192       7.083       20.332      11.231      12.35       14.905      13.69       19.0        15.3        1.102       1.203       30.717      17.763      1.31        29.152      
60.2        14.456      156.968     2.19        7.259       18.77       11.849      11.919      14.943      13.394      17.048      14.974      1.086       1.138       30.67       19.67       1.31        30.111      
60.3        14.478      156.461     2.196       7.449       17.665      13.468      11.606      14.709      13.328      16.859      14.612      1.073       1.072       30.197      20.436      1.31        31.222      
60.4        14.348      153.594     2.211       7.606       17.156      15.534      11.359      14.419      13.343      17.316      14.283      1.076       1.052       29.81       19.846      1.31        32.305      
60.5        13.459      153.817     2.227       7.617       16.853      16.632      11.224      14.244      13.353      18.011      14.021      1.069       1.036       29.436      18.815      1.31        33.201      
60.6        13.276      156.492     2.239       7.68        16.438      16.226      11.199      14.163      13.302      18.88       13.807      1.045       1.024       28.846      17.981      1.31        33.909      
60.7        12.421      153.726     2.247       7.884       16.088      15.202      11.174      14.017      13.154      19.887      13.631      1.022       1.023       28.5        17.424      1.31        34.556      
60.8        11.969      154.328     2.25        8.123       16.105      14.424      11.042      13.74       12.949      20.962      13.501      1.009       1.031       28.574      17.004      1.31        35.076      
60.9        12.506      156.179     2.246       8.322       16.244      13.798      10.816      13.343      12.687      21.993      13.423      0.997       1.044       29.093      16.644      1.31        35.459      
61.0        13.313      158.007     2.235       8.486       16.103      12.984      10.6        12.87       12.411      22.881      13.399      0.989       1.054       30.018      16.356      1.31        35.698      
61.1        12.987      158.563     2.221       8.554       15.784      12.108      10.42       12.357      12.191      23.575      13.419      0.986       1.064       30.784      16.156      1.31        35.856      
61.2        12.376      159.068     2.202       8.447       15.724      11.561      10.3        11.865      12.043      24.12       13.485      0.985       1.073       31.353      16.039      1.31        35.973      
61.3        12.745      159.216     2.18        8.396       15.971      11.356      10.364      11.525      11.924      24.488      13.577      0.988       1.069       31.941      15.996      1.31        36.049      
61.4        13.182      159.519     2.161       8.523       16.2        11.238      11.018      11.417      11.77       24.636      13.699      0.988       1.061       32.228      16.045      1.31        36.084      
61.5        13.292      159.841     2.152       8.519       16.377      11.263      12.441      11.451      11.628      24.618      13.862      0.981       1.045       32.1        16.202      1.31        36.197      
61.6        13.461      160.067     2.15        8.579       16.688      11.578      14.096      11.485      11.628      24.64       14.069      0.972       1.029       31.741      16.435      1.31        36.328      
61.7        13.483      160.34      2.153       8.721       17.006      11.931      15.158      11.462      11.844      25.001      14.321      0.97        1.013       31.34       16.723      1.31        36.462      
61.8        13.52       160.988     2.163       8.773       16.967      11.857      15.251      11.419      12.222      25.735      14.6        0.978       1.002       31.053      17.033      1.31        36.619      
61.9        13.491      160.612     2.174       8.646       16.479      11.29       14.737      11.43       12.708      26.6        14.91       0.996       1.0         30.992      17.29       1.31        36.772      
62.0        13.32       161.562     2.181       8.649       15.95       10.73       14.14       11.628      13.271      27.329      15.258      1.027       1.008       31.092      17.423      1.31        36.957      
62.1        13.606      161.122     2.181       8.62        15.928      10.668      13.797      12.137      13.91       27.855      15.665      1.056       1.016       31.348      17.483      1.31        36.951      
62.2        14.257      159.939     2.178       8.576       16.536      11.155      13.877      12.955      14.736      28.307      16.13       1.071       1.026       31.817      17.616      1.31        36.698      
62.3        14.373      160.076     2.17        8.495       17.754      12.006      14.338      13.999      16.003      28.918      16.622      1.073       1.039       32.46       17.956      1.31        36.148      
62.4        13.602      159.904     2.156       8.409       19.443      12.895      15.099      15.266      17.668      30.035      17.111      1.068       1.045       33.201      18.632      1.31        35.326      
62.5        13.335      159.769     2.137       8.292       21.538      13.693      16.257      16.961      19.48       31.888      17.612      1.057       1.056       33.979      19.666      1.31        34.181      
62.6        13.695      159.613     2.118       8.104       24.095      14.809      17.885      19.078      21.209      34.265      18.203      1.059       1.067       34.774      20.94       1.31        33.018      
62.7        15.768      159.149     2.098       7.876       28.128      17.363      19.786      21.334      22.984      36.83       18.951      1.084       1.079       35.575      22.282      1.31        31.671      
62.8        19.378      158.298     2.08        7.557       33.318      20.809      21.709      23.448      24.917      39.651      19.883      1.121       1.095       36.21       23.681      1.31        30.366      
62.9        22.099      156.689     2.069       7.177       37.302      23.081      23.572      25.381      26.854      43.347      20.973      1.17        1.112       36.238      25.41       1.31        29.231      
63.0        24.171      155.227     2.065       6.69        38.599      23.417      25.26       26.964      28.644      47.945      22.159      1.226       1.14        35.576      27.665      1.31        28.339      
63.1        25.587      151.498     2.065       6.307       40.18       24.411      26.59       28.07       30.13       52.559      23.348      1.275       1.168       34.426      30.172      1.31        27.672      
63.2        26.692      150.052     2.07        5.987       45.57       27.806      27.615      28.977      31.226      56.46       24.493      1.308       1.209       32.923      32.43       1.31        27.284      
63.3        30.997      150.012     2.079       5.816       52.628      31.852      28.599      30.194      31.768      59.82       25.577      1.332       1.249       31.157      34.355      1.31        26.875      
63.4        38.826      149.995     2.089       5.759       57.205      34.534      29.418      31.912      32.004      62.41       26.615      1.345       1.273       29.118      36.528      1.31        26.565      
