~Version Information Section
VERS.                                         2.0:CWLS log ASCII Standart – VERSION 2.0
WRAP.                                          NO:One line per depth step
~Well Information Section
STRT.M                                       -0.3:Начальная глубина
STOP.M                                      200.8:Конечная глубина
STEP.M                                          0:Шаг квантования по глубине
NULL.                                    -9999.25:Признак "Нет данных"
WELL.                                       124Мх:Скважина
~Parameter Information Section
~Curve Information Section
DEPTH.M                                          :Глубина
U1.мВ                                            :U1
U2.                                              :U2
U3.мВ                                            :U3
БЗ.имп/мин                                       :БЗ
ГГКП.имп/мин                                     :ГГКп
ГЗ1.Омм                                          :ГЗ1
ГЗ2.Омм                                          :ГЗ2
ГЗ3.Омм                                          :ГЗ3
ГЗ4.Oмм                                          :ГЗ4
ГЗ5.Oмм                                          :ГЗ5
ГЗК.Омм                                          :ГЗК
КП.%                                             :Кп
МЗ.                                              :МЗ жесткий
НГК.усл.ед                                       :ННКб
ННКМ.усл.ед                                      :ННКм
ПРОФ_СР.мм                                       :ПРОФ_СР
ПС.мВ                                            :ПС
BK.lgОмм                                         :BK
ГК.имп/мин                                       :GK
ИК.мСм/м                                         :IK
PZ.Омм                                           :PZ
RIS.Омм                                          :RIS
~ASCII LOG DATA
# ...
34.5        1380.278687 3292.032227 1423.333374 17641.4277342.362491    10.771      14.547      24.780001   17.4        27.664      18.48       25.326262   19575.7148443.48731     2.448033    153.802994  462.615997  81.283043   2.362       27.088526   77.839996   1.06        
34.6        1399.922119 3286.062012 1439.999756 17578.5722662.355113    10.801      14.762      24.799999   17.472      27.983999   18.76       24.856119   19850.0     3.366981    2.497048    153.503998  464.463989  83.946007   2.656       26.239143   78.559998   1.06        
34.7        1416.180176 3282.833252 1450.0      17893.8457032.345201    10.801      14.954      24.799999   17.528      28.296      18.959999   24.373787   19924.6152343.255338    2.545897    153.783005  465.696014  107.398918  2.803       25.798462   79.040001   1.06        
34.8        1429.05188  3282.346436 1430.000366 18673.3339842.3388      10.801      15.075      24.799999   17.568001   28.52       19.200001   23.89226    19325.3339843.140201    2.490306    153.630997  466.928009  97.723724   3.955       24.559767   79.120003   1.06        
34.9        1453.872437 3294.810547 1406.66626  18952.8574222.334948    10.768      15.109      24.799999   17.591999   28.672001   19.440001   23.777971   19208.5722663.016932    2.401902    153.977997  468.160004  90.991325   4.157       24.199596   79.120003   1.06        
35.0        1494.026001 3317.484375 1383.333374 18824.2851562.333078    10.682      15.109      24.799999   17.6        28.76       19.6        24.061243   19434.2851562.932502    2.317743    155.479004  469.391998  86.496796   5.165       23.257435   79.120003   1.06        
35.1        1549.513306 3350.367188 1380.0      18981.4277342.332174    10.531      15.109      24.799999   17.6        28.799999   19.76       24.308592   19427.1425782.937773    2.199565    155.128998  470.623993  55.590427   5.165       22.163612   78.959999   1.06        
35.2        1565.375244 3364.000977 1390.000244 19423.0761722.330775    10.298      15.045      24.799999   17.6        28.799999   19.92       24.52631    19524.6152342.904592    2.047375    154.339996  471.855988  35.481335   5.165       21.721659   78.639999   1.06        
35.3        1541.61084  3358.384033 1409.999634 19895.7148442.327954    10.044      14.878      24.799999   17.6        28.799999   20.040001   25.304829   19830.0     2.804419    1.970114    154.395004  473.70401   22.438816   5.152       20.743444   77.919998   1.06        
35.4        1458.487427 3339.702637 1426.666748 20113.3339842.326113    9.767       14.636      24.74       17.6        28.799999   20.120001   25.622097   19478.6660162.773643    1.968365    154.541     475.552002  22.803423   5.146       20.175528   77.360001   1.06        
35.5        1355.637695 3327.207764 1430.0      20018.5722662.324011    9.458       14.365      24.66       17.6        28.799999   20.120001   25.263704   19180.0     2.800158    1.978407    155.167007  477.399994  25.003454   5.837       19.657951   76.879997   1.06        
35.6        1266.55188  3320.44873  1405.775757 19432.8574222.321162    9.152       14.08       24.540001   17.6        28.799999   20.120001   25.654119   19211.4277342.75759     1.994345    155.807007  479.247986  24.490635   6.01        18.795933   76.32       1.06        
35.7        1210.957397 3313.239014 1393.641235 19077.1425782.316487    8.875       13.816      24.4        17.6        28.799999   20.120001   26.623987   19135.7148442.659673    1.975524    157.091995  481.096008  24.547089   6.666       18.145857   75.68       1.06        
35.8        1188.858643 3305.578857 1393.597656 19334.6660162.311654    8.649       13.591      24.200001   17.6        28.799999   20.040001   26.849421   19417.3339842.753491    1.946563    156.072006  482.944     24.378107   6.309       17.918257   74.800003   1.06        
35.9        1194.610962 3305.156738 1388.187744 19920.0     2.302727    8.488       13.413      24.040001   17.6        28.799999   19.959999   27.088249   20357.1425782.86854     1.959813    154.205994  484.791992  23.442289   5.088       17.624561   73.839996   1.06        
36.0        1228.214966 3311.972656 1351.096313 20238.5722662.298119    8.4         13.283      23.860001   17.6        28.799999   19.799999   27.375093   20715.7148442.75457     1.979444    155.639008  486.640015  22.284353   5.024       17.557104   72.639999   1.06        
36.1        1252.84021  3313.1604   1311.046631 19577.3339842.299691    8.368       13.198      23.719999   17.584      28.799999   19.639999   27.155043   20601.3339842.69712     1.988773    153.408005  488.488007  24.15461    4.896       17.523876   71.760002   1.06        
36.2        1240.634399 3301.480469 1299.720215 18012.0     2.306535    8.368       13.131      23.540001   17.552      28.792      19.559999   26.304998   20184.0     2.760385    2.025217    153.436996  490.335999  25.763212   4.988       17.490467   70.720001   1.06        
36.3        1191.599976 3276.93457  1317.116821 16049.2304692.316991    8.368       13.07       23.42       17.504      28.775999   19.440001   26.01297    19104.6152342.881337    2.082557    153.602005  491.567993  26.546057   5.126       17.476406   70.0        1.06        
36.4        1181.674805 3289.115723 1362.224365 14380.0     2.328372    8.368       13.013      23.299999   17.416      28.743999   19.280001   26.217337   18386.1542973.103921    2.113817    153.009003  492.799988  27.039587   4.934       17.490467   69.360001   1.06        
36.5        1210.860962 3338.02417  1435.040039 13060.0     2.334169    8.379       12.962      23.200001   17.288      28.688      19.200001   26.367203   18071.4277343.112448    2.117704    153.253006  494.64801   26.853445   4.742       17.576237   68.879997   1.06        
36.6        1311.491821 3409.01001  1472.901611 12266.6669922.342108    8.414       12.912      23.1        17.128      28.591999   19.120001   26.302925   17825.3339843.07996     2.17109     153.410004  495.880005  35.156044   4.678       17.677526   68.239998   1.06        
36.7        1444.463135 3465.348389 1448.0979   12317.1425782.355261    8.466       12.856      23.040001   16.936001   28.455999   19.0        26.298433   17695.7148442.926455    2.221367    153.705002  497.727997  41.783043   4.646       17.88365    67.599998   1.06        
36.8        1547.856812 3475.28125  1369.913208 12830.6669922.37073     8.518       12.793      22.98       16.704      28.264      18.92       25.921051   17766.6660162.847839    2.210482    153.796005  499.575989  37.23917    4.726       17.988199   67.120003   1.06        
36.9        1589.348145 3453.460205 1301.004883 14107.3681642.391093    8.569       12.704      22.940001   16.48       28.024      18.879999   25.716444   18197.8945312.929558    2.201412    154.505997  501.424011  33.728729   4.742       18.346603   66.559998   1.06        
37.0        1568.932617 3399.886963 1241.379028 15514.2861332.410115    8.606       12.582      22.92       16.256001   27.743999   18.84       25.482353   18808.5722663.041355    2.201412    155.470001  503.272003  38.459183   5.472       18.490782   66.080002   1.06        
37.1        1529.620239 3366.279541 1214.675171 16250.0     2.412399    8.627       12.434      22.9        16.063999   27.448      18.799999   24.14233    18958.5722663.243243    2.166944    155.520996  505.735992  31.117165   4.883       18.795933   65.760002   1.06        
37.2        1471.408081 3352.637939 1220.894531 16435.7148442.402895    8.65        12.283      22.9        15.904      27.16       18.799999   23.073523   18734.2851563.357445    2.115242    153.804001  508.200012  24.322042   3.706       18.834518   65.440002   1.06        
37.3        1442.290405 3365.660645 1248.37207  15904.2861332.390406    8.709       12.139      22.9        15.776      26.912001   18.799999   22.575884   18542.8574223.584305    2.183378    151.845993  510.664001  23.334581   3.648       18.852629   65.120003   1.06        
