~Version Information Section
VERS.                                         2.0:CWLS log ASCII Standart – VERSION 2.0
WRAP.                                          NO:One line per depth step
~Well Information Section
STRT.M                                        0.6:Начальная глубина
STOP.M                                      208.2:Конечная глубина
STEP.M                                          0:Шаг квантования по глубине
NULL.                                    -9999.25:Признак "Нет данных"
WELL.                                       156Мх:Скважина
~Parameter Information Section
~Curve Information Section
DEPTH.M                                          :Глубина
БК.Ом                                            :BK     (БК)
DСР.мм                                           :DS  (ДС)
ПЛОТНОСТЬ.г/см^3                                 :GGKp
ГК.мкР/час                                       :GK          (ГК)
А0.4М0.1N.Ом                                     :GZ1   ГЗ1(A0.4M0.1N)
А1.0М0.1N.Ом                                     :GZ2   ГЗ2(A1.0M0.1N)
А2.0М0.5N.Ом                                     :GZ3   ГЗ3(A2.0M0.5N)
А4.0М0.5N.Oм                                     :GZ4   ГЗ4(A4.0M0.5N)
А8.0М1.0N.Ом                                     :GZ5   ГЗ5(A8.0M0.5N)
N0.5M2.0A.Ом                                     :GZR   ГЗK(N0.5M2.0A)
ИК.мСм/м                                         :IK
НГК.усл.ед                                       :NGK     (НГК)
ННКМ.усл.ед                                      :NNKm  (ННКм)
ПС.mv                                            :PS       (ПС)
N11.0M0.5A.Ом                                    :PZ    (КС)
РЕЗИСТИВИМЕТР.Ом                                 :RS (Резистивиметр)
КПSIO.%                                          :W
~ASCII LOG DATA
# ...
37.6        14.99       153.092     2.159       8.14        16.755      9.806       11.455      14.965      15.801      35.087      14.187      1.018       0.991       10.523      16.079      1.31        33.986      
37.7        16.248      155.053     2.16        8.131       16.95       9.151       10.323      13.766      14.012      32.568      14.427      1.019       0.978       11.359      15.64       1.31        34.374      
37.8        15.832      157.274     2.155       8.165       16.51       8.579       9.845       13.025      12.814      29.476      14.602      1.012       0.97        12.192      16.047      1.31        34.6        
37.9        13.504      156.453     2.146       8.184       16.581      8.67        9.69        12.4        12.618      26.779      14.698      0.991       0.973       12.834      17.219      1.31        34.66       
38.0        12.648      156.478     2.133       8.123       17.548      9.398       9.958       12.169      13.233      24.998      14.749      0.961       0.976       13.346      18.747      1.31        34.519      
38.1        12.952      156.299     2.117       7.982       18.525      10.537      10.604      12.549      14.307      23.834      14.829      0.951       0.981       13.875      20.026      1.31        34.081      
38.2        14.025      156.494     2.1         7.865       19.153      12.128      11.574      13.569      15.635      22.424      14.979      0.968       0.993       14.261      20.701      1.31        33.626      
38.3        15.189      156.834     2.083       7.637       19.896      14.083      13.009      15.243      17.205      20.842      15.206      0.994       1.006       14.371      21.033      1.31        33.127      
38.4        16.283      156.896     2.064       7.39        21.911      16.837      14.948      17.401      18.702      19.818      15.484      1.031       1.018       14.182      21.469      1.31        32.642      
38.5        17.831      158.078     2.042       7.108       25.749      20.916      17.202      19.594      20.012      19.489      15.794      1.075       1.029       13.699      22.063      1.31        32.148      
38.6        20.18       155.033     2.016       6.836       29.846      24.839      19.306      21.069      21.166      19.506      16.12       1.116       1.067       12.941      22.657      1.31        31.415      
38.7        19.741      149.799     1.993       6.605       33.491      27.358      20.441      21.029      22.256      19.706      16.469      1.151       1.099       11.892      23.268      1.31        30.374      
38.8        19.717      148.894     1.978       6.485       34.823      26.444      19.816      19.313      23.72       20.203      16.866      1.185       1.13        10.635      23.928      1.31        29.217      
38.9        22.509      148.693     1.975       6.416       31.971      21.68       17.584      16.567      25.726      20.866      17.344      1.218       1.155       9.306       24.215      1.31        27.917      
39.0        27.039      148.479     1.987       6.467       25.779      15.221      14.708      13.855      28.028      21.118      17.9        1.235       1.19        7.93        23.842      1.31        26.858      
39.1        31.73       148.689     2.018       6.531       19.318      9.892       12.429      12.273      29.555      20.303      18.467      1.22        1.217       6.596       22.773      1.31        26.407      
39.2        29.989      148.708     2.059       6.584       16.678      8.998       11.86       12.412      30.126      18.278      18.923      1.18        1.235       5.522       21.387      1.31        26.488      
39.3        23.129      148.628     2.101       6.547       18.267      12.426      13.356      14.073      30.49       15.592      19.147      1.125       1.221       4.828       20.488      1.31        27.083      
39.4        19.42       148.596     2.14        6.477       21.907      17.686      16.344      16.48       33.599      13.433      19.097      1.069       1.206       4.567       20.725      1.31        28.048      
39.5        13.983      148.912     2.179       6.362       24.172      20.742      19.495      18.953      40.359      12.942      18.88       1.041       1.157       4.737       22.212      1.31        28.939      
39.6        12.222      149.393     2.215       6.188       23.683      20.178      22.224      21.677      49.862      14.263      18.696      1.051       1.091       5.244       24.303      1.31        29.654      
39.7        13.298      154.828     2.248       5.91        23.542      19.145      25.144      25.405      59.659      16.516      18.698      1.079       1.066       6.045       26.006      1.31        30.024      
39.8        14.967      154.168     2.279       5.627       28.582      22.775      29.097      30.737      68.33       18.816      19.002      1.115       1.073       7.15        26.578      1.31        29.803      
39.9        19.015      157.528     2.308       5.129       38.945      31.414      34.276      37.482      75.999      21.427      19.601      1.155       1.109       8.42        26.178      1.31        29.007      
40.0        27.601      157.031     2.334       4.624       49.385      39.62       39.933      44.563      82.319      25.665      20.413      1.197       1.169       9.645       25.928      1.31        27.774      
40.1        30.705      156.813     2.354       4.15        53.545      41.746      44.672      50.172      87.014      32.234      21.252      1.241       1.237       10.612      27.359      1.31        26.21       
40.2        25.721      157.505     2.366       3.784       51.678      38.527      47.273      52.751      89.576      40.369      21.989      1.295       1.274       10.956      30.93       1.31        24.555      
40.3        27.898      154.732     2.377       3.516       52.218      36.968      47.099      51.792      89.52       48.345      22.582      1.362       1.363       10.63       34.874      1.31        22.942      
40.4        32.713      153.831     2.389       3.476       59.368      39.933      44.622      48.22       85.631      54.682      23.037      1.426       1.478       9.969       36.594      1.31        21.441      
40.5        45.647      150.756     2.397       3.45        66.224      42.265      40.865      43.199      78.508      58.5        23.363      1.477       1.581       9.299       35.597      1.31        20.174      
40.6        59.064      149.591     2.399       3.461       64.312      38.552      36.09       36.73       70.303      59.373      23.571      1.51        1.654       8.93        34.266      1.31        19.221      
40.7        41.124      149.182     2.4         3.508       56.282      30.939      30.205      29.192      65.188      57.343      23.682      1.525       1.738       9.06        34.965      1.31        18.629      
40.8        32.208      155.234     2.398       3.611       48.553      24.283      24.082      22.471      63.167      53.16       23.742      1.508       1.769       9.579       36.678      1.31        18.423      
40.9        43.74       154.626     2.386       3.724       41.664      20.37       19.947      19.515      61.526      47.774      23.788      1.468       1.747       10.438      37.109      1.31        18.912      
41.0        55.028      155.965     2.367       3.854       34.006      19.05       19.39       21.251      57.926      41.481      23.798      1.42        1.722       11.431      35.95       1.31        19.938      
41.1        38.547      153.186     2.346       3.969       29.397      24.334      21.674      25.825      53.422      35.255      23.687      1.357       1.717       12.049      34.533      1.31        21.16       
41.2        25.623      152.536     2.324       4.222       30.955      36.637      24.692      30.752      50.235      32.744      23.377      1.277       1.652       12.209      33.994      1.31        22.515      
