~Version Information Section
VERS.                                         2.0:CWLS log ASCII Standart – VERSION 2.0
WRAP.                                          NO:One line per depth step
~Well Information Section
STRT.M                                        0.0:Начальная глубина
STOP.M                                      208.6:Конечная глубина
STEP.M                                          0:Шаг квантования по глубине
NULL.                                    -9999.25:Признак "Нет данных"
WELL.                                       140Мх:Скважина
~Parameter Information Section
~Curve Information Section
DEPTH.M                                          :Глубина
GZ1.ohmm                                         :Подошвенный градиент-зонд А0.4М0.1N
GZ2.ohmm                                         :Подошвенный градиент-зонд А1.0М0.1N
GZ3.ohmm                                         :Подошвенный градиент-зонд А2.0М0.5N
GZ5.ohmm                                         :Подошвенный градиент-зонд А8.0М1.0N
GZ3R.GZ3R                                        :GZ3R
GZ4.ohmm                                         :Подошвенный градиент-зонд А4.0М0.5N
GGK.g/cc                                         :Плотностной гамма-гамма каротаж
ГК.ur/h                                          :Гамма каротаж
ИК.ohmm                                          :Индукционный каротаж (сопротивление),
BK.ohmm                                          :Боковой каротаж
NKTS.ue                                          :Нейтронный каротаж по тепловым нейтронам (малый зонд)
WNK.De                                           :Водородосодержание по НК
НГК.ue                                           :Нейтронный каротаж по тепловым нейтронам (большой зонд)
PZ.ohmm                                          :Потенциал-зонд ИММ 0,5А; В4 0,25М
-.                                               :-      SP mv)
DS1.m                                            :Профиль 1 сечения ствола скважины по профилеметрии
DS.m                                             :Кавернометрия
DS2.m                                            :Профиль 2 сечения ствола скважины по профилеметрии
~ASCII LOG DATA
# ...
79.0        -9999.25    -9999.25    -9999.25    -9999.25    -9999.25    -9999.25    2.2         5.822       13.468      44.678      1.451       39.462      1.766       40.278      3703.324    0.159       0.155       0.152       
79.1        50.033      36.609      30.388      11.873      31.503      7.947       -9999.25    -9999.25    -9999.25    -9999.25    -9999.25    -9999.25    -9999.25    -9999.25    -9999.25    -9999.25    -9999.25    -9999.25    
79.2        -9999.25    -9999.25    -9999.25    -9999.25    -9999.25    -9999.25    2.176       5.998       13.353      42.723      1.486       47.337      1.78        39.312      3715.192    0.159       0.155       0.152       
79.3        52.545      38.315      30.663      15.394      30.54       8.472       -9999.25    -9999.25    -9999.25    -9999.25    -9999.25    -9999.25    -9999.25    -9999.25    -9999.25    -9999.25    -9999.25    -9999.25    
79.4        -9999.25    -9999.25    -9999.25    -9999.25    -9999.25    -9999.25    2.166       5.583       13.267      41.116      1.507       43.833      1.722       39.065      3717.325    0.159       0.155       0.151       
79.5        49.63       36.453      30.85       13.707      29.837      8.919       -9999.25    -9999.25    -9999.25    -9999.25    -9999.25    -9999.25    -9999.25    -9999.25    -9999.25    -9999.25    -9999.25    -9999.25    
79.6        -9999.25    -9999.25    -9999.25    -9999.25    -9999.25    -9999.25    2.19        5.595       13.421      40.764      1.451       47.659      1.621       39.195      3724.502    0.16        0.156       0.152       
79.7        47.494      34.824      29.823      12.647      29.219      8.554       -9999.25    -9999.25    -9999.25    -9999.25    -9999.25    -9999.25    -9999.25    -9999.25    -9999.25    -9999.25    -9999.25    -9999.25    
79.8        -9999.25    -9999.25    -9999.25    -9999.25    -9999.25    -9999.25    2.19        5.528       13.465      41.003      1.456       45.535      1.821       39.823      3719.143    0.16        0.157       0.153       
79.9        46.104      34.706      28.651      11.936      29.129      13.137      -9999.25    -9999.25    -9999.25    -9999.25    -9999.25    -9999.25    -9999.25    -9999.25    -9999.25    -9999.25    -9999.25    -9999.25    
80.0        -9999.25    -9999.25    -9999.25    -9999.25    -9999.25    -9999.25    2.175       5.608       13.486      40.329      1.484       43.217      1.775       40.705      3713.149    0.16        0.156       0.153       
80.1        45.185      34.436      28.969      12.49       29.952      24.459      -9999.25    -9999.25    -9999.25    -9999.25    -9999.25    -9999.25    -9999.25    -9999.25    -9999.25    -9999.25    -9999.25    -9999.25    
80.2        -9999.25    -9999.25    -9999.25    -9999.25    -9999.25    -9999.25    2.21        5.491       13.618      39.815      1.507       43.507      1.989       42.054      3704.725    0.16        0.157       0.153       
80.3        44.614      33.519      29.084      13.545      31.23       24.184      -9999.25    -9999.25    -9999.25    -9999.25    -9999.25    -9999.25    -9999.25    -9999.25    -9999.25    -9999.25    -9999.25    -9999.25    
80.4        -9999.25    -9999.25    -9999.25    -9999.25    -9999.25    -9999.25    2.267       5.725       13.855      35.898      1.551       37.825      2.162       42.773      3688.638    0.159       0.156       0.152       
80.5        43.265      32.496      31.473      13.393      36.09       26.968      -9999.25    -9999.25    -9999.25    -9999.25    -9999.25    -9999.25    -9999.25    -9999.25    -9999.25    -9999.25    -9999.25    -9999.25    
80.6        -9999.25    -9999.25    -9999.25    -9999.25    -9999.25    -9999.25    2.253       5.254       13.937      37.419      1.563       35.578      2.265       42.289      3659.078    0.159       0.156       0.153       
80.7        46.83       38.983      36.62       15.285      43.693      30.812      -9999.25    -9999.25    -9999.25    -9999.25    -9999.25    -9999.25    -9999.25    -9999.25    -9999.25    -9999.25    -9999.25    -9999.25    
80.8        -9999.25    -9999.25    -9999.25    -9999.25    -9999.25    -9999.25    2.211       5.19        13.833      34.308      1.535       32.544      2.251       47.466      3633.65     0.159       0.155       0.152       
80.9        51.011      44.199      41.733      12.937      48.06       34.736      -9999.25    -9999.25    -9999.25    -9999.25    -9999.25    -9999.25    -9999.25    -9999.25    -9999.25    -9999.25    -9999.25    -9999.25    
81.0        -9999.25    -9999.25    -9999.25    -9999.25    -9999.25    -9999.25    2.194       5.898       13.679      30.892      1.488       34.881      2.001       51.067      3599.988    0.158       0.155       0.152       
81.1        53.423      41.917      41.783      13.386      45.743      34.658      -9999.25    -9999.25    -9999.25    -9999.25    -9999.25    -9999.25    -9999.25    -9999.25    -9999.25    -9999.25    -9999.25    -9999.25    
81.2        -9999.25    -9999.25    -9999.25    -9999.25    -9999.25    -9999.25    2.204       5.828       13.626      31.251      1.476       39.282      2.019       50.456      3596.045    0.158       0.155       0.151       
81.3        54.117      37.266      37.085      12.285      40.733      30.969      -9999.25    -9999.25    -9999.25    -9999.25    -9999.25    -9999.25    -9999.25    -9999.25    -9999.25    -9999.25    -9999.25    -9999.25    
81.4        -9999.25    -9999.25    -9999.25    -9999.25    -9999.25    -9999.25    2.204       5.87        13.723      34.194      1.495       36.707      2.088       48.698      3602.079    0.158       0.155       0.151       
81.5        50.883      33.492      32.428      11.654      35.637      27.439      -9999.25    -9999.25    -9999.25    -9999.25    -9999.25    -9999.25    -9999.25    -9999.25    -9999.25    -9999.25    -9999.25    -9999.25    
81.6        -9999.25    -9999.25    -9999.25    -9999.25    -9999.25    -9999.25    2.192       6.415       13.841      33.639      1.493       37.546      2.052       49.961      3630.788    0.158       0.155       0.152       
81.7        49.31       33.687      31.427      11.207      34.59       26.908      -9999.25    -9999.25    -9999.25    -9999.25    -9999.25    -9999.25    -9999.25    -9999.25    -9999.25    -9999.25    -9999.25    -9999.25    
81.8        -9999.25    -9999.25    -9999.25    -9999.25    -9999.25    -9999.25    2.171       6.028       13.91       33.026      1.537       37.331      2.121       53.667      3644.356    0.159       0.156       0.152       
81.9        50.975      38.658      31.552      11.507      36.012      26.375      -9999.25    -9999.25    -9999.25    -9999.25    -9999.25    -9999.25    -9999.25    -9999.25    -9999.25    -9999.25    -9999.25    -9999.25    
82.0        -9999.25    -9999.25    -9999.25    -9999.25    -9999.25    -9999.25    2.182       5.75        13.896      32.256      1.55        37.748      2.044       55.019      3658.516    0.16        0.157       0.154       
82.1        49.924      39.144      31.095      11.8        35.909      27.122      -9999.25    -9999.25    -9999.25    -9999.25    -9999.25    -9999.25    -9999.25    -9999.25    -9999.25    -9999.25    -9999.25    -9999.25    
82.2        -9999.25    -9999.25    -9999.25    -9999.25    -9999.25    -9999.25    2.222       5.318       13.915      32.481      1.546       40.25       1.923       52.434      3673.633    0.16        0.157       0.154       
82.3        49.715      37.897      30.077      11.726      35.984      26.755      -9999.25    -9999.25    -9999.25    -9999.25    -9999.25    -9999.25    -9999.25    -9999.25    -9999.25    -9999.25    -9999.25    -9999.25    
82.4        -9999.25    -9999.25    -9999.25    -9999.25    -9999.25    -9999.25    2.229       5.029       13.997      33.874      1.525       43.011      1.828       55.634      3688.085    0.163       0.16        0.157       
