~Version Information Section
VERS.                                         2.0:CWLS log ASCII Standart – VERSION 2.0
WRAP.                                          NO:One line per depth step
~Well Information Section
STRT.M                                        0.8:Начальная глубина
STOP.M                                      209.6:Конечная глубина
STEP.M                                          0:Шаг квантования по глубине
NULL.                                    -9999.25:Признак "Нет данных"
WELL.                                         5Мх:Скважина
~Parameter Information Section
~Curve Information Section
DEPTH.M                                          :Глубина
BK.Ohm*M                                         :BK     (БК)
DS.mm                                            :DS  (ДС)
ГК.mcr/h                                         :GK          (ГК)
GZ1.Ohm*M                                        :GZ1   ГЗ1(A0.4M0.1N)
GZ2.Ohm*M                                        :GZ2   ГЗ2(A1.0M0.1N)
GZ3.Ohm*M                                        :GZ3   ГЗ3(A2.0M0.5N)
GZ4.Ohm*M                                        :GZ4   ГЗ4(A4.0M0.5N)
GZ5.Ohm*M                                        :GZ5   ГЗ5(A8.0M0.5N)
GZR.Ohm*M                                        :GZK   ГЗK(N0.5M2.0A)
ИК.Ohm*M                                         :IK
НГК.                                             :NNKb  (ННКб)
NNKM.                                            :NNKm  (ННКм)
PS.mv                                            :PS       (ПС)
PZ.Ohm*M                                         :PZ    (КС)
RS.Ohm*M                                         :RS (Резистивиметр)
W.%                                              :W
ГГК.g/cm3                                        :ГГК
SGDT1.1/min                                      :ПЛ1
SGDT2.1/min                                      :ПЛ2
SGDT3.1/min                                      :ПЛ3
SGDT4.1/min                                      :ПЛ4
~ASCII LOG DATA
# ...
162.0       260.615     151.598     5.536       5.084       7.85        11.014      6.244       26.242      1.362       21.762      5.755       2.96        960.038     47.213      0.829       22.946      2.453       8587.422    16191.875   11703.906   3499.238    
162.2       36.308      161.364     6.348       6.456       9.399       12.094      6.004       26.962      1.306       20.0        4.96        2.937       984.695     35.095      0.828       27.501      2.412       8446.266    16563.809   11853.975   3394.414    
162.4       24.717      159.174     6.357       7.318       12.31       9.394       5.684       26.062      1.362       18.102      4.017       2.546       996.555     17.217      0.825       30.637      2.328       9826.305    17603.906   12162.383   3364.004    
162.6       15.668      161.069     6.609       5.027       12.571      7.774       5.284       24.082      1.474       16.26       3.29        2.231       993.511     9.755       0.822       33.19       2.287       11083.944   17772.031   12201.26    3256.797    
162.8       14.028      163.154     6.21        3.456       11.563      7.054       4.884       22.822      1.567       15.394      3.034       2.061       990.9       7.485       0.822       34.636      2.274       11672.754   17339.219   11742.422   3249.609    
163.0       15.885      165.896     6.076       3.013       11.041      4.534       4.564       17.242      1.661       14.755      2.866       2.016       991.212     7.185       0.819       35.484      2.263       10988.763   17165.586   11673.994   3355.195    
163.2       14.191      167.91      6.522       2.848       10.78       4.174       4.164       16.702      1.735       14.31       2.921       2.034       997.744     7.705       0.816       35.247      2.244       12699.133   17285.586   12135.195   3280.801    
163.4       13.552      170.285     7.091       2.777       10.817      3.814       3.924       16.522      1.773       13.931      2.758       1.981       1005.825    8.545       0.813       36.396      2.24        12528.823   18555.176   12651.191   3400.0      
163.6       13.49       172.032     6.872       2.706       10.855      3.454       3.604       16.162      1.847       13.684      2.744       1.936       1002.246    9.533       0.807       35.852      2.235       12840.012   18720.0     12500.0     3140.0      
163.8       14.322      172.929     6.834       2.65        10.817      3.094       3.524       16.162      1.941       13.676      2.813       1.914       986.068     10.441      0.804       33.997      2.256       12880.0     18340.0     12480.0     3300.0      
164.0       14.622      173.77      6.87        2.617       10.668      3.094       3.364       15.982      1.978       13.719      2.79        1.912       974.39      10.991      0.804       35.245      2.274       12640.033   18400.0     12400.0     3740.0      
164.2       14.454      175.184     6.955       2.613       10.575      3.094       3.284       15.982      2.071       13.676      2.619       1.945       966.295     11.252      0.804       38.114      2.255       11519.987   18660.0     12040.0     3800.0      
164.4       13.964      175.494     6.736       2.643       10.5        3.094       3.124       15.982      2.072       13.692      2.552       1.88        957.425     11.154      0.804       38.111      2.225       13200.03    18460.0     12720.0     3820.0      
164.6       13.9        175.976     6.197       2.654       10.463      3.094       3.044       16.162      2.146       13.628      2.566       1.895       955.666     11.249      0.804       38.364      2.243       13079.973   18460.0     12620.0     3360.0      
164.8       14.093      176.296     6.262       2.639       10.388      3.094       3.044       16.522      2.09        13.708      2.601       1.921       955.053     11.351      0.804       37.883      2.267       12160.0     18440.0     12320.0     3220.0      
165.0       14.689      176.302     6.424       2.624       10.369      3.094       3.044       16.342      2.165       13.779      2.721       1.95        953.835     11.334      0.804       36.891      2.267       11599.976   18660.0     12020.0     3020.0      
165.2       14.791      175.643     6.415       2.635       10.313      2.914       3.044       16.162      2.24        13.844      2.856       1.971       952.109     11.161      0.805       34.998      2.266       12599.97    18720.0     12500.0     3300.0      
165.4       14.355      175.74      6.763       2.669       10.295      2.914       3.044       15.802      2.37        13.895      2.898       1.933       951.774     11.192      0.808       33.731      2.274       12559.973   19000.0     12720.0     3360.0      
165.6       14.355      175.025     7.012       2.666       10.332      2.914       3.044       15.802      2.389       13.865      2.743       1.916       952.869     11.098      0.81        35.393      2.273       11679.994   18960.0     12840.0     3220.0      
165.8       14.454      174.933     6.687       2.669       10.276      2.734       3.044       15.982      2.407       13.894      2.669       1.911       952.67      11.081      0.81        36.173      2.262       12200.0     18080.0     12480.0     3140.0      
166.0       14.125      173.712     6.816       2.658       10.276      2.734       3.044       16.162      2.464       13.842      2.799       1.95        952.526     11.161      0.81        35.086      2.264       11999.991   18260.0     12200.0     3100.0      
166.2       13.583      173.746     6.575       2.662       10.257      2.734       3.124       16.162      2.594       13.877      2.877       1.97        951.855     11.299      0.81        34.212      2.265       12120.021   18420.0     12620.0     3020.0      
166.4       14.723      173.526     6.467       2.65        10.257      2.734       3.204       15.982      2.744       13.952      2.905       1.929       952.233     11.378      0.81        33.294      2.265       12280.03    18400.0     12820.0     3240.0      
166.6       14.388      173.399     6.564       2.639       10.22       2.734       3.204       16.342      2.873       13.972      2.882       1.954       953.017     11.451      0.81        33.94       2.276       12600.0     19160.0     13100.0     3600.0      
166.8       13.772      173.51      6.657       2.658       10.239      2.734       3.204       16.342      3.003       13.964      2.713       1.928       953.478     11.344      0.81        35.815      2.295       12160.0     18700.0     12980.0     3340.0      
167.0       13.772      173.483     6.536       2.65        10.257      2.734       3.204       16.342      3.154       13.919      2.81        1.92        954.531     11.547      0.81        35.163      2.301       12199.967   18460.0     13240.0     3460.0      
167.2       14.454      173.096     6.855       2.62        10.201      2.734       3.204       16.342      3.302       14.06       2.67        1.947       956.647     11.653      0.81        36.706      2.299       12719.973   19620.0     13000.0     3720.0      
167.4       14.421      172.53      6.201       2.639       10.183      2.914       3.204       16.342      3.433       14.121      2.699       1.971       957.337     11.603      0.81        37.289      2.297       13039.979   20380.0     13040.0     3600.0      
167.6       14.421      172.386     6.412       2.647       10.164      3.274       3.204       16.162      3.583       14.196      2.953       1.991       957.268     11.598      0.81        34.018      2.28        12039.951   20120.0     13240.0     3420.0      
167.8       14.894      172.35      7.026       2.617       10.145      3.274       3.204       15.982      3.807       14.27       3.158       2.005       956.977     11.634      0.81        32.519      2.258       12600.0     19560.0     13700.0     3360.0      
168.0       14.928      172.378     7.567       2.643       10.164      3.274       3.204       16.162      4.011       14.31       2.775       1.982       955.64      11.863      0.81        35.405      2.253       12800.019   18740.0     13220.0     3680.0      
