~Version Information Section
VERS.                                         2.0:CWLS log ASCII Standart – VERSION 2.0
WRAP.                                          NO:One line per depth step
~Well Information Section
STRT.M                                        0.6:Начальная глубина
STOP.M                                      191.4:Конечная глубина
STEP.M                                          0:Шаг квантования по глубине
NULL.                                    -9999.25:Признак "Нет данных"
WELL.                                       129Мх:Скважина
~Parameter Information Section
~Curve Information Section
DEPTH.M                                          :Глубина
BK.lgОмм                                         :BK     (БК)
ПРОФ_СР.мм                                       :DS  (ДС)
ГК.имп/мин                                       :GK          (ГК)
ГЗ1.Омм                                          :GZ1   ГЗ1(A0.4M0.1N)
ГЗ2.Омм                                          :GZ2   ГЗ2(A1.0M0.1N)
ГЗ3.Омм                                          :GZ3   ГЗ3(A2.0M0.5N)
ГЗ4.Oмм                                          :GZ4   ГЗ4(A4.0M0.5N)
ГЗ5.Oмм                                          :GZ5   ГЗ5(A8.0M0.5N)
ГЗК.Омм                                          :GZK   ГЗK(N0.5M2.0A)
ИК.мСм/м                                         :IK
НГК.усл.ед                                       :NNKb  (ННКб)
ННКМ.усл.ед                                      :NNKm  (ННКм)
PZ.Омм                                           :PZ    (КС)
РЕЗ.Омм                                          :RS (Резистивиметр)
U1.мВ                                            :U1
U2.mV                                            :U2
U3.мВ                                            :U3
КП.%                                             :Кп
ПС.                                              :ПС
~ASCII LOG DATA
# ...
153.6       19.368      133.935     5.798       10.567      9.385       9.648       26.277      23.178      7.367       11.5        3.232       2.212       21.998      1.12        928.0       1254.686    714.06      30.788      -102.2      
153.7       18.855      134.174     5.718       10.673      9.522       9.587       25.988      23.444      7.392       11.176      3.224       2.195       21.988      1.12        917.334     1261.37     736.031     30.77       -102.04     
153.8       18.236      134.366     5.702       10.764      9.665       9.525       25.48       23.8        7.413       11.207      3.345       2.166       21.954      1.12        909.333     1263.688    729.087     30.988      -101.96     
153.9       17.654      134.818     6.662       10.839      9.809       9.463       24.924      24.2        7.432       11.273      3.428       2.148       21.868      1.12        909.334     1259.32     729.849     31.637      -101.88     
154.0       17.219      138.113     6.662       10.895      9.947       9.402       24.418      24.556      7.45        11.344      3.272       2.134       21.7        1.12        914.666     1254.952    737.553     31.998      -101.76     
154.1       17.193      137.809     6.317       10.937      10.072      9.346       23.977      24.822      7.468       11.442      3.171       2.133       21.424      1.12        914.666     1253.641    737.763     32.589      -101.6      
154.2       17.246      135.483     6.259       10.97       10.183      9.298       23.603      24.956      7.488       11.442      3.192       2.135       21.024      1.12        906.667     1249.214    730.27      33.146      -101.4      
154.3       17.473      135.195     6.144       10.998      10.28       9.259       23.292      25.044      7.51        11.437      3.185       2.14        20.499      1.12        893.333     1239.885    755.124     33.379      -101.24     
154.4       17.513      135.236     6.547       11.03       10.367      9.231       23.031      25.178      7.532       11.469      3.151       2.134       19.858      1.12        885.333     1223.108    787.477     33.485      -101.12     
154.5       17.486      135.964     6.95        11.074      10.449      9.213       22.803      25.444      7.552       11.531      3.097       2.125       19.119      1.12        890.666     1191.064    795.815     33.373      -101.04     
154.6       17.555      136.081     5.91        11.138      10.525      9.207       22.596      25.889      7.567       11.455      3.015       2.105       18.305      1.12        901.334     1158.883    752.563     32.64       -101.0      
154.7       17.801      136.718     5.811       11.221      10.594      9.207       22.401      26.556      7.577       11.526      3.039       2.093       17.44       1.12        909.334     1135.467    709.32      32.101      -101.0      
154.8       18.017      134.523     6.355       11.32       10.647      9.221       22.216      27.444      7.58        11.42       3.112       2.133       16.56       1.12        904.0       1137.031    704.426     31.844      -101.0      
154.9       18.058      135.462     6.371       11.42       10.672      9.259       22.039      28.467      7.58        11.508      3.244       2.153       15.695      1.14        893.333     1149.962    758.503     31.773      -101.0      
155.0       18.2        135.201     6.432       11.503      10.672      9.324       21.865      29.578      7.578       11.376      3.274       2.114       14.882      1.14        885.334     1162.892    812.57      32.497      -101.0      
155.1       18.381      135.236     6.323       11.543      10.658      9.414       21.69       30.733      7.573       11.372      3.212       2.12        14.156      1.14        880.0       1158.431    832.077     32.899      -101.0      
155.2       18.521      135.886     6.106       11.543      10.6        9.52        21.511      31.889      7.565       11.48       3.184       2.167       13.62       1.14        890.666     1147.636    777.479     32.798      -101.04     
155.3       18.215      135.77      6.221       11.527      10.504      9.633       21.329      32.867      7.557       11.48       3.145       2.164       13.406      1.14        898.667     1145.633    715.84      32.802      -101.16     
155.4       18.006      136.47      6.336       11.456      10.378      9.746       21.147      33.578      7.547       11.164      3.126       2.141       13.406      1.14        906.666     1158.364    674.43      32.841      -101.4      
155.5       17.797      135.257     6.256       11.343      10.23       9.855       20.968      33.978      7.537       11.039      3.094       2.111       13.406      1.14        904.0       1171.093    675.09      32.807      -101.8      
155.6       17.797      134.727     6.24        11.201      10.072      9.958       20.799      34.067      7.525       11.068      3.136       2.084       13.406      1.14        898.666     1166.892    692.202     33.029      -102.4      
155.7       17.769      136.965     5.971       11.036      9.912       10.053      20.643      34.067      7.512       11.032      3.178       2.143       13.592      1.14        893.334     1147.047    709.379     33.035      -103.8      
155.8       17.908      135.565     6.112       10.854      9.756       10.136      20.503      33.844      7.491       11.239      3.167       2.185       14.206      1.14        888.0       1127.198    718.868     33.103      -105.96     
155.9       18.115      134.413     6.816       10.665      9.614       10.203      20.379      33.311      7.456       10.936      3.113       2.135       15.216      1.14        879.999     1127.797    717.632     33.548      -108.88     
156.0       18.295      134.89      6.714       10.487      9.493       10.253      20.272      32.6        7.398       10.965      3.01        2.102       16.486      1.14        872.001     1158.942    716.328     33.589      -112.6      
156.1       18.366      136.231     6.509       10.337      9.4         10.285      20.182      31.756      7.327       11.0        3.076       2.102       17.839      1.14        861.333     1205.042    724.707     34.104      -117.08     
156.2       18.493      135.409     6.778       10.232      9.337       10.304      20.111      30.867      7.251       11.176      3.204       2.121       19.175      1.14        856.0       1238.826    734.389     34.838      -121.04     
156.3       18.722      135.346     6.912       10.179      9.299       10.317      20.062      29.933      7.183       10.904      3.135       2.144       20.464      1.14        845.333     1234.479    734.016     35.024      -124.52     
156.4       18.837      134.212     5.968       10.176      9.28        10.336      20.036      29.0        7.134       11.017      3.026       2.136       21.72       1.14        837.333     1193.644    722.368     34.143      -127.44     
156.5       18.88       134.731     5.779       10.176      9.269       10.369      20.034      28.067      7.113       10.809      2.993       2.124       22.968      1.14        832.0       1152.818    710.722     32.906      -129.64     
156.6       18.983      134.581     6.563       10.207      9.26        10.42       20.034      27.178      7.113       10.718      2.993       2.12        24.191      1.14        840.001     1136.249    709.132     31.769      -131.08     
156.7       19.188      135.206     6.72        10.252      9.25        10.489      20.034      26.422      7.113       10.922      3.107       2.133       25.33       1.14        837.334     1147.782    706.982     31.089      -132.4      
156.8       19.29       133.967     6.566       10.298      9.239       10.567      20.002      25.844      7.136       10.749      3.249       2.183       26.301      1.14        829.333     1159.317    704.831     30.716      -133.6      
156.9       19.159      135.725     6.482       10.331      9.224       10.642      19.846      25.444      7.179       10.78       3.408       2.205       27.042      1.14        810.666     1149.913    707.24      30.974      -134.76     
