~Version Information Section
VERS.                                         2.0:CWLS log ASCII Standart – VERSION 2.0
WRAP.                                          NO:One line per depth step
~Well Information Section
STRT.M                                        0.1:Начальная глубина
STOP.M                                      202.9:Конечная глубина
STEP.M                                          0:Шаг квантования по глубине
NULL.                                    -9999.25:Признак "Нет данных"
WELL.                                       155Мх:Скважина
~Parameter Information Section
~Curve Information Section
DEPTH.M                                          :Глубина
BK.Ohm*M                                         :BK     (БК)
DS.mm                                            :DS  (ДС)
GGK.g/cm3                                        :GGKp
ГК.mcr/h                                         :GK          (ГК)
GZ1.Ohm*M                                        :GZ1   ГЗ1(A0.4M0.1N)
GZ2.Ohm*M                                        :GZ2   ГЗ2(A1.0M0.1N)
GZ3.Ohm*M                                        :GZ3   ГЗ3(A2.0M0.5N)
GZ4.Ohm*M                                        :GZ4   ГЗ4(A4.0M0.5N)
GZ5.Ohm*M                                        :GZ5   ГЗ5(A8.0M0.5N)
GZR.                                             :GZR   ГЗK(N0.5M2.0A)
ИК.Ohm*M                                         :IK
НГК.ue                                           :NGK     (НГК)
NNKM.                                            :NNKm  (ННКм)
PS.mv                                            :PS       (ПС)
PZ.Ohm*M                                         :PZ    (КС)
RS.Ohm*M                                         :RS (Резистивиметр)
W.%                                              :W
~ASCII LOG DATA
# ...
170.3       16.235      164.501     2.298       8.871       22.68       14.816      12.107      12.343      3.02        32.798      15.003      0.916       1.13        74.785      19.029      1.206       29.0        
170.4       16.075      164.51      2.3         8.875       22.526      14.617      11.77       11.64       2.914       33.935      15.223      0.906       1.139       75.54       19.198      1.206       28.79       
170.5       16.157      164.526     2.301       8.86        22.467      14.53       11.454      11.015      2.819       35.428      15.463      0.881       1.152       75.922      19.455      1.206       28.811      
170.6       16.423      164.542     2.3         8.808       22.464      14.445      11.079      10.413      2.769       37.116      15.731      0.865       1.155       76.032      19.628      1.206       29.155      
170.7       16.263      164.523     2.296       8.715       22.289      14.188      10.628      9.98        2.737       38.215      16.0        0.878       1.143       76.03       19.848      1.206       29.312      
170.8       16.053      164.58      2.29        8.586       21.997      13.773      10.227      9.595       2.703       40.405      16.355      0.902       1.129       76.032      20.091      1.206       29.254      
170.9       15.921      164.27      2.283       8.465       21.786      13.5        9.827       9.044       2.736       43.812      16.821      0.899       1.124       75.983      20.191      1.206       29.383      
171.0       15.869      163.828     2.275       8.397       21.51       13.206      9.436       8.526       2.953       47.473      17.405      0.866       1.116       75.963      20.354      1.206       29.42       
171.1       15.896      163.762     2.268       8.404       21.295      12.717      9.068       8.164       3.604       53.645      18.011      0.839       1.098       76.183      20.681      1.206       29.559      
171.2       16.258      163.63      2.259       8.473       21.103      12.125      8.993       8.0         4.438       67.662      18.748      0.839       1.095       76.564      21.185      1.206       30.209      
171.3       16.544      162.385     2.244       8.574       20.513      11.112      9.745       8.859       5.273       94.278      19.623      0.858       1.115       76.632      21.652      1.206       31.065      
171.4       16.558      162.007     2.22        8.678       19.256      10.221      11.287      11.333      6.752       127.194     20.806      0.882       1.144       76.029      22.056      1.206       31.726      
171.5       17.047      161.807     2.189       8.762       18.001      12.841      13.356      15.274      8.306       171.388     21.951      0.909       1.157       74.734      23.091      1.206       32.601      
171.6       24.525      161.69      2.152       8.83        18.935      17.479      16.241      20.512      9.854       211.593     23.198      0.93        1.156       73.408      24.237      1.206       33.288      
171.7       54.549      161.577     2.115       8.861       24.56       20.58       19.406      25.981      11.737      241.805     25.041      0.94        1.152       72.267      26.357      1.206       33.37       
171.8       104.016     161.405     2.094       8.822       36.583      23.999      22.347      30.104      12.951      265.57      27.051      0.937       1.132       71.494      30.71       1.206       33.318      
171.9       135.342     161.086     2.097       8.636       52.792      27.942      25.162      31.418      13.749      267.199     29.727      0.932       1.11        71.145      34.666      1.206       32.433      
172.0       158.143     160.954     2.108       8.206       84.551      32.699      27.407      30.989      15.082      254.992     33.585      0.936       1.112       71.465      38.91       1.206       30.833      
172.1       172.556     160.831     2.111       7.55        134.943     39.391      28.511      30.584      15.875      240.875     37.578      0.958       1.134       72.049      50.417      1.219       28.095      
172.2       168.235     160.591     2.101       6.729       170.702     43.158      29.282      30.135      16.016      231.128     41.962      1.008       1.207       71.782      61.317      1.261       25.498      
172.3       155.863     160.427     2.094       5.92        182.62      46.595      30.225      29.718      16.396      220.329     46.077      1.088       1.267       69.944      82.726      1.286       23.276      
172.4       135.828     159.493     2.089       5.234       184.078     58.329      30.701      29.329      16.923      206.338     50.13       1.176       1.354       66.668      126.736     1.308       21.985      
172.5       125.834     159.595     2.086       4.822       180.889     71.792      31.222      29.008      16.803      193.573     53.502      1.26        1.396       62.662      153.589     1.318       20.993      
172.6       124.154     159.656     2.086       4.679       177.924     95.866      31.886      28.872      16.636      183.97      56.098      1.296       1.423       57.906      162.215     1.323       20.984      
172.7       122.827     158.599     2.091       4.736       176.516     140.592     32.716      28.845      17.117      178.268     58.734      1.298       1.416       52.102      170.562     1.322       21.483      
172.8       121.465     155.292     2.101       4.832       175.819     177.676     33.573      28.841      18.211      173.389     60.067      1.281       1.403       45.153      172.803     1.318       21.909      
172.9       119.279     154.3       2.117       4.925       174.357     197.86      34.237      28.86       19.493      168.085     61.989      1.276       1.39        37.934      175.162     1.315       22.431      
173.0       117.406     153.601     2.136       4.988       173.277     209.008     35.117      28.856      21.818      163.189     63.412      1.279       1.363       31.533      177.497     1.314       23.011      
173.1       113.974     153.565     2.156       4.999       171.234     211.998     35.957      28.858      24.599      158.463     64.717      1.274       1.346       26.715      177.991     1.312       23.454      
173.2       109.384     153.668     2.171       4.952       168.619     214.076     36.882      29.076      26.268      154.79      65.313      1.268       1.361       23.355      177.832     1.311       23.588      
173.3       107.087     153.779     2.179       4.866       165.719     214.828     38.568      29.511      32.132      151.751     65.458      1.266       1.392       20.731      176.751     1.309       23.73       
173.4       105.22      153.754     2.179       4.774       162.919     214.021     39.619      29.823      41.439      149.415     66.186      1.269       1.421       18.32       175.076     1.303       23.705      
173.5       105.49      153.861     2.172       4.693       161.474     214.073     41.077      30.021      43.907      145.951     65.92       1.271       1.418       16.121      173.096     1.303       23.453      
173.6       106.697     153.983     2.161       4.647       160.511     213.786     45.516      30.198      43.678      141.17      65.92       1.272       1.383       14.714      171.23      1.301       23.286      
173.7       106.653     153.724     2.152       4.662       160.347     213.334     50.459      30.215      42.341      137.437     66.072      1.27        1.348       14.419      170.436     1.298       23.191      
173.8       108.658     153.18      2.147       4.728       161.757     213.85      62.041      30.047      41.137      133.951     66.397      1.26        1.32        14.961      169.493     1.26        23.173      
173.9       109.21      153.209     2.148       4.812       162.933     212.697     81.15       29.781      39.402      131.076     66.072      1.24        1.329       15.548      168.075     1.295       23.611      
