~Version Information Section
VERS.                                         2.0:CWLS log ASCII Standart – VERSION 2.0
WRAP.                                          NO:One line per depth step
~Well Information Section
STRT.M                                        1.0:Начальная глубина
STOP.M                                      208.3:Конечная глубина
STEP.M                                          0:Шаг квантования по глубине
NULL.                                    -9999.25:Признак "Нет данных"
WELL.                                       131Мх:Скважина
~Parameter Information Section
~Curve Information Section
DEPTH.M                                          :Глубина
БК.Омм                                           :BK     (БК)
DСР.мм                                           :DS  (ДС)
ГК.гамма                                         :GK          (ГК)
А0.4М0.1N.Омм.ohmm                               :GZ1   ГЗ1(A0.4M0.1N)
А1.0М0.1N.Омм.ohmm                               :GZ2   ГЗ2(A1.0M0.1N)
А2.0М0.5N.Омм.ohmm                               :GZ3   ГЗ3(A2.0M0.5N)
А4.0М0.5N.Oмм.ohmm                               :GZ4   ГЗ4(A4.0M0.5N)
А8.0М1.0N.Омм.ohmm                               :GZ5   ГЗ5(A8.0M0.5N)
N0.5M2.0A.Омм.ohmm                               :GZK   ГЗK(N0.5M2.0A)
ИК.мСм/м                                         :IK
НГК.усл.ед                                       :NGK     (НГК)
ПС.mv                                            :PS       (ПС)
П.%                                              :п
PZ.Омм                                           :PZ    (КС)
R.Омм                                            :RS (Резистивиметр)
U1.мВ                                            :U1
U2.mV                                            :U2
U3.мВ                                            :U3
W.г/см3                                          :ГГКп
~ASCII LOG DATA
# ...
28.6        2473.599    136.899     3.929       -9999.25    -9999.25    -9999.25    -9999.25    -9999.25    -9999.25    20.296      3.653       61.354      -7.758      18.182      1.12        1779.042    1753.615    1749.228    2.41        
28.65       -9999.25    -9999.25    -9999.25    22.282      11.595      18.152      9.286       0.746       27.232      -9999.25    -9999.25    -9999.25    -9999.25    -9999.25    -9999.25    -9999.25    -9999.25    -9999.25    -9999.25    
28.7        1978.642    136.821     3.719       -9999.25    -9999.25    -9999.25    -9999.25    -9999.25    -9999.25    21.888      2.55        52.243      -7.554      18.182      1.12        1779.042    1749.945    1711.06     2.36        
28.75       -9999.25    -9999.25    -9999.25    23.532      12.331      19.897      14.65       1.183       27.232      -9999.25    -9999.25    -9999.25    -9999.25    -9999.25    -9999.25    -9999.25    -9999.25    -9999.25    -9999.25    
28.8        561.24      136.786     3.804       -9999.25    -9999.25    -9999.25    -9999.25    -9999.25    -9999.25    23.534      1.733       44.391      -7.466      18.182      1.12        1818.186    1744.629    1623.796    2.332       
28.85       -9999.25    -9999.25    -9999.25    25.599      14.021      22.57       21.632      1.839       27.232      -9999.25    -9999.25    -9999.25    -9999.25    -9999.25    -9999.25    -9999.25    -9999.25    -9999.25    -9999.25    
28.9        99.657      136.814     4.007       -9999.25    -9999.25    -9999.25    -9999.25    -9999.25    -9999.25    24.956      1.433       37.785      -7.957      18.241      1.12        1904.295    1744.629    1623.796    2.291       
28.95       -9999.25    -9999.25    -9999.25    29.564      17.005      26.495      29.832      2.59        27.232      -9999.25    -9999.25    -9999.25    -9999.25    -9999.25    -9999.25    -9999.25    -9999.25    -9999.25    -9999.25    
29.0        112.512     136.921     3.935       -9999.25    -9999.25    -9999.25    -9999.25    -9999.25    -9999.25    26.009      1.333       32.398      -8.655      18.425      1.12        1907.222    1751.454    1631.047    2.271       
29.05       -9999.25    -9999.25    -9999.25    49.128      21.334      31.446      38.625      3.326       27.719      -9999.25    -9999.25    -9999.25    -9999.25    -9999.25    -9999.25    -9999.25    -9999.25    -9999.25    -9999.25    
29.1        493.13      137.447     3.855       -9999.25    -9999.25    -9999.25    -9999.25    -9999.25    -9999.25    26.952      1.311       28.264      -8.663      18.62       1.12        1907.222    1790.87     1705.307    2.273       
29.15       -9999.25    -9999.25    -9999.25    70.485      27.314      36.562      47.251      4.023       28.965      -9999.25    -9999.25    -9999.25    -9999.25    -9999.25    -9999.25    -9999.25    -9999.25    -9999.25    -9999.25    
29.2        1043.019    136.902     3.855       -9999.25    -9999.25    -9999.25    -9999.25    -9999.25    -9999.25    28.154      1.364       25.317      -8.388      18.791      1.12        1982.506    1850.735    1752.06     2.292       
29.25       -9999.25    -9999.25    -9999.25    93.64       34.544      41.603      55.593      4.628       30.699      -9999.25    -9999.25    -9999.25    -9999.25    -9999.25    -9999.25    -9999.25    -9999.25    -9999.25    -9999.25    
29.3        1068.162    136.394     3.823       -9999.25    -9999.25    -9999.25    -9999.25    -9999.25    -9999.25    29.604      1.466       23.486      -6.829      19.213      1.12        2022.762    1854.885    1720.595    2.251       
29.35       -9999.25    -9999.25    -9999.25    116.886     42.886      46.265      63.486      5.104       32.402      -9999.25    -9999.25    -9999.25    -9999.25    -9999.25    -9999.25    -9999.25    -9999.25    -9999.25    -9999.25    
29.4        1340.088    136.246     3.539       -9999.25    -9999.25    -9999.25    -9999.25    -9999.25    -9999.25    31.19       1.6         22.687      -4.938      20.15       1.12        2027.99     1854.885    1720.595    2.23        
29.45       -9999.25    -9999.25    -9999.25    138.412     52.777      50.593      71.819      5.488       34.152      -9999.25    -9999.25    -9999.25    -9999.25    -9999.25    -9999.25    -9999.25    -9999.25    -9999.25    -9999.25    
29.5        2754.296    136.199     3.38        -9999.25    -9999.25    -9999.25    -9999.25    -9999.25    -9999.25    32.876      1.721       22.523      -2.846      21.697      1.12        2043.26     1877.647    1749.913    2.23        
29.55       -9999.25    -9999.25    -9999.25    144.4       66.56       55.026      79.894      5.795       36.145      -9999.25    -9999.25    -9999.25    -9999.25    -9999.25    -9999.25    -9999.25    -9999.25    -9999.25    -9999.25    
29.6        3606.483    136.254     3.236       -9999.25    -9999.25    -9999.25    -9999.25    -9999.25    -9999.25    34.612      1.847       22.523      -0.077      25.338      1.12        2051.783    1865.505    1720.249    2.228       
29.65       -9999.25    -9999.25    -9999.25    148.6       87.764      59.918      89.593      6.034       38.739      -9999.25    -9999.25    -9999.25    -9999.25    -9999.25    -9999.25    -9999.25    -9999.25    -9999.25    -9999.25    
29.7        3617.331    136.186     3.119       -9999.25    -9999.25    -9999.25    -9999.25    -9999.25    -9999.25    36.1        1.945       22.659      2.935       31.596      1.12        2025.723    1831.618    1679.414    2.262       
29.75       -9999.25    -9999.25    -9999.25    150.8       107.324     65.535      100.18      6.145       42.056      -9999.25    -9999.25    -9999.25    -9999.25    -9999.25    -9999.25    -9999.25    -9999.25    -9999.25    -9999.25    
29.8        3986.579    136.165     2.853       -9999.25    -9999.25    -9999.25    -9999.25    -9999.25    -9999.25    37.057      2.005       23.347      6.571       41.306      1.12        1976.361    1792.845    1649.252    2.312       
29.85       -9999.25    -9999.25    -9999.25    151.8       124.803     72.335      109.793     6.145       45.209      -9999.25    -9999.25    -9999.25    -9999.25    -9999.25    -9999.25    -9999.25    -9999.25    -9999.25    -9999.25    
29.9        5104.8      136.218     2.767       -9999.25    -9999.25    -9999.25    -9999.25    -9999.25    -9999.25    37.266      2.007       25.009      9.917       54.806      1.12        1898.048    1756.522    1648.979    2.302       
29.95       -9999.25    -9999.25    -9999.25    152.8       139.239     79.57       114.869     6.131       46.765      -9999.25    -9999.25    -9999.25    -9999.25    -9999.25    -9999.25    -9999.25    -9999.25    -9999.25    -9999.25    
30.0        7348.507    136.417     2.74        -9999.25    -9999.25    -9999.25    -9999.25    -9999.25    -9999.25    36.547      1.948       27.815      12.536      72.812      1.12        1880.445    1752.334    1648.979    2.305       
30.05       -9999.25    -9999.25    -9999.25    153.6       148.2       84.992      114.869     5.974       46.765      -9999.25    -9999.25    -9999.25    -9999.25    -9999.25    -9999.25    -9999.25    -9999.25    -9999.25    -9999.25    
30.1        8026.451    136.313     2.713       -9999.25    -9999.25    -9999.25    -9999.25    -9999.25    -9999.25    35.156      1.85        31.737      14.773      92.413      1.12        1880.445    1752.334    1642.191    2.318       
30.15       -9999.25    -9999.25    -9999.25    154.2       148.2       86.69       114.869     5.578       46.765      -9999.25    -9999.25    -9999.25    -9999.25    -9999.25    -9999.25    -9999.25    -9999.25    -9999.25    -9999.25    
30.2        7218.091    136.183     2.623       -9999.25    -9999.25    -9999.25    -9999.25    -9999.25    -9999.25    33.591      1.806       36.549      15.692      112.157     1.12        1952.503    1777.826    1642.191    2.314       
30.25       -9999.25    -9999.25    -9999.25    154.4       148.2       86.69       114.242     4.958       45.756      -9999.25    -9999.25    -9999.25    -9999.25    -9999.25    -9999.25    -9999.25    -9999.25    -9999.25    -9999.25    
