~Version Information Section
VERS.                                         2.0:CWLS log ASCII Standart – VERSION 2.0
WRAP.                                          NO:One line per depth step
~Well Information Section
STRT.M                                        1.2:Начальная глубина
STOP.M                                      208.4:Конечная глубина
STEP.M                                          0:Шаг квантования по глубине
NULL.                                    -9999.25:Признак "Нет данных"
WELL.                                       109Мх:Скважина
~Parameter Information Section
~Curve Information Section
DEPTH.M                                          :Глубина
BK.Ohm*M                                         :BK     (БК)
DS.mm                                            :DS  (ДС)
GGK.g/cm3                                        :GGKp
ГК.mcr/h                                         :GK          (ГК)
GZ1.Ohm*M                                        :GZ1   ГЗ1(A0.4M0.1N)
GZ2.Ohm*M                                        :GZ2   ГЗ2(A1.0M0.1N)
GZ3.Ohm*M                                        :GZ3   ГЗ3(A2.0M0.5N)
GZ4.Ohm*M                                        :GZ4   ГЗ4(A4.0M0.5N)
GZ5.Ohm*M                                        :GZ5   ГЗ5(A8.0M0.5N)
GZR.Ohm*M                                        :GZK   ГЗK(N0.5M2.0A)
ИК.Ohm*M                                         :IK
НГК.u.e.                                         :NGK
NNKM.                                            :NNKm  (ННКм)
U1.mV                                            :U1
U2.mV                                            :U2
U3.mV                                            :U3
КП.%                                             :Кп
PS.mv                                            :PS       (ПС)
PZ.Ohm*M                                         :PZ    (КС)
RS.Ohm*M                                         :RS (Резистивиметр)
~ASCII LOG DATA
# ...
151.6       25.293      135.443     2.202       6.49        89.43       34.914      49.382      15.383      15.87       39.96       9.664       1.081       1.864       808.29      499.173     433.015     26.8        1072.966    26.715      1.026       
151.7       25.293      134.176     2.244       6.293       89.43       34.914      48.942      15.383      15.87       39.96       9.664       1.108       1.882       866.123     604.475     558.701     28.899      1072.966    25.922      1.026       
151.8       25.763      134.175     2.272       6.203       89.43       34.914      48.502      15.383      15.73       39.96       9.733       1.117       1.901       908.849     687.787     660.793     30.766      1072.966    25.057      1.026       
151.9       26.182      134.273     2.287       6.322       89.43       33.874      48.062      15.263      15.59       39.96       9.774       1.078       1.926       795.234     619.712     624.876     30.959      1072.966    24.192      1.026       
152.0       26.182      134.667     2.283       6.405       89.43       33.354      48.062      15.143      15.45       39.96       9.801       1.049       1.961       668.93      510.534     532.656     30.602      1072.966    23.255      1.026       
152.1       27.04       134.418     2.288       6.574       89.01       32.314      47.622      15.143      15.31       39.96       9.801       1.048       1.96        714.074     524.549     525.058     30.516      1072.966    22.317      1.026       
152.2       27.353      134.494     2.304       6.645       89.01       31.794      47.622      14.903      15.03       39.96       9.829       1.049       1.946       914.785     660.118     609.854     30.661      1072.966    21.308      1.026       
152.3       27.353      134.915     2.309       6.772       89.01       30.754      47.622      14.903      15.03       39.96       9.843       1.064       1.936       1052.8      771.099     697.408     30.902      1072.966    20.37       1.026       
152.4       26.915      135.004     2.299       6.895       89.01       30.234      47.622      14.903      14.75       39.96       9.843       1.124       1.926       1062.086    808.615     755.122     31.238      1072.966    19.505      1.026       
152.5       25.468      134.479     2.306       6.712       89.01       29.714      47.622      14.783      14.75       38.92       9.829       1.187       1.908       898.718     720.646     737.106     32.046      1072.966    18.712      1.026       
152.6       25.468      134.122     2.306       6.166       89.01       29.714      47.622      14.543      14.47       38.92       9.858       1.203       1.876       645.19      546.722     650.018     32.723      1072.966    17.847      1.026       
152.7       23.988      134.935     2.359       6.021       89.01       29.714      47.622      14.423      14.47       37.88       9.829       1.172       1.863       417.77      369.877     532.462     32.334      1072.966    17.054      1.026       
152.8       20.893      134.332     2.325       6.397       88.59       29.714      47.182      14.423      14.33       36.84       9.829       1.118       1.896       306.087     270.02      442.046     31.394      1072.966    16.261      1.026       
152.9       21.777      135.115     2.329       6.897       87.75       29.714      47.182      14.303      14.19       35.8        9.829       1.079       1.922       338.647     267.167     397.884     29.706      1072.966    15.612      1.026       
153.0       21.777      134.529     2.281       6.901       87.33       30.234      47.182      14.183      13.91       34.76       9.871       1.066       1.919       440.002     306.809     378.96      28.947      1072.966    15.107      1.026       
153.1       21.777      134.441     2.278       6.713       86.91       30.234      46.302      13.943      13.91       34.76       9.871       1.09        1.916       571.298     365.675     376.505     29.049      1072.966    14.746      1.026       
153.2       23.335      135.2       2.297       6.671       86.91       30.754      46.302      13.583      13.77       34.76       9.871       1.108       1.883       650.586     403.894     377.404     30.134      1072.966    14.386      1.026       
153.3       22.856      134.841     2.292       6.771       86.91       31.274      46.302      13.463      13.63       34.76       9.914       1.123       1.849       661.287     417.407     387.018     30.822      1072.966    14.17       1.026       
153.4       24.946      135.508     2.297       6.902       86.91       31.794      46.302      13.463      13.63       34.76       9.914       1.166       1.881       626.205     433.601     441.193     30.398      1072.966    14.237      1.026       
153.5       24.946      134.843     2.258       6.951       86.91       31.794      46.302      13.343      13.49       34.76       9.943       1.197       1.921       609.541     479.428     538.839     29.819      1072.966    14.381      1.026       
153.6       25.41       135.567     2.265       7.021       86.91       31.794      46.302      13.223      13.35       34.76       9.957       1.224       1.926       675.483     559.639     631.838     29.708      1072.966    14.523      1.026       
153.7       24.774      134.973     2.267       6.536       86.91       31.794      46.302      13.223      13.21       34.76       9.957       1.163       1.919       790.465     632.033     669.839     30.624      1072.966    14.818      1.026       
153.8       25.119      134.196     2.301       6.226       86.91       31.794      46.302      13.223      13.21       34.76       9.942       1.149       1.909       789.191     601.529     631.99      32.77       1072.966    15.18       1.026       
153.9       25.235      134.545     2.316       5.854       86.91       32.314      46.302      13.223      13.21       34.76       9.942       1.101       1.895       612.719     465.682     564.17      34.021      1072.966    15.539      1.026       
154.0       25.235      135.262     2.331       6.094       86.91       32.834      46.742      13.223      13.21       34.76       9.942       1.109       1.899       418.088     344.596     529.003     32.484      1072.966    15.896      1.026       
154.1       24.491      133.838     2.3         6.201       87.33       33.354      47.622      14.063      13.21       34.76       9.957       1.134       1.929       386.582     350.445     559.564     29.561      1072.958    16.171      1.026       
154.2       24.491      134.402     2.302       6.196       87.33       33.354      48.062      14.183      13.49       34.76       9.957       1.186       1.946       511.305     466.184     634.423     27.006      1072.941    16.376      1.026       
154.3       24.266      133.145     2.301       6.156       87.75       33.354      48.502      14.303      13.49       34.76       9.957       1.189       1.945       613.529     530.979     640.857     26.465      1072.916    16.595      1.026       
154.4       24.774      131.531     2.317       6.13        87.75       33.354      48.502      14.303      13.63       34.76       9.914       1.124       1.944       662.563     528.552     582.522     26.831      1072.882    16.811      1.026       
154.5       25.351      130.832     2.313       6.555       88.17       33.354      48.942      14.303      13.91       34.76       9.928       1.075       1.934       717.101     564.826     602.898     27.877      1072.84     16.845      1.026       
154.6       24.044      130.72      2.306       6.776       88.17       32.834      49.382      14.303      14.47       34.76       9.928       1.044       1.924       804.357     686.47      755.045     28.855      1072.79     16.935      1.026       
154.7       24.491      130.677     2.29        6.763       88.59       31.794      49.382      14.303      14.47       34.76       9.885       1.087       1.914       803.896     736.024     846.681     29.008      1072.723    17.067      1.026       
