~Version Information Section
VERS.                                         2.0:CWLS log ASCII Standart – VERSION 2.0
WRAP.                                          NO:One line per depth step
~Well Information Section
STRT.M                                        0.6:Начальная глубина
STOP.M                                      191.4:Конечная глубина
STEP.M                                          0:Шаг квантования по глубине
NULL.                                    -9999.25:Признак "Нет данных"
WELL.                                       129Мх:Скважина
~Parameter Information Section
~Curve Information Section
DEPTH.M                                          :Глубина
BK.lgОмм                                         :BK     (БК)
ПРОФ_СР.мм                                       :DS  (ДС)
ГК.имп/мин                                       :GK          (ГК)
ГЗ1.Омм                                          :GZ1   ГЗ1(A0.4M0.1N)
ГЗ2.Омм                                          :GZ2   ГЗ2(A1.0M0.1N)
ГЗ3.Омм                                          :GZ3   ГЗ3(A2.0M0.5N)
ГЗ4.Oмм                                          :GZ4   ГЗ4(A4.0M0.5N)
ГЗ5.Oмм                                          :GZ5   ГЗ5(A8.0M0.5N)
ГЗК.Омм                                          :GZK   ГЗK(N0.5M2.0A)
ИК.мСм/м                                         :IK
НГК.усл.ед                                       :NNKb  (ННКб)
ННКМ.усл.ед                                      :NNKm  (ННКм)
PZ.Омм                                           :PZ    (КС)
РЕЗ.Омм                                          :RS (Резистивиметр)
U1.мВ                                            :U1
U2.mV                                            :U2
U3.мВ                                            :U3
КП.%                                             :Кп
ПС.                                              :ПС
~ASCII LOG DATA
# ...
163.8       158.132     120.246     4.032       49.239      53.784      11.013      15.626      31.4        76.453      21.587      5.945       2.832       48.199      1.14        1248.0      1573.333    872.0       18.326      -149.0      
163.9       168.384     120.335     3.814       56.493      61.035      11.504      17.436      32.244      75.207      22.363      6.381       2.963       52.626      1.14        1261.333    1576.001    869.332     18.158      -149.04     
164.0       179.573     120.566     3.706       63.216      67.897      11.922      19.173      34.022      74.275      23.391      6.394       3.048       56.548      1.14        1261.333    1570.667    856.0       18.081      -149.12     
164.1       177.316     120.336     3.206       69.031      74.048      12.278      20.739      37.222      73.628      24.083      6.463       3.072       59.877      1.14        1285.335    1600.001    861.334     17.941      -149.28     
164.2       163.813     120.676     3.426       73.581      79.171      12.592      22.057      41.978      73.286      24.817      6.627       3.061       62.614      1.14        1314.665    1584.0      877.332     17.975      -149.56     
164.3       149.91      120.793     3.974       76.529      83.021      12.886      23.083      48.022      73.286      26.323      6.647       3.034       64.813      1.14        1312.0      1586.667    890.667     18.198      -150.0      
164.4       144.995     120.345     3.811       77.813      85.47       13.176      23.792      54.867      73.311      26.777      6.53        3.038       66.556      1.14        1290.665    1557.334    901.334     18.116      -150.56     
164.5       141.006     121.034     3.648       77.813      86.596      13.476      24.189      61.978      73.742      27.267      6.536       3.067       67.949      1.14        1261.333    1567.999    898.667     17.846      -151.24     
164.6       132.159     120.991     3.424       77.63       86.657      13.799      24.298      68.911      74.582      27.877      6.567       3.074       69.116      1.14        1258.667    1573.333    895.999     17.837      -151.96     
164.7       121.157     120.945     3.379       76.526      86.657      14.168      24.298      75.133      75.8        27.945      6.42        3.07        70.189      1.14        1274.665    1586.666    893.333     17.821      -152.64     
164.8       113.954     120.991     3.187       74.982      86.08       14.629      24.176      80.467      77.366      28.531      6.314       3.057       71.276      1.14        1288.0      1589.333    904.0       17.731      -153.2      
164.9       110.532     121.125     3.258       73.317      85.218      15.274      23.897      84.689      79.241      28.732      6.488       3.033       72.435      1.14        1301.333    1591.999    920.001     17.821      -153.6      
165.0       108.685     121.298     3.61        71.632      84.318      16.25       23.525      87.8        81.351      29.071      6.581       3.001       73.658      1.14        1296.0      1589.333    925.333     17.929      -153.84     
165.1       106.578     122.322     3.61        70.003      83.501      17.726      23.104      89.667      83.585      29.42       6.5         2.982       74.887      1.14        1287.999    1592.001    917.332     18.066      -153.96     
165.2       106.172     122.749     3.61        68.522      82.903      19.855      22.654      90.6        85.823      29.927      6.444       2.987       76.041      1.14        1274.668    1613.332    901.334     18.539      -154.0      
165.3       104.572     122.761     3.802       67.288      82.674      22.715      22.197      90.911      87.982      30.148      6.388       2.995       77.055      1.14        1253.333    1602.667    885.333     18.634      -154.0      
165.4       101.146     123.093     3.84        66.421      82.674      26.308      21.757      91.0        90.057      31.068      6.383       3.002       77.895      1.14        1266.668    1597.332    877.333     18.42       -154.0      
165.5       96.481      123.15      3.648       66.032      82.973      30.552      21.364      91.0        92.13       31.145      6.345       3.002       78.561      1.14        1282.665    1570.667    874.666     19.0        -154.0      
165.6       93.21       123.235     3.642       66.032      83.885      35.325      21.053      90.956      94.339      31.068      6.096       2.999       79.072      1.14        1328.001    1559.999    877.334     19.597      -154.0      
165.7       92.915      122.121     3.61        66.207      85.413      40.484      20.868      90.778      96.818      31.154      5.855       2.971       79.449      1.14        1338.666    1552.0      872.001     20.776      -154.0      
165.8       94.791      122.238     3.706       66.931      87.481      45.887      20.852      90.333      99.624      30.681      6.053       2.935       79.709      1.14        1349.333    1552.0      869.333     22.418      -153.96     
165.9       96.459      121.918     3.898       68.126      89.929      51.386      20.852      89.533      102.722     30.764      5.911       2.91        79.87       1.14        1333.333    1565.334    872.001     25.159      -153.84     
166.0       98.501      121.521     3.219       69.701      92.516      56.809      21.045      88.333      105.996     30.764      5.201       2.872       79.954      1.14        1320.001    1568.0      887.999     27.232      -153.64     
166.1       103.972     121.408     2.88        71.616      94.946      61.989      21.49       86.822      109.325     30.074      4.84        2.835       79.988      1.14        1309.333    1565.333    914.668     29.126      -153.36     
166.2       111.604     121.695     3.12        73.883      96.994      66.792      22.244      85.133      112.613     30.074      4.284       2.727       80.003      1.14        1304.0      1568.0      938.665     30.644      -152.92     
166.3       117.713     122.133     3.168       76.509      98.562      71.152      23.347      83.489      115.784     29.704      4.148       2.621       80.035      1.14        1304.0      1568.0      962.667     32.135      -152.4      
166.4       119.22      122.207     3.533       79.461      99.686      75.053      24.778      82.022      118.732     29.338      3.949       2.557       80.14       1.14        1304.0      1565.332    978.668     31.961      -151.8      
166.5       123.381     121.7       3.501       82.597      100.448     78.508      26.435      80.867      121.334     28.227      4.017       2.516       80.402      1.14        1311.999    1552.001    984.0       31.575      -151.12     
166.6       128.468     121.555     3.437       85.69       100.951     81.518      28.198      80.022      123.499     27.692      4.081       2.542       80.91       1.14        1330.668    1554.667    986.666     30.148      -150.32     
166.7       128.468     122.364     3.375       88.478      101.236     84.056      29.986      79.489      125.215     26.443      4.096       2.582       81.715      1.14        1341.333    1567.999    984.0       28.509      -149.52     
166.8       127.762     122.371     3.283       90.747      101.386     86.075      31.807      79.178      126.556     25.419      4.234       2.624       82.792      1.14        1344.0      1576.0      992.0       27.092      -148.68     
166.9       140.754     121.61      3.306       92.407      101.455     87.513      33.703      79.044      127.68      24.348      4.567       2.743       84.025      1.14        1336.0      1567.999    997.334     26.856      -147.92     
167.0       167.701     121.429     3.322       93.504      101.575     88.317      35.722      79.0        128.798     23.515      4.699       2.857       85.249      1.14        1338.667    1573.333    1000.0      27.015      -147.2      
167.1       177.459     121.691     3.349       94.179      101.917     88.477      37.823      79.0        130.116     23.598      4.82        2.894       86.301      1.14        1349.334    1586.668    1002.667    28.155      -146.6      
