~Version Information Section
VERS.                                         2.0:CWLS log ASCII Standart – VERSION 2.0
WRAP.                                          NO:One line per depth step
~Well Information Section
STRT.M                                        0.0:Начальная глубина
STOP.M                                      166.2:Конечная глубина
STEP.M                                          0:Шаг квантования по глубине
NULL.                                    -9999.25:Признак "Нет данных"
WELL.                                         1Мх:Скважина
~Parameter Information Section
~Curve Information Section
DEPTH.M                                          :Глубина
BK.lgОмм                                         :BK
ПРОФ_СР.мм                                       :ПРОФ_СР
GGKP.имп/мин                                     :GGKp
ГК.мкР/час                                       :GK
ИК.мСм/м                                         :IK
PS.мВ                                            :PS
PZ.Омм                                           :PZ
RIS.Омм                                          :RIS
U1.мВ                                            :U1
U2.мВ                                            :U2
U3.mv                                            :U3
WS.%                                             :WS
ГЗ1.Омм                                          :ГЗ1
ГЗ2.Омм                                          :ГЗ2
ГЗ3.Омм                                          :ГЗ3
ГЗ4.Oмм                                          :ГЗ4
ГЗК.Омм                                          :ГЗК
НГК.усл.ед                                       :ННКб
ННКМ.усл.ед                                      :ННКм
ГЗ5.Oмм                                          :ГЗ5
ПЛ1.имп/мин                                      :ПЛ1
ПЛ2.имп/мин                                      :ПЛ2
ПЛ3.имп/мин                                      :ПЛ3
ПЛ4.имп/мин                                      :ПЛ4
~ASCII LOG DATA
# ...
16.2        -9999.25    158.173     2.149       4.542       -9999.25    58.828      29.06       1.147       787.836     474.892     422.236     33.99       4.418       7.829       6.877       7.225       7.219       2.941       2.0         5.671       24120.0     24520.0     16860.0     4360.0      
16.3        -9999.25    158.59      2.148       4.604       -9999.25    55.786      28.479      1.147       703.597     515.656     570.014     33.726      4.408       7.853       6.877       7.225       7.219       2.969       2.006       5.671       18240.0     23860.0     16520.0     4260.0      
16.4        -9999.25    158.343     2.159       4.701       -9999.25    52.433      27.923      1.147       704.802     596.781     709.961     33.576      4.324       7.829       6.877       7.225       7.219       2.961       2.025       5.671       17760.0     23600.0     15939.999   4160.0      
16.5        -9999.25    157.851     2.16        4.954       -9999.25    48.946      27.675      1.136       791.454     718.268     842.077     33.46       4.157       7.805       6.877       7.225       7.219       2.91        2.031       5.671       13680.0     23780.0     15920.001   4120.0      
16.6        -9999.25    157.84      2.164       5.083       -9999.25    45.573      27.548      1.136       889.113     789.199     899.633     33.536      3.909       7.66        6.877       7.225       7.219       2.876       2.023       5.671       13560.0     24220.0     15560.001   4100.0      
16.7        -9999.25    158.181     2.153       5.191       -9999.25    42.613      27.544      1.136       1104.094    853.868     800.98      33.799      3.943       7.732       6.977       7.225       7.219       2.888       2.009       5.671       15120.0     24920.0     15860.001   4060.0      
16.8        -9999.25    158.573     2.144       5.211       -9999.25    40.231      27.522      1.136       1236.953    884.799     721.996     34.075      3.925       7.757       7.077       7.125       7.219       2.922       2.0         5.671       15720.0     24720.0     16480.0     4220.0      
16.9        -9999.25    157.87      2.128       5.003       -9999.25    38.418      27.495      1.136       1287.685    881.989     662.684     34.613      3.833       7.757       7.077       7.125       7.219       2.924       2.002       5.771       17880.0     24740.0     16299.999   4340.0      
17.0        -9999.25    157.633     2.112       4.732       -9999.25    37.141      27.282      1.136       1256.292    845.441     623.043     35.409      3.664       7.708       7.077       6.925       7.219       2.872       2.004       5.771       15840.0     24600.0     16660.0     4300.0      
17.1        -9999.25    158.241     2.101       4.662       -9999.25    36.409      27.168      1.136       1165.962    834.708     686.78      36.199      3.456       7.587       7.077       6.925       7.219       2.792       1.995       5.771       18960.0     23860.0     16780.0     4260.0      
17.2        -9999.25    158.121     2.089       4.682       -9999.25    36.189      26.935      1.136       1016.7      849.79      853.888     36.619      4.804       7.611       7.077       6.925       7.219       2.686       1.974       5.771       18720.0     22820.0     15840.0     4180.0      
17.3        -9999.25    158.24      2.085       4.55        -9999.25    36.456      26.707      1.136       942.828     868.079     951.867     36.888      4.804       7.684       7.077       6.925       7.219       2.585       1.947       5.771       16800.0     22700.0     15040.0     4080.0      
17.4        -9999.25    157.617     2.095       4.489       -9999.25    37.091      26.338      1.126       944.35      889.576     980.711     37.019      4.804       7.805       7.077       6.925       7.219       2.54        1.925       5.671       16080.0     22240.0     14880.0     3980.0      
17.5        -9999.25    157.104     2.105       4.534       -9999.25    38.04       25.871      1.126       1007.842    914.497     981.38      36.883      4.204       7.974       7.077       6.925       7.219       2.564       1.909       5.571       15600.0     21740.0     14160.0     3800.0      
17.6        -9999.25    156.924     2.113       4.485       -9999.25    39.301      25.476      1.126       1184.551    974.205     936.897     36.912      3.904       7.926       7.077       6.925       7.119       2.647       1.904       5.471       15960.0     21740.0     14280.0     3980.0      
17.7        -9999.25    156.333     2.112       4.459       -9999.25    40.755      25.194      1.126       1378.857    1012.613    819.081     36.857      3.604       8.078       7.077       6.825       7.119       2.708       1.916       5.371       14400.0     21720.0     14420.0     4100.0      
17.8        47.57       157.075     2.126       4.437       -9999.25    42.194      24.897      1.126       1464.129    995.157     714.038     36.438      3.604       8.078       6.877       6.825       7.119       2.714       1.936       5.371       14400.0     21580.0     14580.0     4140.0      
17.9        47.79       157.743     2.143       4.555       -9999.25    43.537      24.589      1.126       1440.36     921.835     621.769     36.097      3.304       8.078       6.777       6.725       7.019       2.675       1.955       5.371       16080.0     22200.0     15500.001   4640.0      
18.0        46.46       158.34      2.173       4.566       -9999.25    44.61       24.266      1.126       1432.647    856.89      540.417     35.25       3.004       8.078       6.777       6.625       7.019       2.654       1.952       5.371       14040.0     22900.0     16080.0     4940.0      
18.1        45.92       158.25      2.207       4.435       -9999.25    45.33       24.159      1.126       1440.992    800.322     469.982     34.51       2.704       7.778       6.777       6.625       6.919       2.723       1.93        5.271       13560.0     23240.0     16119.999   4920.0      
18.2        48.295      157.88      2.228       4.192       -9999.25    45.636      24.3        1.126       1442.274    781.858     449.008     33.806      2.704       7.778       6.677       6.525       6.919       2.889       1.928       5.271       15960.0     24200.0     16980.0     4880.0      
18.3        52.794      158.752     2.258       4.04        -9999.25    45.453      24.4        1.126       1436.498    801.497     477.494     32.663      3.171       7.778       6.577       6.425       6.919       3.082       1.966       5.171       16080.0     25120.0     17580.0     4940.0      
18.4        54.905      159.716     2.287       3.772       -9999.25    44.855      24.515      1.126       1577.032    838.495     492.468     31.629      2.997       7.778       6.477       6.325       6.919       3.256       2.049       5.071       16680.0     25080.0     17160.0     4500.0      
18.5        53.637      159.697     2.303       3.606       -9999.25    43.997      24.619      1.126       1752.207    828.392     454.828     31.429      2.903       7.778       6.377       6.325       6.819       3.316       2.129       5.071       18720.0     24940.0     17140.0     4600.0      
18.6        51.371      159.17      2.299       3.526       -9999.25    43.074      24.705      1.126       1739.48     774.12      421.296     31.545      2.745       7.478       6.377       6.225       6.819       3.315       2.164       4.971       17040.0     24880.0     16980.0     4600.0      
18.7        50.509      158.711     2.266       3.713       -9999.25    42.194      24.747      1.126       1657.584    702.038     381.513     32.134      2.6         7.478       6.177       6.125       6.719       3.261       2.158       4.871       20280.0     25100.0     16720.0     4660.0      
18.8        49.89       159.036     2.239       4.054       -9999.25    41.466      24.546      1.126       1506.521    612.142     335.476     32.534      2.649       7.178       6.177       6.025       6.619       3.209       2.133       4.771       20400.0     24840.0     16359.999   4640.0      
