~Version Information Section
VERS.                                         2.0:CWLS log ASCII Standart – VERSION 2.0
WRAP.                                          NO:One line per depth step
~Well Information Section
STRT.M                                        0.6:Начальная глубина
STOP.M                                      208.2:Конечная глубина
STEP.M                                          0:Шаг квантования по глубине
NULL.                                    -9999.25:Признак "Нет данных"
WELL.                                       156Мх:Скважина
~Parameter Information Section
~Curve Information Section
DEPTH.M                                          :Глубина
БК.Ом                                            :BK     (БК)
DСР.мм                                           :DS  (ДС)
ПЛОТНОСТЬ.г/см^3                                 :GGKp
ГК.мкР/час                                       :GK          (ГК)
А0.4М0.1N.Ом                                     :GZ1   ГЗ1(A0.4M0.1N)
А1.0М0.1N.Ом                                     :GZ2   ГЗ2(A1.0M0.1N)
А2.0М0.5N.Ом                                     :GZ3   ГЗ3(A2.0M0.5N)
А4.0М0.5N.Oм                                     :GZ4   ГЗ4(A4.0M0.5N)
А8.0М1.0N.Ом                                     :GZ5   ГЗ5(A8.0M0.5N)
N0.5M2.0A.Ом                                     :GZR   ГЗK(N0.5M2.0A)
ИК.мСм/м                                         :IK
НГК.усл.ед                                       :NGK     (НГК)
ННКМ.усл.ед                                      :NNKm  (ННКм)
ПС.mv                                            :PS       (ПС)
N11.0M0.5A.Ом                                    :PZ    (КС)
РЕЗИСТИВИМЕТР.Ом                                 :RS (Резистивиметр)
КПSIO.%                                          :W
~ASCII LOG DATA
# ...
22.8        86.543      164.519     2.223       5.956       46.358      20.902      17.721      18.115      12.542      43.295      24.271      1.194       1.235       16.225      36.713      1.31        26.714      
22.9        69.059      169.864     2.215       6.136       36.832      18.579      17.935      18.664      13.627      39.514      25.321      1.196       1.296       15.47       39.829      1.31        26.192      
23.0        40.678      165.212     2.202       6.408       32.64       19.606      20.737      21.3        15.852      34.785      26.044      1.172       1.341       14.608      43.667      1.31        25.804      
23.1        31.245      162.567     2.187       6.659       33.596      24.703      27.209      27.264      18.523      30.587      26.304      1.14        1.332       13.724      46.51       1.31        26.009      
23.2        30.482      171.893     2.173       6.762       36.873      35.056      37.032      36.817      21.047      28.124      26.198      1.107       1.319       12.84       47.859      1.31        26.599      
23.3        28.341      161.461     2.16        6.676       42.239      50.865      48.277      48.47       22.956      28.229      25.917      1.079       1.245       12.038      48.662      1.31        27.503      
23.4        26.599      155.72      2.157       6.568       50.468      69.712      59.118      59.098      24.268      32.41       25.594      1.069       1.187       11.412      50.127      1.31        28.288      
23.5        31.743      156.514     2.171       6.402       61.795      86.167      67.517      65.054      24.995      41.77       25.28       1.083       1.147       11.137      52.269      1.31        28.591      
23.6        35.617      161.868     2.2         6.284       73.503      93.909      70.808      64.197      25.175      55.415      24.999      1.11        1.105       11.073      54.296      1.31        28.52       
23.7        36.579      164.69      2.236       6.319       80.534      88.068      67.321      57.177      24.666      70.068      24.728      1.156       1.08        10.854      55.275      1.31        28.141      
23.8        37.897      157.985     2.269       6.298       79.985      70.823      57.418      46.205      23.239      80.921      24.486      1.206       1.161       10.511      54.824      1.31        27.392      
23.9        49.116      154.337     2.286       6.172       73.208      50.919      44.242      33.995      20.749      83.379      24.306      1.244       1.242       10.112      52.923      1.31        26.652      
24.0        82.58       154.334     2.282       6.1         61.974      35.174      31.643      23.135      17.322      76.206      24.163      1.25        1.32        9.638       49.43       1.31        26.138      
24.1        123.425     154.476     2.258       6.097       48.682      25.413      22.235      15.431      13.536      62.063      24.023      1.215       1.359       9.098       45.515      1.31        26.168      
24.2        106.189     159.163     2.223       6.234       36.509      19.884      16.53       11.043      10.586      45.773      23.776      1.16        1.377       8.598       42.735      1.31        26.88       
24.3        51.8        164.807     2.19        6.441       28.461      18.024      13.786      9.242       9.607       31.511      23.368      1.093       1.282       8.291       41.37       1.31        28.045      
24.4        33.798      162.609     2.168       6.816       24.26       18.759      13.75       9.955       10.545      21.345      22.742      1.024       1.185       8.26        40.739      1.31        29.728      
24.5        25.477      163.183     2.156       7.205       21.5        20.493      16.834      13.719      12.364      15.522      21.985      0.98        1.09        8.384       40.115      1.31        31.657      
24.6        19.231      163.273     2.153       7.561       20.278      24.72       22.987      20.163      13.948      12.66       21.198      0.968       1.036       8.483       39.379      1.31        33.272      
24.7        17.153      153.892     2.156       7.862       21.931      35.771      30.92       27.624      15.104      12.105      20.511      0.971       0.984       8.507       38.442      1.31        34.382      
24.8        17.675      153.889     2.164       8.196       26.239      51.012      38.503      34.436      15.99       15.381      19.977      0.998       0.983       8.455       37.351      1.31        34.948      
24.9        16.819      154.08      2.18        8.291       30.555      59.837      43.543      39.336      16.796      23.529      19.643      1.036       0.985       8.416       36.443      1.31        34.662      
25.0        15.451      153.927     2.207       7.908       32.053      54.374      44.019      40.458      17.809      34.053      19.522      1.085       0.987       8.463       35.769      1.31        33.781      
25.1        15.447      154.007     2.238       7.462       32.471      39.602      39.295      36.498      19.647      41.669      19.642      1.141       1.035       8.74        34.888      1.31        32.607      
25.2        15.923      154.63      2.271       6.808       34.699      26.259      31.27       29.249      22.951      42.304      20.045      1.169       1.082       9.419       33.347      1.31        31.234      
25.3        21.645      162.736     2.299       5.922       38.161      18.349      23.765      23.036      27.576      36.629      20.794      1.162       1.141       10.513      31.328      1.31        29.891      
25.4        45.844      166.96      2.313       5.011       39.692      14.518      20.018      21.653      33.284      28.097      21.887      1.147       1.218       11.826      30.001      1.31        28.902      
25.5        69.704      167.049     2.306       4.675       38.28       13.585      21.338      25.931      39.83       20.138      23.233      1.114       1.284       12.934      31.34       1.31        28.3        
25.6        49.917      167.533     2.287       4.595       37.493      17.142      28.032      34.633      47.273      14.811      24.569      1.072       1.28        13.393      37.031      1.31        28.132      
25.7        40.625      169.093     2.267       4.501       40.34       27.601      39.859      45.981      55.867      12.919      25.601      1.051       1.274       13.3        46.242      1.31        28.062      
25.8        35.053      168.483     2.252       4.473       46.759      46.658      55.199      57.516      65.851      15.086      26.189      1.06        1.253       12.814      55.811      1.31        27.679      
25.9        29.706      157.793     2.253       4.621       56.649      74.165      70.428      67.226      77.07       21.123      26.445      1.102       1.229       11.887      62.588      1.31        26.836      
26.0        29.092      154.083     2.277       4.551       64.236      95.559      81.865      74.555      88.038      29.746      26.585      1.183       1.216       10.791      65.554      1.31        25.499      
26.1        29.055      152.966     2.318       4.196       65.93       98.832      88.287      80.349      95.833      39.423      26.736      1.267       1.228       9.729       65.451      1.31        23.675      
26.2        31.496      153.75      2.358       3.811       66.692      90.029      90.107      84.96       98.509      48.829      26.965      1.355       1.311       9.066       63.237      1.31        21.804      
26.3        47.297      156.332     2.388       3.52        74.345      85.079      88.147      87.487      96.753      57.385      27.316      1.461       1.409       9.169       59.492      1.31        19.891      
26.4        79.318      160.249     2.403       3.278       88.244      88.411      82.83       86.98       92.347      65.327      27.768      1.572       1.493       9.737       55.763      1.31        18.191      
