~Version Information Section
VERS.                                         2.0:CWLS log ASCII Standart – VERSION 2.0
WRAP.                                          NO:One line per depth step
~Well Information Section
STRT.M                                       -0.3:Начальная глубина
STOP.M                                      200.8:Конечная глубина
STEP.M                                          0:Шаг квантования по глубине
NULL.                                    -9999.25:Признак "Нет данных"
WELL.                                       124Мх:Скважина
~Parameter Information Section
~Curve Information Section
DEPTH.M                                          :Глубина
U1.мВ                                            :U1
U2.                                              :U2
U3.мВ                                            :U3
БЗ.имп/мин                                       :БЗ
ГГКП.имп/мин                                     :ГГКп
ГЗ1.Омм                                          :ГЗ1
ГЗ2.Омм                                          :ГЗ2
ГЗ3.Омм                                          :ГЗ3
ГЗ4.Oмм                                          :ГЗ4
ГЗ5.Oмм                                          :ГЗ5
ГЗК.Омм                                          :ГЗК
КП.%                                             :Кп
МЗ.                                              :МЗ жесткий
НГК.усл.ед                                       :ННКб
ННКМ.усл.ед                                      :ННКм
ПРОФ_СР.мм                                       :ПРОФ_СР
ПС.мВ                                            :ПС
BK.lgОмм                                         :BK
ГК.имп/мин                                       :GK
ИК.мСм/м                                         :IK
PZ.Омм                                           :PZ
RIS.Омм                                          :RIS
~ASCII LOG DATA
# ...
8.4         1239.324951 3374.692383 1496.619019 16158.5712892.438447    -9999.25    -9999.25    -9999.25    -9999.25    -9999.25    -9999.25    24.47401    20238.5722663.162767    2.287128    161.253998  360.976013  -9999.25    3.808       -9999.25    54.16       1.06        
8.5         1233.304321 3324.172607 1368.370605 18070.0     2.442233    -9999.25    -9999.25    -9999.25    -9999.25    -9999.25    -9999.25    24.7915     21294.2851563.039805    2.095093    161.501999  362.208008  -9999.25    3.398       -9999.25    53.919998   1.06        
8.6         1223.011719 3298.646729 1315.703369 19020.0     2.440099    -9999.25    -9999.25    -9999.25    -9999.25    -9999.25    -9999.25    25.047243   22028.5722662.943388    2.122499    160.044006  363.440002  -9999.25    3.488       -9999.25    53.68       1.06        
8.7         1208.447266 3298.114014 1338.616333 19775.7148442.437283    -9999.25    -9999.25    -9999.25    -9999.25    -9999.25    -9999.25    24.696228   23082.8574223.051403    2.158359    158.326004  365.903992  -9999.25    3.667       -9999.25    53.439999   1.06        
8.8         1202.796387 3315.408691 1393.353516 19617.1425782.43699     -9999.25    -9999.25    -9999.25    -9999.25    -9999.25    -9999.25    24.983656   22877.1425783.08043     2.19354     159.048996  368.368011  -9999.25    3.936       -9999.25    53.279999   1.06        
8.9         1210.331055 3325.537354 1404.33606  18721.4277342.436332    -9999.25    -9999.25    -9999.25    -9999.25    -9999.25    -9999.25    25.678656   21992.8574223.003987    2.157018    161.179001  370.832001  -9999.25    4.205       -9999.25    53.119999   1.06        
9.0         1231.051147 3328.499756 1371.562866 17418.6660162.436887    -9999.25    -9999.25    -9999.25    -9999.25    -9999.25    -9999.25    25.881523   21162.6660162.956599    2.066831    159.714996  373.911987  -9999.25    4.422       -9999.25    53.040001   1.06        
9.1         1274.202881 3330.404541 1327.206177 15608.5712892.444851    -9999.25    -9999.25    -9999.25    -9999.25    -9999.25    -9999.25    25.696856   19780.0     2.908871    2.075462    159.059998  376.992004  -9999.25    4.531       -9999.25    52.959999   1.06        
9.2         1339.787231 3331.252197 1271.264771 14201.4287112.451253    -9999.25    -9999.25    -9999.25    -9999.25    -9999.25    -9999.25    25.519218   19355.7148442.899009    2.142518    159.932999  379.455994  -9999.25    4.051       -9999.25    52.720001   1.06        
9.3         1379.109985 3327.859863 1231.866455 13656.0     2.450845    -9999.25    -9999.25    -9999.25    -9999.25    -9999.25    -9999.25    24.523888   19996.0     2.941187    2.141313    159.880997  381.920013  -9999.25    4.051       -9999.25    52.48       1.06        
9.4         1369.740356 3321.284668 1220.59436  13771.4287112.451139    -9999.25    -9999.25    -9999.25    -9999.25    -9999.25    -9999.25    23.531677   19637.1425783.096944    2.102051    161.274002  384.384003  -9999.25    3.168       -9999.25    52.32       1.06        
9.5         1318.133789 3317.540283 1257.289185 13918.4619142.445548    -9999.25    -9999.25    -9999.25    -9999.25    -9999.25    -9999.25    22.721241   18823.0761723.447537    2.103839    161.408997  386.847992  -9999.25    3.168       -9999.25    52.16       1.06        
9.6         1272.984131 3319.80957  1313.82373  13549.2304692.435264    -9999.25    -9999.25    -9999.25    -9999.25    -9999.25    -9999.25    22.338892   18103.0761723.495372    2.130079    159.102997  389.928009  -9999.25    3.917       -9999.25    51.919998   1.06        
9.7         1234.289551 3328.093018 1390.199585 13204.0     2.42679     -9999.25    -9999.25    -9999.25    -9999.25    -9999.25    -9999.25    22.556042   17413.3339843.456296    2.283144    157.710999  392.391998  -9999.25    3.986       -9999.25    51.84       1.06        
9.8         1214.055664 3327.407715 1412.389282 12866.1542972.421358    -9999.25    -9999.25    -9999.25    -9999.25    -9999.25    -9999.25    23.185959   17343.0761723.406057    2.456326    159.570999  394.855988  -9999.25    4.262       -9999.25    51.759998   1.06        
9.9         1212.281982 3317.753906 1380.394287 13198.6669922.417907    -9999.25    -9999.25    -9999.25    -9999.25    -9999.25    -9999.25    23.103476   18025.3339843.298135    2.32056     158.951004  397.936005  -9999.25    4.166       -9999.25    51.68       1.06        
10.0        1221.106689 3298.170166 1310.47583  13465.7138672.423048    -9999.25    -9999.25    -9999.25    -9999.25    -9999.25    -9999.25    22.911667   18502.8574223.338452    2.15593     158.490997  400.399994  -9999.25    3.974       -9999.25    51.599998   1.06        
10.1        1222.06897  3277.625    1256.819824 13921.3330082.436871    -9999.25    -9999.25    -9999.25    -9999.25    -9999.25    -9999.25    22.493256   18182.6660163.446993    2.133383    157.022003  401.631989  -9999.25    3.808       -9999.25    51.52       1.06        
10.2        1215.168945 3256.11792  1219.425171 14470.0     2.456149    -9999.25    -9999.25    -9999.25    12.255      -9999.25    22.200001   21.172495   18845.7148443.729204    2.170119    156.046997  403.480011  -9999.25    3.475       -9999.25    51.360001   1.06        
10.3        1213.213013 3252.162354 1213.436646 14038.5712892.479035    -9999.25    -9999.25    -9999.25    12.255      -9999.25    22.4        20.124517   18697.1425784.038703    2.347966    155.313995  404.712006  -9999.25    3.312       -9999.25    51.200001   1.06        
10.4        1216.200684 3265.758057 1238.85437  13998.6669922.501403    -9999.25    -9999.25    -9999.25    12.255      -9999.25    22.6        20.424845   18460.0     4.057311    2.469186    155.154007  405.328003  -9999.25    3.149       -9999.25    51.040001   1.06        
10.5        1214.857056 3286.309326 1288.19812  14011.4287112.515755    -9999.25    -9999.25    -9999.25    12.255      -9999.25    22.6        20.654207   19042.8574224.125226    2.477155    155.843994  405.944     -9999.25    2.976       -9999.25    50.880001   1.06        
10.6        1204.238037 3296.264893 1330.062256 14756.0     2.516924    -9999.25    -9999.25    -9999.25    12.255      -9999.25    22.799999   20.523802   19464.0     4.280751    2.502585    155.412994  406.559998  -9999.25    2.803       -9999.25    50.799999   1.06        
10.7        1191.159912 3298.290527 1360.364746 16307.6923832.505059    -9999.25    -9999.25    -9999.25    12.255      -9999.25    22.879999   20.718258   20147.6914064.215007    2.542819    155.707993  406.559998  -9999.25    2.696       -9999.25    50.799999   1.06        
10.8        1184.897705 3302.981689 1386.585205 17585.3339842.47975     -9999.25    -9999.25    -9999.25    12.255      -9999.25    23.0        21.304281   21770.6660163.912174    2.551404    156.570999  406.559998  -9999.25    2.669       -9999.25    50.799999   1.06        
10.9        1185.451294 3310.338379 1408.723633 18687.1425782.450134    -9999.25    -9999.25    -9999.25    12.255      -9999.25    23.16       21.2544     22597.1425783.92892     2.534105    157.059006  406.559998  -9999.25    3.053       -9999.25    50.799999   1.06        
11.0        1217.923218 3325.962646 1403.237549 19402.8574222.422716    -9999.25    -9999.25    -9999.25    12.255      -9999.25    23.280001   20.454222   22298.5722663.967996    2.526978    155.751007  406.559998  -9999.25    3.053       -9999.25    50.799999   1.06        
11.1        1282.312622 3349.85498  1370.127197 19096.0     2.402804    -9999.25    -9999.25    -9999.25    12.255      -9999.25    23.360001   20.02026    22612.0     4.09639     2.525618    155.927002  406.559998  -9999.25    3.091       -9999.25    50.799999   1.06        
11.2        1326.426025 3366.914063 1348.74231  19389.3339842.392784    -9999.25    -9999.25    -9999.25    12.255      -9999.25    23.440001   19.739983   23425.3339844.395962    2.486161    156.028     406.559998  -9999.25    3.08        -9999.25    50.799999   1.06        
