~Version Information Section
VERS.                                         2.0:CWLS log ASCII Standart – VERSION 2.0
WRAP.                                          NO:One line per depth step
~Well Information Section
STRT.M                                        1.0:Начальная глубина
STOP.M                                      151.7:Конечная глубина
STEP.M                                          0:Шаг квантования по глубине
NULL.                                    -9999.25:Признак "Нет данных"
WELL.                                       117Мх:Скважина
~Parameter Information Section
~Curve Information Section
DEPTH.M                                          :Глубина
DСР.мм                                           :Dср
ГК.гамма                                         :GK
ИК.мСм/м                                         :IK
N0.5M2.0A.Омм.                                   :N0.5M2.0A.Омм
R.Омм                                            :R
U1.                                              :U1
U2.                                              :U2
U3.                                              :U3
W.имп/1,25с                                      :W
А0.4М0.1N.Омм.                                   :А0.4М0.1N.Омм
А1.0М0.1N.Омм.                                   :А1.0М0.1N.Омм
А2.0М0.5N.Омм.                                   :А2.0М0.5N.Омм
А4.0М0.5N.Oмм.                                   :А4.0М0.5N.Oмм
А8.0М1.0N.Омм.                                   :А8.0М1.0N.Омм
БЗ.имп/мин                                       :БЗ
БК.Омм                                           :БК
КС.Омм                                           :КС
ПС.                                              :ПС
МЗ.имп/мин                                       :МЗ
НГК.имп/1,25с                                    :ННКб
ННКМ.имп/1,25с                                   :ННКм
ПЛОТНОСТЬГГК.г/см3                               :плотностьГГК
~ASCII LOG DATA
# ...
82.2        129.008     6.197       31.719      53.597      1.325       226.929     73.731      141.943     25.548      67.807      72.563      64.942      61.452      44.889      13000.0     117.683     67.191      110.608     6460.0      3.215       1.845       2.311       
82.3        128.274     6.29        31.972      54.919      1.324       228.186     73.694      142.344     25.846      77.737      74.226      67.067      49.313      43.651      13080.0     118.701     68.236      110.752     6440.0      3.227       1.882       2.299       
82.4        128.501     6.423       32.219      53.261      1.312       227.234     73.352      141.481     26.283      100.136     73.272      67.33       34.625      42.154      13240.0     109.375     68.904      111.299     6380.0      3.257       1.871       2.285       
82.5        128.483     6.628       32.365      51.482      1.304       227.307     73.389      141.49      26.584      123.595     71.704      64.879      26.219      41.075      13180.0     93.906      68.962      112.227     6220.0      3.226       1.842       2.277       
82.6        128.681     6.822       32.421      50.984      1.297       225.281     71.277      139.598     26.683      125.587     68.803      62.408      25.325      40.568      13100.0     79.969      68.346      113.475     6040.0      3.151       1.824       2.268       
82.7        128.84      6.956       32.319      50.219      1.291       220.971     68.823      136.435     26.711      118.979     66.721      61.194      25.925      40.603      13340.0     71.283      67.155      114.979     5980.0      3.094       1.804       2.263       
82.8        128.886     7.027       32.041      48.135      1.287       214.502     65.369      133.143     26.789      115.951     69.528      59.808      27.174      40.793      13620.0     64.889      65.482      116.677     5940.0      3.068       1.798       2.263       
82.9        129.124     7.04        31.691      46.184      1.29        210.241     62.219      131.114     26.96       116.083     74.382      58.569      30.202      40.719      13620.0     59.687      63.531      118.501     5860.0      3.051       1.791       2.266       
83.0        129.081     7.005       31.218      45.181      1.29        209.228     60.559      129.666     27.164      96.828      76.478      57.562      32.601      40.245      13120.0     56.838      61.432      120.36      6000.0      3.04        1.784       2.273       
83.1        130.21      7.061       30.634      44.042      1.281       210.315     61.047      130.118     27.389      74.671      74.779      56.299      31.658      39.56       13360.0     53.113      59.346      122.169     5880.0      2.993       1.749       2.282       
83.2        131.602     7.216       30.157      43.006      1.276       209.705     61.365      130.416     27.524      68.455      72.842      54.618      29.29       39.011      12940.0     46.792      57.399      123.87      5800.0      2.889       1.715       2.287       
83.3        131.84      7.39        29.699      42.619      1.274       211.255     62.683      130.842     27.634      64.535      71.221      53.538      29.538      38.1        12480.0     41.536      55.569      125.429     5760.0      2.781       1.685       2.297       
83.4        130.792     7.61        29.109      42.546      1.265       212.989     63.013      130.569     27.84       60.521      69.441      53.859      31.989      36.752      12580.0     39.318      53.699      126.821     5820.0      2.742       1.68        2.306       
83.5        131.014     7.79        28.525      42.189      1.262       211.475     61.853      129.714     28.252      57.318      69.618      54.385      33.194      36.004      12620.0     38.044      51.704      128.02      5900.0      2.771       1.674       2.308       
83.6        131.621     7.796       27.998      41.966      1.258       212.708     63.452      132.604     28.76       56.943      71.471      54.74       35.041      35.625      12580.0     36.751      49.559      129.024     5940.0      2.774       1.669       2.312       
83.7        131.925     7.713       27.498      42.014      1.263       215.637     65.222      135.649     29.251      54.957      70.52       55.395      37.344      34.646      12640.0     35.612      47.265      129.867     6080.0      2.721       1.671       2.314       
83.8        132.124     7.728       26.986      41.521      1.265       215.93      64.502      135.4       29.589      51.193      67.037      55.492      36.799      33.451      12700.0     34.072      44.918      130.62      6120.0      2.609       1.667       2.315       
83.9        131.778     7.796       26.493      40.072      1.265       216.04      64.771      135.851     29.93       50.018      66.717      54.57       36.115      32.604      12520.0     31.761      42.742      131.351     6140.0      2.483       1.641       2.315       
84.0        131.908     7.903       26.028      38.672      1.267       215.124     65.65       135.851     30.381      47.959      63.26       52.367      37.61       31.829      13060.0     29.295      40.865      132.104     6160.0      2.398       1.609       2.312       
84.1        133.103     8.103       25.608      37.467      1.267       211.462     63.77       132.106     30.974      43.91       56.494      50.189      39.528      31.266      12960.0     27.295      39.277      132.899     6280.0      2.381       1.565       2.307       
84.2        133.538     8.291       25.198      36.354      1.269       207.8       61.89       128.361     31.503      39.471      50.666      47.987      40.736      31.26       13240.0     25.895      38.043      133.766     6300.0      2.376       1.542       2.305       
84.3        133.212     8.357       24.801      36.165      1.272       204.615     61.841      126.554     31.807      34.234      44.931      44.964      41.886      31.291      13480.0     25.234      37.256      134.726     6400.0      2.302       1.522       2.3         
84.4        132.914     8.336       24.433      36.909      1.277       201.428     61.792      124.747     31.812      31.479      41.627      42.829      42.813      31.27       13460.0     25.431      36.873      135.766     6460.0      2.197       1.522       2.297       
84.5        133.394     8.261       24.156      37.934      1.298       197.51      60.583      122.894     31.677      30.739      39.984      42.253      42.823      32.019      13720.0     26.196      36.761      136.821     6420.0      2.144       1.52        2.294       
84.6        133.388     8.141       24.023      39.333      1.295       193.591     59.375      121.04      31.321      30.356      38.563      42.588      42.326      33.316      13700.0     27.019      36.87       137.805     6380.0      2.164       1.517       2.294       
84.7        133.247     7.996       24.051      41.936      1.276       189.673     58.166      119.187     30.816      30.504      37.351      43.042      42.645      34.482      13500.0     27.651      37.023      138.673     6260.0      2.264       1.52        2.3         
84.8        133.2       7.811       24.223      45.67       1.275       187.915     57.617      118.69      30.084      30.73       35.96       44.179      44.81       35.522      13400.0     28.418      37.049      139.412     6180.0      2.406       1.539       2.312       
84.9        133.021     7.615       24.397      51.057      1.278       186.157     57.068      118.193     29.341      31.11       34.943      45.768      47.526      36.55       13200.0     31.418      37.064      139.988     6100.0      2.598       1.564       2.326       
85.0        132.832     7.397       24.676      54.06       1.282       186.157     57.068      118.193     28.73       31.874      36.133      47.521      46.657      37.149      13080.0     35.488      37.199      140.358     6020.0      2.811       1.671       2.338       
