~Version Information Section
VERS.                                         2.0:CWLS log ASCII Standart – VERSION 2.0
WRAP.                                          NO:One line per depth step
~Well Information Section
STRT.M                                        2.0:Начальная глубина
STOP.M                                      201.2:Конечная глубина
STEP.M                                          0:Шаг квантования по глубине
NULL.                                    -9999.25:Признак "Нет данных"
WELL.                                       126Мх:Скважина
~Parameter Information Section
~Curve Information Section
DEPTH.M                                          :Глубина
BK.ohmm                                          :BK
ПРОФ_СР.мм                                       :DS  (ДС)
W.g/cm3                                          :GGKp
ГК.мкР/час                                       :GK          (ГК)
ГЗ1.Омм                                          :GZ1   ГЗ1(A0.4M0.1N)
ГЗ2.Омм                                          :GZ2   ГЗ2(A1.0M0.1N)
ГЗ3.Омм                                          :GZ3   ГЗ3(A2.0M0.5N)
ГЗ4.Oмм                                          :GZ4   ГЗ4(A4.0M0.5N)
ГЗ5.Oмм                                          :GZ5   ГЗ5(A8.0M0.5N)
ГЗК.Омм                                          :GZK   ГЗK(N0.5M2.0A)
ИК.ohmm                                          :IK
НГК.усл.ед.                                      :NGK
ННКМ.усл.ед                                      :NNKm  (ННКм)
PS.мВ                                            :PS       (ПС)
PZ.Омм                                           :PZ    (КС)
RIS.Омм                                          :RS (Резистивиметр)
U1.мВ                                            :U1
U2.мВ                                            :U2
U3.mv                                            :U3
~ASCII LOG DATA
# ...
185.6       496.592     122.149     2.479       4.082       201.96      271.66      284.001     103.536     199.134     242.786     16.864      1.702       2.963       207.286     558.415     -9999.25    1133.292    1040.984    1018.81     
185.7       492.039     121.961     2.465       3.978       208.44      271.66      280.801     103.536     198.134     242.786     16.728      1.672       2.959       207.286     551.648     -9999.25    803.105     729.571     726.229     
185.8       506.991     121.424     2.463       3.942       211.68      271.66      279.601     103.536     197.134     242.786     16.603      1.65        3.099       207.286     541.119     -9999.25    591.428     501.259     484.493     
185.9       496.592     121.764     2.47        3.893       220.32      271.66      274.801     103.536     196.134     242.786     16.367      1.645       3.134       207.814     530.966     -9999.25    531.636     443.348     429.557     
186.0       398.107     121.702     2.456       3.586       228.96      271.66      274.401     103.536     195.334     242.786     16.164      1.674       3.078       208.342     517.055     -9999.25    623.619     567.606     583.922     
186.1       168.267     122.125     2.417       3.299       237.6       271.66      270.802     103.936     195.334     242.786     16.059      1.739       3.044       208.87      502.39      -9999.25    702.81      670.184     707.304     
186.2       138.995     121.68      2.382       3.431       245.16      271.66      262.001     105.736     195.334     242.786     15.809      1.761       3.031       209.398     488.104     -9999.25    719.944     689.815     727.264     
186.3       138.357     122.12      2.356       3.766       247.32      271.66      258.001     106.736     195.334     242.986     15.586      1.723       3.084       209.926     477.199     -9999.25    692.229     656.181     687.169     
186.4       131.522     121.916     2.336       3.808       252.72      271.864     250.0       107.736     195.334     243.986     15.374      1.709       3.143       209.926     468.551     -9999.25    672.519     642.426     680.598     
186.5       108.643     121.985     2.31        3.477       250.56      272.476     229.601     109.336     195.534     245.185     15.183      1.747       3.163       209.926     463.663     -9999.25    697.633     678.791     729.342     
186.6       85.704      121.849     2.274       3.174       238.68      271.456     223.601     112.536     196.334     246.786     14.953      1.831       3.21        209.926     462.535     -9999.25    759.137     739.488     788.319     
186.7       73.961      121.97      2.263       3.048       235.44      270.436     218.801     112.536     196.534     246.386     14.741      1.875       3.364       209.926     461.783     -9999.25    852.879     783.898     791.02      
186.8       70.469      121.451     2.255       3.046       231.12      269.416     218.801     112.536     197.334     244.586     14.586      1.89        3.404       209.926     461.407     -9999.25    958.732     789.263     718.829     
186.9       91.833      121.409     2.252       3.174       225.72      268.396     218.801     112.536     197.334     243.386     14.314      1.872       3.24        209.926     461.031     -9999.25    1012.487    747.661     605.656     
187.0       109.648     123.368     2.251       3.39        222.48      267.376     218.801     112.536     197.334     241.586     14.059      1.819       3.046       209.926     460.279     -9999.25    984.213     686.602     517.849     
187.1       121.619     122.815     2.268       3.617       220.32      265.948     218.801     112.536     197.334     240.386     13.852      1.766       2.86        210.454     459.151     -9999.25    872.848     619.474     478.237     
187.2       132.739     121.858     2.253       3.669       216.0       263.296     218.801     112.536     197.334     237.986     13.581      1.703       2.801       210.982     458.023     -9999.25    775.597     558.127     442.967     
187.3       143.88      121.818     2.26        3.632       214.92      262.48      218.801     112.536     197.334     234.186     13.312      1.642       2.82        211.51      456.519     -9999.25    743.839     508.985     389.323     
187.4       151.705     121.879     2.235       3.749       213.84      262.684     218.801     112.336     197.134     231.586     13.008      1.584       2.779       212.038     454.639     -9999.25    781.146     493.202     345.757     
187.5       152.405     121.607     2.229       3.905       212.76      263.704     219.2       111.536     196.134     230.586     12.682      1.521       2.734       212.038     452.759     -9999.25    847.977     516.129     341.645     
187.6       154.882     122.077     2.22        4.253       211.68      264.112     220.801     111.336     195.134     229.586     12.367      1.48        2.657       211.51      450.127     -9999.25    908.907     547.829     356.764     
187.7       154.882     121.523     2.225       4.655       210.6       261.665     221.2       110.336     194.334     228.786     12.023      1.469       2.607       210.982     446.367     -9999.25    952.47      549.897     344.473     
187.8       157.761     121.619     2.227       5.184       210.6       257.992     222.801     109.336     194.134     228.386     11.687      1.472       2.685       210.454     442.607     -9999.25    963.326     533.494     325.371     
187.9       171.002     121.512     2.258       5.624       209.52      256.156     222.801     108.536     193.334     226.586     11.4        1.438       2.674       209.926     439.223     -9999.25    943.47      541.998     354.5       
188.0       173.38      122.028     2.281       5.749       214.92      255.136     222.401     108.336     193.334     225.586     11.115      1.402       2.515       209.926     436.967     -9999.25    900.802     592.65      450.029     
188.1       136.773     122.05      2.311       5.668       216.0       254.32      220.401     107.536     193.134     224.586     10.819      1.348       2.406       209.926     435.839     -9999.25    804.882     612.804     541.145     
188.2       75.858      121.819     2.321       5.674       221.4       254.32      218.401     107.536     192.134     223.586     10.51       1.352       2.385       209.926     436.215     -9999.25    629.188     544.373     572.593     
188.3       25.235      121.168     2.32        5.864       222.48      254.32      216.801     107.536     191.334     222.786     10.15       1.337       2.586       209.926     436.967     -9999.25    440.477     413.728     519.022     
188.4       18.967      121.417     2.315       6.224       225.72      254.524     216.801     107.736     191.334     222.586     9.73        1.362       2.846       209.926     438.095     -9999.25    342.63      293.052     390.11      
188.5       15.776      121.621     2.314       6.481       232.2       255.544     216.801     108.936     191.334     221.586     9.322       1.385       2.723       209.926     438.847     -9999.25    353.082     242.94      270.632     
188.6       15.031      120.831     2.339       6.816       226.8       256.36      216.801     110.736     191.334     220.586     8.952       1.377       2.527       209.926     439.223     -9999.25    386.66      256.915     242.312     
188.7       16.106      121.12      2.361       7.402       224.64      256.156     216.801     111.736     191.334     219.586     8.687       1.338       2.402       209.926     438.847     -9999.25    396.1       314.581     328.445     
188.8       20.417      120.818     2.383       7.81        220.32      255.136     216.801     114.135     191.334     218.786     8.509       1.272       2.234       209.926     437.719     -9999.25    413.981     399.203     471.821     
188.9       23.659      120.486     2.403       8.011       213.84      253.912     217.201     121.536     191.334     218.786     8.406       1.197       2.074       209.926     435.463     -9999.25    428.507     458.088     589.992     
