~Version Information Section
VERS.                                         2.0:CWLS log ASCII Standart – VERSION 2.0
WRAP.                                          NO:One line per depth step
~Well Information Section
STRT.M                                        0.5:Начальная глубина
STOP.M                                      201.9:Конечная глубина
STEP.M                                          0:Шаг квантования по глубине
NULL.                                    -9999.25:Признак "Нет данных"
WELL.                                       138Мх:Скважина
~Parameter Information Section
~Curve Information Section
DEPTH.M                                          :Глубина
БК.Омм                                           :BK     (БК)
DСР.мм                                           :DS  (ДС)
W.g/cm3                                          :GGKp
ГК.гамма                                         :GK          (ГК)
А0.4М0.1N.Омм.ohmm                               :GZ1   ГЗ1(A0.4M0.1N)
А1.0М0.1N.Омм.ohmm                               :GZ2   ГЗ2(A1.0M0.1N)
А2.0М0.5N.Омм.ohmm                               :GZ3   ГЗ3(A2.0M0.5N)
А4.0М0.5N.Oмм.ohmm                               :GZ4   ГЗ4(A4.0M0.5N)
А8.0М1.0N.Омм.ohmm                               :GZ5   ГЗ5(A8.0M0.5N)
N0.5M2.0A.Омм.ohmm                               :GZK   ГЗK(N0.5M2.0A)
ИК.мСм/м                                         :IK
ННКМ.усл.ед                                      :NNKm  (ННКм)
ПС.мВ                                            :PS       (ПС)
КС.Омм                                           :PZ    (КС)
R.Омм                                            :RS (Резистивиметр)
U1.мВ                                            :U1
U2.mV                                            :U2
U3.мВ                                            :U3
КП.%                                             :Кп
НГК.усл.ед                                       :NGK
~ASCII LOG DATA
# ...
134.9       104.44      136.591     2.018       4.143       107.101     101.129     98.425      66.493      36.928      54.062      30.629      1.865       249.224     171.435     1.08        613.198     332.605     250.822     31.036      1.359       
135.0       101.306     136.442     2.025       4.06        100.222     96.82       97.045      65.713      36.608      52.688      30.539      1.859       249.576     172.725     1.08        746.421     362.573     267.285     28.885      1.369       
135.1       101.176     136.44      2.033       3.85        90.753      89.406      93.628      64.179      36.27       51.104      30.069      1.831       249.944     173.914     1.08        814.421     415.893     283.128     26.671      1.322       
135.2       101.446     136.347     2.044       3.661       80.208      79.406      88.082      61.925      35.884      49.519      29.307      1.773       250.344     174.331     1.08        856.697     471.397     314.092     27.327      1.269       
135.3       97.717      136.157     2.056       3.656       70.972      68.992      81.177      59.381      35.443      48.182      28.928      1.719       250.776     174.331     1.08        765.74      496.942     342.323     30.01       1.247       
135.4       88.214      136.027     2.068       3.753       64.354      60.029      74.254      57.173      35.054      47.214      28.689      1.675       251.224     174.331     1.08        740.023     499.792     354.708     32.486      1.286       
135.5       74.274      136.002     2.078       3.744       60.95       53.368      68.446      55.56       34.746      46.652      28.009      1.67        251.624     173.35      1.08        753.098     507.978     351.967     33.04       1.272       
135.6       38.954      135.829     2.083       3.926       60.088      49.526      64.379      54.655      34.503      46.461      27.481      1.718       251.912     170.349     1.08        729.777     519.265     363.397     33.841      1.198       
135.7       33.025      135.702     2.082       4.242       60.088      48.272      62.094      54.403      34.349      46.452      26.883      1.729       252.072     164.984     1.08        678.546     529.893     390.976     35.907      1.137       
135.8       47.467      135.708     2.076       4.693       60.088      48.19       61.212      54.403      34.349      46.452      26.622      1.708       252.104     157.477     1.08        614.227     532.994     421.087     36.655      1.18        
135.9       59.766      135.681     2.068       4.764       60.088      48.19       61.059      54.403      34.349      46.452      26.643      1.714       252.104     148.688     1.08        586.311     543.096     473.84      35.119      1.247       
136.0       61.082      135.666     2.056       4.675       60.914      48.19       61.059      54.403      34.349      46.452      26.886      1.727       252.104     139.661     1.08        703.42      647.25      583.875     32.383      1.326       
136.1       58.776      135.562     2.041       4.133       63.453      48.19       61.059      54.417      34.349      46.517      27.363      1.739       252.04      131.44      1.08        919.841     809.644     688.57      31.349      1.279       
136.2       57.905      135.333     2.024       3.947       67.304      48.697      61.059      54.523      34.36       46.709      27.813      1.753       251.944     124.72      1.08        1119.088    870.597     667.338     31.916      1.233       
136.3       72.309      135.182     2.008       3.947       71.788      50.096      61.209      54.769      34.575      47.104      28.137      1.753       251.848     119.824     1.08        1201.254    831.612     559.43      32.747      1.163       
136.4       89.787      135.118     1.991       4.267       75.839      52.25       61.633      55.132      34.995      47.807      28.416      1.749       251.72      116.701     1.08        1134.72     720.267     454.364     32.705      1.218       
136.5       86.079      135.138     1.979       4.56        78.536      55.087      62.324      55.546      35.654      48.956      28.661      1.764       251.56      114.95      1.08        894.709     622.195     441.132     31.495      1.247       
136.6       81.681      135.124     1.973       4.573       80.065      58.281      63.296      56.135      36.63       50.826      28.732      1.777       251.352     114.11      1.08        578.205     516.068     468.989     31.022      1.273       
136.7       85.676      135.116     1.973       4.44        80.67       61.559      64.57       57.217      38.028      53.618      28.832      1.772       251.064     113.778     1.08        311.152     424.106     509.249     31.09       1.244       
136.8       86.233      135.146     1.978       4.262       80.736      64.874      66.129      59.035      39.825      57.379      28.944      1.76        250.728     113.661     1.08        228.813     410.169     602.482     30.699      1.227       
136.9       75.97       135.169     1.99        4.253       80.113      67.661      67.953      61.563      41.861      61.826      28.928      1.732       250.44      113.586     1.08        207.802     366.228     618.708     30.591      1.226       
137.0       76.051      135.221     2.011       4.195       78.937      68.996      69.735      63.96       43.947      66.006      28.811      1.699       250.152     113.485     1.08        186.787     315.464     550.472     31.343      1.217       
137.1       79.631      135.225     2.036       4.266       77.945      69.198      70.735      65.155      45.588      68.787      28.642      1.67        249.864     113.331     1.08        171.629     264.704     378.888     32.351      1.223       
137.2       74.566      135.324     2.063       4.255       77.091      68.579      70.938      65.363      46.271      69.711      28.363      1.7         249.576     113.115     1.08        241.708     257.889     240.271     32.791      1.226       
137.3       57.328      135.086     2.09        4.322       76.398      66.392      70.378      64.508      46.271      69.441      27.985      1.788       249.256     112.83      1.08        340.473     266.467     173.692     31.068      1.276       
137.4       49.443      134.918     2.114       3.984       76.025      62.505      68.379      61.697      45.765      67.779      27.725      1.882       248.856     112.47      1.08        439.216     275.044     157.499     29.106      1.325       
137.5       60.809      134.839     2.131       3.621       75.891      57.995      64.678      57.067      44.155      64.277      27.561      1.943       248.472     112.035     1.08        467.886     298.769     182.19      27.378      1.341       
137.6       76.182      134.765     2.141       3.648       75.81       54.164      59.826      51.835      41.661      60.019      27.572      1.898       248.104     111.526     1.08        463.499     351.502     241.079     27.34       1.301       
137.7       82.317      134.676     2.148       3.838       75.667      51.556      54.869      47.121      38.761      56.051      27.77       1.831       247.784     110.942     1.08        459.114     404.225     317.869     28.892      1.273       
137.8       104.975     134.818     2.145       4.247       75.435      50.343      50.618      43.352      35.96       52.926      27.994      1.809       247.544     110.285     1.08        454.727     441.811     389.926     29.656      1.238       
137.9       100.929     135.651     2.134       4.318       75.188      50.099      47.491      40.579      33.538      50.656      28.06       1.801       247.384     109.565     1.08        544.824     519.681     492.754     29.319      1.31        
138.0       84.796      134.917     2.123       4.358       74.848      50.099      45.504      38.498      31.587      48.868      28.047      1.815       247.24      108.795     1.08        765.023     639.872     564.96      28.013      1.346       
