~Version Information Section
VERS.                                         2.0:CWLS log ASCII Standart – VERSION 2.0
WRAP.                                          NO:One line per depth step
~Well Information Section
STRT.M                                        0.1:Начальная глубина
STOP.M                                      202.9:Конечная глубина
STEP.M                                          0:Шаг квантования по глубине
NULL.                                    -9999.25:Признак "Нет данных"
WELL.                                       155Мх:Скважина
~Parameter Information Section
~Curve Information Section
DEPTH.M                                          :Глубина
BK.Ohm*M                                         :BK     (БК)
DS.mm                                            :DS  (ДС)
GGK.g/cm3                                        :GGKp
ГК.mcr/h                                         :GK          (ГК)
GZ1.Ohm*M                                        :GZ1   ГЗ1(A0.4M0.1N)
GZ2.Ohm*M                                        :GZ2   ГЗ2(A1.0M0.1N)
GZ3.Ohm*M                                        :GZ3   ГЗ3(A2.0M0.5N)
GZ4.Ohm*M                                        :GZ4   ГЗ4(A4.0M0.5N)
GZ5.Ohm*M                                        :GZ5   ГЗ5(A8.0M0.5N)
GZR.                                             :GZR   ГЗK(N0.5M2.0A)
ИК.Ohm*M                                         :IK
НГК.ue                                           :NGK     (НГК)
NNKM.                                            :NNKm  (ННКм)
PS.mv                                            :PS       (ПС)
PZ.Ohm*M                                         :PZ    (КС)
RS.Ohm*M                                         :RS (Резистивиметр)
W.%                                              :W
~ASCII LOG DATA
# ...
70.4        252.135     179.62      2.317       3.348       75.488      58.369      78.111      125.985     144.218     115.692     21.038      1.126       1.489       94.325      27.685      1.206       19.902      
70.5        324.028     177.291     2.306       3.365       155.949     64.901      75.613      120.494     144.746     106.66      21.698      1.156       1.572       94.609      31.587      1.206       19.653      
70.6        256.68      178.994     2.282       3.823       253.179     68.916      70.076      105.098     138.117     87.614      22.598      1.129       1.575       94.427      40.468      1.211       21.447      
70.7        82.648      173.911     2.251       4.523       245.48      52.3        57.955      88.28       116.841     68.288      23.46       1.081       1.538       92.468      50.95       1.253       24.334      
70.8        34.31       167.919     2.218       5.284       153.637     29.167      38.468      68.104      97.931      51.338      23.705      1.032       1.431       87.875      66.199      1.279       27.615      
70.9        22.403      160.78      2.192       5.965       92.95       22.287      23.207      42.441      87.492      32.52       23.819      0.984       1.287       81.816      73.049      1.305       30.698      
71.0        22.635      160.683     2.174       6.439       70.406      22.899      13.06       22.219      66.656      19.754      23.309      0.938       1.154       76.597      61.924      1.306       32.895      
71.1        23.08       160.75      2.166       6.689       56.107      26.463      8.776       12.406      44.563      16.083      22.332      0.882       1.064       73.682      49.517      1.269       33.53       
71.2        19.15       161.353     2.163       6.752       42.629      31.104      7.561       8.611       24.43       14.678      21.692      0.834       1.033       72.763      42.386      1.219       33.327      
71.3        17.393      161.621     2.161       6.735       35.117      33.542      6.043       6.837       13.981      14.478      21.156      0.804       1.006       72.845      39.888      1.206       32.594      
71.4        18.03       163.669     2.159       6.702       32.005      33.907      4.927       5.72        10.581      14.705      20.468      0.811       0.991       73.341      37.961      1.206       31.744      
71.5        19.276      165.726     2.155       6.681       30.391      35.191      4.427       5.302       8.74        15.132      19.892      0.844       0.983       74.121      35.723      1.206       31.198      
71.6        20.616      167.097     2.153       6.688       29.792      37.503      4.188       5.0         8.072       15.411      19.701      0.879       0.988       75.152      33.865      1.206       31.326      
71.7        21.52       164.369     2.154       6.727       29.891      37.905      4.043       4.713       7.872       15.508      19.646      0.893       0.999       76.136      32.337      1.206       31.824      
71.8        21.2        166.757     2.16        6.803       30.32       35.495      3.892       4.497       7.986       15.634      19.664      0.892       1.008       76.831      30.673      1.206       32.495      
71.9        20.165      171.503     2.17        6.908       29.92       30.843      3.869       4.371       7.977       16.074      19.572      0.9         1.01        77.285      29.427      1.206       33.11       
72.0        18.678      178.574     2.183       7.005       28.311      27.106      4.209       4.438       7.878       17.793      19.648      0.905       0.994       77.776      28.591      1.206       33.254      
72.1        18.16       177.961     2.196       7.029       26.797      26.3        5.212       4.605       7.782       20.205      19.64       0.895       0.962       78.129      27.828      1.206       32.708      
72.2        20.183      176.178     2.207       6.95        29.356      28.912      6.476       4.706       7.64        21.402      19.581      0.881       0.954       77.856      27.601      1.206       31.65       
72.3        24.512      171.247     2.212       6.797       33.442      31.92       9.484       4.889       7.586       22.382      19.629      0.881       0.986       76.841      27.73       1.206       30.428      
72.4        25.464      171.344     2.212       6.626       32.915      29.479      14.496      5.039       7.651       23.817      19.606      0.889       1.04        75.765      28.053      1.206       29.337      
72.5        21.671      172.749     2.208       6.474       30.231      25.647      18.985      4.916       7.772       24.395      19.628      0.889       1.078       75.274      27.795      1.206       28.717      
72.6        21.185      176.472     2.203       6.373       30.074      24.649      22.229      4.623       7.871       24.41       19.763      0.881       1.081       75.564      26.952      1.206       28.889      
72.7        21.799      183.29      2.2         6.322       31.622      24.038      26.762      4.406       7.849       25.077      19.93       0.877       1.064       76.824      26.158      1.206       29.294      
72.8        21.587      184.821     2.199       6.297       32.35       23.967      32.046      4.383       7.622       26.605      19.955      0.884       1.044       79.361      25.782      1.206       29.335      
72.9        21.676      179.755     2.197       6.269       32.354      24.171      35.332      4.467       7.477       28.02       19.9        0.899       1.04        82.729      26.177      1.206       29.598      
73.0        22.041      172.762     2.193       6.26        33.245      25.123      36.797      4.593       7.501       28.877      19.772      0.913       1.049       85.138      27.308      1.206       30.13       
73.1        22.713      171.479     2.184       6.308       33.921      25.657      36.718      4.727       7.508       29.341      19.72       0.921       1.052       84.558      28.294      1.206       30.193      
73.2        22.545      171.114     2.172       6.412       33.239      25.411      35.93       4.836       7.478       29.508      19.678      0.924       1.042       80.823      28.483      1.206       30.296      
73.3        22.805      167.678     2.163       6.528       33.519      26.438      34.756      4.827       7.41        29.82       19.582      0.93        1.026       75.692      28.16       1.206       30.55       
73.4        23.429      167.257     2.161       6.623       34.109      28.241      33.525      4.709       7.325       30.077      19.601      0.938       1.021       71.411      27.657      1.206       30.248      
73.5        23.284      166.881     2.167       6.726       35.537      29.568      32.171      4.559       7.125       29.751      19.467      0.942       1.031       69.031      27.372      1.206       29.536      
73.6        24.388      166.561     2.182       6.856       36.643      29.353      30.447      4.37        6.844       29.286      19.414      0.932       1.043       68.347      27.261      1.206       29.08       
73.7        23.056      166.45      2.198       6.955       35.567      26.75       28.283      4.12        6.773       28.272      19.571      0.907       1.033       68.789      27.199      1.206       28.974      
73.8        19.71       167.182     2.213       6.981       34.032      23.798      25.45       3.864       6.542       26.627      19.544      0.886       1.005       69.897      26.931      1.206       29.426      
73.9        17.819      167.378     2.22        6.957       30.761      21.265      22.462      3.639       6.342       25.274      19.494      0.879       0.98        71.286      26.159      1.206       30.324      
74.0        16.894      167.759     2.22        6.916       27.33       19.599      20.046      3.449       6.04        24.269      19.462      0.874       0.962       72.347      25.266      1.206       31.222      
