~Version Information Section
VERS.                                         2.0:CWLS log ASCII Standart – VERSION 2.0
WRAP.                                          NO:One line per depth step
~Well Information Section
STRT.M                                        0.4:Начальная глубина
STOP.M                                      191.4:Конечная глубина
STEP.M                                          0:Шаг квантования по глубине
NULL.                                    -9999.25:Признак "Нет данных"
WELL.                                       113Мх:Скважина
~Parameter Information Section
~Curve Information Section
DEPTH.M                                          :Глубина
БК.Омм                                           :BK     (БК)
DСР.мм                                           :DS  (ДС)
GGKP.g/cm3                                       :GGKp
ГК.гамма                                         :GK          (ГК)
А0.4М0.1N.Омм                                    :GZ1   ГЗ1(A0.4M0.1N)
А1.0М0.1N.Омм                                    :GZ2   ГЗ2(A1.0M0.1N)
А2.0М0.5N.Омм                                    :GZ3   ГЗ3(A2.0M0.5N)
А4.0М0.5N.Oмм                                    :GZ4   ГЗ4(A4.0M0.5N)
А8.0М1.0N.Омм                                    :GZ5   ГЗ5(A8.0M0.5N)
N0.5M2.0A.Омм                                    :GZK   ГЗK(N0.5M2.0A)
ИК.мСм/м                                         :IK
НГК.усл.ед                                       :NNKb  (ННКб)
ННКМ.усл.ед                                      :NNKm  (ННКм)
ПС.мВ                                            :PS       (ПС)
PZ.Омм                                           :PZ    (КС)
R.Омм                                            :RS (Резистивиметр)
U1.мВ                                            :U1
U2.mV                                            :U2
U3.мВ                                            :U3
КП.%                                             :Кп
~ASCII LOG DATA
# ...
109.2       49.927      131.994     2.36        5.601       34.238      41.231      25.245      20.236      4.891       19.753      23.926      2.846       1.908       92.055      107.832     1.12        258.962     244.344     326.289     29.78       
109.4       39.166      135.501     2.355       5.729       27.775      32.175      24.75       17.619      4.968       19.753      22.66       2.59        1.767       95.43       106.719     1.12        200.483     216.692     357.951     30.026      
109.6       27.556      136.761     2.35        5.894       27.196      31.107      25.031      17.399      5.309       22.178      21.743      2.407       1.602       100.377     106.294     1.12        319.442     213.822     243.993     31.867      
109.8       39.694      135.01      2.335       5.477       28.058      30.996      28.257      17.477      5.78        29.404      21.962      2.579       1.611       106.557     106.421     1.12        344.536     196.72      161.208     32.091      
110.0       93.119      128.951     2.322       5.062       34.982      31.314      31.885      17.966      6.211       36.967      23.703      2.937       1.804       113.171     107.256     1.12        251.392     171.54      189.33      30.366      
110.2       171.643     132.212     2.319       4.869       40.929      31.157      33.116      17.948      6.543       41.479      26.202      3.39        2.005       119.156     109.133     1.12        198.013     184.39      236.856     27.619      
110.4       205.916     131.572     2.335       4.712       41.61       29.482      33.089      16.333      7.148       43.957      28.031      3.574       2.075       123.234     112.271     1.12        311.243     227.327     222.766     25.418      
110.6       143.332     130.89      2.353       5.046       39.973      26.679      33.062      12.766      8.684       47.937      28.052      3.242       2.029       123.404     116.505     1.12        299.337     236.979     248.098     26.328      
110.8       59.057      135.352     2.364       5.734       38.22       26.527      33.433      10.818      11.534      63.984      27.046      2.737       1.774       117.599     121.581     1.12        299.204     244.537     289.293     29.911      
111.0       30.787      136.773     2.381       5.769       38.22       27.535      37.813      10.773      15.08       94.436      27.811      2.615       1.625       104.353     128.594     1.12        310.964     235.463     279.19      31.371      
111.2       131.605     134.593     2.429       4.476       59.319      35.427      45.715      11.059      17.983      114.764     31.867      3.507       1.904       84.541      140.883     1.12        313.938     218.248     244.715     28.338      
111.4       422.692     133.602     2.492       3.353       125.742     47.36       52.224      14.019      19.292      116.152     38.159      5.415       2.542       61.736      162.677     1.12        258.045     228.551     298.487     22.767      
111.6       642.975     131.147     2.513       2.561       218.343     57.858      54.717      21.263      19.508      106.326     44.045      6.45        2.815       40.459      195.605     1.12        272.579     255.098     346.022     17.669      
111.8       670.766     132.159     2.493       2.472       282.353     72.886      55.229      33.247      19.581      84.061      48.516      5.85        2.762       24.127      236.6       1.12        325.005     266.208     306.425     17.352      
112.0       684.177     132.231     2.479       2.191       309.094     109.344     55.599      46.443      19.637      69.842      50.933      5.679       2.718       13.613      276.195     1.12        339.564     268.553     274.597     18.972      
112.2       689.92      132.769     2.476       2.13        313.951     166.46      56.95       56.24       20.924      65.275      51.97       5.498       2.711       7.816       304.141     1.12        325.148     267.106     258.972     19.18       
112.4       539.17      132.232     2.456       2.374       314.585     219.443     62.161      63.915      26.937      65.265      51.747      5.064       2.643       5.023       316.24      1.12        291.037     257.864     274.168     20.568      
112.6       381.481     131.812     2.423       2.608       315.813     247.269     75.741      77.822      39.729      66.649      50.827      4.655       2.48        3.926       308.853     1.12        307.563     274.669     337.331     21.99       
112.8       314.488     131.573     2.421       2.747       318.337     255.852     100.418     99.548      56.94       77.751      49.294      4.434       2.397       3.962       289.187     1.12        331.164     312.945     433.163     22.086      
113.0       270.307     131.597     2.468       2.867       317.795     257.136     127.769     108.882     72.605      90.729      46.915      5.035       2.455       5.27        263.53      1.12        408.59      360.483     476.168     20.088      
113.2       388.21      134.53      2.516       3.049       304.536     248.973     135.827     107.487     77.694      92.616      44.799      6.186       2.694       8.489       236.97      1.12        466.516     387.12      480.762     17.251      
113.4       528.822     133.083     2.498       2.609       270.85      214.645     133.286     87.214      76.596      87.499      42.827      6.328       2.835       14.306      210.818     1.12        463.235     357.703     416.302     16.941      
113.6       438.32      131.719     2.43        2.543       229.728     157.002     109.32      54.142      63.685      66.738      39.432      4.983       2.56        22.965      182.472     1.12        384.959     268.928     286.415     21.119      
113.8       181.647     132.207     2.368       2.804       203.716     113.325     78.149      32.859      41.425      46.444      35.506      3.457       2.151       33.925      153.123     1.12        362.311     199.802     164.357     26.795      
114.0       101.295     132.627     2.362       3.128       184.073     94.928      58.418      24.681      23.877      35.361      32.437      2.916       1.957       45.983      127.813     1.12        359.239     201.142     170.206     30.266      
114.2       132.994     133.246     2.381       3.261       157.542     86.15       46.747      19.568      15.289      29.281      30.746      3.065       2.021       57.78       110.29      1.12        320.939     231.782     293.733     30.072      
114.4       124.527     132.887     2.404       3.722       116.84      72.609      36.46       14.022      11.698      25.498      29.287      3.262       2.015       68.364      99.999      1.12        231.621     253.49      416.838     27.883      
114.6       80.209      136.201     2.4         4.407       72.062      55.872      29.3        9.806       9.814       23.644      27.341      3.153       1.971       77.519      93.736      1.12        242.503     237.064     341.074     28.072      
114.8       38.683      136.479     2.354       5.222       42.649      43.33       26.821      7.818       8.824       23.406      25.13       2.709       1.832       85.666      89.148      1.12        321.665     218.032     228.616     29.554      
115.0       29.239      135.291     2.305       5.677       34.7        37.546      26.751      7.283       8.474       23.424      24.149      2.498       1.682       93.411      85.719      1.12        392.8       232.445     175.461     31.453      
115.2       33.704      134.282     2.289       5.461       34.134      35.981      27.105      7.205       8.451       24.458      24.602      2.481       1.656       101.021     83.707      1.12        382.925     263.768     247.388     30.767      
115.4       36.963      132.968     2.301       5.429       34.134      35.089      30.104      7.208       8.464       28.312      25.639      2.609       1.687       108.112     82.877      1.12        395.62      270.7       276.494     30.984      
