~Version Information Section
VERS.                                         2.0:CWLS log ASCII Standart – VERSION 2.0
WRAP.                                          NO:One line per depth step
~Well Information Section
STRT.M                                        0.0:Начальная глубина
STOP.M                                      180.0:Конечная глубина
STEP.M                                          0:Шаг квантования по глубине
NULL.                                    -9999.25:Признак "Нет данных"
WELL.                                       120Мх:Скважина
~Parameter Information Section
~Curve Information Section
DEPTH.M                                          :Глубина
BK.Ohm*M                                         :BK     (БК)
DS.mm                                            :DS  (ДС)
GGK.g/cm3                                        :GGKp
ГК.mcr/h                                         :GK          (ГК)
GZ1.Ohm*M                                        :GZ1   ГЗ1(A0.4M0.1N)
GZ2.Ohm*M                                        :GZ2   ГЗ2(A1.0M0.1N)
GZ3.Ohm*M                                        :GZ3   ГЗ3(A2.0M0.5N)
GZ4.Ohm*M                                        :GZ4   ГЗ4(A4.0M0.5N)
GZ5.Ohm*M                                        :GZ5   ГЗ5(A8.0M0.5N)
GZR.Ohm*M                                        :GZK   ГЗK(N0.5M2.0A)
ИК.Ohm*M                                         :IK
НГК.u.e.                                         :NGK
NNKM.                                            :NNKm  (ННКм)
PS.mv                                            :PS       (ПС)
PZ.Ohm*M                                         :PZ    (КС)
RS.Ohm*M                                         :RS (Резистивиметр)
U1.mV                                            :U1
U2.mV                                            :U2
U3.mV                                            :U3
КП.%                                             :Кп
~ASCII LOG DATA
# ...
121.6       23.933      131.803     2.252       7.209       34.8        26.777      28.053      50.472      49.814      25.453      9.28        1.088       2.006       596.326     33.394      1.28        820.123     316.923     169.211     35.536      
121.8       22.803      132.016     2.236       6.637       35.166      28.258      28.509      56.218      46.116      26.63       9.138       1.036       1.928       597.046     32.391      1.28        464.837     309.013     394.528     33.952      
122.0       21.528      132.928     2.265       6.698       34.357      27.377      23.705      54.751      48.063      26.839      9.039       1.08        1.895       597.526     33.143      1.285       657.374     379.734     369.188     34.018      
122.2       21.086      133.991     2.259       7.268       32.403      24.78       23.057      49.998      51.619      27.16       8.931       1.053       1.931       597.804     34.271      1.293       692.816     342.467     206.925     36.585      
122.4       22.284      134.09      2.228       6.849       32.685      24.631      25.694      49.454      49.812      27.564      8.888       1.004       1.964       598.246     34.271      1.294       354.912     306.822     331.729     33.896      
122.6       21.184      133.665     2.278       6.355       32.432      23.469      24.671      48.78       48.091      27.075      8.785       1.034       1.929       598.726     34.02       1.286       441.471     432.431     499.415     33.981      
122.8       19.187      132.988     2.313       6.527       32.51       22.069      23.135      46.966      46.953      26.337      8.675       1.093       1.92        599.206     29.884      1.28        549.69      484.645     511.136     34.412      
123.0       21.979      133.675     2.351       6.538       32.088      21.737      22.012      45.478      45.339      27.331      8.633       1.052       1.992       599.926     25.122      1.28        851.307     487.636     331.705     31.548      
123.2       22.08       133.522     2.331       6.559       31.124      21.838      21.442      40.204      43.811      27.232      8.621       1.067       2.005       600.924     22.114      1.28        991.525     439.82      251.413     29.295      
123.4       20.464      133.735     2.34        7.007       29.546      20.715      20.347      40.648      42.547      25.899      8.561       1.064       1.954       602.086     21.236      1.28        570.999     449.006     476.839     29.51       
123.6       19.011      133.677     2.272       7.178       29.28       20.345      19.35       42.18       41.363      24.566      8.477       1.07        1.973       603.046     22.615      1.28        573.378     520.926     541.334     35.098      
123.8       19.099      133.592     2.266       7.064       29.962      20.443      18.936      39.614      40.488      21.899      8.457       1.062       1.973       604.006     26.124      1.28        667.996     512.233     442.624     31.962      
124.0       19.634      134.404     2.254       6.88        29.698      20.084      19.06       37.239      39.884      21.899      8.46        1.13        1.894       604.928     31.388      1.28        558.069     412.698     354.499     33.148      
124.2       18.707      133.289     2.273       6.575       30.612      21.041      19.426      41.503      39.379      23.232      8.467       1.053       1.931       605.446     31.388      1.28        549.032     352.577     279.633     38.562      
124.4       20.654      131.775     2.308       6.813       30.932      21.168      19.75       37.705      38.906      23.899      8.468       1.103       1.953       605.686     27.002      1.28        427.792     259.501     226.027     33.375      
124.6       19.454      131.895     2.311       6.662       31.411      21.352      19.736      38.345      38.596      25.232      8.49        1.17        1.96        605.686     24.871      1.28        486.349     318.557     275.348     35.141      
124.8       21.232      134.03      2.261       6.799       31.323      21.367      20.05       33.874      38.65       25.899      8.504       1.146       1.968       605.686     24.871      1.28        695.889     526.549     492.022     35.075      
125.0       20.749      133.169     2.253       6.848       30.846      21.561      20.042      33.718      39.278      29.899      8.495       1.041       1.96        605.686     24.871      1.28        629.585     581.057     656.186     32.16       
125.2       20.701      133.563     2.294       7.331       30.61       21.288      19.774      34.096      39.265      33.254      8.46        1.026       1.938       605.686     24.871      1.28        839.11      441.773     368.287     30.733      
125.4       19.815      133.425     2.312       7.149       29.737      20.327      18.999      33.219      38.982      28.541      8.405       1.036       1.944       605.686     25.122      1.28        780.209     330.463     387.973     31.843      
125.6       20.137      132.525     2.269       6.967       28.568      19.128      18.628      32.729      39.058      32.498      8.363       1.104       1.981       605.686     27.628      1.28        534.229     238.94      247.296     33.127      
125.8       20.137      133.421     2.216       7.1         28.928      20.316      19.317      33.45       38.796      38.243      8.312       1.034       1.995       605.408     28.631      1.28        236.949     234.982     460.353     30.895      
126.0       18.967      133.484     2.253       6.873       30.981      21.962      19.759      33.664      38.08       39.162      8.23        1.066       1.956       604.131     28.631      1.28        197.547     241.254     490.972     30.294      
126.2       18.155      134.225     2.332       6.249       29.477      19.077      17.942      31.688      36.98       35.45       8.156       1.079       1.932       601.049     28.631      1.28        516.046     432.315     483.497     37.338      
126.4       18.578      133.87      2.402       6.109       27.523      13.311      14.395      28.317      35.956      33.007      8.169       1.14        2.083       596.768     28.631      1.28        751.179     538.592     424.727     30.273      
126.6       23.121      134.243     2.397       6.596       24.828      7.26        11.893      26.906      37.376      38.972      8.311       1.03        2.083       591.728     28.631      1.28        591.018     423.015     344.575     29.437      
126.8       20.417      133.837     2.273       6.765       21.421      10.925      13.237      30.913      40.072      49.039      8.473       1.043       1.968       585.804     29.383      1.279       445.262     304.852     249.89      32.833      
127.0       16.106      133.618     2.268       6.941       26.027      17.912      18.218      42.424      42.105      35.919      8.625       1.074       1.873       580.284     31.388      1.266       419.602     303.069     270.881     37.706      
127.2       14.655      133.686     2.371       6.285       41.438      21.871      22.679      53.057      43.229      28.236      8.743       1.129       1.878       576.204     35.023      1.231       522.138     388.828     349.295     42.593      
127.4       14.488      132.939     2.398       4.452       82.233      26.564      22.936      55.811      43.022      22.619      8.981       1.157       2.102       573.766     46.804      1.185       780.978     444.119     286.982     38.841      
127.6       23.174      134.322     2.281       3.725       126.997     27.964      18.746      54.092      43.687      19.253      9.572       1.249       2.379       572.124     92.802      1.158       940.565     461.413     244.885     31.397      
127.8       124.451     134.051     2.264       4.007       106.273     25.792      13.893      53.998      56.435      21.376      10.451      1.298       2.588       571.404     142.559     1.164       961.232     514.532     299.037     27.405      
