~Version Information Section
VERS.                                         2.0:CWLS log ASCII Standart – VERSION 2.0
WRAP.                                          NO:One line per depth step
~Well Information Section
STRT.M                                        0.4:Начальная глубина
STOP.M                                      170.2:Конечная глубина
STEP.M                                          0:Шаг квантования по глубине
NULL.                                    -9999.25:Признак "Нет данных"
WELL.                                       121Мх:Скважина
~Parameter Information Section
~Curve Information Section
DEPTH.M                                          :Глубина
BK.Ohm*M                                         :BK     (БК)
DS.mm                                            :DS  (ДС)
GGK.g/cm3                                        :GGKp
ГК.mcr/h                                         :GK          (ГК)
GZ1.Ohm*M                                        :GZ1   ГЗ1(A0.4M0.1N)
GZ2.Ohm*M                                        :GZ2   ГЗ2(A1.0M0.1N)
GZ3.Ohm*M                                        :GZ3   ГЗ3(A2.0M0.5N)
GZ4.Ohm*M                                        :GZ4   ГЗ4(A4.0M0.5N)
GZ5.Ohm*M                                        :GZ5   ГЗ5(A8.0M0.5N)
GZR.Ohm*M                                        :GZK   ГЗK(N0.5M2.0A)
ИК.Ohm*M                                         :IK
НГК.u.e.                                         :NGK
NNKM.                                            :NNKm  (ННКм)
PS.mv                                            :PS       (ПС)
PZ.Ohm*M                                         :PZ    (КС)
RS.Ohm*M                                         :RS (Резистивиметр)
U1.mV                                            :U1
U2.mV                                            :U2
U3.mV                                            :U3
КП.%                                             :Кп
~ASCII LOG DATA
# ...
102.8       51.88       131.422     2.519       5.643       109.122     69.669      67.074      71.179      69.494      56.096      14.055      1.29        2.363       452.256     98.576      1.06        155.487     175.758     149.484     36.146      
103.0       65.917      131.469     2.496       5.285       123.742     74.386      69.757      74.149      70.781      55.966      14.292      1.332       2.363       454.848     98.365      1.06        174.945     175.192     213.569     35.069      
103.2       87.096      131.553     2.463       4.654       135.829     79.452      72.71       76.972      72.185      55.273      14.491      1.329       2.411       457.36      98.796      1.06        183.646     175.581     226.466     33.342      
103.4       153.815     131.706     2.488       4.63        142.99      84.51       75.112      80.507      72.954      54.246      14.457      1.31        2.529       460.016     101.874     1.06        177.583     168.054     176.808     30.315      
103.6       149.624     131.947     2.534       4.442       146.98      89.784      76.979      85.162      73.111      53.488      14.285      1.321       2.503       462.896     104.016     1.06        187.881     169.136     175.674     32.338      
103.8       151.008     132.211     2.52        4.648       144.883     91.712      78.079      88.321      72.702      51.58       14.032      1.331       2.51        465.728     103.872     1.06        198.118     170.85      170.768     35.335      
104.0       75.336      132.594     2.518       4.756       136.571     89.0        77.014      88.64       71.103      48.673      13.777      1.315       2.463       468.176     99.354      1.06        175.307     157.072     149.184     34.925      
104.2       134.586     132.621     2.517       4.683       122.481     81.854      72.834      86.358      67.613      44.937      13.514      1.317       2.494       470.464     88.958      1.06        138.801     143.459     148.04      33.446      
104.4       120.781     132.9       2.542       4.468       105.108     71.736      65.285      81.341      62.915      41.148      13.198      1.342       2.52        472.736     78.839      1.06        129.33      143.214     157.773     30.831      
104.6       141.906     133.217     2.592       4.754       83.347      59.075      55.958      74.291      57.554      37.413      12.869      1.38        2.608       474.864     72.924      1.06        145.18      168.016     171.077     25.751      
104.8       49.204      133.796     2.583       5.434       65.124      48.567      46.853      68.134      52.123      35.126      12.513      1.335       2.534       476.512     70.325      1.06        162.461     190.36      165.81      28.617      
105.0       44.771      133.96      2.551       5.706       54.66       42.475      40.016      64.508      47.781      34.346      12.167      1.235       2.31        477.584     68.87       1.06        166.495     188.879     162.87      33.211      
105.2       38.637      134.321     2.522       5.898       50.775      39.812      36.228      62.534      45.587      33.994      11.959      1.206       2.197       478.304     67.536      1.06        155.34      176.871     207.145     36.808      
105.4       35.4        134.82      2.527       6.164       48.93       38.859      34.975      61.817      45.238      33.799      11.898      1.132       2.183       479.184     66.216      1.06        150.618     182.733     226.726     37.647      
105.6       42.462      133.837     2.563       5.938       48.15       38.528      35.075      62.113      46.053      33.844      11.882      1.123       2.255       480.464     64.868      1.06        169.108     182.192     210.061     33.718      
105.8       40.551      134.511     2.553       6.082       48.496      37.813      35.989      63.705      47.759      34.307      11.881      1.219       2.262       482.016     63.509      1.06        190.242     163.926     223.041     32.566      
106.0       34.198      133.603     2.515       6.124       50.383      37.177      37.986      65.896      50.186      34.714      11.876      1.224       2.273       483.696     62.352      1.06        196.867     160.943     213.786     30.89       
106.2       34.119      133.444     2.565       5.899       53.212      37.503      40.592      68.206      52.871      35.336      11.94       1.245       2.235       485.376     61.659      1.06        195.787     164.99      162.509     29.822      
106.4       39.994      133.482     2.596       5.819       56.511      38.172      42.996      69.54       55.853      35.634      12.043      1.201       2.327       486.736     61.456      1.06        196.234     167.44      131.738     32.359      
106.6       38.726      133.379     2.551       5.645       59.969      39.409      45.146      69.987      58.547      35.626      12.191      1.239       2.31        487.2       61.456      1.06        190.669     170.889     136.898     33.442      
106.8       53.951      133.337     2.567       5.36        62.748      41.584      46.49       69.59       60.066      35.393      12.251      1.334       2.398       487.2       61.49       1.06        171.372     167.124     139.044     28.683      
107.0       72.111      133.322     2.659       5.621       64.184      43.705      45.843      68.681      60.595      34.965      12.234      1.434       2.471       486.512     61.69       1.06        154.342     155.753     155.374     26.666      
107.2       48.529      133.422     2.581       5.521       64.764      45.574      43.995      68.286      61.315      34.904      12.07       1.345       2.432       485.024     61.907      1.06        153.315     147.688     169.224     28.488      
107.4       47.973      133.451     2.508       5.263       65.64       48.482      43.14       69.499      61.605      35.928      11.859      1.246       2.42        483.248     61.939      1.06        165.582     156.724     174.749     31.783      
107.6       81.846      133.601     2.549       5.378       66.529      51.67       42.697      71.055      61.493      37.787      11.629      1.22        2.364       481.456     61.835      1.06        208.329     197.555     150.518     33.071      
107.8       86.696      133.848     2.543       5.83        65.053      51.453      41.285      70.767      62.027      39.485      11.336      1.237       2.397       479.696     61.234      1.06        224.662     199.938     132.062     32.56       
108.0       56.624      134.118     2.566       5.829       60.494      47.726      39.31       68.606      62.278      40.794      11.101      1.24        2.321       478.016     60.087      1.06        200.563     158.607     145.041     35.142      
108.2       46.238      134.077     2.576       5.669       55.747      42.726      36.635      65.044      61.008      41.167      10.894      1.241       2.257       476.464     58.6        1.06        149.081     146.55      182.056     35.406      
108.4       84.14       133.782     2.619       5.601       50.137      35.583      32.951      59.675      58.824      40.363      10.612      1.26        2.317       475.104     56.992      1.06        127.168     132.663     174.209     33.327      
108.6       51.761      133.863     2.613       5.641       44.683      27.372      28.832      54.335      56.864      39.675      10.161      1.177       2.354       473.888     55.28       1.06        112.69      115.228     186.149     31.829      
108.8       16.788      134.228     2.539       6.142       42.058      22.242      26.31       50.592      54.231      39.367      10.036      1.167       2.245       472.48      53.459      1.06        119.996     119.408     175.006     33.376      
109.0       44.361      134.732     2.486       6.043       43.014      20.923      24.936      48.597      51.724      39.487      10.327      1.099       2.128       470.688     51.709      1.06        136.092     136.24      153.686     37.228      
