~Version Information Section
VERS.                                         2.0:CWLS log ASCII Standart – VERSION 2.0
WRAP.                                          NO:One line per depth step
~Well Information Section
STRT.M                                        0.7:Начальная глубина
STOP.M                                      200.1:Конечная глубина
STEP.M                                          0:Шаг квантования по глубине
NULL.                                    -9999.25:Признак "Нет данных"
WELL.                                       111Мх:Скважина
~Parameter Information Section
~Curve Information Section
DEPTH.M                                          :Глубина
DСР.mm                                           :Dср
ГК.1/min                                         :GK
ИК.mSim/m                                        :IK
N0.5M2.0A.Омм                                    :N0
НГК.усл.ед                                       :NGK
PZ.Ohm*M                                         :PZ
R.Ohm*M                                          :R
PS.mV                                            :ПС
U1.mV                                            :U1
U2.                                              :U2
U3.mV                                            :U3
А0.4М0.1N.Омм                                    :А0
А1.0М0.1N.Омм                                    :А1
А2.0М0.5N.Омм                                    :А2
А4.0М0.5N.Oмм                                    :А4
А8.0М1.0N.Омм                                    :А8
BK.Ohm*M                                         :БК
ГГК.1/min                                        :ГГК
КП.%                                             :Кп
ННКМ.усл.ед                                      :ННКм
~ASCII LOG DATA
# ...
186.3       123.33      3.686       46.017      51.936      1.597       261.3       -9999.25    209.686     1357.999    1499.999    1330.0      195.546     81.91       71.703      49.971      75.524      102.746     2.197       25.874      2.575       
186.4       123.226     3.78        45.749      51.936      1.755       264.5       -9999.25    209.686     1302.8      1485.0      1318.8      195.546     81.958      71.703      49.971      73.494      109.199     2.219       24.785      2.664       
186.5       123.148     4.013       45.525      51.936      1.744       271.9       -9999.25    209.686     1286.0      1491.0      1313.2      195.546     82.006      71.703      49.971      70.578      121.833     2.262       23.753      2.81        
186.6       123.45      3.712       45.673      52.84       1.689       279.3       -9999.25    208.331     1271.599    1503.002    1310.4      197.341     82.006      73.229      50.805      67.117      137.896     2.32        22.363      3.051       
186.7       123.548     3.11        45.874      55.832      1.797       287.1       -9999.25    205.621     1257.201    1520.999    1304.8      204.272     84.754      77.169      53.717      63.375      151.466     2.381       20.526      3.284       
186.8       123.724     3.392       45.956      58.959      1.746       294.5       -9999.25    201.555     1228.4      1539.0      1304.8      216.863     91.212      82.656      59.094      59.294      235.452     2.438       18.095      3.446       
186.9       123.706     3.533       45.971      60.229      1.763       301.3       -9999.25    196.75      1211.601    1539.0      1307.6      233.466     100.127     89.531      66.353      54.757      358.016     2.476       15.886      3.566       
187.0       123.652     3.021       45.889      60.46       1.92        306.3       -9999.25    191.822     1211.6      1536.0      1321.6      255.601     112.427     97.962      75.085      49.87       433.727     2.5         13.815      3.63        
187.1       123.628     2.918       45.607      60.46       1.884       306.3       -9999.25    187.141     1209.2      1526.999    1341.201    283.799     126.818     107.208     84.934      44.918      505.085     2.505       12.793      3.655       
187.2       123.606     2.918       45.018      59.861      1.893       306.3       -9999.25    182.336     1209.2      1518.0      1350.08     315.288     141.292     116.52      94.408      40.492      576.534     2.504       12.26       3.616       
187.3       123.61      2.97        43.949      57.795      1.96        306.3       -9999.25    177.408     1216.4      1494.0      1351.322    340.805     155.899     125.192     102.072     37.424      623.45      2.496       12.897      3.54        
187.4       123.573     3.226       42.531      53.753      2.192       306.3       -9999.25    171.864     1214.0      1479.002    1350.066    355.99      169.363     132.252     107.595     36.014      634.712     2.479       13.764      3.44        
187.5       123.657     3.158       41.142      48.642      2.508       306.3       -9999.25    165.704     1199.6      1461.0      1337.606    366.335     180.073     137.26      110.98      35.696      585.162     2.46        15.125      3.3         
187.6       123.644     3.091       39.591      44.116      2.76        300.7       -9999.25    158.928     1182.798    1442.999    1318.059    370.732     188.48      140.226     112.407     35.696      476.064     2.438       16.306      3.148       
187.7       123.65      3.373       37.658      40.574      2.735       292.7       -9999.25    152.152     1168.117    1428.0      1313.159    370.732     194.818     142.04      112.705     35.795      377.641     2.417       17.183      3.096       
187.8       123.639     3.514       35.692      37.504      2.928       280.6       -9999.25    146.115     1158.82     1434.0      1314.911    369.941     199.487     143.376     112.644     36.41       353.578     2.398       17.724      3.107       
187.9       123.667     3.354       33.922      35.113      3.341       267.9       -9999.25    140.941     1157.13     1440.0      1320.303    364.279     201.553     143.935     112.165     37.944      341.279     2.386       17.907      3.121       
188.0       123.894     3.286       32.416      33.66       3.28        250.0       -9999.25    137.245     1163.134    1454.313    1318.278    355.383     201.447     143.565     110.448     39.758      299.581     2.389       17.552      3.158       
188.1       124.001     3.11        31.175      31.94       2.917       231.4       -9999.25    134.904     1181.326    1469.877    1307.742    341.173     197.41      141.423     106.317     40.759      296.476     2.406       17.176      3.244       
188.2       124.43      3.238       30.096      29.038      2.628       212.2       -9999.25    134.042     1198.763    1484.551    1293.284    319.08      188.785     135.298     98.747      40.962      238.355     2.435       16.606      3.305       
188.3       123.874     3.494       29.02       25.417      2.684       195.9       -9999.25    134.042     1210.814    1500.123    1284.856    278.28      172.215     123.918     87.366      40.748      119.076     2.473       16.117      3.304       
188.4       123.951     3.51        27.836      21.833      2.501       180.0       -9999.25    134.042     1228.1      1520.992    1280.182    217.435     143.384     107.686     72.903      39.786      67.047      2.504       17.071      3.229       
188.5       123.973     3.533       26.607      18.863      2.437       165.8       -9999.25    134.042     1249.789    1535.593    1282.929    155.832     108.8       87.202      57.353      37.683      45.689      2.518       18.296      3.117       
188.6       123.938     4.518       25.206      17.288      2.313       161.9       -9999.25    135.397     1264.09     1548.945    1293.845    104.661     78.477      66.848      44.025      34.455      28.463      2.501       20.033      2.841       
188.7       123.963     5.011       23.674      16.954      2.592       159.5       -9999.25    139.216     1266.01     1556.362    1321.479    63.604      53.975      52.264      35.509      30.498      27.988      2.461       21.225      2.554       
188.8       123.919     5.395       22.419      16.954      2.52        159.5       -9999.25    145.499     1238.389    1551.008    1375.471    42.736      38.821      44.342      31.808      26.294      50.573      2.419       21.967      2.466       
188.9       123.931     5.472       21.636      16.954      2.445       158.3       -9999.25    154.37      1178.878    1531.917    1447.714    41.404      35.475      41.93       31.027      22.094      115.273     2.386       22.337      2.496       
189.0       123.911     5.222       21.352      17.672      2.441       156.7       -9999.25    165.334     1101.421    1505.383    1519.971    41.404      35.475      41.93       31.027      18.182      143.455     2.373       22.529      2.707       
189.1       123.944     5.222       21.424      19.652      2.466       154.8       -9999.25    176.669     1023.965    1476.768    1575.882    41.404      35.475      41.93       31.027      14.818      105.714     2.377       21.803      2.853       
189.2       123.893     5.818       21.489      22.178      2.39        152.7       -9999.25    187.88      969.49      1448.049    1575.236    44.92       37.896      42.108      31.536      11.983      121.327     2.387       20.891      2.863       
189.3       124.02      5.568       21.28       25.456      2.26        151.5       -9999.25    198.722     953.049     1421.547    1514.342    52.21       43.359      45.04       34.445      9.772       222.391     2.395       19.372      2.854       
189.4       124.05      5.069       20.795      27.592      2.037       150.4       -9999.25    210.918     965.259     1396.283    1428.805    68.329      49.285      50.637      37.046      8.371       351.738     2.404       18.303      2.832       
