~Version Information Section
VERS.                                         2.0:CWLS log ASCII Standart – VERSION 2.0
WRAP.                                          NO:One line per depth step
~Well Information Section
STRT.M                                        0.1:Начальная глубина
STOP.M                                      153.3:Конечная глубина
STEP.M                                          0:Шаг квантования по глубине
NULL.                                    -9999.25:Признак "Нет данных"
WELL.                                        144К:Скважина
~Parameter Information Section
~Curve Information Section
DEPTH.M                                          :Глубина
БК.Омм                                           :BK     (БК)
DСР.мм                                           :DS  (ДС)
ПЛОТНОСТЬ.г/см^3                                 :GGKp
ГК.мкР/ч                                         :GK          (ГК)
А0.4М0.1N.Омм                                    :GZ1   ГЗ1(A0.4M0.1N)
А1.0М0.1N.Омм                                    :GZ2   ГЗ2(A1.0M0.1N)
А2.0М0.5N.Омм                                    :GZ3   ГЗ3(A2.0M0.5N)
А4.0М0.5N.Oмм                                    :GZ4   ГЗ4(A4.0M0.5N)
А8.0М1.0N.Омм                                    :GZ5   ГЗ5(A8.0M0.5N)
N0.5M2.0A.Омм                                    :GZR   ГЗK(N0.5M2.0A)
ИК.мСм/м                                         :IK
БЗ.ue                                            :NNKb  (ННКб)
МЗ.ue                                            :NNKm  (ННКм)
ПС.mv                                            :PS       (ПС)
N11.0M0.5A.Омм                                   :PZ    (КС)
R.Омм                                            :RS (Резистивиметр)
ПОРИСТОСТЬ.                                      :W
~ASCII LOG DATA
# ...
144.4       48.09       150.757     2.208       4.912       39.419      33.104      14.677      -9999.25    6.745       -9999.25    17.607      3.155       1.998       36.466      73.235      -9999.25    31.796      
144.5       48.754      150.8       2.21        4.928       38.383      32.904      15.354      -9999.25    6.732       -9999.25    17.61       3.111       1.996       36.111      71.857      -9999.25    31.828      
144.6       50.865      150.891     2.219       4.87        37.513      32.741      16.241      -9999.25    6.732       -9999.25    17.616      3.138       1.984       35.701      70.777      -9999.25    31.654      
144.7       51.094      150.962     2.231       4.712       37.036      32.785      17.459      -9999.25    6.746       -9999.25    17.648      3.202       1.96        35.278      69.785      -9999.25    31.051      
144.8       51.149      150.92      2.241       4.514       37.242      33.207      19.107      -9999.25    6.858       -9999.25    17.692      3.299       1.938       34.883      68.978      -9999.25    30.124      
144.9       53.871      150.986     2.243       4.321       38.186      33.839      20.889      -9999.25    6.912       -9999.25    17.821      3.43        1.953       34.564      68.435      -9999.25    29.101      
145.0       62.65       151.042     2.239       4.119       39.913      34.242      22.324      -9999.25    6.912       -9999.25    18.096      3.609       1.988       34.364      67.952      -9999.25    28.248      
145.1       72.195      151.204     2.23        3.935       41.252      34.337      22.958      -9999.25    6.899       -9999.25    18.289      3.83        2.081       34.309      67.559      -9999.25    27.695      
145.2       70.623      150.964     2.219       3.837       41.707      33.647      23.006      -9999.25    6.824       -9999.25    18.46       3.985       2.169       34.408      67.469      -9999.25    27.387      
145.3       59.174      150.977     2.208       3.825       -9999.25    32.278      22.898      -9999.25    6.73        -9999.25    18.546      4.036       2.194       34.65       67.27       -9999.25    27.19       
145.4       56.684      150.99      2.2         3.859       -9999.25    31.24       22.624      -9999.25    6.637       -9999.25    18.517      3.896       2.155       35.013      -9999.25    -9999.25    27.186      
145.5       56.056      150.974     2.195       3.883       -9999.25    30.686      22.457      -9999.25    6.518       -9999.25    18.459      3.685       2.087       35.483      -9999.25    -9999.25    27.348      
145.6       55.818      150.893     2.194       3.906       -9999.25    30.455      22.542      -9999.25    6.413       -9999.25    18.426      3.475       2.03        36.037      -9999.25    -9999.25    27.596      
145.7       55.352      151.01      2.197       3.888       -9999.25    30.323      22.841      -9999.25    6.321       -9999.25    18.433      3.468       2.007       36.639      -9999.25    -9999.25    27.746      
145.8       54.737      151.061     2.201       3.855       -9999.25    30.329      23.411      -9999.25    6.217       -9999.25    18.478      3.56        1.998       37.261      -9999.25    -9999.25    27.665      
145.9       53.756      151.121     2.208       3.863       -9999.25    -9999.25    24.174      -9999.25    6.217       -9999.25    18.578      3.741       1.999       37.862      -9999.25    -9999.25    27.436      
146.0       53.084      151.255     2.22        3.92        -9999.25    -9999.25    25.007      -9999.25    6.238       -9999.25    18.737      3.846       2.01        38.419      -9999.25    -9999.25    27.225      
146.1       54.806      151.07      2.237       4.01        -9999.25    -9999.25    25.601      -9999.25    6.324       -9999.25    18.858      3.881       2.042       38.92       -9999.25    -9999.25    27.17       
146.2       58.007      151.307     2.256       4.052       -9999.25    -9999.25    25.768      -9999.25    6.444       -9999.25    18.991      3.851       2.082       39.369      -9999.25    -9999.25    27.284      
146.3       57.68       151.224     2.272       4.081       -9999.25    -9999.25    25.762      -9999.25    6.444       -9999.25    19.108      3.801       2.099       39.785      -9999.25    -9999.25    27.499      
146.4       55.76       151.229     2.284       4.037       -9999.25    -9999.25    25.592      -9999.25    6.437       -9999.25    19.246      3.774       2.098       40.191      -9999.25    -9999.25    27.791      
146.5       58.085      151.41      2.291       3.965       -9999.25    -9999.25    25.326      -9999.25    6.363       -9999.25    19.287      3.767       2.087       40.605      -9999.25    -9999.25    28.094      
146.6       59.183      151.497     2.295       3.839       -9999.25    -9999.25    25.176      -9999.25    6.309       -9999.25    19.314      3.777       2.086       41.17       -9999.25    -9999.25    28.374      
146.7       57.719      151.551     2.297       3.732       -9999.25    -9999.25    25.117      -9999.25    6.258       -9999.25    19.332      3.742       2.101       41.746      -9999.25    -9999.25    28.5        
146.8       57.339      151.461     2.296       3.623       -9999.25    -9999.25    25.108      -9999.25    6.299       -9999.25    19.367      3.701       2.113       42.377      -9999.25    -9999.25    28.474      
146.9       56.435      150.586     2.295       3.562       -9999.25    -9999.25    25.111      -9999.25    -9999.25    -9999.25    19.432      3.656       2.11        43.1        -9999.25    -9999.25    28.172      
147.0       57.298      151.459     2.294       3.539       -9999.25    -9999.25    25.208      -9999.25    -9999.25    -9999.25    19.508      3.676       2.1         43.423      -9999.25    -9999.25    27.66       
147.1       63.099      151.598     2.292       3.588       -9999.25    -9999.25    -9999.25    -9999.25    -9999.25    -9999.25    19.568      3.754       2.101       43.812      -9999.25    -9999.25    26.966      
147.2       65.375      150.462     2.283       3.643       -9999.25    -9999.25    -9999.25    -9999.25    -9999.25    -9999.25    19.61       3.923       2.128       44.273      -9999.25    -9999.25    26.239      
147.3       64.449      150.047     2.268       3.658       -9999.25    -9999.25    -9999.25    -9999.25    -9999.25    -9999.25    19.652      4.096       2.163       44.809      -9999.25    -9999.25    25.565      
147.4       62.009      150.001     2.249       3.613       -9999.25    -9999.25    -9999.25    -9999.25    -9999.25    -9999.25    19.633      4.226       2.194       -9999.25    -9999.25    -9999.25    24.963      
147.5       57.78       149.738     2.234       3.595       -9999.25    -9999.25    -9999.25    -9999.25    -9999.25    -9999.25    19.602      4.233       2.188       -9999.25    -9999.25    -9999.25    24.436      
147.6       57.849      149.732     2.225       3.631       -9999.25    -9999.25    -9999.25    -9999.25    -9999.25    -9999.25    19.651      4.208       2.141       -9999.25    -9999.25    -9999.25    24.15       
147.7       60.614      149.762     2.224       3.724       -9999.25    -9999.25    -9999.25    -9999.25    -9999.25    -9999.25    19.617      4.163       2.11        -9999.25    -9999.25    -9999.25    24.123      
147.8       62.818      149.809     2.23        3.866       -9999.25    -9999.25    -9999.25    -9999.25    -9999.25    -9999.25    19.608      4.171       2.099       -9999.25    -9999.25    -9999.25    24.308      
147.9       61.426      149.83      2.239       4.046       -9999.25    -9999.25    -9999.25    -9999.25    -9999.25    -9999.25    19.711      4.145       2.122       -9999.25    -9999.25    -9999.25    24.533      
148.0       57.492      149.794     2.243       4.178       -9999.25    -9999.25    -9999.25    -9999.25    -9999.25    -9999.25    19.748      4.111       2.121       -9999.25    -9999.25    -9999.25    24.695      
