~Version Information Section
VERS.                                         2.0:CWLS log ASCII Standart – VERSION 2.0
WRAP.                                          NO:One line per depth step
~Well Information Section
STRT.M                                        1.0:Начальная глубина
STOP.M                                      199.5:Конечная глубина
STEP.M                                          0:Шаг квантования по глубине
NULL.                                    -9999.25:Признак "Нет данных"
WELL.                                       122Мх:Скважина
~Parameter Information Section
~Curve Information Section
DEPTH.M                                          :Глубина
БК.Омм                                           :BK     (БК)
DСР.мм                                           :DS  (ДС)
ГК.гамма                                         :GK          (ГК)
А0.4М0.1N.Омм.ohmm                               :GZ1   ГЗ1(A0.4M0.1N)
А1.0М0.1N.Омм.ohmm                               :GZ2   ГЗ2(A1.0M0.1N)
А2.0М0.5N.Омм.ohmm                               :GZ3   ГЗ3(A2.0M0.5N)
А4.0М0.5N.Oмм.ohmm                               :GZ4   ГЗ4(A4.0M0.5N)
А8.0М1.0N.Омм.ohmm                               :GZ5   ГЗ5(A8.0M0.5N)
N0.5M2.0A.Омм.ohmm                               :GZK   ГЗK(N0.5M2.0A)
ИК.мСм/м                                         :IK
НГК.усл.ед                                       :NGK     (НГК)
ПС.mv                                            :PS       (ПС)
КС.Омм                                           :PZ    (КС)
R.Омм                                            :RS (Резистивиметр)
ПЛОТНОСТЬ.г/см3                                  :ГГКп
П.                                               :п
ННКМ.усл.ед                                      :ННКм
~ASCII LOG DATA
# ...
30.6        16.485      155.639     3.604       59.173      54.306      53.141      50.189      31.986      64.304      19.386      1.322       29.0        20.394      1.223       2.484       32.892      150.429     
30.7        16.821      154.805     3.658       71.456      51.345      53.242      49.894      30.999      61.705      20.029      1.358       32.375      20.854      1.224       2.476       31.378      157.518     
30.8        20.302      153.074     3.901       57.729      34.174      48.11       43.223      30.377      53.608      20.54       1.361       33.0        25.172      1.215       2.464       30.117      161.775     
30.9        28.112      153.818     4.382       33.005      18.065      36.732      30.057      29.143      39.559      20.738      1.321       33.188      30.322      1.212       2.454       29.337      162.625     
31.0        27.259      154.291     4.812       22.987      11.484      23.275      17.094      26.805      28.61       21.044      1.272       33.375      32.767      1.212       2.453       28.711      161.763     
31.1        21.188      155.275     5.138       21.506      10.134      15.864      11.23       21.194      27.36       21.485      1.259       33.563      32.103      1.212       2.464       28.237      161.212     
31.2        17.81       155.725     5.212       22.32       12.73       13.874      10.249      16.334      30.145      22.213      1.283       33.625      30.119      1.212       2.481       27.756      161.049     
31.3        16.5        155.205     5.397       27.533      17.592      13.767      10.245      12.499      32.263      23.058      1.315       32.875      28.469      1.212       2.493       27.4        159.054     
31.4        16.039      155.419     5.738       30.503      19.577      13.784      10.49       10.86       34.715      24.305      1.334       31.5        27.621      1.213       2.49        27.311      154.793     
31.5        15.809      153.083     6.108       29.109      20.063      13.425      10.644      12.928      37.341      26.199      1.32        30.25       28.508      1.212       2.471       27.427      152.834     
31.6        23.123      150.634     6.492       26.213      22.101      11.995      10.061      16.81       40.783      27.917      1.266       29.0        30.542      1.212       2.447       27.817      153.293     
31.7        45.066      147.813     6.681       23.823      22.503      11.608      9.455       19.385      49.935      29.099      1.201       25.625      32.074      1.212       2.426       28.683      153.504     
31.8        54.736      144.156     6.738       21.57       20.591      14.265      11.541      20.918      75.98       29.717      1.148       23.0        31.56       1.212       2.417       29.337      153.469     
31.9        51.844      143.62      6.515       19.238      26.035      18.089      16.662      21.885      117.854     30.259      1.124       21.875      29.555      1.212       2.417       30.063      152.59      
32.0        47.509      143.676     5.871       24.437      42.635      20.968      20.4        22.503      148.531     30.479      1.117       20.625      28.485      1.212       2.42        31.113      150.757     
32.1        44.692      146.996     4.816       33.783      55.075      23.095      21.664      22.795      157.907     30.862      1.133       19.875      29.39       1.214       2.42        32.03       148.898     
32.2        37.057      150.224     3.875       35.347      48.294      24.659      23.092      22.823      154.328     31.438      1.17        19.125      34.836      1.224       2.412       32.951      148.305     
32.3        33.602      146.611     3.341       34.012      35.42       22.786      23.354      22.62       128.191     32.02       1.216       19.5        45.514      1.23        2.396       33.654      149.16      
32.4        33.375      147.828     3.345       39.727      30.081      18.509      20.827      22.226      89.287      32.753      1.233       20.0        54.026      1.23        2.375       34.067      149.496     
32.5        31.072      145.627     3.53        57.106      27.72       15.716      17.958      19.679      70.059      33.831      1.205       18.875      57.704      1.229       2.358       34.718      150.261     
32.6        31.399      141.178     3.827       69.254      24.474      13.837      15.243      15.306      60.428      34.882      1.152       17.75       59.229      1.228       2.351       35.23       150.572     
32.7        38.452      141.053     4.132       66.465      20.729      12.519      12.195      12.433      50.27       35.684      1.104       17.5        59.444      1.224       2.35        35.532      151.684     
32.8        48.83       141.283     4.311       60.613      18.917      12.868      9.897       10.888      47.655      36.484      1.072       17.125      60.12       1.221       2.346       35.813      150.595     
32.9        58.692      141.597     4.337       53.441      18.748      14.603      8.17        10.351      49.586      36.93       1.045       16.75       61.396      1.22        2.334       35.907      146.559     
33.0        56.522      141.836     4.185       45.507      21.41       16.462      7.174       9.993       56.835      36.793      1.034       16.375      62.487      1.218       2.314       35.78       143.814     
33.1        50.123      141.389     3.878       40.775      32.615      17.962      7.465       10.041      65.779      36.963      1.06        17.375      62.683      1.219       2.291       35.683      142.977     
33.2        45.254      141.631     3.367       45.735      47.137      19.458      8.745       10.571      72.652      37.274      1.126       18.125      62.616      1.224       2.267       35.316      143.448     
33.3        43.607      141.995     2.97        53.707      62.695      21.057      10.316      11.388      76.764      37.27       1.182       18.625      63.132      1.229       2.25        34.868      144.166     
33.4        44.36       142.159     2.748       57.813      73.357      22.971      12.139      12.092      77.028      36.984      1.199       19.5        64.114      1.233       2.239       34.281      144.049     
33.5        44.324      141.355     2.845       63.525      75.806      25.336      13.972      12.489      72.967      37.007      1.178       20.375      65.561      1.231       2.236       33.735      143.605     
33.6        44.175      141.192     2.991       68.981      76.148      27.223      14.78       12.895      64.375      37.055      1.16        20.875      66.489      1.229       2.239       33.323      143.62      
33.7        44.065      141.656     3.147       72.773      75.787      28.245      14.512      13.249      53.579      36.99       1.151       20.125      66.585      1.228       2.25        32.919      143.995     
33.8        42.127      142.181     3.275       72.639      73.009      28.67       13.688      13.087      42.688      37.084      1.152       19.25       66.994      1.227       2.269       32.199      144.351     
33.9        40.693      141.481     3.375       68.071      67.651      28.684      12.921      13.219      34.725      36.372      1.164       17.5        67.835      1.227       2.293       31.628      144.785     
34.0        43.226      141.474     3.391       65.365      63.881      28.686      12.59       13.678      31.321      36.061      1.182       16.25       69.31       1.227       2.316       31.082      144.219     
34.1        50.992      141.669     3.335       65.285      61.869      29.402      12.341      14.059      29.911      35.158      1.199       16.375      71.085      1.228       2.336       30.67       144.187     
34.2        59.044      141.823     3.242       66.184      62.341      33.562      12.108      14.322      29.897      34.076      1.202       16.25       72.408      1.228       2.35        30.222      143.651     
