~Version Information Section
VERS.                                         2.0:CWLS log ASCII Standart – VERSION 2.0
WRAP.                                          NO:One line per depth step
~Well Information Section
STRT.M                                       1.07:Начальная глубина
STOP.M                                     192.17:Конечная глубина
STEP.M                                          0:Шаг квантования по глубине
NULL.                                    -9999.25:Признак "Нет данных"
WELL.                                        151К:Скважина
~Parameter Information Section
~Curve Information Section
DEPTH.M                                          :Глубина
BK.Ohm*M                                         :BK     (БК)
DS.mm                                            :DS  (ДС)
GGK.g/cm3                                        :GGKp
ГК.mcr/h                                         :GK          (ГК)
GZ1.Ohm*M                                        :GZ1   ГЗ1(A0.4M0.1N)
GZ2.Ohm*M                                        :GZ2   ГЗ2(A1.0M0.1N)
GZ3.Ohm*M                                        :GZ3   ГЗ3(A2.0M0.5N)
GZ4.Ohm*M                                        :GZ4   ГЗ4(A4.0M0.5N)
GZ5.Ohm*M                                        :GZ5   ГЗ5(A8.0M0.5N)
GZR.                                             :GZR   ГЗK(N0.5M2.0A)
ИК.Ohm*M                                         :IK
НГК.ue                                           :NGK     (НГК)
NNKM.                                            :NNKm  (ННКм)
PS.mv                                            :PS       (ПС)
PZ.Ohm*M                                         :PZ    (КС)
RS.Ohm*M                                         :RS (Резистивиметр)
W.%                                              :W
~ASCII LOG DATA
# ...
86.87       18.301      152.152     2.171       8.499       -9999.25    -9999.25    -9999.25    -9999.25    -9999.25    -9999.25    15.81       0.84        1.12        488.482     17.753      1.133       30.963      
86.9        -9999.25    -9999.25    -9999.25    -9999.25    23.142      22.377      19.997      20.107      14.955      20.391      -9999.25    -9999.25    -9999.25    -9999.25    -9999.25    -9999.25    -9999.25    
86.97       19.25       152.813     2.169       8.51        -9999.25    -9999.25    -9999.25    -9999.25    -9999.25    -9999.25    15.415      0.829       1.12        488.03      17.178      1.133       30.427      
87.0        -9999.25    -9999.25    -9999.25    -9999.25    23.138      21.956      18.698      18.499      14.745      19.069      -9999.25    -9999.25    -9999.25    -9999.25    -9999.25    -9999.25    -9999.25    
87.07       17.729      153.527     2.166       8.52        -9999.25    -9999.25    -9999.25    -9999.25    -9999.25    -9999.25    15.091      0.789       1.113       487.837     16.697      1.14        30.442      
87.1        -9999.25    -9999.25    -9999.25    -9999.25    22.379      19.589      17.718      16.977      14.451      17.95       -9999.25    -9999.25    -9999.25    -9999.25    -9999.25    -9999.25    -9999.25    
87.17       16.247      154.188     2.162       8.637       -9999.25    -9999.25    -9999.25    -9999.25    -9999.25    -9999.25    14.78       0.752       1.103       488.203     16.203      1.141       30.642      
87.2        -9999.25    -9999.25    -9999.25    -9999.25    19.604      16.64       17.611      16.2        14.044      17.005      -9999.25    -9999.25    -9999.25    -9999.25    -9999.25    -9999.25    -9999.25    
87.27       15.702      154.533     2.156       8.941       -9999.25    -9999.25    -9999.25    -9999.25    -9999.25    -9999.25    14.515      0.735       1.091       488.91      15.6        1.139       31.352      
87.3        -9999.25    -9999.25    -9999.25    -9999.25    17.863      16.449      17.385      15.436      13.392      16.508      -9999.25    -9999.25    -9999.25    -9999.25    -9999.25    -9999.25    -9999.25    
87.37       13.687      153.592     2.151       9.245       -9999.25    -9999.25    -9999.25    -9999.25    -9999.25    -9999.25    14.272      0.739       1.075       489.35      14.925      1.139       32.683      
87.4        -9999.25    -9999.25    -9999.25    -9999.25    17.174      16.268      17.094      14.648      13.045      16.525      -9999.25    -9999.25    -9999.25    -9999.25    -9999.25    -9999.25    -9999.25    
87.47       11.317      153.324     2.146       9.541       -9999.25    -9999.25    -9999.25    -9999.25    -9999.25    -9999.25    14.038      0.741       1.056       489.272     14.421      1.141       34.219      
87.5        -9999.25    -9999.25    -9999.25    -9999.25    15.813      15.082      16.454      14.07       12.83       16.643      -9999.25    -9999.25    -9999.25    -9999.25    -9999.25    -9999.25    -9999.25    
87.57       10.941      155.595     2.141       9.744       -9999.25    -9999.25    -9999.25    -9999.25    -9999.25    -9999.25    13.742      0.737       1.031       488.69      14.156      1.142       35.789      
87.6        -9999.25    -9999.25    -9999.25    -9999.25    14.085      13.892      15.199      13.216      12.426      16.51       -9999.25    -9999.25    -9999.25    -9999.25    -9999.25    -9999.25    -9999.25    
87.67       11.482      155.791     2.137       9.947       -9999.25    -9999.25    -9999.25    -9999.25    -9999.25    -9999.25    13.404      0.726       1.007       487.865     14.273      1.142       37.418      
87.7        -9999.25    -9999.25    -9999.25    -9999.25    12.54       12.448      14.032      12.132      12.237      16.358      -9999.25    -9999.25    -9999.25    -9999.25    -9999.25    -9999.25    -9999.25    
87.77       11.366      154.0       2.133       10.095      -9999.25    -9999.25    -9999.25    -9999.25    -9999.25    -9999.25    13.161      0.718       0.983       486.822     14.621      1.141       38.627      
87.8        -9999.25    -9999.25    -9999.25    -9999.25    11.611      11.71       13.341      11.345      12.255      16.275      -9999.25    -9999.25    -9999.25    -9999.25    -9999.25    -9999.25    -9999.25    
87.87       10.824      153.69      2.129       10.238      -9999.25    -9999.25    -9999.25    -9999.25    -9999.25    -9999.25    13.028      0.726       0.98        485.53      14.928      1.14        38.767      
87.9        -9999.25    -9999.25    -9999.25    -9999.25    11.701      11.765      12.861      10.871      12.237      16.277      -9999.25    -9999.25    -9999.25    -9999.25    -9999.25    -9999.25    -9999.25    
87.97       10.45       154.988     2.124       10.38       -9999.25    -9999.25    -9999.25    -9999.25    -9999.25    -9999.25    12.947      0.748       0.995       484.426     15.254      1.14        38.339      
88.0        -9999.25    -9999.25    -9999.25    -9999.25    12.053      11.407      12.789      10.633      12.327      17.118      -9999.25    -9999.25    -9999.25    -9999.25    -9999.25    -9999.25    -9999.25    
88.07       10.518      154.682     2.119       10.306      -9999.25    -9999.25    -9999.25    -9999.25    -9999.25    -9999.25    12.927      0.769       1.014       483.953     15.608      1.139       37.679      
88.1        -9999.25    -9999.25    -9999.25    -9999.25    11.993      10.974      13.174      10.847      12.452      18.915      -9999.25    -9999.25    -9999.25    -9999.25    -9999.25    -9999.25    -9999.25    
88.17       11.358      153.37      2.116       9.9         -9999.25    -9999.25    -9999.25    -9999.25    -9999.25    -9999.25    12.974      0.786       1.021       484.365     15.849      1.137       36.977      
88.2        -9999.25    -9999.25    -9999.25    -9999.25    12.593      11.371      13.608      11.36       12.404      20.868      -9999.25    -9999.25    -9999.25    -9999.25    -9999.25    -9999.25    -9999.25    
88.27       12.027      152.728     2.115       9.494       -9999.25    -9999.25    -9999.25    -9999.25    -9999.25    -9999.25    13.07       0.799       1.021       485.35      16.004      1.135       36.336      
88.3        -9999.25    -9999.25    -9999.25    -9999.25    13.898      12.724      14.067      11.731      12.448      21.734      -9999.25    -9999.25    -9999.25    -9999.25    -9999.25    -9999.25    -9999.25    
88.37       12.298      152.498     2.118       9.18        -9999.25    -9999.25    -9999.25    -9999.25    -9999.25    -9999.25    13.242      0.807       1.031       486.568     16.146      1.134       35.964      
88.4        -9999.25    -9999.25    -9999.25    -9999.25    15.419      13.784      14.3        11.9        12.542      21.292      -9999.25    -9999.25    -9999.25    -9999.25    -9999.25    -9999.25    -9999.25    
88.47       13.176      153.029     2.123       9.048       -9999.25    -9999.25    -9999.25    -9999.25    -9999.25    -9999.25    13.549      0.79        1.084       487.887     16.433      1.137       35.47       
88.5        -9999.25    -9999.25    -9999.25    -9999.25    16.592      13.406      14.02       11.767      12.951      20.31       -9999.25    -9999.25    -9999.25    -9999.25    -9999.25    -9999.25    -9999.25    
88.57       14.705      153.518     2.131       8.916       -9999.25    -9999.25    -9999.25    -9999.25    -9999.25    -9999.25    14.037      0.75        1.153       489.01      17.13       1.139       34.77       
88.6        -9999.25    -9999.25    -9999.25    -9999.25    16.675      12.05       13.036      11.314      14.41       19.699      -9999.25    -9999.25    -9999.25    -9999.25    -9999.25    -9999.25    -9999.25    
88.67       15.572      154.38      2.14        8.941       -9999.25    -9999.25    -9999.25    -9999.25    -9999.25    -9999.25    14.653      0.721       1.19        489.816     18.279      1.14        34.624      
