~Version Information Section
VERS.                                         2.0:CWLS log ASCII Standart – VERSION 2.0
WRAP.                                          NO:One line per depth step
~Well Information Section
STRT.M                                        1.2:Начальная глубина
STOP.M                                      169.7:Конечная глубина
STEP.M                                          0:Шаг квантования по глубине
NULL.                                    -9999.25:Признак "Нет данных"
WELL.                                       115Мх:Скважина
~Parameter Information Section
~Curve Information Section
DEPTH.M                                          :Глубина
BK.Ohm*M                                         :BK     (БК)
DS.mm                                            :DS  (ДС)
GGK.g/cm3                                        :GGKp
ГК.mcr/h                                         :GK          (ГК)
GZ1.Ohm*M                                        :GZ1   ГЗ1(A0.4M0.1N)
GZ2.Ohm*M                                        :GZ2   ГЗ2(A1.0M0.1N)
GZ3.Ohm*M                                        :GZ3   ГЗ3(A2.0M0.5N)
GZ4.Ohm*M                                        :GZ4   ГЗ4(A4.0M0.5N)
GZ5.Ohm*M                                        :GZ5   ГЗ5(A8.0M0.5N)
GZR.Ohm*M                                        :GZK   ГЗK(N0.5M2.0A)
ИК.Ohm*M                                         :IK
НГК.ue                                           :NGK     (НГК)
NNKM.                                            :NNKm  (ННКм)
PS.mv                                            :PS       (ПС)
PZ.Ohm*M                                         :PZ    (КС)
RS.Ohm*M                                         :RS (Резистивиметр)
U1.mV                                            :U1
U2.mV                                            :U2
U3.mV                                            :U3
КП.%                                             :Кп
~ASCII LOG DATA
# ...
158.0       14.421      130.185     2.308       7.108       8.705       20.078      12.677      16.825      15.371      17.019      19.745      1.124       1.978       1168.006    76.175      -9999.25    321.882     450.147     652.604     31.507      
158.1       13.092      139.162     2.294       6.897       9.269       19.978      12.377      16.125      14.371      15.619      19.831      1.169       2.013       1168.006    76.083      -9999.25    309.555     438.917     686.176     30.254      
158.2       14.223      135.6       2.31        6.746       10.133      19.378      12.177      14.325      13.871      14.919      21.22       1.185       2.143       1168.006    75.65       -9999.25    462.714     540.929     750.32      30.019      
158.3       17.258      126.272     2.311       6.654       11.19       15.178      14.177      14.225      13.271      14.819      22.259      1.184       2.255       1168.006    74.957      -9999.25    816.088     793.811     874.999     30.167      
158.4       13.836      123.596     2.316       6.806       11.999      12.502      15.177      14.125      13.271      13.319      22.818      1.181       2.271       1168.006    74.042      -9999.25    1154.753    1013.721    943.783     28.872      
158.5       14.223      123.823     2.335       6.799       12.542      13.083      16.477      14.125      13.271      15.219      23.527      1.212       2.393       1168.006    72.994      -9999.25    1189.852    951.872     796.715     25.141      
158.6       15.241      123.854     2.355       6.54        13.045      13.833      16.577      14.125      13.371      15.319      24.281      1.306       2.667       1167.766    71.887      -9999.25    962.712     689.583     534.714     21.164      
158.7       17.1        123.416     2.386       5.974       14.122      14.605      16.677      14.225      13.471      15.719      25.651      1.445       2.978       1167.286    70.821      -9999.25    662.738     468.32      402.463     17.194      
158.8       17.906      123.208     2.447       5.014       15.228      15.744      16.877      16.925      13.671      15.819      25.651      1.632       3.347       1166.806    69.828      -9999.25    480.0       418.567     454.662     14.295      
158.9       46.666      123.096     2.556       4.316       17.012      18.208      16.977      16.025      14.171      15.819      25.365      1.902       3.651       1166.086    68.93       -9999.25    394.068     401.281     470.516     12.41       
159.0       47.315      123.103     2.628       3.855       16.311      18.036      16.777      15.725      14.171      15.819      24.411      2.202       3.815       1165.126    68.198      -9999.25    384.774     336.034     344.957     11.437      
159.1       52.119      123.125     2.65        3.608       14.609      17.437      16.077      15.625      14.071      15.819      23.286      2.526       3.922       1164.166    67.639      -9999.25    518.75      338.37      240.842     11.623      
159.2       55.081      123.141     2.649       3.43        14.035      17.558      15.877      15.225      14.071      15.819      22.479      2.697       3.972       1162.966    67.248      -9999.25    734.49      444.7       267.578     12.122      
159.3       57.412      123.158     2.634       3.203       13.235      17.528      15.577      15.125      13.271      15.819      21.937      2.698       3.853       1161.526    67.009      -9999.25    907.657     567.936     354.306     13.626      
159.4       55.081      123.179     2.593       3.195       12.206      16.612      15.277      14.925      13.171      15.719      21.937      2.64        3.674       1160.086    66.855      -9999.25    959.106     627.124     409.718     14.708      
159.5       48.641      123.276     2.583       3.278       10.297      15.308      14.677      14.425      13.071      15.719      21.22       2.483       3.511       1158.646    66.777      -9999.25    930.297     645.138     446.954     16.663      
159.6       69.663      123.412     2.582       3.442       9.034       14.292      14.077      -9999.25    12.671      -9999.25    19.918      2.266       3.351       1157.206    66.796      -9999.25    904.23      668.153     493.074     17.746      
159.7       53.58       123.328     2.555       3.682       8.515       14.024      13.377      -9999.25    12.471      -9999.25    19.002      2.034       3.204       1156.006    66.907      -9999.25    894.326     704.814     553.708     19.191      
159.8       40.644      123.38      2.542       3.948       8.686       13.95       13.177      -9999.25    11.771      -9999.25    18.24       1.912       3.089       1154.806    67.076      -9999.25    933.712     775.46      640.484     19.319      
159.9       35.4        123.558     2.521       4.383       8.896       13.879      12.977      -9999.25    11.371      -9999.25    17.204      1.915       3.068       1153.366    67.317      -9999.25    979.272     846.413     729.083     18.607      
160.0       31.261      123.558     2.512       4.713       9.472       14.27       12.877      -9999.25    10.971      -9999.25    17.742      1.851       3.037       1152.166    67.653      -9999.25    902.05      824.291     763.021     18.964      
160.1       26.853      123.534     2.543       4.923       8.727       13.301      12.577      -9999.25    10.871      -9999.25    17.27       1.73        2.985       1151.206    68.036      -9999.25    738.442     720.76      730.906     21.763      
160.2       15.101      123.564     2.573       4.961       7.66        12.018      12.277      -9999.25    10.571      -9999.25    16.885      1.565       2.816       1150.246    68.42       -9999.25    749.384     670.575     659.931     25.517      
160.3       15.56       123.616     2.548       5.242       6.886       11.388      11.977      -9999.25    10.471      -9999.25    16.822      1.394       2.432       1149.526    68.718      -9999.25    1007.183    741.462     602.997     28.046      
160.4       17.378      125.162     2.505       6.123       6.714       11.317      11.577      -9999.25    10.271      -9999.25    14.019      1.289       2.163       1148.806    68.902      -9999.25    1290.361    840.471     564.548     29.216      
160.5       18.923      125.565     2.463       6.623       6.009       10.786      11.077      -9999.25    10.171      -9999.25    13.898      1.202       2.137       1147.846    68.932      -9999.25    1379.225    862.995     535.533     30.751      
160.6       20.277      123.615     2.409       7.236       5.928       10.641      10.877      -9999.25    9.971       -9999.25    13.741      1.151       2.12        1146.886    68.759      -9999.25    1323.451    842.176     534.883     31.7        
160.7       20.23       124.014     2.351       6.9         5.532       10.302      10.577      -9999.25    9.871       -9999.25    13.478      1.094       2.111       1145.926    68.336      -9999.25    1301.218    905.251     643.727     31.81       
160.8       19.275      123.774     2.324       7.192       5.888       10.47       10.177      -9999.25    9.771       -9999.25    13.178      1.062       2.112       1144.966    67.675      -9999.25    1312.603    1040.716    844.145     31.437      
160.9       17.989      123.669     2.327       7.071       6.215       10.446      9.777       -9999.25    9.571       -9999.25    12.913      1.091       2.122       1144.246    66.799      -9999.25    1351.597    1177.185    1028.609    31.821      
161.0       16.749      123.501     2.311       7.29        5.763       10.205      8.577       -9999.25    9.471       -9999.25    12.691      1.121       2.128       1143.766    65.652      -9999.25    1388.684    1263.837    1149.492    32.38       
161.1       15.417      123.673     2.304       7.304       5.775       10.735      8.377       -9999.25    9.371       -9999.25    12.51       1.136       2.131       1143.286    64.175      -9999.25    1410.273    1407.165    1453.293    33.306      
