~Version Information Section
VERS.                                         2.0:CWLS log ASCII Standart – VERSION 2.0
WRAP.                                          NO:One line per depth step
~Well Information Section
STRT.M                                        1.0:Начальная глубина
STOP.M                                      199.5:Конечная глубина
STEP.M                                          0:Шаг квантования по глубине
NULL.                                    -9999.25:Признак "Нет данных"
WELL.                                       122Мх:Скважина
~Parameter Information Section
~Curve Information Section
DEPTH.M                                          :Глубина
БК.Омм                                           :BK     (БК)
DСР.мм                                           :DS  (ДС)
ГК.гамма                                         :GK          (ГК)
А0.4М0.1N.Омм.ohmm                               :GZ1   ГЗ1(A0.4M0.1N)
А1.0М0.1N.Омм.ohmm                               :GZ2   ГЗ2(A1.0M0.1N)
А2.0М0.5N.Омм.ohmm                               :GZ3   ГЗ3(A2.0M0.5N)
А4.0М0.5N.Oмм.ohmm                               :GZ4   ГЗ4(A4.0M0.5N)
А8.0М1.0N.Омм.ohmm                               :GZ5   ГЗ5(A8.0M0.5N)
N0.5M2.0A.Омм.ohmm                               :GZK   ГЗK(N0.5M2.0A)
ИК.мСм/м                                         :IK
НГК.усл.ед                                       :NGK     (НГК)
ПС.mv                                            :PS       (ПС)
КС.Омм                                           :PZ    (КС)
R.Омм                                            :RS (Резистивиметр)
ПЛОТНОСТЬ.г/см3                                  :ГГКп
П.                                               :п
ННКМ.усл.ед                                      :ННКм
~ASCII LOG DATA
# ...
141.6       52.452      154.34      6.678       109.657     102.046     81.709      66.368      70.754      41.737      32.842      1.291       70.25       82.681      1.25        2.461       30.439      149.241     
141.7       50.244      155.713     6.664       108.286     97.431      81.701      65.233      70.27       40.272      32.293      1.331       70.875      81.27       1.247       2.451       31.369      148.547     
141.8       43.405      157.69      6.819       106.352     95.61       81.626      64.27       68.393      39.102      31.388      1.399       72.0        78.557      1.246       2.456       31.882      147.769     
141.9       47.91       158.044     6.966       102.718     96.041      81.817      63.969      66.1        37.874      30.528      1.45        72.5        75.449      1.245       2.473       32.3        148.054     
142.0       62.475      157.626     6.923       99.997      100.086     81.175      63.057      64.899      36.055      29.82       1.454       72.25       73.878      1.245       2.49        32.398      148.215     
142.1       74.868      157.086     6.764       98.411      103.751     79.479      61.205      65.021      34.541      28.918      1.42        72.25       73.964      1.244       2.497       32.164      149.662     
142.2       75.056      156.063     6.695       86.164      100.063     77.81       59.856      65.231      34.027      28.125      1.401       72.375      74.215      1.238       2.504       31.638      149.57      
142.3       64.667      156.167     6.794       74.745      92.254      77.184      59.722      65.347      34.207      27.518      1.405       72.625      72.995      1.237       2.509       30.663      148.934     
142.4       47.889      155.71      7.045       75.533      91.168      77.648      61.245      66.345      34.708      27.056      1.389       73.125      69.41       1.242       2.516       29.432      148.305     
142.5       23.315      154.638     7.416       90.647      102.676     79.918      64.349      65.668      35.341      26.716      1.332       74.375      64.31       1.248       2.517       28.311      148.497     
142.6       29.533      155.746     7.868       108.1       112.377     84.018      69.747      63.967      35.67       26.33       1.262       75.75       56.506      1.252       2.518       27.354      149.379     
142.7       37.417      156.1       8.35        114.035     115.915     86.909      73.707      63.051      35.856      25.838      1.204       76.25       50.923      1.241       2.51        26.707      148.801     
142.8       38.65       156.342     8.667       123.677     113.431     85.191      72.539      62.75       35.739      25.246      1.18        76.75       49.88       1.237       2.495       26.485      149.551     
142.9       31.876      156.522     8.85        97.805      91.418      79.457      66.899      61.824      35.313      24.816      1.176       77.25       47.967      1.219       2.474       26.952      152.61      
143.0       25.175      157.39      8.864       63.034      72.077      74.492      60.473      59.461      34.839      24.575      1.176       78.375      44.922      1.221       2.457       28.192      153.746     
143.1       25.303      158.163     8.904       59.833      69.076      68.249      55.422      56.676      33.78       24.533      1.145       79.25       42.071      1.223       2.44        29.835      152.121     
143.2       25.252      157.575     8.98        59.736      68.171      61.802      52.336      54.022      32.049      24.458      1.097       79.375      41.001      1.223       2.423       31.793      151.126     
143.3       24.191      159.308     9.043       57.828      63.114      58.625      50.788      49.971      30.129      24.334      1.078       79.75       40.894      1.219       2.405       33.912      149.752     
143.4       26.091      160.107     9.08        51.86       53.787      56.421      48.706      46.55       28.731      24.167      1.102       79.75       40.186      1.214       2.392       35.645      145.79      
143.5       28.66       160.464     9.064       47.835      47.779      53.19       46.101      44.091      27.867      23.905      1.121       80.438      39.426      1.214       2.378       36.949      140.852     
143.6       29.643      159.408     9.011       44.609      45.703      48.971      43.602      42.82       27.981      23.647      1.101       81.125      38.764      1.214       2.371       37.591      138.653     
143.7       29.353      159.886     8.945       41.129      43.789      46.892      42.631      41.488      28.839      23.402      1.072       81.562      38.07       1.213       2.372       37.527      138.031     
143.8       26.227      160.256     8.824       38.336      42.723      46.727      42.818      39.961      29.502      23.377      1.077       82.125      37.096      1.213       2.379       37.181      135.978     
143.9       21.316      161.524     8.633       37.592      42.888      46.906      43.794      39.601      30.282      23.522      1.112       80.75       35.766      1.214       2.391       36.481      134.124     
144.0       19.486      161.223     8.429       38.496      44.488      46.941      45.103      39.55       30.978      23.764      1.163       81.5        34.252      1.215       2.407       35.698      132.544     
144.1       21.688      162.452     8.288       40.437      46.367      46.668      45.703      39.959      31.273      23.938      1.218       84.875      33.122      1.215       2.43        35.469      132.04      
144.2       24.876      163.963     8.319       41.689      45.831      45.838      45.064      40.458      31.662      24.012      1.26        85.875      32.632      1.214       2.448       35.241      131.035     
144.3       27.077      164.489     8.417       40.386      43.142      44.015      43.27       40.301      32.361      24.205      1.276       86.5        32.527      1.212       2.458       35.515      130.566     
144.4       27.413      164.982     8.671       35.531      38.768      41.52       41.046      39.804      32.935      24.221      1.255       87.375      32.524      1.212       2.458       36.061      130.225     
144.5       27.34       165.191     8.96        31.351      35.151      39.154      38.915      39.291      33.339      24.216      1.207       87.625      32.626      1.212       2.451       36.861      130.803     
144.6       27.031      166.224     9.138       29.984      33.377      37.302      37.268      38.544      33.597      24.339      1.153       87.75       33.038      1.212       2.436       37.711      131.018     
144.7       25.776      166.438     9.086       29.408      32.217      36.232      36.601      37.668      33.469      24.474      1.122       87.875      33.864      1.213       2.422       38.413      131.063     
144.8       24.297      166.664     8.937       30.057      32.057      35.946      36.636      37.225      33.136      24.509      1.136       88.0        34.763      1.213       2.412       39.662      130.622     
144.9       25.006      167.076     8.864       32.078      32.291      35.827      36.714      36.934      32.882      24.56       1.164       87.625      35.234      1.213       2.409       63.495      130.599     
145.0       26.07       166.352     8.831       34.916      32.728      35.753      36.871      36.843      32.833      24.707      1.179       87.375      35.292      1.213       2.406       90.396      130.338     
145.1       24.694      165.168     8.695       36.941      33.193      35.84       37.28       36.79       32.996      24.797      1.158       87.875      35.033      1.213       2.405       115.509     131.017     
145.2       22.484      164.863     8.596       37.175      33.25       36.315      37.989      36.741      33.154      25.045      1.118       88.25       34.453      1.212       2.408       140.297     130.348     
