~Version Information Section
VERS.                                         2.0:CWLS log ASCII Standart – VERSION 2.0
WRAP.                                          NO:One line per depth step
~Well Information Section
STRT.M                                        2.0:Начальная глубина
STOP.M                                      201.2:Конечная глубина
STEP.M                                          0:Шаг квантования по глубине
NULL.                                    -9999.25:Признак "Нет данных"
WELL.                                       126Мх:Скважина
~Parameter Information Section
~Curve Information Section
DEPTH.M                                          :Глубина
BK.ohmm                                          :BK
ПРОФ_СР.мм                                       :DS  (ДС)
W.g/cm3                                          :GGKp
ГК.мкР/час                                       :GK          (ГК)
ГЗ1.Омм                                          :GZ1   ГЗ1(A0.4M0.1N)
ГЗ2.Омм                                          :GZ2   ГЗ2(A1.0M0.1N)
ГЗ3.Омм                                          :GZ3   ГЗ3(A2.0M0.5N)
ГЗ4.Oмм                                          :GZ4   ГЗ4(A4.0M0.5N)
ГЗ5.Oмм                                          :GZ5   ГЗ5(A8.0M0.5N)
ГЗК.Омм                                          :GZK   ГЗK(N0.5M2.0A)
ИК.ohmm                                          :IK
НГК.усл.ед.                                      :NGK
ННКМ.усл.ед                                      :NNKm  (ННКм)
PS.мВ                                            :PS       (ПС)
PZ.Омм                                           :PZ    (КС)
RIS.Омм                                          :RS (Резистивиметр)
U1.мВ                                            :U1
U2.мВ                                            :U2
U3.mv                                            :U3
~ASCII LOG DATA
# ...
155.0       108.893     123.102     2.328       4.546       76.68       57.663      54.397      62.136      31.334      63.185      9.835       1.348       2.738       206.758     22.239      1.517       505.829     528.854     504.781     
155.1       125.314     122.842     2.329       4.776       76.68       65.007      82.398      64.736      35.934      65.585      10.182      1.334       2.705       205.702     26.375      1.519       477.786     503.284     368.284     
155.2       112.98      122.412     2.349       4.697       76.68       75.004      109.598     66.136      38.534      69.785      10.663      1.279       2.673       204.646     30.887      1.519       496.48      539.543     374.376     
155.3       96.828      122.447     2.339       4.541       78.84       77.043      130.8       70.135      39.934      74.385      11.096      1.222       2.657       203.59      37.655      1.519       594.621     616.091     387.973     
155.4       90.573      123.225     2.317       4.426       79.92       83.164      139.201     77.936      49.535      79.586      11.594      1.166       2.639       202.534     48.184      1.519       730.155     848.308     297.004     
155.5       94.842      123.633     2.308       4.543       79.92       88.264      142.0       84.935      78.534      91.985      12.143      1.136       2.619       202.006     64.35       1.519       851.651     1080.475    247.294     
155.6       90.991      122.518     2.305       4.741       82.08       88.264      150.399     90.736      81.933      96.986      12.46       1.14        2.553       202.006     86.536      1.519       917.085     1304.093    332.727     
155.7       74.989      122.11      2.307       5.27        150.12      83.777      159.604     92.136      92.734      98.785      12.732      1.174       2.472       202.006     109.093     1.519       982.505     1338.489    460.347     
155.8       50.234      122.268     2.329       6.067       152.28      78.676      134.003     95.136      94.734      102.986     12.876      1.224       2.553       202.006     130.527     1.519       1043.261    1381.491    878.885     
155.9       43.053      123.319     2.346       6.68        163.08      75.208      112.4       97.536      96.534      104.186     12.975      1.282       2.715       202.006     147.448     1.519       1108.692    1445.995    1263.673    
156.0       63.973      122.89      2.392       6.641       170.64      62.969      100.402     99.735      97.734      105.386     12.993      1.351       2.802       202.006     157.599     1.518       1220.841    1549.184    1658.543    
156.1       103.039     122.719     2.44        6.092       171.72      56.236      88.802      110.735     97.535      103.586     12.888      1.408       2.834       201.478     161.359     1.516       1347.036    1665.297    1703.721    
156.2       187.068     122.762     2.473       5.341       153.36      54.808      78.802      114.139     88.935      98.588      12.864      1.426       2.995       200.422     165.495     1.512       1412.455    1768.487    1748.889    
156.3       276.694     122.656     2.503       5.038       145.8       52.156      69.201      85.739      82.935      77.788      12.815      1.457       3.149       199.366     168.879     1.504       1403.108    1768.491    1777.639    
156.4       242.103     122.938     2.548       5.028       144.72      50.932      59.6        55.136      80.534      61.586      12.748      1.55        3.129       198.31      160.607     1.492       1300.29     1703.984    1785.851    
156.5       198.153     123.063     2.534       5.418       137.16      47.873      44.802      38.938      74.936      59.786      12.619      1.655       3.164       197.254     145.568     1.48        1230.199    1557.798    1740.682    
156.6       170.216     122.912     2.516       5.972       78.84       41.344      35.601      27.537      65.334      54.986      12.447      1.688       3.286       196.726     127.518     1.469       1146.073    1385.781    1654.433    
156.7       159.588     122.742     2.484       6.568       76.68       37.876      30.401      23.536      61.337      51.586      12.207      1.638       3.258       196.726     104.585     1.461       1052.615    1162.204    1564.097    
156.8       245.471     123.589     2.456       7.011       59.4        36.04       27.601      23.136      43.135      49.986      11.947      1.527       3.107       196.726     79.767      1.457       940.448     990.191     1481.959    
156.9       239.883     122.86      2.419       7.172       50.76       31.348      22.401      20.936      34.134      44.785      11.613      1.365       2.773       196.726     65.854      1.455       842.305     895.59      1399.82     
157.0       56.754      122.261     2.395       7.053       49.68       28.9        20.801      18.136      32.535      36.586      11.322      1.2         2.419       196.726     55.327      1.454       725.482     878.392     1260.208    
157.1       39.719      123.245     2.352       6.751       49.68       27.065      20.801      16.736      27.935      35.186      11.01       1.093       2.265       196.726     45.927      1.455       599.286     861.19      1063.068    
157.2       32.359      122.128     2.35        6.458       49.68       19.516      20.801      17.936      22.134      31.986      10.634      1.066       2.176       196.726     38.408      1.455       463.772     848.291     874.182     
157.3       21.429      121.551     2.354       6.583       49.68       18.496      20.801      20.136      20.935      28.586      10.319      1.08        2.13        196.726     32.391      1.457       398.341     839.691     726.332     
157.4       18.197      121.809     2.365       6.895       48.6        17.272      20.801      22.336      18.734      27.386      9.951       1.098       2.119       196.726     24.871      1.46        356.28      831.09      652.41      
157.5       16.943      121.847     2.38        7.148       48.6        15.436      21.2        21.336      16.134      25.186      9.525       1.103       2.184       196.726     19.983      1.463       323.569     813.892     603.134     
157.6       15.996      121.598     2.388       7.416       48.6        14.416      22.801      20.536      14.935      22.186      9.167       1.091       2.236       196.726     16.223      1.465       300.2       775.188     574.384     
157.7       15.74       121.81      2.381       7.706       47.52       13.6        22.801      20.136      13.334      19.586      8.79        1.063       2.261       196.726     13.591      1.467       370.295     736.493     537.427     
157.8       16.596      121.854     2.387       7.914       47.52       13.6        23.2        18.536      13.134      18.386      8.503       1.072       2.225       196.726     10.959      1.467       440.401     702.091     512.786     
157.9       17.498      121.514     2.375       7.601       47.52       13.6        24.801      18.536      12.334      16.186      8.234       1.102       2.152       196.726     10.207      1.467       515.174     689.19      488.145     
158.0       18.03       122.15      2.367       7.085       46.44       13.396      25.2        18.936      12.134      13.586      8.091       1.092       2.091       197.254     9.831       1.467       505.828     676.292     442.975     
158.1       18.836      122.347     2.361       6.767       46.44       12.58       26.801      20.536      11.334      12.786      7.996       1.027       2.048       197.782     9.831       1.466       510.502     650.489     385.475     
158.2       17.378      122.637     2.346       6.82        46.44       12.376      27.2        20.736      11.334      12.786      7.898       0.973       2.056       198.31      9.831       1.464       524.52      624.693     340.307     
158.3       15.668      122.645     2.347       6.858       46.44       11.56       29.2        21.736      11.334      12.786      7.827       0.972       2.075       198.838     9.831       1.462       543.215     594.591     340.306     
