~Version Information Section
VERS.                                         2.0:CWLS log ASCII Standart – VERSION 2.0
WRAP.                                          NO:One line per depth step
~Well Information Section
STRT.M                                        0.4:Начальная глубина
STOP.M                                      191.4:Конечная глубина
STEP.M                                          0:Шаг квантования по глубине
NULL.                                    -9999.25:Признак "Нет данных"
WELL.                                       113Мх:Скважина
~Parameter Information Section
~Curve Information Section
DEPTH.M                                          :Глубина
БК.Омм                                           :BK     (БК)
DСР.мм                                           :DS  (ДС)
GGKP.g/cm3                                       :GGKp
ГК.гамма                                         :GK          (ГК)
А0.4М0.1N.Омм                                    :GZ1   ГЗ1(A0.4M0.1N)
А1.0М0.1N.Омм                                    :GZ2   ГЗ2(A1.0M0.1N)
А2.0М0.5N.Омм                                    :GZ3   ГЗ3(A2.0M0.5N)
А4.0М0.5N.Oмм                                    :GZ4   ГЗ4(A4.0M0.5N)
А8.0М1.0N.Омм                                    :GZ5   ГЗ5(A8.0M0.5N)
N0.5M2.0A.Омм                                    :GZK   ГЗK(N0.5M2.0A)
ИК.мСм/м                                         :IK
НГК.усл.ед                                       :NNKb  (ННКб)
ННКМ.усл.ед                                      :NNKm  (ННКм)
ПС.мВ                                            :PS       (ПС)
PZ.Омм                                           :PZ    (КС)
R.Омм                                            :RS (Резистивиметр)
U1.мВ                                            :U1
U2.mV                                            :U2
U3.мВ                                            :U3
КП.%                                             :Кп
~ASCII LOG DATA
# ...
45.2        -9999.25    136.703     2.153       4.758       -9999.25    -9999.25    -9999.25    -9999.25    -9999.25    -9999.25    -9999.25    15.649      3.704       12.373      26.235      -9999.25    -9999.25    -9999.25    -9999.25    1.448       
45.4        -9999.25    138.674     2.202       4.844       -9999.25    -9999.25    -9999.25    -9999.25    -9999.25    -9999.25    -9999.25    16.014      3.633       12.44       27.103      -9999.25    -9999.25    -9999.25    -9999.25    1.293       
45.6        -9999.25    140.697     2.196       5.2         -9999.25    -9999.25    -9999.25    -9999.25    -9999.25    -9999.25    -9999.25    16.649      3.68        12.527      27.84       -9999.25    -9999.25    -9999.25    -9999.25    1.112       
45.8        -9999.25    135.422     2.169       5.119       -9999.25    -9999.25    -9999.25    -9999.25    -9999.25    -9999.25    -9999.25    17.066      3.725       12.707      28.238      -9999.25    -9999.25    -9999.25    -9999.25    1.07        
46.0        -9999.25    135.361     2.175       4.829       -9999.25    -9999.25    -9999.25    -9999.25    -9999.25    -9999.25    -9999.25    16.932      3.745       12.984      28.023      -9999.25    -9999.25    -9999.25    -9999.25    1.086       
46.2        -9999.25    136.451     2.209       4.744       -9999.25    -9999.25    -9999.25    -9999.25    -9999.25    -9999.25    -9999.25    17.007      3.829       13.323      27.343      -9999.25    -9999.25    -9999.25    -9999.25    1.098       
46.4        -9999.25    136.757     2.21        4.709       -9999.25    -9999.25    -9999.25    -9999.25    -9999.25    -9999.25    -9999.25    17.45       3.839       13.708      26.465      -9999.25    -9999.25    -9999.25    -9999.25    0.765       
46.6        -9999.25    136.577     2.167       4.5         33.0        16.914      4.525       21.5        17.75       -9999.25    -9999.25    18.007      3.866       14.196      25.686      -9999.25    -9999.25    -9999.25    -9999.25    0.672       
46.8        -9999.25    136.137     2.115       4.256       31.0        19.607      4.525       17.5        16.0        27.327      -9999.25    17.841      3.879       14.905      25.232      -9999.25    -9999.25    -9999.25    -9999.25    0.68        
47.0        170.321     135.73      2.081       4.216       31.0        21.831      5.155       15.5        14.25       27.167      40.122      17.191      3.83        15.973      25.043      1.1         -9999.25    -9999.25    -9999.25    0.61        
47.2        372.522     135.065     2.067       4.202       31.0        22.646      6.854       12.5        21.0        26.913      40.375      17.403      3.798       17.458      24.931      1.1         -9999.25    -9999.25    -9999.25    0.715       
47.4        699.366     134.867     2.079       4.282       31.0        22.799      9.138       11.0        23.5        25.865      40.5        17.593      3.769       19.358      24.698      1.1         -9999.25    -9999.25    -9999.25    0.872       
47.6        979.517     135.189     2.11        4.471       31.0        22.803      10.938      18.0        21.25       21.761      40.067      16.805      3.764       21.585      24.213      1.1         -9999.25    -9999.25    -9999.25    1.245       
47.8        1197.256    134.832     2.135       4.724       32.0        22.874      12.069      24.0        19.5        14.656      39.477      16.303      3.771       24.112      23.481      1.1         -9999.25    -9999.25    -9999.25    1.634       
48.0        1277.752    134.574     2.148       4.424       34.5        23.276      13.276      26.0        17.0        9.652       38.945      16.007      3.777       26.942      22.663      1.1         -9999.25    -9999.25    -9999.25    1.82        
48.2        1354.027    134.579     2.14        4.123       35.5        23.979      14.472      25.5        15.0        9.212       38.73       16.023      3.75        30.132      21.987      1.1         -9999.25    -9999.25    -9999.25    1.919       
48.4        841.599     134.103     2.115       3.9         39.5        24.085      15.13       23.5        16.5        10.118      38.455      16.027      3.755       33.638      21.586      1.1         -9999.25    -9999.25    -9999.25    2.125       
48.6        414.55      134.009     2.103       3.92        42.5        23.828      15.681      21.5        22.0        17.741      37.889      15.961      3.797       37.476      21.443      1.1         -9999.25    -9999.25    -9999.25    2.389       
48.8        112.827     134.414     2.107       4.045       46.0        22.683      16.175      19.5        22.75       26.737      37.356      15.664      3.847       41.689      21.605      1.1         -9999.25    -9999.25    -9999.25    2.505       
49.0        106.559     135.21      2.116       4.04        48.0        21.598      16.419      18.0        22.25       29.153      37.041      15.533      3.863       46.354      22.202      1.1         -9999.25    -9999.25    -9999.25    2.703       
49.2        104.593     134.42      2.123       4.308       50.5        21.263      16.439      18.0        25.0        27.45       37.057      15.083      3.786       51.382      23.374      1.1         -9999.25    -9999.25    -9999.25    2.678       
49.4        96.144      134.426     2.132       4.435       51.5        21.263      16.248      19.0        25.0        16.889      37.432      15.004      3.737       56.43       24.818      1.1         -9999.25    -9999.25    -9999.25    2.826       
49.6        92.251      134.718     2.146       4.352       53.5        21.286      15.704      19.5        24.0        6.693       37.781      15.043      3.719       60.97       26.002      1.1         -9999.25    -9999.25    -9999.25    2.695       
49.8        89.584      135.501     2.152       4.167       54.5        21.587      15.469      22.0        21.25       4.466       37.539      15.075      3.742       64.585      26.464      1.1         -9999.25    -9999.25    -9999.25    2.648       
50.0        161.263     137.45      2.147       4.389       55.0        21.98       15.469      23.0        20.0        4.466       38.031      15.533      3.735       67.185      25.902      1.1         -9999.25    -9999.25    -9999.25    2.38        
50.2        539.551     136.61      2.124       4.405       55.0        22.661      16.573      22.0        22.0        11.791      39.843      16.432      3.795       68.99       24.842      1.1         -9999.25    -9999.25    -9999.25    2.052       
50.4        1124.577    137.509     2.097       4.269       52.5        22.656      20.832      24.0        23.0        26.184      42.574      17.374      3.974       70.349      23.75       1.1         -9999.25    -9999.25    -9999.25    1.528       
50.6        1385.007    138.515     2.084       4.121       52.0        22.656      26.852      28.5        19.75       38.826      44.373      18.118      4.077       71.56       23.054      1.1         -9999.25    -9999.25    -9999.25    1.17        
50.8        981.001     137.914     2.077       4.242       51.0        22.112      30.533      30.0        13.0        42.611      44.718      18.299      4.053       72.815      22.889      1.1         -9999.25    -9999.25    -9999.25    1.043       
51.0        519.739     138.85      2.068       4.235       50.0        20.648      30.979      29.5        11.25       42.847      44.604      17.896      3.998       74.248      23.112      1.1         -9999.25    -9999.25    -9999.25    1.009       
51.2        580.634     139.443     2.067       4.0         50.251      20.375      30.622      26.0        9.25        42.168      44.813      18.068      4.03        75.99       23.66       1.1         -9999.25    -9999.25    -9999.25    0.922       
51.4        872.215     139.759     2.078       4.205       49.457      20.547      29.105      23.0        9.0         39.683      44.594      18.519      4.065       78.167      24.692      1.1         -9999.25    -9999.25    -9999.25    0.734       
