~Version Information Section
VERS.                                         2.0:CWLS log ASCII Standart – VERSION 2.0
WRAP.                                          NO:One line per depth step
~Well Information Section
STRT.M                                        0.5:Начальная глубина
STOP.M                                      201.9:Конечная глубина
STEP.M                                          0:Шаг квантования по глубине
NULL.                                    -9999.25:Признак "Нет данных"
WELL.                                       138Мх:Скважина
~Parameter Information Section
~Curve Information Section
DEPTH.M                                          :Глубина
БК.Омм                                           :BK     (БК)
DСР.мм                                           :DS  (ДС)
W.g/cm3                                          :GGKp
ГК.гамма                                         :GK          (ГК)
А0.4М0.1N.Омм.ohmm                               :GZ1   ГЗ1(A0.4M0.1N)
А1.0М0.1N.Омм.ohmm                               :GZ2   ГЗ2(A1.0M0.1N)
А2.0М0.5N.Омм.ohmm                               :GZ3   ГЗ3(A2.0M0.5N)
А4.0М0.5N.Oмм.ohmm                               :GZ4   ГЗ4(A4.0M0.5N)
А8.0М1.0N.Омм.ohmm                               :GZ5   ГЗ5(A8.0M0.5N)
N0.5M2.0A.Омм.ohmm                               :GZK   ГЗK(N0.5M2.0A)
ИК.мСм/м                                         :IK
ННКМ.усл.ед                                      :NNKm  (ННКм)
ПС.мВ                                            :PS       (ПС)
КС.Омм                                           :PZ    (КС)
R.Омм                                            :RS (Резистивиметр)
U1.мВ                                            :U1
U2.mV                                            :U2
U3.мВ                                            :U3
КП.%                                             :Кп
НГК.усл.ед                                       :NGK
~ASCII LOG DATA
# ...
10.1        -9999.25    156.058     2.063       3.407       -9999.25    -9999.25    -9999.25    96779.73    -9999.25    44724.14    -9999.25    3.802       135.681     366.0       1.08        -9999.25    -9999.25    -9999.25    -7.336      6.114       
10.2        -9999.25    154.161     2.034       3.692       -9999.25    -9999.25    -9999.25    97300.26    -9999.25    44409.12    -9999.25    3.731       135.681     366.0       1.08        -9999.25    -9999.25    -9999.25    -7.358      5.816       
10.3        -9999.25    154.31      2.02        3.888       -9999.25    -9999.25    -9999.25    98118.51    -9999.25    44105.04    -9999.25    3.649       135.777     368.08      1.08        -9999.25    -9999.25    -9999.25    -7.282      5.542       
10.4        -9999.25    155.139     2.011       4.038       -9999.25    -9999.25    -9999.25    98567.77    -9999.25    43848.68    -9999.25    3.607       136.027     374.56      1.08        -9999.25    -9999.25    -9999.25    -7.072      5.419       
10.5        -9999.25    154.966     2.008       4.26        -9999.25    -9999.25    -9999.25    99066.0     -9999.25    43717.48    -9999.25    3.639       136.423     385.12      1.08        -9999.25    -9999.25    -9999.25    -6.825      5.411       
10.6        -9999.25    154.298     2.01        4.261       -9999.25    -9999.25    -9999.25    100007.8    -9999.25    43653.8     -9999.25    3.687       136.965     399.56      1.08        -9999.25    -9999.25    -9999.25    -6.762      5.553       
10.7        -9999.25    154.397     2.014       4.237       -9999.25    -9999.25    -9999.25    100860.2    -9999.25    42805.81    -9999.25    3.731       137.578     415.4       1.08        -9999.25    -9999.25    -9999.25    -6.949      5.571       
10.8        -9999.25    154.234     2.015       4.232       -9999.25    -9999.25    -9999.25    101788.5    -9999.25    42000.11    -9999.25    3.831       138.08      425.96      1.08        -9999.25    -9999.25    -9999.25    -7.138      5.694       
10.9        -9999.25    155.178     2.018       4.372       -9999.25    -9999.25    -9999.25    102332.5    -9999.25    42000.11    -9999.25    3.934       138.261     431.72      1.08        -9999.25    -9999.25    -9999.25    -7.445      5.816       
11.0        -9999.25    157.385     2.015       4.356       -9999.25    -9999.25    -9999.25    102789.3    -9999.25    41209.99    -9999.25    4.012       138.261     433.04      1.08        -9999.25    -9999.25    -9999.25    -7.608      6.017       
11.1        -9999.25    156.484     2.02        4.399       -9999.25    -9999.25    -9999.25    104089.0    -9999.25    39632.06    -9999.25    4.083       138.261     433.04      1.08        -9999.25    -9999.25    -9999.25    -7.775      6.216       
11.2        -9999.25    154.848     2.028       4.235       -9999.25    -9999.25    -9999.25    105725.3    -9999.25    37249.49    -9999.25    4.146       137.95      433.04      1.08        -9999.25    -9999.25    -9999.25    -8.066      6.409       
11.3        -9999.25    154.452     2.035       4.322       -9999.25    -9999.25    -9999.25    107341.5    -9999.25    34074.94    -9999.25    4.212       137.013     430.24      1.08        -9999.25    -9999.25    -9999.25    -8.588      6.562       
11.4        -9999.25    154.349     2.043       3.964       -9999.25    -9999.25    -9999.25    109295.8    -9999.25    31675.82    -9999.25    4.255       135.381     425.2       1.08        -9999.25    -9999.25    -9999.25    -8.767      6.668       
11.5        -9999.25    154.572     2.05        3.924       -9999.25    -9999.25    -9999.25    111591.5    -9999.25    29206.02    -9999.25    4.201       133.112     420.56      1.08        -9999.25    -9999.25    -9999.25    -8.528      6.667       
11.6        -9999.25    155.699     2.048       3.533       -9999.25    -9999.25    -9999.25    113081.7    -9999.25    27542.56    -9999.25    4.033       130.308     416.16      1.08        -9999.25    -9999.25    -9999.25    -8.033      6.647       
11.7        -9999.25    155.023     2.044       3.72        -9999.25    -9999.25    -9999.25    113383.1    -9999.25    26750.17    -9999.25    3.936       127.058     411.92      1.08        -9999.25    -9999.25    -9999.25    -7.79       6.613       
11.8        -9999.25    154.934     2.035       3.409       -9999.25    -9999.25    -9999.25    113760.7    -9999.25    25970.86    -9999.25    3.915       123.456     407.68      1.08        -9999.25    -9999.25    -9999.25    -7.729      6.462       
11.9        -9999.25    154.068     2.024       3.536       -9999.25    -9999.25    -9999.25    114355.4    -9999.25    25970.86    -9999.25    3.834       119.602     403.48      1.08        -9999.25    -9999.25    -9999.25    -7.678      6.185       
12.0        -9999.25    154.056     2.015       3.713       -9999.25    -9999.25    -9999.25    114572.5    -9999.25    25970.86    -9999.25    3.761       115.607     399.36      1.08        -9999.25    -9999.25    -9999.25    -7.51       5.971       
12.1        -9999.25    154.054     2.01        4.371       6613.382    -9999.25    -9999.25    114214.6    -9999.25    25970.86    -9999.25    3.767       111.588     395.52      1.08        -9999.25    -9999.25    -9999.25    -7.332      5.955       
12.2        -9999.25    153.878     2.007       4.828       6537.519    -9999.25    -9999.25    113856.7    -9999.25    25166.21    -9999.25    3.773       107.663     392.0       1.08        -9999.25    -9999.25    -9999.25    -7.208      6.038       
12.3        -9999.25    153.915     2.004       4.911       6484.507    -9999.25    -9999.25    113660.9    -9999.25    24361.58    -9999.25    3.777       103.941     388.92      1.08        -9999.25    -9999.25    -9999.25    -7.177      6.095       
12.4        -9999.25    153.92      2.0         4.892       6484.375    -9999.25    -9999.25    112653.0    -9999.25    25232.82    -9999.25    3.782       100.507     386.32      1.08        -9999.25    -9999.25    -9999.25    -6.978      6.088       
12.5        -9999.25    154.042     1.994       4.775       6516.574    -9999.25    -9999.25    111319.4    -9999.25    26989.54    -9999.25    3.798       97.412      384.24      1.08        -9999.25    -9999.25    -9999.25    -6.745      6.023       
12.6        -9999.25    153.518     1.983       4.595       6548.772    -9999.25    -9999.25    109557.1    -9999.25    27939.68    -9999.25    3.862       94.672      382.52      1.08        -9999.25    -9999.25    -9999.25    -6.641      5.959       
12.7        -9999.25    153.131     1.972       4.253       6557.938    31470.09    -9999.25    107150.2    -9999.25    28044.67    -9999.25    4.006       92.266      381.08      1.08        -9999.25    -9999.25    -9999.25    -6.865      5.978       
12.8        -9999.25    153.311     1.964       3.808       6567.394    31090.18    -9999.25    105984.3    -9999.25    29005.77    -9999.25    4.149       90.147      379.76      1.08        -9999.25    -9999.25    -9999.25    -7.221      6.138       
12.9        -9999.25    153.193     1.954       3.497       6589.44     30789.96    -9999.25    106117.6    -9999.25    30050.44    -9999.25    4.287       88.254      378.48      1.08        -9999.25    -9999.25    -9999.25    -7.528      6.318       
13.0        -9999.25    152.417     1.943       3.297       6634.311    16717.36    -9999.25    107062.9    -9999.25    29389.41    -9999.25    4.369       86.525      377.16      1.08        -9999.25    -9999.25    -9999.25    -7.665      6.469       
13.1        -9999.25    152.623     1.934       3.249       6657.423    2645.032    -9999.25    108588.3    -9999.25    28604.48    -9999.25    4.347       84.914      375.8       1.08        -9999.25    -9999.25    -9999.25    -7.59       6.496       
13.2        -9999.25    152.472     1.926       3.189       6680.398    15371.05    -9999.25    107600.8    -9999.25    28780.05    -9999.25    4.344       83.392      374.4       1.08        -9999.25    -9999.25    -9999.25    -7.508      6.523       
