~Version Information Section
VERS.                                         2.0:CWLS log ASCII Standart – VERSION 2.0
WRAP.                                          NO:One line per depth step
~Well Information Section
STRT.M                                        0.4:Начальная глубина
STOP.M                                      170.2:Конечная глубина
STEP.M                                          0:Шаг квантования по глубине
NULL.                                    -9999.25:Признак "Нет данных"
WELL.                                       121Мх:Скважина
~Parameter Information Section
~Curve Information Section
DEPTH.M                                          :Глубина
BK.Ohm*M                                         :BK     (БК)
DS.mm                                            :DS  (ДС)
GGK.g/cm3                                        :GGKp
ГК.mcr/h                                         :GK          (ГК)
GZ1.Ohm*M                                        :GZ1   ГЗ1(A0.4M0.1N)
GZ2.Ohm*M                                        :GZ2   ГЗ2(A1.0M0.1N)
GZ3.Ohm*M                                        :GZ3   ГЗ3(A2.0M0.5N)
GZ4.Ohm*M                                        :GZ4   ГЗ4(A4.0M0.5N)
GZ5.Ohm*M                                        :GZ5   ГЗ5(A8.0M0.5N)
GZR.Ohm*M                                        :GZK   ГЗK(N0.5M2.0A)
ИК.Ohm*M                                         :IK
НГК.u.e.                                         :NGK
NNKM.                                            :NNKm  (ННКм)
PS.mv                                            :PS       (ПС)
PZ.Ohm*M                                         :PZ    (КС)
RS.Ohm*M                                         :RS (Резистивиметр)
U1.mV                                            :U1
U2.mV                                            :U2
U3.mV                                            :U3
КП.%                                             :Кп
~ASCII LOG DATA
# ...
141.2       17.66       121.947     2.606       7.693       25.573      7.542       4.004       33.992      31.321      69.193      8.429       1.131       2.173       505.44      23.389      1.08        193.308     208.018     253.133     30.356      
141.4       14.521      121.857     2.58        7.78        31.571      8.677       5.276       32.164      33.486      93.577      8.805       1.104       2.17        504.864     25.568      1.08        213.47      222.58      253.582     33.748      
141.6       15.171      121.807     2.585       8.221       42.954      10.965      7.507       30.732      36.016      124.606     9.428       1.201       2.109       502.96      29.087      1.08        223.336     240.342     222.293     36.541      
141.8       15.668      121.789     2.633       7.582       60.032      15.234      10.364      29.599      38.635      156.692     10.413      1.419       2.2         500.304     33.792      1.08        228.214     250.071     218.782     31.67       
142.0       34.594      121.843     2.687       5.921       84.665      25.108      13.976      29.243      40.257      183.793     11.739      1.634       2.55        497.776     40.645      1.08        269.489     256.692     243.031     23.376      
142.2       72.111      121.658     2.727       4.85        115.016     43.429      17.468      30.057      41.711      200.933     13.141      2.04        3.18        495.76      51.113      1.08        344.296     311.154     276.585     14.279      
142.4       119.399     121.974     2.711       4.335       148.186     74.898      21.519      32.42       42.877      206.277     14.19       2.229       3.524       493.872     64.021      1.08        401.068     335.809     275.183     13.107      
142.6       126.474     121.983     2.671       3.95        180.9       120.702     25.985      37.061      43.739      201.125     14.992      2.087       3.405       491.584     76.618      1.08        421.867     353.6       279.265     14.562      
142.8       229.615     122.354     2.693       3.605       210.435     175.876     30.691      43.83       44.518      188.639     15.642      2.006       3.463       489.072     88.225      1.08        431.467     356.8       317.847     14.297      
143.0       294.442     122.282     2.681       3.219       232.675     231.229     35.936      51.368      46.393      171.717     16.119      2.076       3.564       486.832     103.615     1.08        443.466     358.4       362.4       12.521      
143.2       366.437     122.091     2.734       3.395       246.349     279.833     43.8        58.854      47.787      152.936     16.411      2.28        3.648       485.184     129.477     1.08        438.934     329.601     358.4       9.304       
143.4       415.911     121.72      2.795       3.722       254.018     317.326     55.071      65.718      46.4        134.149     16.583      2.478       3.794       484.08      165.969     1.08        426.933     338.401     365.6       7.818       
143.6       368.978     121.553     2.751       3.655       257.207     341.598     71.291      70.831      45.6        116.441     16.663      2.74        3.951       483.376     202.301     1.08        412.8       391.202     360.8       7.188       
143.8       302.691     121.751     2.741       3.222       257.312     355.127     90.168      73.554      43.2        100.34      16.627      2.851       4.001       483.072     226.504     1.08        394.933     451.2       344.0       6.065       
144.0       282.488     121.802     2.805       3.304       252.728     356.22      106.739     73.865      40.0        85.686      16.489      2.964       4.094       483.072     235.486     1.08        378.4       444.0       324.0       4.327       
144.2       306.196     121.839     2.771       3.429       242.675     342.508     115.988     71.281      38.4        71.96       16.296      3.23        4.2         483.152     236.282     1.08        391.466     426.401     335.199     3.38        
144.4       226.986     121.463     2.79        3.326       223.653     310.884     117.162     65.403      37.6        59.838      16.044      3.367       4.207       484.016     235.204     1.08        428.001     434.401     380.802     4.469       
144.6       219.281     121.547     2.773       3.103       197.822     266.235     109.875     57.02       37.6        50.906      15.731      3.083       4.224       485.936     228.827     1.08        458.134     454.4       415.199     6.725       
144.8       128.529     121.313     2.68        3.298       169.501     215.463     97.317      48.227      37.6        46.315      15.405      2.601       4.02        488.464     215.435     1.08        461.867     459.2       384.0       12.599      
145.0       106.66      121.29      2.612       3.715       145.217     169.805     85.611      41.032      37.6        46.083      15.077      2.133       3.626       490.992     195.63      1.08        453.6       419.201     364.0       16.648      
145.2       75.162      121.376     2.595       3.691       129.076     136.736     79.269      37.117      38.4        48.829      14.83       1.907       3.321       493.44      175.867     1.08        440.001     384.001     350.4       19.961      
145.4       70.469      121.641     2.575       3.433       124.011     119.157     77.554      37.152      39.2        52.046      14.627      1.709       3.11        495.936     161.52      1.08        417.066     377.601     336.8       22.62       
145.6       78.163      122.114     2.584       3.157       126.942     112.214     78.906      40.461      40.0        53.834      14.556      1.625       3.028       498.176     149.696     1.08        404.0       383.2       324.8       22.488      
145.8       94.842      121.82      2.591       3.166       132.998     110.524     82.264      45.716      40.8        53.329      14.495      1.662       2.948       499.824     134.038     1.08        398.133     364.8       332.0       22.872      
146.0       112.461     121.596     2.617       3.014       138.059     109.868     85.4        51.502      42.4        50.194      14.41       1.828       3.117       501.104     113.689     1.06        384.534     352.0       340.0       19.449      
146.2       139.316     121.42      2.604       3.386       138.497     106.371     85.496      56.538      47.2        45.336      14.252      1.886       3.382       502.464     95.454      1.06        373.066     352.0       347.2       19.098      
146.4       95.719      121.359     2.582       3.298       132.334     99.142      81.831      60.174      48.0        40.5        14.036      1.766       3.226       504.0       85.143      1.06        385.6       349.599     377.601     21.961      
146.6       95.06       121.466     2.591       3.433       122.548     90.381      75.683      62.599      48.0        36.609      13.854      1.648       3.111       505.536     81.373      1.06        422.668     329.6       410.401     21.728      
146.8       92.897      121.24      2.542       3.358       111.713     81.047      68.058      64.219      52.8        34.495      13.561      1.552       3.068       506.816     80.047      1.06        450.133     347.2       431.2       23.338      
147.0       65.615      121.218     2.485       3.483       101.554     71.655      60.107      65.095      52.8        34.347      13.289      1.476       2.902       507.616     78.664      1.06        443.201     372.0       428.8       25.726      
147.2       63.533      121.418     2.445       3.331       94.235      64.28       53.452      65.264      51.2        35.501      13.096      1.486       2.825       507.936     76.992      1.06        417.067     377.601     421.6       26.122      
147.4       65.917      121.845     2.472       3.286       90.929      59.354      49.022      64.947      50.4        36.833      12.964      1.418       2.759       508.0       75.053      1.06        404.0       357.6       427.2       28.805      
