~Version Information Section
VERS.                                         2.0:CWLS log ASCII Standart – VERSION 2.0
WRAP.                                          NO:One line per depth step
~Well Information Section
STRT.M                                        1.6:Начальная глубина
STOP.M                                      212.2:Конечная глубина
STEP.M                                          0:Шаг квантования по глубине
NULL.                                    -9999.25:Признак "Нет данных"
WELL.                                       139Мх:Скважина
~Parameter Information Section
~Curve Information Section
DEPTH.M                                          :Глубина
BK.Ohm*M                                         :BK     (БК)
DS.mm                                            :DS  (ДС)
GGK.g/cm3                                        :GGKp
ГК.mcr/h                                         :GK          (ГК)
GZ1.Ohm*M                                        :GZ1   ГЗ1(A0.4M0.1N)
GZ2.Ohm*M                                        :GZ2   ГЗ2(A1.0M0.1N)
GZ3.Ohm*M                                        :GZ3   ГЗ3(A2.0M0.5N)
GZ4.Ohm*M                                        :GZ4   ГЗ4(A4.0M0.5N)
GZ5.Ohm*M                                        :GZ5   ГЗ5(A8.0M0.5N)
GZR.Ohm*M                                        :GZK   ГЗK(N0.5M2.0A)
ИК.Ohm*M                                         :IK
НГК.ue                                           :NGK     (НГК)
NNKM.                                            :NNKm  (ННКм)
PS.mv                                            :PS       (ПС)
PZ.Ohm*M                                         :PZ    (КС)
U1.mV                                            :U1
U2.mV                                            :U2
U3.mV                                            :U3
КП.%                                             :Кп
~ASCII LOG DATA
# ...
127.4       49.849      143.082     2.259       6.254       27.292      21.108      47.44       10.408      8.562       38.712      20.085      1.12        1.982       206.585     37.0        114.508     187.563     269.371     42.418      
127.5       55.004      145.751     2.241       6.001       29.193      22.518      47.192      11.977      9.462       43.69       20.641      1.096       2.053       204.86      37.002      150.748     201.465     225.26      38.418      
127.6       77.008      144.706     2.235       5.533       30.916      23.174      46.29       13.693      10.374      47.987      21.187      1.119       2.238       203.162     37.014      157.217     211.648     232.274     35.851      
127.7       106.72      144.549     2.242       4.938       32.006      23.222      44.557      15.335      11.251      51.297      21.597      1.168       2.412       201.545     37.055      130.685     208.338     265.132     34.049      
127.8       111.614     146.069     2.259       4.438       32.436      23.153      42.353      16.667      12.042      53.647      21.685      1.236       2.462       200.014     37.161      121.358     195.25      250.115     32.729      
127.9       120.43      147.685     2.296       3.921       32.409      22.578      40.113      17.562      12.698      55.322      21.274      1.283       2.451       198.526     37.4        155.662     178.411     187.015     32.904      
128.0       117.019     148.221     2.321       3.61        32.131      20.879      38.03       18.104      13.196      56.663      20.674      1.315       2.391       196.998     37.861      186.483     166.257     131.418     34.12       
128.1       74.222      144.949     2.321       3.43        31.175      18.409      36.075      18.447      13.545      57.958      20.337      1.341       2.309       195.371     38.666      193.377     176.93      168.346     36.988      
128.2       30.719      141.359     2.281       3.961       29.949      16.222      34.365      18.695      13.779      59.294      20.479      1.339       2.239       193.617     39.93       186.406     213.215     226.499     38.562      
128.3       25.321      132.84      2.238       4.314       29.577      15.254      33.25       18.961      13.946      60.819      21.237      1.318       2.168       191.737     41.783      216.463     251.631     253.498     39.431      
128.4       36.345      133.264     2.208       4.501       29.577      15.206      32.583      19.392      14.083      63.015      22.728      1.282       2.119       189.76      44.311      282.104     274.032     235.851     39.111      
128.5       42.942      133.838     2.174       4.371       29.681      15.206      32.297      20.382      14.209      66.613      24.61       1.224       2.185       187.731     47.565      346.331     283.681     213.989     39.16       
128.6       49.98       133.983     2.168       4.391       30.607      15.291      32.2        22.393      14.32       71.663      26.24       1.18        2.25        185.696     51.518      330.269     273.137     232.566     38.143      
128.7       73.359      134.56      2.165       4.391       33.709      15.988      32.2        25.629      14.44       77.576      27.864      1.191       2.279       183.703     56.087      235.35      237.01      259.603     36.274      
128.8       105.166     134.956     2.155       4.129       39.542      17.984      32.236      29.899      14.618      83.454      29.311      1.203       2.35        181.788     61.084      141.86      195.494     315.432     35.115      
128.9       119.932     134.92      2.15        3.809       47.811      20.916      32.5        34.637      14.88       88.185      30.515      1.23        2.426       179.982     66.274      106.784     196.348     365.385     35.766      
129.0       121.103     131.302     2.148       3.453       57.581      24.26       33.172      38.908      15.212      90.906      31.518      1.222       2.44        178.326     71.373      116.116     213.83      403.468     36.69       
129.1       122.107     131.257     2.169       3.341       67.697      27.699      34.3        42.009      15.574      91.778      32.206      1.275       2.424       176.843     76.133      125.445     231.307     403.468     36.565      
129.2       120.83      131.029     2.181       3.266       77.083      31.183      36.172      43.749      15.899      91.766      32.793      1.27        2.384       175.547     80.346      201.647     258.439     410.316     35.745      
129.3       116.591     130.566     2.165       3.368       85.021      34.939      38.5        44.334      16.125      91.598      33.368      1.246       2.351       174.444     83.944      280.19      312.17      417.165     35.381      
129.4       113.027     130.135     2.155       3.365       91.256      39.232      41.512      44.332      16.244      90.775      33.881      1.192       2.397       173.524     86.979      358.721     357.421     420.589     35.403      
129.5       113.028     130.14      2.15        3.639       95.629      44.143      44.528      44.285      16.282      88.917      34.179      1.196       2.444       172.753     89.641      358.721     368.717     413.74      36.205      
129.6       112.258     130.459     2.146       3.939       98.133      49.575      47.188      44.019      16.287      86.632      34.505      1.258       2.454       172.1       92.189      358.721     368.717     410.316     37.031      
129.7       107.712     130.94      2.149       4.016       99.304      55.289      49.04       43.465      16.278      84.442      34.698      1.32        2.451       171.532     94.943      358.721     377.19      410.316     37.699      
129.8       102.095     131.061     2.158       3.925       99.684      60.87       50.4        42.967      16.234      82.499      34.872      1.319       2.432       171.022     98.154      365.009     382.838     413.74      38.069      
129.9       96.629      131.14      2.132       3.776       99.718      65.848      51.176      42.608      16.153      80.922      35.125      1.318       2.421       170.55      101.989     371.297     374.367     413.74      38.939      
130.0       91.317      129.848     2.097       3.504       99.693      69.948      51.812      42.386      16.053      79.739      35.28       1.32        2.418       170.108     106.475     412.172     363.069     413.74      39.614      
130.1       92.239      127.772     2.068       3.462       99.516      73.117      52.3        42.265      15.941      78.806      35.375      1.335       2.389       169.691     111.454     443.607     351.774     410.316     39.412      
130.2       92.095      127.922     2.027       3.511       99.158      75.476      52.888      42.203      15.825      77.937      35.46       1.331       2.363       169.289     116.578     475.049     340.478     420.588     38.836      
130.3       88.62       128.0       2.001       3.476       98.972      77.311      53.388      42.187      15.704      76.984      35.514      1.333       2.378       168.895     121.369     487.626     332.006     430.861     38.759      
130.4       88.417      127.356     2.023       3.362       98.972      78.916      53.7        42.184      15.538      75.813      35.57       1.352       2.387       168.503     125.223     503.344     337.653     461.674     38.884      
130.5       88.278      127.264     2.051       3.045       98.976      80.543      53.912      42.172      15.296      74.408      35.522      1.304       2.363       168.106     127.582     519.065     343.302     471.949     38.391      
130.6       94.967      127.271     2.094       3.176       99.019      82.304      54.212      42.138      14.973      72.88       35.36       1.25        2.363       167.705     128.331     519.065     348.95      478.797     37.855      
130.7       114.474     127.171     2.131       3.149       99.203      84.131      54.712      42.091      14.57       71.358      35.136      1.22        2.401       167.305     128.331     486.705     343.302     465.1       37.937      
