~Version Information Section
VERS.                                         2.0:CWLS log ASCII Standart – VERSION 2.0
WRAP.                                          NO:One line per depth step
~Well Information Section
STRT.M                                        1.2:Начальная глубина
STOP.M                                      169.4:Конечная глубина
STEP.M                                          0:Шаг квантования по глубине
NULL.                                    -9999.25:Признак "Нет данных"
WELL.                                       114Мх:Скважина
~Parameter Information Section
~Curve Information Section
DEPTH.M                                          :Глубина
BK.Ohm*M                                         :BK     (БК)
DS.mm                                            :DS  (ДС)
GGK.g/cm3                                        :GGKp
ГК.mcr/h                                         :GK          (ГК)
GZ1.Ohm*M                                        :GZ1   ГЗ1(A0.4M0.1N)
GZ2.Ohm*M                                        :GZ2   ГЗ2(A1.0M0.1N)
GZ3.Ohm*M                                        :GZ3   ГЗ3(A2.0M0.5N)
GZ4.Ohm*M                                        :GZ4   ГЗ4(A4.0M0.5N)
GZ5.Ohm*M                                        :GZ5   ГЗ5(A8.0M0.5N)
GZR.Ohm*M                                        :GZK   ГЗK(N0.5M2.0A)
ИК.Ohm*M                                         :IK
НГК.ue                                           :NGK     (НГК)
NNKM.                                            :NNKm  (ННКм)
PS.mv                                            :PS       (ПС)
PZ.Ohm*M                                         :PZ    (КС)
U1.mV                                            :U1
U2.mV                                            :U2
U3.mV                                            :U3
КП.%                                             :Кп
~ASCII LOG DATA
# ...
79.4        48.865      137.656     2.334       4.84        5.246       4.691       4.177       5.925       2.771       4.319       23.58       1.159       1.424       1036.084    43.842      929.163     359.16      235.699     33.275      
79.5        45.29       133.28      2.391       4.631       6.957       5.295       4.377       5.825       2.671       4.619       23.249      1.137       1.465       1032.896    43.671      975.144     285.541     143.611     32.445      
79.6        38.994      132.934     2.39        4.395       9.608       5.754       4.577       5.725       2.571       4.519       23.092      1.173       1.407       1029.496    43.329      819.85      304.363     132.422     29.685      
79.7        43.451      134.604     2.364       4.646       5.87        6.6         5.077       5.725       2.571       4.519       22.903      1.187       1.381       1025.697    42.816      673.456     359.126     189.338     28.717      
79.8        28.314      134.935     2.341       4.947       3.71        6.213       5.677       5.725       2.771       4.519       22.847      1.166       1.407       1021.654    42.133      582.981     433.883     307.882     29.685      
79.9        25.882      133.79      2.315       5.188       3.062       5.561       5.577       5.725       2.971       4.519       22.488      1.173       1.427       1017.595    41.278      588.783     451.144     352.448     29.966      
80.0        25.351      133.845     2.308       4.837       2.684       5.005       5.277       5.725       3.271       4.619       22.11       1.229       1.439       1014.504    40.424      650.423     395.489     295.109     29.857      
80.1        22.751      133.925     2.326       4.526       4.101       5.029       5.177       5.825       4.371       4.719       21.793      1.333       1.471       1012.61     39.398      761.434     370.015     256.416     30.063      
80.2        26.062      133.589     2.352       4.624       2.898       5.875       5.077       5.825       4.571       4.819       21.29       1.396       1.514       1011.622    38.202      881.801     452.754     341.596     29.529      
80.3        27.164      132.595     2.39        4.332       3.12        6.334       5.077       6.025       4.771       5.119       20.858      1.401       1.541       1011.506    37.006      946.333     644.245     563.264     28.599      
80.4        20.941      132.769     2.457       4.035       2.806       6.503       5.077       6.125       4.971       5.319       20.533      1.361       1.553       1011.613    35.638      946.047     839.894     800.394     28.478      
80.5        18.836      133.612     2.491       3.63        2.555       6.334       5.277       6.225       4.971       5.319       20.241      1.337       1.681       1011.691    34.271      880.6       962.287     976.559     29.427      
80.6        21.528      133.28      2.48        3.976       2.763       6.02        5.477       6.325       4.971       5.519       20.043      1.357       1.837       1011.923    32.904      917.738     1015.756    1089.065    27.66       
80.7        22.182      131.564     2.436       4.337       3.029       6.117       5.777       6.425       4.971       5.719       19.85       1.35        1.733       1013.092    31.536      1072.229    1001.808    1138.41     24.407      
80.8        28.708      131.705     2.408       4.343       4.352       6.745       5.777       6.525       4.971       5.819       19.744      1.327       1.571       1015.71     30.169      1219.731    1008.851    1125.032    21.803      
80.9        29.242      133.232     2.374       4.139       4.063       7.083       5.677       6.625       4.971       5.919       19.556      1.288       1.523       1019.312    28.802      1244.534    1045.727    1050.987    22.885      
81.0        23.55       132.895     2.346       4.329       3.777       7.011       5.577       6.825       5.071       5.819       19.535      1.309       1.506       1024.68     27.606      1278.536    1071.559    953.6       26.519      
81.1        23.659      132.816     2.341       4.518       3.743       7.132       5.477       6.825       5.171       5.619       19.722      1.349       1.53        1031.515    26.409      1450.521    1056.436    891.254     28.427      
81.2        23.714      132.529     2.358       4.66        3.376       7.228       5.377       6.825       5.371       5.619       19.828      1.272       1.517       1039.341    25.384      1677.476    1069.069    890.507     29.569      
81.3        24.889      132.07      2.371       4.44        3.337       6.914       5.477       6.825       5.671       5.519       19.935      1.198       1.481       1047.524    24.529      1818.253    1152.581    914.742     28.732      
81.4        27.861      132.696     2.377       4.478       3.144       6.697       5.577       6.825       5.771       5.419       20.131      1.091       1.467       1055.26     23.846      1865.949    1248.319    926.872     28.458      
81.5        25.882      132.172     2.379       4.89        3.729       6.479       5.677       6.925       6.071       5.419       20.175      1.078       1.439       1062.853    23.162      1782.093    1284.802    904.223     26.939      
81.6        22.131      132.609     2.367       5.548       4.343       6.624       5.777       7.125       5.971       5.419       20.375      1.062       1.355       1069.905    22.82       1572.977    1259.523    847.031     25.849      
81.7        22.029      133.165     2.336       5.931       5.715       6.962       5.777       7.225       5.871       5.519       20.579      1.066       1.281       1076.798    22.82       1372.76     1219.534    839.411     26.1        
81.8        23.823      134.904     2.31        5.964       6.427       7.349       6.177       7.325       5.771       5.619       20.788      1.126       1.261       1083.202    22.991      1304.418    1167.194    881.31      27.957      
81.9        23.014      133.925     2.298       5.677       5.013       7.373       6.777       7.325       5.771       5.819       20.93       1.184       1.28        1088.283    23.675      1280.073    1144.603    960.775     29.877      
82.0        28.907      133.584     2.32        5.473       4.097       6.842       6.777       7.525       5.771       5.919       21.144      1.254       1.361       1092.224    24.7        1189.707    1161.054    1079.078    30.918      
82.1        35.481      133.524     2.361       5.126       4.556       6.817       6.677       7.625       5.671       6.119       21.29       1.307       1.468       1095.43     26.238      1293.819    1142.747    1191.1      31.732      
82.2        33.42       132.684     2.381       4.746       4.688       6.866       6.577       7.625       5.571       6.319       21.69       1.372       1.585       1097.744    27.947      1758.142    1060.925    1345.838    29.892      
82.3        33.42       131.784     2.355       4.67        5.881       7.252       6.477       7.725       5.571       6.519       22.134      1.415       1.591       1099.672    29.998      2294.126    1074.148    1455.008    26.631      
82.4        33.729      130.396     2.274       4.866       8.023       7.954       6.377       7.825       5.571       6.919       22.567      1.415       1.503       1101.378    32.733      2831.532    1254.523    1625.888    24.929      
82.5        48.084      128.228     2.191       5.118       7.355       8.195       6.377       7.825       5.571       6.719       23.275      1.389       1.454       1103.363    35.467      3102.11     1635.355    1578.421    25.874      
82.6        62.23       127.633     2.144       5.252       7.544       8.195       6.277       7.825       5.571       6.619       23.938      1.367       1.436       1104.576    38.373      3282.474    2075.575    1474.002    27.77       
82.7        41.4        127.782     2.16        5.363       7.892       8.582       6.277       7.925       5.571       6.619       24.316      1.374       1.455       1105.298    41.449      3201.781    2494.537    1317.354    27.824      
