~Version Information Section
VERS.                                         2.0:CWLS log ASCII Standart – VERSION 2.0
WRAP.                                          NO:One line per depth step
~Well Information Section
STRT.M                                        0.4:Начальная глубина
STOP.M                                      190.1:Конечная глубина
STEP.M                                          0:Шаг квантования по глубине
NULL.                                    -9999.25:Признак "Нет данных"
WELL.                                       135Мх:Скважина
~Parameter Information Section
~Curve Information Section
DEPTH.M                                          :Глубина
DS.mm                                            :DS  (ДС)
GGK.g/cm3                                        :GGKp
ГК.mcr/h                                         :GK          (ГК)
GZ1.Ohm*M                                        :GZ1   ГЗ1(A0.4M0.1N)
GZ2.Ohm*M                                        :GZ2   ГЗ2(A1.0M0.1N)
GZ3.Ohm*M                                        :GZ3   ГЗ3(A2.0M0.5N)
GZ4.Ohm*M                                        :GZ4   ГЗ4(A4.0M0.5N)
GZ5.Ohm*M                                        :GZ5   ГЗ5(A8.0M0.5N)
GZR.Ohm*M                                        :GZK   ГЗK(N0.5M2.0A)
ИК.Ohm*M                                         :IK
НГК.ue                                           :NGK     (НГК)
NNKM.                                            :NNKm  (ННКм)
PS.mv                                            :PS       (ПС)
PZ.Ohm*M                                         :PZ    (КС)
RS.Ohm*M                                         :RS (Резистивиметр)
U1.mV                                            :U1
U2.mV                                            :U2
U3.mV                                            :U3
BK.Ohm*M                                         :БК
ПОРИСТОСТЬ.                                      :Пористость ННК
~ASCII LOG DATA
# ...
32.4        141.889     2.181       6.176       17.731      6.618       -31.627     -22.283     -31.655     119.609     18.33       6.549       4.999       -9999.25    -9999.25    1.6         -9999.25    -9999.25    -9999.25    29.973      0.689       
32.5        141.971     2.17        7.309       18.038      6.176       -31.629     -19.436     -31.656     122.592     18.33       6.34        4.864       -9999.25    -9999.25    1.6         -9999.25    -9999.25    -9999.25    28.525      0.77        
32.6        142.074     2.153       8.168       17.777      5.117       -31.634     -17.58      -31.656     124.575     18.328      6.194       4.721       -9999.25    -9999.25    1.6         -9999.25    -9999.25    -9999.25    26.562      1.008       
32.7        142.272     2.139       8.554       17.134      3.802       -31.638     -17.254     -31.656     127.978     18.283      6.106       4.609       -9999.25    -9999.25    1.6         -9999.25    -9999.25    -9999.25    24.539      1.17        
32.8        142.69      2.139       9.185       16.155      2.427       -31.639     -17.398     -31.655     132.803     18.118      6.15        4.576       -9999.25    -9999.25    1.6         -9999.25    -9999.25    -9999.25    23.579      1.194       
32.9        142.558     2.139       9.643       15.114      1.307       -31.64      -16.207     -31.654     137.675     17.887      6.288       4.572       -9999.25    -9999.25    1.6         -9999.25    -9999.25    -9999.25    21.416      1.147       
33.0        142.346     2.149       10.375      14.232      0.569       -31.641     -15.347     -31.651     140.876     17.703      6.483       4.587       -9999.25    -9999.25    1.6         -9999.25    -9999.25    -9999.25    18.014      1.112       
33.1        142.346     2.171       10.668      13.455      0.112       -31.643     -16.85      -31.647     142.597     17.634      6.687       4.608       -9999.25    -9999.25    1.6         -9999.25    -9999.25    -9999.25    19.18       1.098       
33.2        142.736     2.19        10.327      12.794      -0.227      -31.643     -20.684     -31.642     144.359     17.634      6.848       4.691       -9999.25    -9999.25    1.6         -9999.25    -9999.25    -9999.25    17.794      1.051       
33.3        142.904     2.201       9.69        12.222      -0.55       -31.643     -26.027     -31.638     147.403     17.649      6.954       4.84        -9999.25    -9999.25    1.6         -9999.25    -9999.25    -9999.25    19.54       1.013       
33.4        142.848     2.203       9.015       11.734      -0.87       -31.642     -29.811     -31.635     152.14      17.746      7.028       4.95        -9999.25    -9999.25    1.6         -9999.25    -9999.25    -9999.25    23.418      0.979       
33.5        142.809     2.194       8.776       11.321      -1.153      -31.64      -31.179     -31.634     158.352     18.02       7.167       5.017       -9999.25    -9999.25    1.6         -9999.25    -9999.25    -9999.25    26.726      0.865       
33.6        142.809     2.182       8.43        10.97       -1.359      -31.637     -31.479     -31.635     165.802     18.499      7.424       5.116       -9999.25    -9999.25    1.6         -9999.25    -9999.25    -9999.25    36.314      0.674       
33.7        142.906     2.172       7.988       10.705      -1.48       -31.635     -31.546     -31.637     174.49      19.154      7.801       5.257       -9999.25    -9999.25    1.6         -9999.25    -9999.25    -9999.25    29.423      0.001       
33.8        143.141     2.163       7.586       10.512      -1.526      -31.634     -31.605     -31.639     186.278     19.918      8.445       5.47        -9999.25    -9999.25    1.6         -9999.25    -9999.25    -9999.25    12.648      -0.505      
33.9        143.126     2.161       7.44        10.392      -1.531      -31.635     -31.644     -31.643     203.068     20.761      9.223       5.757       -9999.25    -9999.25    1.6         -9999.25    -9999.25    -9999.25    7.994       -1.304      
34.0        143.127     2.175       6.8         10.357      -1.518      -31.635     -31.665     -31.646     223.872     21.652      9.881       5.957       -9999.25    -9999.25    1.6         -9999.25    -9999.25    -9999.25    8.008       -1.702      
34.1        142.98      2.206       5.742       10.375      -1.461      -31.634     -31.671     -31.648     246.097     22.512      10.064      5.975       -9999.25    -9999.25    1.6         -9999.25    -9999.25    -9999.25    25.254      -1.758      
34.2        142.972     2.231       4.889       10.465      -1.306      -31.633     -31.671     -31.649     269.808     23.293      9.85        5.875       -9999.25    -9999.25    1.58        -9999.25    -9999.25    -9999.25    4.414       -1.481      
34.3        142.959     2.233       4.795       10.692      -1.023      -31.617     -31.668     -31.649     294.916     23.977      9.448       5.729       -9999.25    -9999.25    1.58        -9999.25    -9999.25    -9999.25    4.03        -1.212      
34.4        142.96      2.216       5.005       11.073      -0.615      -31.555     -31.662     -31.649     331.118     24.548      8.985       5.601       -9999.25    -9999.25    1.58        -9999.25    -9999.25    -9999.25    3.685       -0.721      
34.5        143.02      2.178       5.249       11.546      -0.135      -31.435     -31.654     -31.647     390.386     24.96       8.557       5.542       -9999.25    -9999.25    1.58        -9999.25    -9999.25    -9999.25    14.564      -0.401      
34.6        143.222     2.128       5.605       12.044      0.316       -31.274     -31.645     -31.646     460.398     25.215      8.193       5.548       -9999.25    -9999.25    1.58        -9999.25    -9999.25    -9999.25    7.507       -0.289      
34.7        143.528     2.089       6.164       12.512      0.706       -31.116     -31.633     -31.644     526.499     25.307      7.836       5.557       -9999.25    -9999.25    1.58        -9999.25    -9999.25    -9999.25    10.468      -0.259      
34.8        143.62      2.066       6.686       12.892      1.098       -31.019     -31.616     -31.643     576.853     25.307      7.442       5.471       -9999.25    -9999.25    1.58        -9999.25    -9999.25    -9999.25    15.841      -0.163      
34.9        143.506     2.055       6.906       13.149      1.611       -31.027     -31.593     -31.643     591.049     25.307      7.146       5.28        -9999.25    -9999.25    1.58        -9999.25    -9999.25    -9999.25    8.659       -0.032      
35.0        143.506     2.059       7.096       13.196      2.494       -31.135     -31.569     -31.642     567.923     25.3        7.069       5.056       -9999.25    -9999.25    1.58        -9999.25    -9999.25    -9999.25    8.938       0.213       
35.1        143.514     2.06        7.454       12.902      3.873       -31.297     -31.549     -31.642     527.372     25.228      7.253       4.9         -9999.25    -9999.25    1.58        -9999.25    -9999.25    -9999.25    14.074      0.322       
35.2        143.615     2.056       8.336       12.236      5.455       -31.457     -31.536     -31.642     481.621     24.994      7.483       4.912       -9999.25    -9999.25    1.58        -9999.25    -9999.25    -9999.25    15.667      0.237       
35.3        143.946     2.055       9.225       11.269      6.932       -31.571     -31.539     -31.642     442.065     24.605      7.715       5.022       -9999.25    -9999.25    1.58        -9999.25    -9999.25    -9999.25    13.485      0.021       
35.4        144.227     2.056       9.146       10.114      8.036       -31.627     -31.557     -31.641     422.643     24.14       7.915       5.103       -9999.25    -9999.25    1.58        -9999.25    -9999.25    -9999.25    42.436      -0.123      
35.5        143.733     2.044       8.371       8.966       8.637       -31.64      -31.581     -31.641     416.89      23.783      8.131       5.152       -9999.25    -9999.25    1.58        -9999.25    -9999.25    -9999.25    28.529      -0.367      
