~Version Information Section
VERS.                                         2.0:CWLS log ASCII Standart – VERSION 2.0
WRAP.                                          NO:One line per depth step
~Well Information Section
STRT.M                                        0.1:Начальная глубина
STOP.M                                      167.0:Конечная глубина
STEP.M                                          0:Шаг квантования по глубине
NULL.                                    -9999.25:Признак "Нет данных"
WELL.                                        143К:Скважина
~Parameter Information Section
~Curve Information Section
DEPTH.M                                          :Глубина
БК.Омм                                           :BK     (БК)
DСР.мм                                           :DS  (ДС)
ПЛОТНОСТЬ.г/см^3                                 :GGKp
ГК.гамма                                         :GK          (ГК)
ИК.мСм/м                                         :IK
НГК.усл.ед                                       :NGK     (НГК)
ННКМ.усл.ед                                      :NNKm  (ННКм)
ПС.mv                                            :PS       (ПС)
N11.0M0.5A.Омм                                   :PZ    (КС)
R.Омм                                            :RS (Резистивиметр)
КП.%                                             :W
А0.4М0.1N.Омм                                    :GZ1   ГЗ1(A0.4M0.1N)
А1.0М0.1N.Омм                                    :GZ2   ГЗ2(A1.0M0.1N)
А2.0М0.5N.Омм                                    :GZ3   ГЗ3(A2.0M0.5N)
А4.0М0.5N.Oмм                                    :GZ4   ГЗ4(A4.0M0.5N)
А8.0М1.0N.Омм                                    :GZ5   ГЗ5(A8.0M0.5N)
N0.5M2.0A.Омм                                    :GZR   ГЗK(N0.5M2.0A)
~ASCII LOG DATA
# ...
81.5        36.851      225.959     2.282       5.954       30.389      1.14        1.991       50.132      45.28       1.05        31.039      35.893      52.546      45.202      19.272      15.799      35.656      
81.6        41.335      225.765     2.282       5.971       29.182      1.137       1.987       50.938      42.802      1.057       31.64       32.812      47.892      39.677      17.185      14.489      35.656      
81.7        42.549      226.036     2.277       6.189       28.173      1.122       1.976       51.603      40.918      1.063       32.153      30.209      44.062      35.226      15.639      13.401      35.735      
81.8        38.84       226.606     2.268       6.45        27.308      1.104       1.965       52.12       39.553      1.07        32.603      27.93       40.568      32.416      14.832      12.492      36.016      
81.9        32.525      229.215     2.259       6.704       26.527      1.089       1.941       52.438      38.412      1.077       33.089      25.865      37.266      30.96       14.633      11.779      36.489      
82.0        29.0        229.57      2.251       7.026       25.78       1.092       1.909       52.563      37.528      1.082       33.659      24.854      34.779      30.472      14.633      11.23       37.064      
82.1        27.73       230.11      2.243       7.186       25.058      1.108       1.878       52.497      36.975      1.087       34.115      24.682      32.876      30.448      14.633      10.792      37.449      
82.2        26.821      229.393     2.232       7.19        24.383      1.126       1.841       52.238      36.677      1.092       34.374      24.682      31.256      30.448      14.775      10.352      37.532      
82.3        25.971      227.094     2.218       6.848       23.773      1.146       1.817       51.838      36.582      1.095       34.516      24.682      30.07       30.448      15.308      9.947       37.532      
82.4        25.715      227.871     2.2         6.53        23.238      1.166       1.812       51.306      36.582      1.098       34.438      24.846      29.399      31.0        16.288      9.568       37.416      
82.5        25.602      228.729     2.183       6.265       22.784      1.192       1.82        50.612      36.582      1.099       34.023      25.603      28.988      32.36       17.513      9.252       37.013      
82.6        25.771      227.192     2.17        5.814       22.414      1.22        1.846       49.804      36.673      1.1         33.422      27.352      28.555      33.797      18.733      9.03        36.4        
82.7        27.636      224.523     2.163       5.342       22.122      1.241       1.885       48.954      36.992      1.1         32.802      29.816      28.103      34.833      19.77       8.89        35.667      
82.8        31.259      224.764     2.163       5.036       21.899      1.249       1.919       48.079      37.466      1.1         32.151      32.25       27.724      35.324      20.51       8.846       34.784      
82.9        35.152      225.099     2.166       4.779       21.735      1.248       1.956       47.215      37.915      1.101       31.508      34.157      27.422      35.41       21.012      8.846       33.817      
83.0        38.272      225.248     2.17        4.566       21.616      1.238       1.985       46.397      38.208      1.102       30.924      35.075      27.123      35.41       21.405      8.846       32.823      
83.1        40.401      225.886     2.172       4.504       21.52       1.221       2.005       45.644      38.299      1.105       30.48       35.213      26.823      35.123      21.716      8.846       31.932      
83.2        41.892      225.711     2.17        4.487       21.423      1.204       2.024       45.019      38.299      1.108       30.232      35.213      26.61       34.465      21.951      8.952       31.349      
83.3        42.366      224.865     2.166       4.498       21.311      1.202       2.024       44.536      38.265      1.112       30.274      35.059      26.558      33.987      22.184      9.15        31.15       
83.4        41.345      220.109     2.161       4.571       21.17       1.208       2.005       44.159      38.169      1.115       30.29       34.571      26.558      33.88       22.457      9.572       31.147      
83.5        39.894      218.228     2.154       4.659       21.004      1.204       1.988       43.88       38.001      1.118       30.462      33.881      26.586      33.88       22.857      10.271      31.147      
83.6        38.44       217.55      2.146       4.739       20.818      1.2         1.966       43.736      37.785      1.119       30.759      33.373      26.626      33.88       23.538      11.082      31.147      
83.7        37.2        217.522     2.141       4.898       20.622      1.206       1.939       43.706      37.615      1.12        30.89       33.222      26.603      33.989      24.55       11.941      31.293      
83.8        35.58       217.438     2.141       5.184       20.434      1.213       1.931       43.735      37.511      1.12        30.816      33.162      26.505      34.393      25.876      12.955      31.726      
83.9        33.693      217.4       2.147       5.252       20.274      1.216       1.943       43.829      37.4        1.12        30.826      33.101      26.581      35.037      27.554      14.047      32.32       
84.0        32.496      217.35      2.157       5.203       20.158      1.217       1.956       43.969      37.263      1.12        30.737      33.22       26.829      35.783      29.668      15.141      32.976      
84.1        32.856      217.329     2.168       5.187       20.104      1.227       1.975       44.136      37.15       1.12        30.589      33.424      27.055      36.683      32.322      16.261      33.785      
84.2        34.662      217.331     2.177       5.145       20.098      1.246       1.992       44.324      37.058      1.12        30.423      33.606      27.3        37.818      35.76       17.433      34.881      
84.3        36.237      217.418     2.181       5.046       20.098      1.262       2.005       44.519      36.988      1.12        30.287      33.831      27.514      39.24       40.259      18.58       36.284      
84.4        36.65       217.519     2.182       5.144       20.113      1.279       2.008       44.729      36.959      1.12        30.406      34.18       27.777      40.91       46.124      19.632      37.865      
84.5        35.963      217.701     2.186       5.319       20.179      1.299       2.013       44.958      36.953      1.12        30.71       34.65       28.162      42.441      53.16       20.52       39.33       
84.6        34.967      218.106     2.193       5.558       20.294      1.304       2.023       45.204      36.928      1.12        31.04       35.146      28.635      43.435      60.539      21.288      40.473      
84.7        34.34       218.062     2.202       5.752       20.444      1.294       2.036       45.479      36.885      1.12        31.358      35.412      28.901      43.795      67.069      21.801      41.227      
84.8        34.684      217.698     2.211       5.886       20.619      1.282       2.051       45.789      36.863      1.12        31.823      35.43       28.901      43.815      71.739      22.056      41.589      
84.9        35.804      217.524     2.216       5.851       20.809      1.269       2.058       46.15       36.827      1.12        32.183      35.43       28.849      43.815      74.097      22.056      41.751      
85.0        36.832      217.537     2.217       5.782       21.003      1.256       2.059       46.556      36.635      1.12        32.355      34.961      28.509      43.516      74.761      22.056      41.897      
85.1        37.379      217.557     2.216       5.668       21.183      1.237       2.056       46.988      36.3        1.12        32.444      33.987      27.905      42.711      75.043      22.024      42.008      
