~Version Information Section
VERS.                                         2.0:CWLS log ASCII Standart – VERSION 2.0
WRAP.                                          NO:One line per depth step
~Well Information Section
STRT.M                                        1.0:Начальная глубина
STOP.M                                      208.3:Конечная глубина
STEP.M                                          0:Шаг квантования по глубине
NULL.                                    -9999.25:Признак "Нет данных"
WELL.                                       131Мх:Скважина
~Parameter Information Section
~Curve Information Section
DEPTH.M                                          :Глубина
БК.Омм                                           :BK     (БК)
DСР.мм                                           :DS  (ДС)
ГК.гамма                                         :GK          (ГК)
А0.4М0.1N.Омм.ohmm                               :GZ1   ГЗ1(A0.4M0.1N)
А1.0М0.1N.Омм.ohmm                               :GZ2   ГЗ2(A1.0M0.1N)
А2.0М0.5N.Омм.ohmm                               :GZ3   ГЗ3(A2.0M0.5N)
А4.0М0.5N.Oмм.ohmm                               :GZ4   ГЗ4(A4.0M0.5N)
А8.0М1.0N.Омм.ohmm                               :GZ5   ГЗ5(A8.0M0.5N)
N0.5M2.0A.Омм.ohmm                               :GZK   ГЗK(N0.5M2.0A)
ИК.мСм/м                                         :IK
НГК.усл.ед                                       :NGK     (НГК)
ПС.mv                                            :PS       (ПС)
П.%                                              :п
PZ.Омм                                           :PZ    (КС)
R.Омм                                            :RS (Резистивиметр)
U1.мВ                                            :U1
U2.mV                                            :U2
U3.мВ                                            :U3
W.г/см3                                          :ГГКп
~ASCII LOG DATA
# ...
105.1       15.486      134.811     5.448       -9999.25    -9999.25    -9999.25    -9999.25    -9999.25    -9999.25    15.547      1.151       184.179     30.127      31.44       1.12        1380.448    1411.718    1445.739    2.497       
105.15      -9999.25    -9999.25    -9999.25    21.417      18.849      17.587      14.88       6.111       47.5        -9999.25    -9999.25    -9999.25    -9999.25    -9999.25    -9999.25    -9999.25    -9999.25    -9999.25    -9999.25    
105.2       16.073      135.773     5.39        -9999.25    -9999.25    -9999.25    -9999.25    -9999.25    -9999.25    15.892      1.122       183.801     29.768      32.463      1.12        1399.137    1411.718    1405.089    2.489       
105.25      -9999.25    -9999.25    -9999.25    25.982      21.454      19.94       16.889      6.656       48.795      -9999.25    -9999.25    -9999.25    -9999.25    -9999.25    -9999.25    -9999.25    -9999.25    -9999.25    -9999.25    
105.3       18.274      135.733     5.216       -9999.25    -9999.25    -9999.25    -9999.25    -9999.25    -9999.25    16.4        1.194       183.484     28.887      33.613      1.12        1444.238    1414.149    1399.295    2.482       
105.35      -9999.25    -9999.25    -9999.25    32.243      23.79       22.085      18.93       7.136       48.795      -9999.25    -9999.25    -9999.25    -9999.25    -9999.25    -9999.25    -9999.25    -9999.25    -9999.25    -9999.25    
105.4       28.626      133.022     4.991       -9999.25    -9999.25    -9999.25    -9999.25    -9999.25    -9999.25    17.121      1.235       183.239     27.951      34.982      1.12        1449.439    1420.445    1399.295    2.457       
105.45      -9999.25    -9999.25    -9999.25    39.984      25.774      23.677      20.555      7.514       48.795      -9999.25    -9999.25    -9999.25    -9999.25    -9999.25    -9999.25    -9999.25    -9999.25    -9999.25    -9999.25    
105.5       40.888      133.122     4.657       -9999.25    -9999.25    -9999.25    -9999.25    -9999.25    -9999.25    18.086      1.312       183.058     27.619      36.568      1.12        1438.159    1404.153    1390.616    2.447       
105.55      -9999.25    -9999.25    -9999.25    47.806      27.247      24.709      21.784      7.788       47.178      -9999.25    -9999.25    -9999.25    -9999.25    -9999.25    -9999.25    -9999.25    -9999.25    -9999.25    -9999.25    
105.6       44.912      131.811     4.447       -9999.25    -9999.25    -9999.25    -9999.25    -9999.25    -9999.25    19.319      1.364       182.917     27.266      38.527      1.12        1425.684    1381.668    1358.213    2.446       
105.65      -9999.25    -9999.25    -9999.25    54.263      28.348      25.29       22.566      7.988       43.18       -9999.25    -9999.25    -9999.25    -9999.25    -9999.25    -9999.25    -9999.25    -9999.25    -9999.25    -9999.25    
105.7       50.973      131.678     4.445       -9999.25    -9999.25    -9999.25    -9999.25    -9999.25    -9999.25    20.665      1.457       182.805     26.766      40.868      1.12        1407.926    1381.668    1358.213    2.439       
105.75      -9999.25    -9999.25    -9999.25    59.592      29.387      25.579      22.946      8.155       37.824      -9999.25    -9999.25    -9999.25    -9999.25    -9999.25    -9999.25    -9999.25    -9999.25    -9999.25    -9999.25    
105.8       60.664      131.204     4.189       -9999.25    -9999.25    -9999.25    -9999.25    -9999.25    -9999.25    22.01       1.454       182.774     26.583      43.672      1.12        1407.926    1389.04     1379.636    2.431       
105.85      -9999.25    -9999.25    -9999.25    63.788      30.592      25.772      23.306      8.341       32.629      -9999.25    -9999.25    -9999.25    -9999.25    -9999.25    -9999.25    -9999.25    -9999.25    -9999.25    -9999.25    
105.9       64.794      131.327     3.981       -9999.25    -9999.25    -9999.25    -9999.25    -9999.25    -9999.25    23.367      1.488       182.801     26.262      46.835      1.12        1419.546    1379.417    1321.71     2.419       
105.95      -9999.25    -9999.25    -9999.25    66.901      31.809      25.967      23.665      8.62        28.289      -9999.25    -9999.25    -9999.25    -9999.25    -9999.25    -9999.25    -9999.25    -9999.25    -9999.25    -9999.25    
106.0       69.652      131.036     4.05        -9999.25    -9999.25    -9999.25    -9999.25    -9999.25    -9999.25    24.54       1.453       182.866     26.871      50.272      1.12        1443.687    1379.417    1321.71     2.406       
106.05      -9999.25    -9999.25    -9999.25    68.853      33.85       26.224      23.977      9.067       25.236      -9999.25    -9999.25    -9999.25    -9999.25    -9999.25    -9999.25    -9999.25    -9999.25    -9999.25    -9999.25    
106.1       74.451      130.591     4.095       -9999.25    -9999.25    -9999.25    -9999.25    -9999.25    -9999.25    25.369      1.424       183.029     27.845      53.635      1.12        1430.829    1385.682    1350.477    2.392       
106.15      -9999.25    -9999.25    -9999.25    70.032      37.522      26.711      24.321      9.743       23.123      -9999.25    -9999.25    -9999.25    -9999.25    -9999.25    -9999.25    -9999.25    -9999.25    -9999.25    -9999.25    
106.2       66.204      130.364     4.058       -9999.25    -9999.25    -9999.25    -9999.25    -9999.25    -9999.25    25.907      1.416       183.323     29.265      56.798      1.12        1430.829    1411.562    1412.571    2.4         
106.25      -9999.25    -9999.25    -9999.25    70.759      42.48       27.263      24.554      10.681      21.587      -9999.25    -9999.25    -9999.25    -9999.25    -9999.25    -9999.25    -9999.25    -9999.25    -9999.25    -9999.25    
106.3       51.902      130.379     4.214       -9999.25    -9999.25    -9999.25    -9999.25    -9999.25    -9999.25    26.133      1.384       183.797     30.434      59.525      1.12        1485.079    1441.103    1418.458    2.409       
106.35      -9999.25    -9999.25    -9999.25    71.437      47.655      27.852      24.621      11.892      20.287      -9999.25    -9999.25    -9999.25    -9999.25    -9999.25    -9999.25    -9999.25    -9999.25    -9999.25    -9999.25    
106.4       41.679      130.48      4.342       -9999.25    -9999.25    -9999.25    -9999.25    -9999.25    -9999.25    26.057      1.362       184.44      29.916      61.697      1.12        1431.602    1416.99     1421.233    2.429       
106.45      -9999.25    -9999.25    -9999.25    72.095      52.974      28.44       24.691      13.38       18.975      -9999.25    -9999.25    -9999.25    -9999.25    -9999.25    -9999.25    -9999.25    -9999.25    -9999.25    -9999.25    
106.5       34.171      130.456     4.396       -9999.25    -9999.25    -9999.25    -9999.25    -9999.25    -9999.25    25.732      1.365       185.184     29.569      63.205      1.12        1385.267    1410.031    1422.76     2.439       
106.55      -9999.25    -9999.25    -9999.25    71.963      57.195      28.966      24.678      15.142      17.532      -9999.25    -9999.25    -9999.25    -9999.25    -9999.25    -9999.25    -9999.25    -9999.25    -9999.25    -9999.25    
106.6       34.081      130.865     4.236       -9999.25    -9999.25    -9999.25    -9999.25    -9999.25    -9999.25    25.293      1.369       185.952     28.704      64.243      1.12        1371.011    1410.031    1455.972    2.435       
106.65      -9999.25    -9999.25    -9999.25    70.971      58.683      29.228      24.631      17.132      16.238      -9999.25    -9999.25    -9999.25    -9999.25    -9999.25    -9999.25    -9999.25    -9999.25    -9999.25    -9999.25    
106.7       51.565      131.016     4.13        -9999.25    -9999.25    -9999.25    -9999.25    -9999.25    -9999.25    24.924      1.327       186.691     28.185      64.777      1.12        1371.011    1408.534    1459.847    2.422       
106.75      -9999.25    -9999.25    -9999.25    69.893      58.683      29.259      24.37       19.275      15.234      -9999.25    -9999.25    -9999.25    -9999.25    -9999.25    -9999.25    -9999.25    -9999.25    -9999.25    -9999.25    
