~Version Information Section
VERS.                                         2.0:CWLS log ASCII Standart – VERSION 2.0
WRAP.                                          NO:One line per depth step
~Well Information Section
STRT.M                                        1.2:Начальная глубина
STOP.M                                      208.4:Конечная глубина
STEP.M                                          0:Шаг квантования по глубине
NULL.                                    -9999.25:Признак "Нет данных"
WELL.                                       109Мх:Скважина
~Parameter Information Section
~Curve Information Section
DEPTH.M                                          :Глубина
BK.Ohm*M                                         :BK     (БК)
DS.mm                                            :DS  (ДС)
GGK.g/cm3                                        :GGKp
ГК.mcr/h                                         :GK          (ГК)
GZ1.Ohm*M                                        :GZ1   ГЗ1(A0.4M0.1N)
GZ2.Ohm*M                                        :GZ2   ГЗ2(A1.0M0.1N)
GZ3.Ohm*M                                        :GZ3   ГЗ3(A2.0M0.5N)
GZ4.Ohm*M                                        :GZ4   ГЗ4(A4.0M0.5N)
GZ5.Ohm*M                                        :GZ5   ГЗ5(A8.0M0.5N)
GZR.Ohm*M                                        :GZK   ГЗK(N0.5M2.0A)
ИК.Ohm*M                                         :IK
НГК.u.e.                                         :NGK
NNKM.                                            :NNKm  (ННКм)
U1.mV                                            :U1
U2.mV                                            :U2
U3.mV                                            :U3
КП.%                                             :Кп
PS.mv                                            :PS       (ПС)
PZ.Ohm*M                                         :PZ    (КС)
RS.Ohm*M                                         :RS (Резистивиметр)
~ASCII LOG DATA
# ...
129.2       84.333      131.331     2.243       3.82        91.11       38.554      55.542      15.623      15.73       42.04       14.914      1.437       2.154       1637.751    1371.877    1330.812    26.668      1051.301    29.6        1.009       
129.3       87.902      131.413     2.27        3.735       91.11       39.074      55.102      15.623      15.73       44.12       15.011      1.434       2.208       1858.19     1569.014    1488.141    26.4        1051.519    29.6        1.009       
129.4       87.096      131.379     2.261       3.684       91.11       39.594      54.662      15.623      15.73       46.2        14.978      1.36        2.188       2189.042    1818.912    1661.046    26.965      1051.737    29.6        1.009       
129.5       91.411      131.603     2.242       3.597       91.53       40.114      54.662      15.623      15.73       46.2        14.957      1.283       2.132       2481.346    2100.485    1924.139    27.64       1051.955    29.6        1.009       
129.6       91.411      131.69      2.173       3.829       91.95       41.154      54.662      15.623      15.59       50.36       14.924      1.299       2.127       2792.465    2395.753    2201.091    28.436      1052.173    29.383      1.009       
129.7       91.201      131.648     2.135       4.054       95.31       41.154      54.662      15.623      15.59       49.32       14.924      1.273       2.143       3148.734    2641.844    2358.996    28.84       1052.391    29.167      1.009       
129.8       91.201      131.704     2.125       4.201       96.15       42.194      54.662      15.623      15.45       48.28       15.011      1.27        2.133       3263.074    2646.708    2279.569    29.555      1052.609    29.167      1.009       
129.9       83.753      131.678     2.163       3.942       96.15       42.714      54.662      15.743      15.31       48.28       14.978      1.196       2.092       2979.624    2375.16     2019.738    29.788      1052.827    29.311      1.009       
130.0       82.035      131.66      2.191       3.802       95.73       42.714      54.662      15.863      15.31       47.24       14.924      1.222       2.077       2458.59     1970.793    1709.029    29.192      1053.044    29.527      1.009       
130.1       79.25       131.69      2.216       3.756       95.31       42.194      54.662      15.983      15.31       46.2        14.924      1.201       2.125       2036.042    1660.601    1488.749    28.306      1053.271    29.744      1.009       
130.2       81.846      131.805     2.226       3.966       94.89       41.674      54.662      15.983      15.31       46.2        14.924      1.234       2.159       1801.614    1499.126    1385.819    27.561      1053.505    30.104      1.009       
130.3       81.846      131.951     2.216       4.048       95.31       41.674      54.662      16.103      15.31       46.2        14.968      1.231       2.137       1693.688    1426.946    1342.134    27.671      1053.748    30.465      1.009       
130.4       82.985      131.874     2.217       4.037       95.73       42.194      55.102      16.103      15.31       46.2        14.924      1.254       2.12        1709.848    1440.609    1352.91     27.963      1054.0      30.825      1.009       
130.5       80.353      133.101     2.203       3.885       96.15       43.754      55.542      16.103      15.31       46.2        14.882      1.245       2.109       1930.153    1615.494    1488.443    28.229      1054.26     31.114      1.009       
130.6       77.625      134.344     2.188       3.793       96.15       44.274      55.982      15.863      15.31       46.2        14.85       1.216       2.094       2334.974    1953.164    1766.773    28.851      1054.536    31.402      1.009       
130.7       73.79       133.446     2.162       3.783       96.57       45.314      56.422      15.863      15.45       46.2        14.85       1.221       2.088       2878.714    2435.532    2191.425    29.541      1054.821    31.907      1.009       
130.8       76.208      133.813     2.13        3.681       96.99       45.834      57.302      15.623      15.59       46.2        14.599      1.281       2.085       3421.025    2941.729    2658.952    30.503      1055.115    32.339      1.009       
130.9       76.208      132.792     2.121       3.693       96.57       46.354      57.742      15.623      15.59       46.2        14.599      1.318       2.12        3737.688    3254.339    2961.708    31.421      1055.425    32.484      1.009       
131.0       80.538      132.91      2.159       3.744       95.73       44.794      57.302      15.503      15.59       47.24       14.498      1.287       2.18        3738.872    3269.652    2987.461    31.041      1055.751    32.556      1.009       
131.1       80.353      132.779     2.188       3.684       94.89       43.754      55.982      15.503      15.59       48.28       14.368      1.206       2.227       3451.664    2994.475    2728.762    29.447      1056.087    32.412      1.009       
131.2       81.096      133.221     2.246       3.634       92.79       43.754      55.542      15.383      15.59       49.32       14.268      1.203       2.275       3058.361    2564.826    2288.153    27.414      1056.43     32.267      1.009       
131.3       87.902      134.39      2.229       3.607       92.37       42.194      55.102      15.263      15.45       50.36       14.227      1.175       2.314       2711.905    2163.978    1863.284    26.263      1056.766    32.051      1.009       
131.4       87.902      134.568     2.214       3.624       92.37       41.674      55.102      15.263      15.45       51.4        14.227      1.198       2.346       2466.016    1886.308    1572.057    26.385      1057.092    31.763      1.009       
131.5       86.298      134.68      2.146       3.406       93.63       41.674      54.662      15.263      15.31       51.4        14.201      1.213       2.325       2318.687    1774.652    1485.54     27.796      1057.411    31.402      1.009       
131.6       87.902      133.493     2.142       3.405       96.15       41.154      54.222      15.263      15.31       52.44       14.094      1.25        2.235       2163.633    1691.192    1451.13     29.474      1057.713    31.042      1.009       
131.7       88.512      133.318     2.154       3.743       97.83       40.634      54.222      15.263      15.17       52.44       13.84       1.275       2.18        1952.327    1558.953    1377.136    31.166      1057.998    30.609      1.009       
131.8       79.25       133.93      2.181       3.888       98.25       40.114      54.222      15.263      15.17       53.48       13.516      1.284       2.167       1754.997    1443.814    1327.15     31.676      1058.266    29.96       1.009       
131.9       65.013      135.062     2.156       3.672       99.09       39.594      54.222      15.263      15.03       54.52       13.237      1.306       2.161       1650.118    1416.605    1364.131    30.969      1058.509    29.383      1.009       
132.0       48.753      135.749     2.122       3.318       99.51       39.594      54.222      15.263      15.03       55.56       13.237      1.279       2.202       1616.279    1424.128    1409.353    29.856      1058.727    29.023      1.009       
132.1       24.434      134.943     2.103       3.43        99.51       39.594      54.222      15.383      14.89       55.56       13.106      1.287       2.234       1561.508    1353.493    1333.403    29.067      1058.911    28.879      1.009       
132.2       24.434      134.367     2.149       3.634       99.51       38.554      54.222      15.623      14.75       56.6        13.156      1.292       2.205       1439.531    1166.605    1104.382    29.476      1059.062    29.023      1.009       
132.3       33.574      133.941     2.21        3.793       99.93       38.554      54.222      15.623      14.75       57.64       13.257      1.316       2.175       1251.0      920.143     822.765     30.27       1059.179    29.311      1.009       
