~Version Information Section
VERS.                                         2.0:CWLS log ASCII Standart – VERSION 2.0
WRAP.                                          NO:One line per depth step
~Well Information Section
STRT.M                                        0.0:Начальная глубина
STOP.M                                      208.6:Конечная глубина
STEP.M                                          0:Шаг квантования по глубине
NULL.                                    -9999.25:Признак "Нет данных"
WELL.                                       140Мх:Скважина
~Parameter Information Section
~Curve Information Section
DEPTH.M                                          :Глубина
GZ1.ohmm                                         :Подошвенный градиент-зонд А0.4М0.1N
GZ2.ohmm                                         :Подошвенный градиент-зонд А1.0М0.1N
GZ3.ohmm                                         :Подошвенный градиент-зонд А2.0М0.5N
GZ5.ohmm                                         :Подошвенный градиент-зонд А8.0М1.0N
GZ3R.GZ3R                                        :GZ3R
GZ4.ohmm                                         :Подошвенный градиент-зонд А4.0М0.5N
GGK.g/cc                                         :Плотностной гамма-гамма каротаж
ГК.ur/h                                          :Гамма каротаж
ИК.ohmm                                          :Индукционный каротаж (сопротивление),
BK.ohmm                                          :Боковой каротаж
NKTS.ue                                          :Нейтронный каротаж по тепловым нейтронам (малый зонд)
WNK.De                                           :Водородосодержание по НК
НГК.ue                                           :Нейтронный каротаж по тепловым нейтронам (большой зонд)
PZ.ohmm                                          :Потенциал-зонд ИММ 0,5А; В4 0,25М
-.                                               :-      SP mv)
DS1.m                                            :Профиль 1 сечения ствола скважины по профилеметрии
DS.m                                             :Кавернометрия
DS2.m                                            :Профиль 2 сечения ствола скважины по профилеметрии
~ASCII LOG DATA
# ...
86.0        -9999.25    -9999.25    -9999.25    -9999.25    -9999.25    -9999.25    2.161       6.216       14.642      39.71       1.461       37.612      2.015       52.677      3549.49     0.16        0.157       0.154       
86.1        54.729      44.277      34.752      30.555      34.922      31.224      -9999.25    -9999.25    -9999.25    -9999.25    -9999.25    -9999.25    -9999.25    -9999.25    -9999.25    -9999.25    -9999.25    -9999.25    
86.2        -9999.25    -9999.25    -9999.25    -9999.25    -9999.25    -9999.25    2.148       5.863       14.657      39.442      1.449       38.371      1.95        52.186      3558.353    0.16        0.157       0.154       
86.3        51.794      45.313      37.344      31.344      35.211      31.297      -9999.25    -9999.25    -9999.25    -9999.25    -9999.25    -9999.25    -9999.25    -9999.25    -9999.25    -9999.25    -9999.25    -9999.25    
86.4        -9999.25    -9999.25    -9999.25    -9999.25    -9999.25    -9999.25    2.18        5.344       14.681      41.56       1.457       40.244      2.148       52.667      3575.725    0.162       0.158       0.155       
86.5        54.699      47.813      36.674      31.703      34.858      31.018      -9999.25    -9999.25    -9999.25    -9999.25    -9999.25    -9999.25    -9999.25    -9999.25    -9999.25    -9999.25    -9999.25    -9999.25    
86.6        -9999.25    -9999.25    -9999.25    -9999.25    -9999.25    -9999.25    2.201       4.866       14.703      42.34       1.636       36.671      2.564       56.038      3596.418    0.158       0.155       0.152       
86.7        52.099      43.445      36.245      35.459      34.655      30.798      -9999.25    -9999.25    -9999.25    -9999.25    -9999.25    -9999.25    -9999.25    -9999.25    -9999.25    -9999.25    -9999.25    -9999.25    
86.8        -9999.25    -9999.25    -9999.25    -9999.25    -9999.25    -9999.25    2.293       4.99        14.799      185.526     1.814       32.503      2.834       55.119      3621.655    0.158       0.154       0.151       
86.9        52.009      42.241      36.279      41.337      36.404      31.193      -9999.25    -9999.25    -9999.25    -9999.25    -9999.25    -9999.25    -9999.25    -9999.25    -9999.25    -9999.25    -9999.25    -9999.25    
87.0        -9999.25    -9999.25    -9999.25    -9999.25    -9999.25    -9999.25    2.326       5.667       14.931      85.528      1.699       27.349      2.636       51.029      3640.388    0.159       0.156       0.153       
87.1        51.147      44.605      45.42       44.306      47.039      39.923      -9999.25    -9999.25    -9999.25    -9999.25    -9999.25    -9999.25    -9999.25    -9999.25    -9999.25    -9999.25    -9999.25    -9999.25    
87.2        -9999.25    -9999.25    -9999.25    -9999.25    -9999.25    -9999.25    2.233       5.962       14.949      54.004      1.547       31.152      2.136       45.86       3664.38     0.159       0.157       0.154       
87.3        72.77       69.072      55.198      46.89       51.549      49.169      -9999.25    -9999.25    -9999.25    -9999.25    -9999.25    -9999.25    -9999.25    -9999.25    -9999.25    -9999.25    -9999.25    -9999.25    
87.4        -9999.25    -9999.25    -9999.25    -9999.25    -9999.25    -9999.25    2.211       6.063       14.791      43.398      1.48        36.489      2.021       48.532      3688.193    0.159       0.155       0.152       
87.5        77.753      63.56       61.664      50.38       47.044      50.1        -9999.25    -9999.25    -9999.25    -9999.25    -9999.25    -9999.25    -9999.25    -9999.25    -9999.25    -9999.25    -9999.25    -9999.25    
87.6        -9999.25    -9999.25    -9999.25    -9999.25    -9999.25    -9999.25    2.21        5.482       14.584      44.25       1.468       37.167      2.07        50.409      3703.037    0.16        0.156       0.153       
87.7        69.519      51.065      51.803      47.742      37.729      41.478      -9999.25    -9999.25    -9999.25    -9999.25    -9999.25    -9999.25    -9999.25    -9999.25    -9999.25    -9999.25    -9999.25    -9999.25    
87.8        -9999.25    -9999.25    -9999.25    -9999.25    -9999.25    -9999.25    2.211       5.113       14.334      44.006      1.511       36.932      2.066       49.412      3719.187    0.161       0.157       0.154       
87.9        62.837      45.525      44.973      43.883      33.609      35.605      -9999.25    -9999.25    -9999.25    -9999.25    -9999.25    -9999.25    -9999.25    -9999.25    -9999.25    -9999.25    -9999.25    -9999.25    
88.0        -9999.25    -9999.25    -9999.25    -9999.25    -9999.25    -9999.25    2.209       5.055       14.14       46.147      1.465       37.601      2.035       47.526      3725.924    0.161       0.158       0.155       
88.1        61.521      45.839      43.426      41.311      32.793      35.198      -9999.25    -9999.25    -9999.25    -9999.25    -9999.25    -9999.25    -9999.25    -9999.25    -9999.25    -9999.25    -9999.25    -9999.25    
88.2        -9999.25    -9999.25    -9999.25    -9999.25    -9999.25    -9999.25    2.179       5.103       13.968      43.39       1.519       37.732      2.055       46.961      3728.597    0.162       0.158       0.154       
88.3        59.98       46.048      43.202      40.927      31.91       38.732      -9999.25    -9999.25    -9999.25    -9999.25    -9999.25    -9999.25    -9999.25    -9999.25    -9999.25    -9999.25    -9999.25    -9999.25    
88.4        -9999.25    -9999.25    -9999.25    -9999.25    -9999.25    -9999.25    2.172       5.652       13.742      43.401      1.483       36.397      2.031       47.267      3735.166    0.161       0.158       0.155       
88.5        59.032      49.359      42.738      40.828      30.038      38.93       -9999.25    -9999.25    -9999.25    -9999.25    -9999.25    -9999.25    -9999.25    -9999.25    -9999.25    -9999.25    -9999.25    -9999.25    
88.6        -9999.25    -9999.25    -9999.25    -9999.25    -9999.25    -9999.25    2.182       6.066       13.525      42.245      1.461       35.391      2.101       46.324      3750.283    0.162       0.158       0.155       
88.7        56.923      50.809      41.224      41.47       28.099      38.058      -9999.25    -9999.25    -9999.25    -9999.25    -9999.25    -9999.25    -9999.25    -9999.25    -9999.25    -9999.25    -9999.25    -9999.25    
88.8        -9999.25    -9999.25    -9999.25    -9999.25    -9999.25    -9999.25    2.199       6.917       13.273      41.206      1.435       34.456      1.964       42.922      3773.557    0.161       0.158       0.154       
88.9        57.073      50.568      41.862      40.822      28.311      38.383      -9999.25    -9999.25    -9999.25    -9999.25    -9999.25    -9999.25    -9999.25    -9999.25    -9999.25    -9999.25    -9999.25    -9999.25    
89.0        -9999.25    -9999.25    -9999.25    -9999.25    -9999.25    -9999.25    2.248       7.956       13.02       36.214      1.425       38.878      1.867       39.02       3791.597    0.159       0.156       0.153       
89.1        57.035      52.383      43.772      38.589      28.688      40.119      -9999.25    -9999.25    -9999.25    -9999.25    -9999.25    -9999.25    -9999.25    -9999.25    -9999.25    -9999.25    -9999.25    -9999.25    
89.2        -9999.25    -9999.25    -9999.25    -9999.25    -9999.25    -9999.25    2.283       7.954       12.645      28.15       1.441       39.731      1.865       38.594      3800.64     0.159       0.156       0.152       
89.3        59.554      53.226      43.451      37.298      26.079      38.697      -9999.25    -9999.25    -9999.25    -9999.25    -9999.25    -9999.25    -9999.25    -9999.25    -9999.25    -9999.25    -9999.25    -9999.25    
89.4        -9999.25    -9999.25    -9999.25    -9999.25    -9999.25    -9999.25    2.285       6.987       12.331      31.212      1.434       41.004      1.845       36.324      3797.113    0.159       0.156       0.152       
