~Version Information Section
VERS.                                         2.0:CWLS log ASCII Standart – VERSION 2.0
WRAP.                                          NO:One line per depth step
~Well Information Section
STRT.M                                        1.0:Начальная глубина
STOP.M                                      199.5:Конечная глубина
STEP.M                                          0:Шаг квантования по глубине
NULL.                                    -9999.25:Признак "Нет данных"
WELL.                                       122Мх:Скважина
~Parameter Information Section
~Curve Information Section
DEPTH.M                                          :Глубина
БК.Омм                                           :BK     (БК)
DСР.мм                                           :DS  (ДС)
ГК.гамма                                         :GK          (ГК)
А0.4М0.1N.Омм.ohmm                               :GZ1   ГЗ1(A0.4M0.1N)
А1.0М0.1N.Омм.ohmm                               :GZ2   ГЗ2(A1.0M0.1N)
А2.0М0.5N.Омм.ohmm                               :GZ3   ГЗ3(A2.0M0.5N)
А4.0М0.5N.Oмм.ohmm                               :GZ4   ГЗ4(A4.0M0.5N)
А8.0М1.0N.Омм.ohmm                               :GZ5   ГЗ5(A8.0M0.5N)
N0.5M2.0A.Омм.ohmm                               :GZK   ГЗK(N0.5M2.0A)
ИК.мСм/м                                         :IK
НГК.усл.ед                                       :NGK     (НГК)
ПС.mv                                            :PS       (ПС)
КС.Омм                                           :PZ    (КС)
R.Омм                                            :RS (Резистивиметр)
ПЛОТНОСТЬ.г/см3                                  :ГГКп
П.                                               :п
ННКМ.усл.ед                                      :ННКм
~ASCII LOG DATA
# ...
67.6        14.34       204.503     7.981       18.879      19.912      22.974      8.991       12.745      20.212      15.506      1.051       69.625      20.355      1.212       2.298       44.823      116.552     
67.7        14.481      196.33      8.106       18.833      19.175      22.045      8.801       12.678      19.574      15.739      1.031       69.25       20.412      1.212       2.301       43.659      117.972     
67.8        14.639      186.228     8.316       18.707      18.503      20.836      8.514       12.553      18.742      15.95       1.013       67.125      20.518      1.212       2.3         42.936      119.116     
67.9        14.334      185.292     8.334       18.204      17.693      19.659      8.472       12.345      18.056      16.255      1.021       63.5        20.602      1.212       2.302       42.506      119.631     
68.0        13.854      179.25      8.075       17.359      16.727      18.794      9.096       12.196      17.66       16.461      1.051       60.625      20.614      1.212       2.306       42.529      119.195     
68.1        13.529      177.055     7.825       16.703      16.221      18.078      11.243      11.984      17.559      16.556      1.059       59.375      20.652      1.212       2.31        41.959      117.112     
68.2        13.021      171.646     7.75        16.352      16.192      17.721      14.533      12.014      17.673      16.821      1.025       60.0        20.719      1.212       2.317       40.99       115.499     
68.3        12.832      174.538     7.692       16.047      16.132      17.522      17.796      12.057      18.008      17.056      0.998       61.0        20.846      1.212       2.331       40.283      114.562     
68.4        13.014      173.922     7.38        15.613      15.969      17.207      20.931      12.223      18.368      17.317      1.024       62.875      21.073      1.212       2.347       39.662      113.926     
68.5        12.905      166.375     7.089       15.618      16.161      16.958      23.283      12.341      18.648      17.583      1.08        66.125      21.334      1.212       2.362       38.907      113.857     
68.6        12.659      171.677     7.034       15.845      16.394      16.968      24.318      12.665      19.202      17.812      1.11        67.875      21.468      1.212       2.372       38.175      114.292     
68.7        13.057      173.055     7.25        15.958      16.68       17.095      24.552      13.089      20.098      17.964      1.102       67.5        21.51       1.212       2.379       37.79       113.969     
68.8        13.863      170.093     7.393       16.492      17.339      17.365      24.544      13.553      20.818      18.133      1.074       65.25       21.611      1.212       2.382       37.877      113.668     
68.9        13.903      166.076     7.364       16.918      17.674      17.908      24.559      13.737      21.504      18.238      1.039       63.75       21.78       1.212       2.387       38.006      114.588     
69.0        13.203      160.785     7.22        16.97       17.696      18.486      24.795      14.133      22.199      18.4        1.002       63.25       22.051      1.212       2.389       38.008      115.098     
69.1        14.027      164.03      7.011       17.104      17.839      18.794      25.063      14.509      23.011      18.583      0.968       62.75       22.327      1.212       2.391       38.319      115.64      
69.2        14.973      171.229     6.871       17.963      18.587      18.957      25.001      14.913      23.663      18.632      0.966       61.375      22.718      1.212       2.389       38.16       114.748     
69.3        14.791      170.867     6.873       18.832      18.88       19.233      24.881      15.197      24.024      18.577      1.003       61.625      23.351      1.212       2.386       37.377      115.68      
69.4        14.681      172.5       6.975       18.617      18.144      19.513      24.976      15.435      24.514      18.522      1.058       65.5        24.168      1.212       2.384       36.748      117.626     
69.5        15.361      164.825     7.08        18.984      18.118      19.634      24.948      15.873      24.756      18.317      1.098       65.75       24.965      1.212       2.385       36.164      119.778     
69.6        17.762      158.234     7.084       20.784      18.882      19.894      24.736      16.187      24.956      18.098      1.112       60.875      25.385      1.212       2.389       35.467      122.073     
69.7        21.684      159.546     6.909       22.356      19.419      20.697      24.935      16.221      25.643      17.972      1.115       57.125      25.553      1.212       2.397       34.617      123.226     
69.8        18.277      160.47      6.597       22.853      19.948      21.596      25.721      15.992      26.58       17.844      1.112       56.25       25.631      1.212       2.408       33.791      124.049     
69.9        16.006      154.538     6.302       23.773      21.205      22.32       26.467      15.755      27.063      17.84       1.105       60.75       25.227      1.212       2.415       33.551      126.259     
70.0        14.748      153.915     6.14        26.177      23.392      22.578      26.426      15.589      26.816      17.861      1.096       67.25       24.533      1.212       2.415       33.818      129.091     
70.1        14.513      155.343     6.195       28.696      25.249      21.967      25.665      15.079      26.101      18.115      1.086       69.0        24.182      1.212       2.408       34.215      132.379     
70.2        16.188      161.706     6.542       28.668      24.441      20.992      24.481      14.932      24.985      18.203      1.072       65.625      24.296      1.212       2.399       34.554      134.278     
70.3        18.119      165.941     6.883       26.257      21.93       19.733      22.622      14.666      23.977      18.357      1.055       56.375      24.646      1.212       2.389       35.051      134.569     
70.4        18.715      166.142     7.005       23.751      20.182      18.246      20.641      14.504      23.957      18.533      1.033       50.5        24.738      1.212       2.379       35.577      133.2       
70.5        20.301      167.256     6.842       21.46       19.12       17.318      19.437      14.202      24.815      18.617      1.016       48.75       24.507      1.212       2.367       35.84       132.035     
70.6        22.181      164.247     6.763       20.317      19.56       17.189      19.081      13.88       26.225      18.641      1.016       46.625      24.169      1.212       2.352       35.896      130.237     
70.7        22.195      159.309     6.803       20.284      21.078      17.614      19.31       13.763      27.657      18.715      1.035       46.5        23.817      1.212       2.333       35.861      128.011     
70.8        19.834      159.495     6.749       19.791      21.918      18.378      20.172      13.652      29.392      18.813      1.063       49.5        23.646      1.212       2.316       35.701      125.934     
70.9        17.554      160.653     6.497       19.662      22.762      19.208      21.248      13.696      30.929      19.012      1.089       54.375      23.661      1.212       2.302       36.125      125.114     
71.0        17.181      157.728     6.386       20.951      24.445      19.703      21.69       13.768      31.204      19.274      1.107       62.875      23.775      1.212       2.296       36.702      124.746     
71.1        17.09       160.244     6.75        23.525      25.454      19.783      21.485      13.719      30.931      19.604      1.121       69.25       24.083      1.212       2.293       37.456      124.715     
71.2        17.13       162.242     7.218       24.503      24.321      19.677      21.039      13.65       30.763      19.879      1.117       68.125      24.405      1.212       2.291       38.402      125.272     
