~Version Information Section
VERS.                                         2.0:CWLS log ASCII Standart – VERSION 2.0
WRAP.                                          NO:One line per depth step
~Well Information Section
STRT.M                                        0.0:Начальная глубина
STOP.M                                      211.0:Конечная глубина
STEP.M                                          0:Шаг квантования по глубине
NULL.                                    -9999.25:Признак "Нет данных"
WELL.                                       125Мх:Скважина
~Parameter Information Section
~Curve Information Section
DEPTH.M                                          :Глубина
BK.lgОмм                                         :BK
D.                                               :D sr
GGKP.g/sm3                                       :GGKp
ГК.гамма                                         :GK
ИК.мСм/м                                         :IK
KP.%                                             :Kp
PS.                                              :PS       (ПС)
PZ.Омм                                           :PZ
RIS.Омм                                          :RIS
U1.                                              :U1
U2.                                              :U2
U3.                                              :U3
БЗ.                                              :БЗ (ГГК-1)
ГЗ1.Омм                                          :ГЗ1
ГЗ2.Омм                                          :ГЗ2
ГЗ3.Омм                                          :ГЗ3
ГЗ4.Oмм                                          :ГЗ4
ГЗ5.Oмм                                          :ГЗ5
ГЗК.Омм                                          :ГЗК
ИКБ.мСм/м                                        :ИКБ
МЗ.                                              :МЗ жесткий (ГГК-4)
ННКМ.усл.ед                                      :ННКм
ИКМ.мСм/м                                        :ИКМ
НГК.усл.ед                                       :ННКб
~ASCII LOG DATA
# ...
59.4        23.014      148.951     2.487       5.004       -9999.25    31.733      17.348      1.152       -1.275      460.038     112.716     305.413     11654.667   96.563      21.532      29.828      159.512     507.816     27.013      12.771      20373.334   0.947       9.82        1.879       
59.5        24.378      147.802     2.456       5.274       -9999.25    31.542      20.608      1.152       -1.377      431.42      112.039     284.958     12437.143   96.563      21.532      29.828      150.388     506.815     27.013      12.519      19701.428   0.901       9.521       1.947       
59.6        30.2        146.136     2.427       5.315       -9999.25    31.876      23.872      1.152       -1.479      428.491     129.447     268.054     13036.0     96.563      21.532      29.828      141.264     505.814     27.013      12.427      20224.0     0.868       9.341       1.867       
59.7        50.816      146.019     2.398       5.351       -9999.25    32.051      26.875      1.152       -1.581      441.986     152.558     260.668     14254.286   96.563      21.532      29.828      132.14      506.161     27.013      12.506      22124.285   0.875       9.172       1.599       
59.8        83.176      151.696     2.349       5.378       -9999.25    32.042      29.456      1.152       -1.581      457.208     175.668     266.337     16326.667   96.563      21.532      29.828      123.016     506.508     27.013      12.761      25348.0     0.878       9.117       1.601       
59.9        101.625     152.521     2.266       5.319       -9999.25    33.029      31.583      1.152       -1.56       489.118     196.933     292.063     20929.23    96.563      21.532      29.828      113.892     506.854     27.013      13.201      29503.076   0.877       9.157       1.742       
60.0        184.927     152.645     2.157       5.137       -9999.25    35.057      33.305      1.152       -1.539      516.368     209.786     322.124     29885.0     96.458      21.532      29.828      127.545     506.854     27.013      13.789      33230.0     0.871       9.408       1.647       
60.1        0.0         154.086     2.032       4.975       -9999.25    35.985      34.746      1.152       -1.519      538.201     214.46      351.861     41791.43    96.352      21.532      29.828      141.198     506.854     27.013      14.489      35910.0     0.823       9.873       1.372       
60.2        0.0         163.798     1.909       4.823       -9999.25    36.678      36.102      1.152       -1.498      548.904     218.443     369.909     51151.43    96.246      21.532      29.828      154.851     506.854     27.013      15.304      37035.715   0.79        10.368      1.297       
60.3        0.2         180.502     1.807       4.695       -9999.25    38.374      37.579      1.152       -1.493      559.141     221.639     381.659     58037.145   96.166      21.532      29.828      177.627     506.854     27.013      16.231      37052.855   0.708       10.902      1.191       
60.4        0.2         204.361     1.726       4.729       -9999.25    39.906      39.4        1.152       -1.487      587.287     224.835     391.895     62837.332   96.086      21.532      29.828      257.159     506.854     27.013      17.138      36782.668   0.688       11.467      1.116       
60.5        0.2         234.915     1.649       4.568       -9999.25    40.231      41.734      1.152       -1.481      642.742     233.263     411.256     67882.664   96.006      21.532      29.828      336.691     506.854     27.013      17.88       36726.668   0.669       12.101      1.06        
60.6        0.2         271.918     1.58        4.346       -9999.25    40.478      44.658      1.152       -1.482      721.44      246.202     442.873     76034.289   95.926      21.532      29.828      416.223     506.854     27.013      18.431      36245.715   0.656       12.834      1.055       
60.7        0.0         310.255     1.524       4.121       12.025      41.323      48.177      1.152       -1.483      815.881     262.94      483.619     87482.859   95.914      21.532      29.828      495.754     506.854     27.013      18.775      36387.145   0.644       13.647      1.03        
60.8        0.2         321.495     1.491       3.904       12.013      41.845      52.206      1.152       -1.48       916.282     280.464     524.364     97345.336   95.902      21.532      29.828      575.286     506.854     27.013      18.895      37317.332   0.626       14.574      0.961       
60.9        0.2         342.069     1.496       3.757       12.129      42.657      56.623      1.152       -1.478      982.089     295.569     552.071     97495.711   95.996      21.532      29.828      632.041     506.854     27.013      18.89       38051.43    0.613       15.066      0.941       
61.0        0.2         369.765     1.554       3.655       12.444      42.914      61.325      1.152       -1.468      1011.266    299.837     570.4       86594.664   96.089      21.532      29.828      688.796     506.854     27.013      18.878      36946.668   0.614       15.066      0.896       
61.1        0.2         413.978     1.667       3.713       12.833      42.136      66.182      1.152       -1.459      1005.908    293.408     581.112     67054.289   96.183      21.532      29.828      745.551     506.854     27.013      18.862      33134.285   0.619       15.066      0.968       
61.2        0.2         448.441     1.82        3.976       13.16       39.982      71.072      1.152       -1.434      983.821     283.181     589.834     44376.0     96.251      21.532      29.828      815.42      506.854     27.013      18.837      28285.334   0.662       15.066      1.154       
61.3        0.2         418.082     1.99        4.238       13.577      37.771      75.904      1.152       -1.409      952.007     275.187     595.831     27055.715   96.319      21.532      29.828      828.535     506.854     27.013      18.8        23510.0     0.694       15.066      1.369       
61.4        0.2         303.569     2.151       4.471       14.087      35.111      80.614      1.152       -1.385      918.522     269.612     596.221     17637.143   96.387      21.532      29.828      841.649     506.299     27.013      18.756      20710.0     0.799       15.049      1.586       
61.5        0.2         181.985     2.279       4.837       14.659      33.181      85.2        1.152       -1.354      878.762     267.055     581.942     13938.571   96.455      21.532      29.828      854.763     505.744     27.013      18.707      20442.857   0.853       15.032      1.679       
61.6        0.2         142.616     2.361       5.32        15.257      31.763      89.658      1.152       -1.323      828.351     258.05      547.385     12885.333   96.455      21.532      29.828      868.508     505.189     27.013      18.764      20364.0     0.906       15.015      1.775       
61.7        0.2         140.075     2.399       5.337       15.774      30.842      93.935      1.152       -1.316      772.178     238.142     503.224     12490.0     96.455      21.532      29.828      882.253     504.77      27.013      19.06       19747.143   0.902       15.044      1.882       
61.8        0.2         142.044     2.407       5.361       16.384      29.667      97.992      1.152       -1.327      704.892     210.31      453.065     12207.5     96.455      21.532      29.828      895.997     504.35      27.013      19.635      18911.25    0.895       15.12       2.008       
61.9        0.2         142.941     2.406       5.229       16.972      28.394      101.768     1.152       -1.347      625.081     181.388     400.776     12190.77    96.455      21.532      29.828      909.742     503.93      27.013      20.526      18378.461   0.922       15.197      2.167       
62.0        0.2         140.37      2.395       5.174       17.525      27.193      105.209     1.152       -1.366      556.629     154.502     359.07      12449.333   96.455      21.532      29.828      923.487     503.51      27.013      21.779      18789.334   0.954       15.275      2.254       
