~Version Information Section
VERS.                                         2.0:CWLS log ASCII Standart – VERSION 2.0
WRAP.                                          NO:One line per depth step
~Well Information Section
STRT.M                                        1.0:Начальная глубина
STOP.M                                      199.5:Конечная глубина
STEP.M                                          0:Шаг квантования по глубине
NULL.                                    -9999.25:Признак "Нет данных"
WELL.                                       122Мх:Скважина
~Parameter Information Section
~Curve Information Section
DEPTH.M                                          :Глубина
БК.Омм                                           :BK     (БК)
DСР.мм                                           :DS  (ДС)
ГК.гамма                                         :GK          (ГК)
А0.4М0.1N.Омм.ohmm                               :GZ1   ГЗ1(A0.4M0.1N)
А1.0М0.1N.Омм.ohmm                               :GZ2   ГЗ2(A1.0M0.1N)
А2.0М0.5N.Омм.ohmm                               :GZ3   ГЗ3(A2.0M0.5N)
А4.0М0.5N.Oмм.ohmm                               :GZ4   ГЗ4(A4.0M0.5N)
А8.0М1.0N.Омм.ohmm                               :GZ5   ГЗ5(A8.0M0.5N)
N0.5M2.0A.Омм.ohmm                               :GZK   ГЗK(N0.5M2.0A)
ИК.мСм/м                                         :IK
НГК.усл.ед                                       :NGK     (НГК)
ПС.mv                                            :PS       (ПС)
КС.Омм                                           :PZ    (КС)
R.Омм                                            :RS (Резистивиметр)
ПЛОТНОСТЬ.г/см3                                  :ГГКп
П.                                               :п
ННКМ.усл.ед                                      :ННКм
~ASCII LOG DATA
# ...
115.7       26.439      143.035     8.222       45.149      47.826      43.69       17.891      13.99       48.678      26.532      1.089       60.625      38.784      1.217       2.404       33.723      143.043     
115.8       23.771      148.688     7.819       45.619      47.997      49.069      18.179      13.431      49.315      26.974      1.158       61.25       38.527      1.214       2.412       33.338      143.534     
115.9       20.284      153.95      7.263       44.34       43.828      52.987      17.485      13.027      48.19       28.59       1.212       61.375      38.591      1.213       2.422       33.575      142.872     
116.0       17.845      154.817     6.687       43.338      39.697      53.999      15.688      12.74       46.214      30.258      1.207       57.25       38.444      1.212       2.434       34.198      142.145     
116.1       19.702      158.218     6.268       41.616      36.464      51.238      13.222      12.188      45.328      31.996      1.167       54.25       38.608      1.212       2.446       34.679      140.351     
116.2       23.324      155.255     5.912       37.547      31.105      46.994      11.02       11.274      46.263      34.069      1.141       54.5        39.204      1.212       2.457       34.898      138.16      
116.3       31.004      152.781     5.646       31.223      25.266      41.247      9.436       11.088      49.959      36.174      1.13        56.5        39.899      1.212       2.465       35.12       135.284     
116.4       38.288      152.286     5.091       26.179      22.379      35.381      7.897       10.736      59.051      38.388      1.115       61.125      40.994      1.212       2.472       35.078      133.039     
116.5       36.36       150.483     4.488       23.757      21.355      31.572      6.837       10.771      73.293      39.982      1.1         64.625      42.051      1.212       2.477       34.981      132.831     
116.6       35.135      141.601     3.798       22.986      22.899      30.364      6.8         11.245      88.144      42.269      1.104       67.5        43.655      1.212       2.477       34.363      132.412     
116.7       47.418      133.851     3.289       25.297      26.838      30.311      7.488       13.412      103.901     44.877      1.13        74.5        46.546      1.214       2.469       33.397      133.534     
116.8       66.578      133.239     3.051       28.333      28.856      31.12       8.718       16.613      119.042     46.827      1.148       79.5        50.192      1.216       2.456       32.75       135.93      
116.9       76.019      133.21      3.202       29.628      28.871      35.014      10.679      19.264      143.175     48.242      1.141       78.875      54.823      1.215       2.44        32.561      137.383     
117.0       69.042      133.439     3.494       32.006      31.474      41.839      13.818      21.259      176.661     48.831      1.115       78.0        59.376      1.216       2.43        32.781      138.45      
117.1       80.961      133.407     3.639       39.429      39.279      49.699      17.556      23.587      198.991     49.073      1.094       77.75       62.927      1.222       2.426       32.981      140.629     
117.2       95.632      133.804     3.62        51.199      47.885      56.272      21.355      27.021      207.763     48.596      1.09        77.125      66.601      1.236       2.431       32.924      144.647     
117.3       94.759      133.635     3.607       57.346      50.0        61.989      26.813      28.965      208.714     47.674      1.108       76.0        71.963      1.244       2.436       32.901      149.02      
117.4       80.578      133.683     3.595       59.862      53.751      68.487      36.797      29.856      200.377     46.909      1.132       72.625      77.199      1.245       2.432       33.255      151.469     
117.5       57.633      133.913     3.543       71.737      62.234      72.117      48.951      29.893      176.265     46.852      1.125       66.25       77.849      1.255       2.412       33.268      154.463     
117.6       43.215      133.625     3.465       102.539     72.992      71.679      57.034      28.907      137.751     46.672      1.081       61.625      76.439      1.258       2.381       33.189      160.704     
117.7       43.421      133.293     3.447       125.358     82.139      68.041      59.379      27.262      112.971     47.201      1.045       60.75       77.963      1.25        2.349       33.246      164.762     
117.8       50.37       133.256     3.555       118.19      75.631      61.188      58.156      25.972      94.603      47.712      1.045       60.375      83.614      1.238       2.332       33.76       165.635     
117.9       56.846      133.429     3.697       90.713      54.348      52.348      54.084      24.903      66.18       47.712      1.065       60.25       96.221      1.228       2.336       34.803      164.766     
118.0       61.18       133.83      3.808       63.735      40.431      42.011      47.453      23.839      46.565      47.735      1.076       61.125      105.73      1.223       2.356       36.157      164.548     
118.1       61.634      134.399     3.829       53.289      40.501      34.954      43.062      22.16       38.431      47.05       1.069       61.75       106.905     1.223       2.381       37.189      162.278     
118.2       61.554      134.459     3.82        50.999      48.699      33.681      43.962      19.603      36.568      46.153      1.052       62.0        105.903     1.227       2.401       37.853      158.436     
118.3       62.22       134.396     3.815       52.142      61.507      34.975      47.825      18.338      36.608      45.668      1.039       62.25       103.752     1.23        2.413       37.78       153.751     
118.4       61.186      134.311     3.917       52.874      70.332      37.992      52.785      18.226      37.476      44.741      1.054       62.375      102.228     1.231       2.411       37.11       153.852     
118.5       55.85       134.413     4.105       53.094      78.527      41.758      58.321      18.789      39.369      43.516      1.1         62.0        100.618     1.232       2.399       36.008      155.922     
118.6       50.385      132.941     4.225       56.628      92.022      45.338      63.052      20.179      41.059      42.221      1.166       59.125      99.035      1.232       2.384       34.451      157.554     
118.7       56.225      132.635     4.17        63.474      113.845     48.077      65.105      21.747      41.704      41.418      1.235       55.625      98.713      1.232       2.37        33.035      159.927     
118.8       62.162      133.338     3.945       66.013      128.841     51.048      65.558      24.604      42.206      40.538      1.266       54.5        100.048     1.23        2.361       31.987      159.959     
118.9       62.336      133.154     3.544       60.355      121.514     55.279      66.504      27.548      42.161      39.768      1.253       55.75       102.876     1.227       2.358       31.476      158.947     
119.0       72.749      133.012     3.221       55.853      107.985     60.77       69.045      31.206      42.136      38.485      1.212       59.75       105.878     1.231       2.366       31.248      155.96      
119.1       95.528      133.122     3.017       58.242      103.897     71.101      74.632      36.45       45.26       36.7        1.192       62.5        105.639     1.236       2.379       31.091      153.815     
119.2       101.855     133.417     3.101       66.15       114.096     85.492      86.519      41.336      52.179      34.936      1.195       64.375      102.914     1.239       2.393       30.633      151.544     
119.3       99.478      134.969     3.39        77.303      134.175     106.574     104.979     45.489      61.687      33.443      1.196       69.0        100.613     1.246       2.408       30.251      149.721     
