~Version Information Section
VERS.                                         2.0:CWLS log ASCII Standart – VERSION 2.0
WRAP.                                          NO:One line per depth step
~Well Information Section
STRT.M                                        0.6:Начальная глубина
STOP.M                                      143.2:Конечная глубина
STEP.M                                          0:Шаг квантования по глубине
NULL.                                    -9999.25:Признак "Нет данных"
WELL.                                       116Мх:Скважина
~Parameter Information Section
~Curve Information Section
DEPTH.M                                          :Глубина
BK.lgОмм                                         :BK     (БК)
ПРОФ_СР.мм                                       :DS  (ДС)
ГК.мкР/час                                       :GK          (ГК)
ГЗ1.Омм                                          :GZ1   ГЗ1(A0.4M0.1N)
ГЗ2.Омм                                          :GZ2   ГЗ2(A1.0M0.1N)
ГЗ3.Омм                                          :GZ3   ГЗ3(A2.0M0.5N)
ГЗ4.Oмм                                          :GZ4   ГЗ4(A4.0M0.5N)
ГЗ5.Oмм                                          :GZ5   ГЗ5(A8.0M0.5N)
ГЗК.Омм                                          :GZK   ГЗK(N0.5M2.0A)
ИК.мСм/м                                         :IK
НГК.усл.ед.                                      :NGK     (НГК)
ПС.мВ                                            :PS       (ПС)
PZ.Омм                                           :PZ    (КС)
RIS.Омм                                          :RS (Резистивиметр)
U1.мВ                                            :U1
U2.mV                                            :U2
U3.мВ                                            :U3
W.г/см3                                          :ГГКп
П.%                                              :п
ННКМ.усл.ед                                      :ННКм
~ASCII LOG DATA
# ...
83.8        52.36       172.72      5.919       59.099      81.409      71.003      73.846      41.703      95.471      23.745      1.232       311.08      121.659     1.125       512.302     715.844     694.219     2.36        30.102      2.1         
83.9        55.208      172.186     5.713       59.201      81.409      71.147      74.08       41.704      95.581      23.773      1.225       314.046     121.837     1.125       497.978     715.199     721.837     2.398       29.79       2.122       
84.0        59.841      172.576     5.676       59.408      81.409      71.307      74.246      41.709      95.712      23.848      1.205       316.67      121.956     1.125       492.779     711.114     734.907     2.4         30.001      2.173       
84.1        51.05       173.061     5.723       59.731      81.294      71.499      74.25       41.722      95.856      23.901      1.172       318.609     122.044     1.125       480.97      711.114     734.907     2.4         31.194      2.218       
84.2        46.666      173.236     5.675       60.164      80.991      71.723      74.25       41.745      96.001      23.896      1.164       319.75      122.163     1.125       455.966     691.984     729.384     2.389       32.131      2.215       
84.3        46.559      173.204     5.705       60.663      80.516      72.011      74.25       41.779      96.131      23.86       1.17        320.206     122.311     1.125       426.281     664.193     718.274     2.36        32.745      2.184       
84.4        45.814      173.411     5.581       61.149      79.926      72.395      74.029      41.818      96.216      23.834      1.183       320.32      122.489     1.125       405.339     659.893     718.274     2.357       32.75       2.125       
84.5        52.602      173.265     5.43        61.473      79.321      72.875      73.578      41.841      96.245      23.872      1.205       320.32      122.622     1.125       405.339     659.893     723.187     2.355       32.383      2.082       
84.6        55.335      172.64      5.355       61.552      78.572      73.435      72.928      41.841      96.245      23.918      1.25        320.32      122.667     1.125       409.038     666.82      723.187     2.374       31.008      2.062       
84.7        61.802      171.734     5.5         61.552      77.564      74.123      72.205      41.841      96.245      23.932      1.313       320.32      122.667     1.125       426.488     673.265     727.21      2.392       29.635      2.073       
84.8        64.121      170.71      5.766       61.552      76.326      74.907      71.501      41.832      96.208      23.932      1.362       320.32      122.563     1.125       447.486     680.992     725.453     2.395       28.43       2.099       
84.9        83.368      169.971     5.726       61.333      74.9        75.595      70.864      41.775      96.103      23.932      1.365       320.32      122.341     1.125       456.736     690.75      725.453     2.388       27.564      2.136       
85.0        73.114      169.288     5.509       60.81       73.259      75.899      70.298      41.659      95.931      23.932      1.337       320.32      122.03      1.125       459.154     701.349     731.431     2.395       27.16       2.206       
85.1        69.343      168.976     5.5         60.019      71.617      75.899      69.802      41.486      95.708      23.873      1.281       320.32      121.689     1.125       470.597     710.031     738.609     2.408       27.438      2.314       
85.2        49.431      169.33      5.75        59.081      70.191      75.899      69.354      41.272      95.441      23.844      1.219       320.32      121.289     1.125       498.593     723.853     746.544     2.405       28.008      2.388       
85.3        45.604      170.18      5.971       58.066      68.982      75.691      68.928      41.031      95.141      23.752      1.151       320.32      120.83      1.125       551.982     762.8       774.289     2.425       28.987      2.404       
85.4        55.208      171.777     5.92        57.04       67.959      74.923      68.522      40.78       94.821      23.797      1.119       320.434     120.296     1.125       597.608     800.927     796.918     2.418       29.818      2.24        
85.5        58.749      172.986     5.767       56.055      67.139      73.595      68.131      40.531      94.499      23.834      1.127       320.776     119.763     1.125       614.568     813.886     806.804     2.399       30.135      2.07        
85.6        63.387      173.856     5.775       55.157      66.433      71.979      67.763      40.295      94.194      23.834      1.124       321.575     119.259     1.125       614.568     813.886     806.804     2.397       30.324      2.079       
85.7        64.269      174.955     5.932       54.375      65.771      70.507      67.427      40.076      93.918      23.841      1.113       322.716     118.8       1.125       603.589     792.043     776.705     2.4         30.333      2.092       
85.8        64.565      176.561     5.915       53.728      65.166      69.403      67.139      39.879      93.68       23.902      1.104       324.084     118.356     1.125       595.583     772.236     748.45      2.407       30.143      2.106       
85.9        61.944      177.861     5.736       53.223      64.647      68.715      66.912      39.703      93.481      23.922      1.126       325.339     117.926     1.125       595.583     763.087     734.591     2.404       29.944      2.143       
86.0        61.518      179.611     5.762       52.854      64.244      68.475      66.758      39.549      93.318      23.93       1.146       326.48      117.556     1.125       603.474     754.921     725.101     2.412       30.371      2.177       
86.1        60.954      180.658     5.972       52.613      63.956      68.475      66.675      39.42       93.181      23.932      1.154       327.507     117.274     1.125       615.274     751.772     710.361     2.405       30.735      2.175       
86.2        60.814      181.117     6.065       52.472      63.769      68.475      66.666      39.318      93.063      23.981      1.139       328.419     117.081     1.125       623.157     746.798     693.724     2.399       30.977      2.174       
86.3        59.841      182.384     5.926       52.428      63.668      68.475      66.666      39.246      92.959      23.966      1.122       329.104     116.933     1.125       630.901     746.798     693.724     2.394       31.295      2.187       
86.4        58.345      183.512     5.756       52.428      63.654      68.571      66.666      39.203      92.869      23.958      1.128       329.446     116.8       1.125       638.571     752.079     695.169     2.396       31.712      2.194       
86.5        58.21       184.468     5.732       52.428      63.654      68.891      66.666      39.195      92.792      24.111      1.14        329.56      116.667     1.125       646.553     774.878     723.594     2.403       31.909      2.191       
86.6        59.429      185.131     5.8         52.428      63.654      69.387      66.73       39.195      92.733      24.147      1.142       329.56      116.548     1.125       654.963     806.212     768.014     2.418       32.008      2.146       
86.7        61.659      185.647     5.821       52.489      63.654      69.947      66.861      39.195      92.694      24.187      1.127       329.56      116.459     1.125       666.174     827.928     786.107     2.432       31.489      2.108       
86.8        61.802      186.129     5.815       52.675      63.711      70.555      67.056      39.195      92.672      24.316      1.14        329.56      116.415     1.125       697.973     827.928     786.107     2.435       31.064      2.135       
86.9        63.533      186.143     5.782       53.003      63.87       71.211      67.315      39.226      92.667      24.459      1.185       329.56      116.4       1.125       725.907     826.911     760.39      2.433       31.705      2.149       
