~Version Information Section
VERS.                                         2.0:CWLS log ASCII Standart – VERSION 2.0
WRAP.                                          NO:One line per depth step
~Well Information Section
STRT.M                                        0.0:Начальная глубина
STOP.M                                      211.0:Конечная глубина
STEP.M                                          0:Шаг квантования по глубине
NULL.                                    -9999.25:Признак "Нет данных"
WELL.                                       125Мх:Скважина
~Parameter Information Section
~Curve Information Section
DEPTH.M                                          :Глубина
BK.lgОмм                                         :BK
D.                                               :D sr
GGKP.g/sm3                                       :GGKp
ГК.гамма                                         :GK
ИК.мСм/м                                         :IK
KP.%                                             :Kp
PS.                                              :PS       (ПС)
PZ.Омм                                           :PZ
RIS.Омм                                          :RIS
U1.                                              :U1
U2.                                              :U2
U3.                                              :U3
БЗ.                                              :БЗ (ГГК-1)
ГЗ1.Омм                                          :ГЗ1
ГЗ2.Омм                                          :ГЗ2
ГЗ3.Омм                                          :ГЗ3
ГЗ4.Oмм                                          :ГЗ4
ГЗ5.Oмм                                          :ГЗ5
ГЗК.Омм                                          :ГЗК
ИКБ.мСм/м                                        :ИКБ
МЗ.                                              :МЗ жесткий (ГГК-4)
ННКМ.усл.ед                                      :ННКм
ИКМ.мСм/м                                        :ИКМ
НГК.усл.ед                                       :ННКб
~ASCII LOG DATA
# ...
183.6       14.454      121.365     2.441       6.654       11.521      27.318      163.127     15.868      1.102       315.992     97.677      175.073     9957.333    18.159      16.045      15.084      13.774      16.494      14.185      11.79       15281.333   1.07        10.315      2.433       
183.7       14.588      121.358     2.441       6.56        11.473      26.868      162.956     15.613      1.102       322.866     94.875      180.783     9764.286    17.925      15.941      14.998      13.596      16.235      14.117      11.732      15127.143   1.082       10.224      2.456       
183.8       14.894      121.401     2.447       6.773       11.419      26.003      162.804     15.353      1.101       331.723     90.2        187.309     9625.333    17.64       15.772      14.884      13.404      15.958      14.044      11.671      15674.667   1.084       10.134      2.604       
183.9       14.555      121.315     2.454       6.761       11.366      25.418      162.677     15.088      1.099       340.582     83.498      193.836     9295.714    17.311      15.544      14.737      13.216      15.715      13.984      11.607      15734.286   1.092       10.06       2.83        
184.0       13.932      121.229     2.456       6.773       11.318      24.897      162.575     14.824      1.098       347.449     77.144      199.211     9160.0      16.931      15.263      14.566      13.041      15.499      13.945      11.546      15985.333   1.078       9.991       2.679       
184.1       13.49       121.262     2.456       6.848       11.264      24.596      162.5       14.58       1.097       350.671     73.311      201.182     9427.143    16.568      14.967      14.391      12.89       15.298      13.918      11.49       16010.0     1.03        9.915       2.543       
184.2       13.49       121.24      2.455       7.057       11.204      24.874      162.45      14.376      1.097       350.83      73.193      199.78      9694.667    16.338      14.705      14.222      12.781      15.073      13.897      11.439      16073.333   1.031       9.844       2.451       
184.3       13.335      121.277     2.453       7.017       11.149      25.832      162.408     14.226      1.098       349.732     74.585      197.311     9728.571    16.248      14.493      14.066      12.709      14.836      13.871      11.392      16244.286   1.038       9.793       2.387       
184.4       13.092      121.241     2.458       7.164       11.096      26.682      162.358     14.127      1.097       348.633     76.324      194.627     9510.0      16.184      14.273      13.935      12.658      14.62       13.842      11.351      16130.0     1.05        9.765       2.334       
184.5       12.942      121.277     2.46        7.416       11.048      27.518      162.291     14.073      1.097       348.897     79.031      192.56      9374.667    16.172      14.081      13.837      12.626      14.472      13.817      11.318      16313.333   1.058       9.764       2.305       
184.6       13.183      121.228     2.461       7.735       11.007      27.924      162.183     14.059      1.097       352.437     83.669      192.534     9172.0      16.229      13.961      13.767      12.615      14.385      13.8        11.297      15781.333   1.057       9.787       2.293       
184.7       13.614      121.277     2.465       7.86        10.988      27.651      162.011     14.081      1.098       356.252     90.06       195.301     9336.0      16.317      13.918      13.726      12.625      14.286      13.784      11.292      15253.333   1.056       9.81        2.359       
184.8       14.028      121.24      2.47        7.931       10.981      27.393      161.763     14.133      1.099       359.633     96.101      199.425     9245.333    16.477      13.97       13.718      12.657      14.162      13.764      11.303      15057.333   1.056       9.842       2.535       
184.9       14.322      121.206     2.475       7.742       10.986      27.301      161.434     14.208      1.1         358.897     101.154     203.765     8967.692    16.66       14.074      13.736      12.703      14.07       13.737      11.328      15176.923   1.058       9.876       2.445       
185.0       14.125      121.382     2.485       7.595       11.004      27.039      161.029     14.295      1.101       353.377     103.019     205.077     8796.0      16.811      14.183      13.777      12.751      14.008      13.709      11.361      15509.333   1.062       9.922       2.345       
185.1       13.677      121.413     2.49        7.39        11.031      26.744      160.563     14.383      1.1         341.586     100.456     200.073     8914.286    16.905      14.304      13.835      12.815      13.855      13.687      11.394      15674.286   1.047       9.982       2.362       
185.2       13.459      121.4       2.487       7.165       11.06       26.81       160.058     14.466      1.098       326.196     95.792      192.212     9166.667    17.02       14.496      13.904      12.91       13.654      13.683      11.424      16004.0     1.024       10.04       2.393       
185.3       13.614      121.496     2.48        7.011       11.093      26.622      159.526     14.54       1.097       311.516     91.634      183.611     9427.143    17.186      14.742      13.991      13.026      13.557      13.701      11.448      15947.143   1.022       10.087      2.428       
185.4       14.125      121.457     2.47        7.121       11.125      26.305      158.976     14.602      1.097       301.867     89.311      177.445     9710.667    17.376      14.984      14.083      13.096      13.419      13.743      11.462      16240.0     1.025       10.119      2.44        
185.5       14.454      121.376     2.46        7.144       11.156      26.201      158.416     14.648      1.092       298.876     89.715      175.903     9630.0      17.624      15.225      14.157      13.127      13.264      13.831      11.464      16531.428   1.032       10.135      2.39        
185.6       14.521      121.116     2.455       7.166       11.166      26.184      157.864     14.676      1.091       301.048     92.817      180.895     9713.333    17.873      15.414      14.196      13.105      13.053      13.96       11.456      16356.0     1.04        10.143      2.381       
185.7       14.388      121.216     2.456       7.278       11.174      26.13       157.335     14.681      1.091       308.708     96.469      188.213     9642.857    18.016      15.514      14.202      13.043      12.8        14.134      11.437      16157.143   1.055       10.143      2.472       
185.8       14.655      121.22      2.457       7.329       11.16       25.684      156.833     14.66       1.09        318.259     100.167     197.171     9495.714    18.058      15.557      14.179      12.945      12.588      14.347      11.405      15921.429   1.064       10.131      2.548       
185.9       15.171      121.201     2.462       7.129       11.134      25.149      156.35      14.612      1.089       328.787     103.223     205.336     9291.429    18.039      15.586      14.12       12.81       12.337      14.585      11.358      15908.571   1.06        10.086      2.716       
186.0       15.524      121.096     2.467       6.949       11.099      25.039      155.873     14.535      1.089       338.245     105.973     213.546     9234.667    17.964      15.585      14.029      12.592      12.201      14.843      11.296      16128.0     1.059       9.993       2.676       
186.1       15.311      121.05      2.472       6.801       11.058      25.008      155.393     14.433      1.09        347.702     108.724     221.756     9184.286    17.773      15.47       13.897      12.286      12.117      15.069      11.218      16247.143   1.064       9.87        2.479       
186.2       14.622      121.136     2.473       6.839       11.006      24.9        154.913     14.308      1.092       357.16      111.475     229.966     9342.667    17.406      15.255      13.722      11.965      11.914      15.292      11.124      16418.666   1.063       9.735       2.502       
