~Version Information Section
VERS.                                         2.0:CWLS log ASCII Standart – VERSION 2.0
WRAP.                                          NO:One line per depth step
~Well Information Section
STRT.M                                        1.2:Начальная глубина
STOP.M                                      169.4:Конечная глубина
STEP.M                                          0:Шаг квантования по глубине
NULL.                                    -9999.25:Признак "Нет данных"
WELL.                                       114Мх:Скважина
~Parameter Information Section
~Curve Information Section
DEPTH.M                                          :Глубина
BK.Ohm*M                                         :BK     (БК)
DS.mm                                            :DS  (ДС)
GGK.g/cm3                                        :GGKp
ГК.mcr/h                                         :GK          (ГК)
GZ1.Ohm*M                                        :GZ1   ГЗ1(A0.4M0.1N)
GZ2.Ohm*M                                        :GZ2   ГЗ2(A1.0M0.1N)
GZ3.Ohm*M                                        :GZ3   ГЗ3(A2.0M0.5N)
GZ4.Ohm*M                                        :GZ4   ГЗ4(A4.0M0.5N)
GZ5.Ohm*M                                        :GZ5   ГЗ5(A8.0M0.5N)
GZR.Ohm*M                                        :GZK   ГЗK(N0.5M2.0A)
ИК.Ohm*M                                         :IK
НГК.ue                                           :NGK     (НГК)
NNKM.                                            :NNKm  (ННКм)
PS.mv                                            :PS       (ПС)
PZ.Ohm*M                                         :PZ    (КС)
U1.mV                                            :U1
U2.mV                                            :U2
U3.mV                                            :U3
КП.%                                             :Кп
~ASCII LOG DATA
# ...
116.8       24.322      134.156     2.284       5.862       2.681       6.866       5.677       7.425       5.471       6.319       19.807      1.038       1.294       1092.841    21.775      395.452     295.155     419.11      31.012      
116.9       24.266      134.485     2.246       5.775       2.821       6.866       5.777       7.425       5.371       6.319       19.722      1.085       1.286       1093.401    21.86       497.682     300.991     449.662     29.756      
117.0       24.378      134.098     2.215       6.217       2.981       6.939       5.877       7.425       5.371       6.319       19.828      1.176       1.228       1094.243    21.83       535.332     454.586     551.05      29.389      
117.1       23.988      134.189     2.204       6.351       3.116       7.011       5.977       7.425       5.271       6.319       19.892      1.205       1.191       1095.245    21.76       579.54      519.387     557.488     29.997      
117.2       23.388      135.642     2.222       6.374       3.001       6.963       6.077       7.425       5.271       6.219       19.871      1.204       1.195       1096.187    21.672      694.876     495.38      468.971     31.478      
117.3       22.646      135.968     2.27        5.874       2.923       6.866       6.077       7.325       5.271       6.219       19.978      1.172       1.215       1096.87     21.534      705.796     517.446     474.152     33.185      
117.4       22.029      134.854     2.321       5.594       2.831       6.914       6.077       7.225       5.271       6.219       19.914      1.208       1.256       1096.71     21.339      541.156     674.386     667.988     32.761      
117.5       21.086      134.146     2.345       5.591       2.691       6.914       6.077       7.225       5.071       6.219       19.85       1.265       1.302       1096.495    21.158      334.1       745.523     789.815     31.185      
117.6       21.577      133.019     2.357       5.757       2.705       6.938       6.077       7.225       5.071       6.219       19.764      1.256       1.338       1096.32     20.893      260.148     595.969     650.969     29.279      
117.7       24.099      133.063     2.366       5.673       2.806       7.059       6.177       7.225       5.071       6.219       19.743      1.168       1.341       1096.063    20.676      337.22      365.431     396.861     28.936      
117.8       24.717      133.861     2.402       5.571       2.889       7.108       6.177       7.225       5.171       6.219       19.597      1.101       1.322       1096.268    20.403      432.202     274.56      288.123     29.376      
117.9       23.496      134.069     2.44        5.599       3.082       7.108       6.177       7.225       5.271       6.019       19.597      1.079       1.308       1096.397    20.127      545.105     345.083     350.578     29.572      
118.0       23.174      133.466     2.456       5.756       3.242       7.253       6.177       7.225       5.271       6.019       19.638      1.077       1.3         1096.006    19.999      608.349     437.32      438.843     28.516      
118.1       22.856      133.579     2.425       5.889       3.092       7.301       6.177       7.225       5.271       6.019       19.659      1.033       1.265       1095.545    19.905      621.945     551.285     552.928     27.453      
118.2       23.281      133.838     2.363       6.221       2.937       7.349       6.177       7.225       5.371       6.019       19.638      1.037       1.222       1094.62     19.806      613.247     624.014     635.468     27.643      
118.3       24.099      134.469     2.308       6.666       2.763       7.277       6.177       7.225       5.371       6.019       19.638      1.0         1.195       1094.437    19.688      631.904     655.518     686.474     29.055      
118.4       24.774      134.308     2.291       6.809       2.512       7.204       6.177       7.225       5.371       6.019       19.575      1.032       1.182       1094.366    19.6        651.264     637.734     663.246     31.19       
118.5       24.491      135.029     2.306       6.703       2.299       7.059       6.277       7.225       5.371       6.019       19.492      1.007       1.204       1094.935    19.471      643.968     611.888     597.323     32.128      
118.6       23.442      134.239     2.324       6.39        2.198       6.963       6.277       7.225       5.371       6.019       19.473      1.052       1.218       1095.413    19.293      590.852     548.565     473.623     33.17       
118.7       21.827      134.44      2.322       6.381       2.164       6.89        6.277       7.225       5.371       6.019       19.451      1.053       1.197       1095.784    19.094      518.569     455.836     334.863     33.552      
118.8       21.528      134.942     2.298       6.573       2.212       6.866       6.277       7.225       5.371       6.019       19.473      1.037       1.176       1096.364    18.834      489.39      398.946     291.641     34.031      
118.9       21.135      133.851     2.271       6.672       2.271       6.866       6.277       7.225       5.371       6.019       19.35       1.022       1.161       1096.561    18.557      522.484     407.309     359.03      34.19       
119.0       20.606      135.178     2.25        6.681       2.318       6.89        6.077       7.225       5.371       6.019       19.229      1.008       1.156       1097.274    18.21       628.398     405.273     396.315     34.341      
119.1       20.417      135.759     2.237       6.65        2.318       6.842       5.877       7.225       5.371       6.019       19.149      1.026       1.168       1098.062    17.786      744.866     327.578     292.875     34.59       
119.2       20.989      134.322     2.228       6.669       2.236       6.818       5.777       7.325       5.371       6.019       19.031      1.042       1.177       1098.774    17.366      750.023     255.409     145.827     35.168      
119.3       21.478      134.964     2.226       6.717       2.333       6.866       5.777       7.325       5.371       6.019       19.01       1.045       1.181       1099.643    16.886      633.321     264.406     95.867      35.562      
119.4       20.989      135.915     2.229       6.625       2.449       6.914       5.777       7.325       5.371       6.019       18.992      1.053       1.185       1100.066    16.398      394.737     316.923     169.211     35.586      
119.5       21.38       134.478     2.237       6.577       2.536       6.939       5.777       7.325       5.371       6.019       18.953      1.066       1.188       1100.456    15.945      379.396     331.793     268.76      34.714      
119.6       21.979      135.287     2.254       6.538       2.527       6.938       5.777       7.325       5.371       6.019       18.973      1.085       1.201       1100.51     15.542      587.274     309.013     394.528     33.668      
119.7       21.677      134.075     2.27        6.48        2.415       6.89        5.777       7.325       5.371       6.019       18.914      1.104       1.218       1100.254    15.241      742.785     324.994     428.0       32.935      
119.8       21.478      133.843     2.274       6.433       2.376       6.866       5.777       7.325       5.271       6.019       18.992      1.119       1.236       1100.537    15.005      622.716     379.734     369.188     32.878      
119.9       23.933      134.533     2.274       6.532       2.445       6.842       5.777       7.325       5.271       6.019       19.012      1.099       1.25        1100.616    14.874      378.18      398.477     264.734     32.353      
120.0       24.889      133.312     2.283       6.628       2.56        6.914       5.777       7.325       5.271       6.019       19.13       1.073       1.251       1100.697    14.82       284.812     342.467     206.925     31.487      
120.1       23.988      133.971     2.297       6.835       2.657       6.963       5.777       7.225       5.271       6.019       19.014      1.055       1.25        1100.396    14.764      332.924     286.993     244.806     32.445      
