~Version Information Section
VERS.                                         2.0:CWLS log ASCII Standart – VERSION 2.0
WRAP.                                          NO:One line per depth step
~Well Information Section
STRT.M                                        0.4:Начальная глубина
STOP.M                                      191.4:Конечная глубина
STEP.M                                          0:Шаг квантования по глубине
NULL.                                    -9999.25:Признак "Нет данных"
WELL.                                       113Мх:Скважина
~Parameter Information Section
~Curve Information Section
DEPTH.M                                          :Глубина
БК.Омм                                           :BK     (БК)
DСР.мм                                           :DS  (ДС)
GGKP.g/cm3                                       :GGKp
ГК.гамма                                         :GK          (ГК)
А0.4М0.1N.Омм                                    :GZ1   ГЗ1(A0.4M0.1N)
А1.0М0.1N.Омм                                    :GZ2   ГЗ2(A1.0M0.1N)
А2.0М0.5N.Омм                                    :GZ3   ГЗ3(A2.0M0.5N)
А4.0М0.5N.Oмм                                    :GZ4   ГЗ4(A4.0M0.5N)
А8.0М1.0N.Омм                                    :GZ5   ГЗ5(A8.0M0.5N)
N0.5M2.0A.Омм                                    :GZK   ГЗK(N0.5M2.0A)
ИК.мСм/м                                         :IK
НГК.усл.ед                                       :NNKb  (ННКб)
ННКМ.усл.ед                                      :NNKm  (ННКм)
ПС.мВ                                            :PS       (ПС)
PZ.Омм                                           :PZ    (КС)
R.Омм                                            :RS (Резистивиметр)
U1.мВ                                            :U1
U2.mV                                            :U2
U3.мВ                                            :U3
КП.%                                             :Кп
~ASCII LOG DATA
# ...
83.6        114.984     133.535     2.388       3.841       158.985     117.121     34.883      18.057      27.767      175.874     51.317      4.023       2.13        62.277      178.605     1.12        400.0       916.001     636.001     22.699      
83.8        132.578     133.98      2.374       3.804       160.456     123.81      41.362      21.0        29.472      191.785     53.078      3.708       2.067       60.292      198.11      1.12        428.001     811.998     576.0       24.322      
84.0        203.118     134.62      2.34        3.729       171.796     138.823     54.392      25.03       30.452      202.598     55.321      3.486       2.034       59.994      211.938     1.12        484.0       748.0       628.0       26.43       
84.2        328.833     134.153     2.351       3.651       185.142     156.035     69.844      25.848      30.49       205.937     57.118      3.445       2.023       60.54       221.938     1.12        503.999     728.0       719.999     26.107      
84.4        352.342     135.153     2.415       3.828       188.497     163.152     80.915      25.269      29.701      206.168     58.091      3.89        2.134       61.19       230.153     1.12        503.999     712.0       711.999     24.121      
84.6        252.429     135.245     2.487       3.943       187.906     163.615     85.84       21.61       28.047      206.314     58.587      4.64        2.313       61.841      238.014     1.12        440.0       700.0       632.0       20.817      
84.8        154.571     135.324     2.523       3.971       184.1       162.655     87.482      18.357      26.88       206.931     59.128      5.003       2.378       62.733      245.976     1.12        540.003     740.001     692.002     18.259      
85.0        154.633     134.633     2.513       3.703       183.389     162.344     89.74       16.86       26.616      213.193     60.252      5.027       2.328       64.093      253.728     1.12        564.0       792.0       776.0       18.086      
85.2        177.743     134.399     2.513       3.442       183.707     162.873     94.26       15.656      26.635      227.849     61.687      4.946       2.321       66.095      261.212     1.12        496.002     844.0       792.001     18.492      
85.4        190.455     134.756     2.522       3.393       187.198     167.348     101.034     13.924      27.08       249.603     63.66       4.881       2.354       68.768      269.897     1.12        448.0       848.0       731.999     18.377      
85.6        199.499     133.508     2.51        3.521       193.938     174.717     109.101     12.626      28.371      276.399     65.146      4.804       2.38        71.675      282.831     1.12        499.999     880.0       660.001     19.579      
85.8        211.229     133.811     2.455       3.628       202.25      183.249     118.491     12.427      30.368      301.264     66.397      4.313       2.237       74.64       302.452     1.12        535.999     920.0       599.999     21.935      
86.0        232.02      133.205     2.368       3.473       212.855     193.687     130.748     12.582      32.72       305.443     67.534      3.602       2.094       77.487      328.437     1.12        472.0       876.0       552.0       25.482      
86.2        296.255     133.466     2.323       3.681       224.96      205.997     148.202     15.798      35.217      301.005     69.087      3.255       2.03        80.284      357.051     1.12        420.0       844.0       583.999     28.322      
86.4        365.209     134.958     2.333       3.588       236.496     221.899     171.81      24.452      37.7        267.1       70.174      3.217       2.044       83.081      383.385     1.12        452.001     848.0       624.0       28.683      
86.6        421.965     134.92      2.362       3.488       246.596     242.906     199.518     38.044      39.88       222.371     70.879      3.435       2.074       85.803      404.395     1.12        508.0       904.0       692.0       26.839      
86.8        442.118     134.378     2.391       3.479       254.808     268.718     227.114     53.871      41.251      190.489     71.18       3.853       2.145       87.935      418.912     1.12        548.0       916.0       780.002     24.788      
87.0        431.365     132.127     2.417       3.421       261.378     297.182     253.278     73.174      41.885      173.499     71.621      4.062       2.176       88.885      427.006     1.12        540.0       900.0       880.0       23.155      
87.2        460.407     133.441     2.443       3.275       268.056     334.997     281.499     99.92       42.216      163.338     71.127      4.169       2.186       88.062      427.44      1.12        544.0       939.998     836.003     22.193      
87.4        603.554     134.67      2.445       3.144       277.004     413.112     315.507     135.402     42.42       154.981     69.551      4.51        2.284       85.467      413.834     1.12        588.001     1008.001    659.999     21.152      
87.6        810.045     134.683     2.448       3.052       289.47      532.651     376.422     174.825     42.423      145.338     67.453      5.096       2.402       81.691      385.315     1.12        632.0       968.001     540.0       19.102      
87.8        922.858     134.666     2.47        3.016       306.662     651.661     483.487     212.993     41.636      133.802     63.671      5.451       2.51        77.323      346.085     1.12        619.999     916.0       604.003     17.996      
88.0        953.736     134.48      2.471       3.039       328.012     703.285     559.039     228.46      37.881      118.674     59.329      5.539       2.538       72.881      306.872     1.12        564.0       956.0       832.0       17.647      
88.2        992.094     134.876     2.449       3.097       331.545     700.415     561.775     226.639     30.267      98.906      55.66       5.399       2.519       68.44       275.903     1.12        547.999     1020.001    980.0       17.439      
88.4        947.007     134.905     2.437       2.849       320.57      615.437     488.276     193.122     21.199      78.057      52.697      5.413       2.551       64.222      253.331     1.12        652.001     947.999     976.0       17.582      
88.6        615.058     135.102     2.446       3.117       256.456     411.114     305.344     125.62      14.153      63.391      49.677      5.017       2.48        60.677      235.706     1.12        768.0       1059.998    976.0       19.192      
88.8        238.074     134.037     2.439       3.235       172.478     215.372     159.926     69.525      9.954       57.575      46.169      4.108       2.268       58.253      221.875     1.12        776.0       1172.001    975.999     22.215      
89.0        67.8        134.651     2.397       3.515       131.314     114.668     97.66       44.128      7.836       57.099      42.384      3.225       2.007       57.498      213.007     1.12        736.0       1168.0      920.0       25.415      
89.2        58.584      133.007     2.334       3.423       129.744     89.639      77.23       37.497      6.831       57.162      41.191      3.005       1.869       58.459      209.091     1.12        708.0       1151.999    915.999     28.126      
89.4        76.837      132.889     2.255       3.026       135.509     86.441      69.361      35.935      6.231       57.828      42.207      2.92        1.84        60.776      209.375     1.12        684.0       1156.0      908.0       29.211      
89.6        86.661      133.056     2.192       3.047       159.506     85.43       64.944      34.992      5.727       58.61       43.199      2.874       1.843       63.938      211.823     1.12        676.0       1136.0      844.001     29.52       
89.8        84.016      133.284     2.178       3.306       178.563     84.751      63.402      34.514      5.479       58.746      43.157      2.887       1.852       67.015      214.563     1.12        676.0       1088.0      876.002     30.09       
