~Version Information Section
VERS.                                         2.0:CWLS log ASCII Standart – VERSION 2.0
WRAP.                                          NO:One line per depth step
~Well Information Section
STRT.M                                        0.5:Начальная глубина
STOP.M                                      158.2:Конечная глубина
STEP.M                                          0:Шаг квантования по глубине
NULL.                                    -9999.25:Признак "Нет данных"
WELL.                                       136Мх:Скважина
~Parameter Information Section
~Curve Information Section
DEPTH.M                                          :Глубина
BK.Ohm*M                                         :BK     (БК)
DS.mm                                            :DS  (ДС)
GGK.g/cm3                                        :GGKp
ГК.mcr/h                                         :GK          (ГК)
GZ1.Ohm*M                                        :GZ1   ГЗ1(A0.4M0.1N)
GZ2.Ohm*M                                        :GZ2   ГЗ2(A1.0M0.1N)
GZ3.Ohm*M                                        :GZ3   ГЗ3(A2.0M0.5N)
GZ4.Ohm*M                                        :GZ4   ГЗ4(A4.0M0.5N)
GZ5.Ohm*M                                        :GZ5   ГЗ5(A8.0M0.5N)
GZR.Ohm*M                                        :GZK   ГЗK(N0.5M2.0A)
ИК.Ohm*M                                         :IK
НГК.ue                                           :NGK     (НГК)
NNKM.                                            :NNKm  (ННКм)
PS.mv                                            :PS       (ПС)
PZ.Ohm*M                                         :PZ    (КС)
RS.Ohm*M                                         :RS (Резистивиметр)
U1.mV                                            :U1
U2.mV                                            :U2
U3.mV                                            :U3
КП.%                                             :Кп
~ASCII LOG DATA
# ...
138.1       17.146      128.378     2.266       6.836       15.597      13.148      13.8        7.854       9.987       14.825      11.377      1.14        2.051       104.291     20.014      1.087       -2235.09    97.807      -2117.56    37.888      
138.2       18.009      128.393     2.277       6.76        15.596      13.289      13.785      7.925       9.862       14.914      11.384      1.182       2.069       106.171     19.662      1.087       -2202.79    99.421      -2117.23    37.864      
138.3       18.196      128.396     2.26        6.751       15.443      13.423      13.762      7.963       9.756       14.941      11.381      1.209       2.098       108.096     19.275      1.087       -2183.72    97.538      -2129.37    36.799      
138.4       17.646      128.424     2.267       6.725       15.138      13.551      13.724      8.007       9.655       14.946      11.371      1.227       2.093       110.101     18.844      1.087       -2180.04    90.27       -2157.61    34.947      
138.5       17.93       128.459     2.269       6.655       14.927      13.652      13.669      8.044       9.563       14.95       11.401      1.218       2.075       112.193     18.39       1.087       -2174.45    82.228      -2187.04    34.0        
138.6       18.062      128.449     2.274       6.6         14.756      13.673      13.607      8.06        9.47        14.982      11.385      1.141       2.032       114.351     17.914      1.087       -2165.7     89.93       -2184.27    34.391      
138.7       18.149      128.505     2.29        6.798       14.578      13.673      13.573      8.075       9.367       15.009      11.36       1.069       2.014       116.508     17.427      1.087       -2144.21    111.806     -2151.66    34.197      
138.8       17.847      128.606     2.278       7.054       14.491      13.673      13.545      8.102       9.211       15.01       11.352      1.047       2.065       118.661     16.951      1.087       -2120.56    112.617     -2133.62    33.202      
138.9       17.507      128.637     2.305       7.4         14.491      13.519      13.535      8.126       9.042       15.01       11.339      1.091       2.088       120.754     16.514      1.087       -2106.8     97.738      -2141.44    33.381      
139.0       18.319      128.7       2.307       7.387       14.474      13.348      13.535      8.146       8.875       15.01       11.324      1.11        2.063       122.745     16.111      1.087       -2127.84    73.333      -2163.01    34.85       
139.1       18.402      128.733     2.306       7.123       14.409      13.132      13.535      8.159       8.722       15.015      11.337      1.149       2.046       124.559     15.758      1.087       -2158.83    76.667      -2170.0     35.789      
139.2       18.515      128.726     2.313       6.833       14.409      12.955      13.535      8.17        8.546       15.088      11.324      1.197       2.038       126.16      15.478      1.087       -2184.0     83.333      -2170.0     35.151      
139.3       18.404      128.737     2.28        6.686       14.473      12.955      13.58       8.175       8.443       15.189      11.33       1.255       2.066       127.491     15.282      1.087       -2188.0     100.001     -2159.99    34.709      
139.4       18.245      128.757     2.274       6.892       14.46       12.779      13.648      8.172       8.363       15.322      11.294      1.214       2.097       128.535     15.154      1.087       -2192.0     106.666     -2150.0     34.986      
139.5       18.533      128.575     2.29        7.041       14.391      12.689      13.7        8.167       8.268       15.419      11.27       1.215       2.083       129.282     15.114      1.087       -2196.0     110.0       -2145.0     35.364      
139.6       18.582      128.435     2.281       7.035       14.186      12.592      13.7        8.167       8.168       15.558      11.236      1.197       2.071       129.783     15.114      1.087       -2200.0     96.666      -2150.0     36.177      
139.7       17.574      128.399     2.285       6.953       13.859      12.479      13.696      8.167       8.075       15.752      11.2        1.198       2.078       130.099     15.114      1.087       -2200.0     83.334      -2155.0     37.056      
139.8       17.064      128.387     2.284       7.062       13.588      12.377      13.675      8.125       7.924       15.993      11.167      1.159       2.081       130.289     15.114      1.087       -2200.0     73.333      -2139.99    36.902      
139.9       17.431      128.358     2.256       7.25        13.429      12.247      13.624      8.064       7.682       16.247      11.135      1.172       2.071       130.419     15.193      1.087       -2204.0     66.667      -2125.0     36.087      
140.0       17.846      128.311     2.238       7.292       13.406      12.108      13.498      7.99        7.441       16.247      11.11       1.188       2.062       130.549     15.406      1.087       -2208.0     63.333      -2110.0     33.808      
140.1       17.967      128.291     2.249       7.202       13.406      11.906      13.253      7.913       7.189       16.269      11.091      1.183       2.058       130.702     15.781      1.087       -2216.0     73.334      -2099.99    32.881      
140.2       17.906      128.253     2.249       7.2         13.406      11.669      12.891      7.9         6.984       16.269      11.08       1.157       2.058       130.888     16.358      1.087       -2220.0     86.666      -2095.0     34.05       
140.3       17.788      128.174     2.258       7.125       13.406      11.364      12.671      7.9         6.828       16.246      11.075      1.157       2.059       131.101     17.136      1.087       -2220.0     106.667     -2095.0     35.596      
140.4       17.806      128.127     2.28        6.907       13.587      11.364      12.494      7.883       6.748       16.143      11.072      1.15        2.062       131.329     18.06       1.087       -2220.0     106.667     -2095.0     35.228      
140.5       17.818      128.12      2.273       6.785       13.937      11.364      12.341      7.875       6.689       15.995      11.086      1.144       2.066       131.542     19.079      1.087       -2220.0     106.667     -2100.0     33.211      
140.6       18.257      128.066     2.282       6.859       14.227      11.364      12.263      7.879       6.613       15.771      11.107      1.164       2.03        131.728     20.11       1.087       -2220.0     93.333      -2105.0     32.174      
140.7       20.269      127.997     2.283       6.936       14.397      11.381      12.179      7.845       6.502       15.771      11.151      1.2         2.006       131.876     21.078      1.087       -2216.0     86.667      -2124.99    34.078      
140.8       19.182      127.997     2.284       6.92        14.468      11.484      12.054      7.807       6.379       15.771      11.172      1.229       2.07        131.992     21.907      1.087       -2212.0     80.0        -2135.0     35.635      
140.9       17.75       127.967     2.287       7.08        14.513      11.642      11.871      7.763       6.258       15.771      11.215      1.151       2.121       132.08      22.579      1.087       -2212.0     83.333      -2130.0     35.28       
141.0       17.863      127.984     2.285       7.205       14.513      11.803      11.683      7.673       6.079       15.887      11.254      1.084       2.123       132.159     23.078      1.087       -2208.0     86.667      -2120.0     33.789      
141.1       17.856      127.999     2.284       7.171       14.498      12.01       11.487      7.556       5.832       16.109      11.303      1.079       2.09        132.243     23.419      1.087       -2204.0     86.666      -2115.0     33.858      
141.2       17.702      127.993     2.282       7.104       14.393      12.01       11.168      7.32        5.577       16.469      11.374      1.128       2.04        132.331     23.621      1.087       -2192.0     80.001      -2124.99    36.56       
