~Version Information Section
VERS.                                         2.0:CWLS log ASCII Standart – VERSION 2.0
WRAP.                                          NO:One line per depth step
~Well Information Section
STRT.M                                       0.67:Начальная глубина
STOP.M                                     204.27:Конечная глубина
STEP.M                                          0:Шаг квантования по глубине
NULL.                                    -9999.25:Признак "Нет данных"
WELL.                                       110Мх:Скважина
~Parameter Information Section
~Curve Information Section
DEPTH.M                                          :Глубина
БК.Омм                                           :BK     (БК)
DСР.мм                                           :DS  (ДС)
ГК.гамма                                         :GK          (ГК)
А0.4М0.1N.Омм.ohmm                               :GZ1   ГЗ1(A0.4M0.1N)
А1.0М0.1N.Омм.ohmm                               :GZ2   ГЗ2(A1.0M0.1N)
А2.0М0.5N.Омм.ohmm                               :GZ3   ГЗ3(A2.0M0.5N)
А4.0М0.5N.Oмм.ohmm                               :GZ4   ГЗ4(A4.0M0.5N)
А8.0М1.0N.Омм.ohmm                               :GZ5   ГЗ5(A8.0M0.5N)
N0.5M2.0A.Омм.ohmm                               :GZK   ГЗK(N0.5M2.0A)
ИК.мСм/м                                         :IK
НГК.усл.ед                                       :NGK     (НГК)
ПС.mv                                            :PS       (ПС)
КС.Омм                                           :PZ    (КС)
R.Омм                                            :RS (Резистивиметр)
W_SI.%                                           :п
ННКМ.имп/1,25с                                   :ННКм
ПЛОТНОСТЬГГК.г/см3                               :плотностьГГК
~ASCII LOG DATA
# ...
131.57      62.145      126.398     5.015       -9999.25    -9999.25    -9999.25    -9999.25    -9999.25    -9999.25    40.558      1.473       313.718     186.441     0.958       24.788      1.859       2.363       
131.6       -9999.25    -9999.25    -9999.25    183.924     114.096     99.277      98.737      37.703      57.806      -9999.25    -9999.25    -9999.25    -9999.25    -9999.25    -9999.25    -9999.25    -9999.25    
131.67      65.664      126.008     5.021       -9999.25    -9999.25    -9999.25    -9999.25    -9999.25    -9999.25    40.17       1.439       315.462     164.609     0.958       24.643      1.914       2.369       
131.7       -9999.25    -9999.25    -9999.25    183.193     117.925     97.123      88.843      40.894      59.876      -9999.25    -9999.25    -9999.25    -9999.25    -9999.25    -9999.25    -9999.25    -9999.25    
131.77      70.435      126.812     5.272       -9999.25    -9999.25    -9999.25    -9999.25    -9999.25    -9999.25    39.639      1.438       317.248     153.905     0.961       24.604      1.891       2.373       
131.8       -9999.25    -9999.25    -9999.25    176.596     111.918     97.567      85.665      42.482      62.404      -9999.25    -9999.25    -9999.25    -9999.25    -9999.25    -9999.25    -9999.25    -9999.25    
131.87      76.86       126.116     5.461       -9999.25    -9999.25    -9999.25    -9999.25    -9999.25    -9999.25    38.796      1.406       318.861     158.258     0.977       24.382      1.875       2.377       
131.9       -9999.25    -9999.25    -9999.25    143.797     100.663     99.507      89.381      43.13       65.27       -9999.25    -9999.25    -9999.25    -9999.25    -9999.25    -9999.25    -9999.25    -9999.25    
131.97      70.837      124.866     5.822       -9999.25    -9999.25    -9999.25    -9999.25    -9999.25    -9999.25    37.865      1.382       320.002     161.782     0.975       23.738      1.915       2.385       
132.0       -9999.25    -9999.25    -9999.25    115.336     101.133     100.14      96.097      45.226      68.195      -9999.25    -9999.25    -9999.25    -9999.25    -9999.25    -9999.25    -9999.25    -9999.25    
132.07      54.757      125.435     6.035       -9999.25    -9999.25    -9999.25    -9999.25    -9999.25    -9999.25    37.059      1.426       320.526     154.341     0.962       22.836      1.932       2.397       
132.1       -9999.25    -9999.25    -9999.25    119.865     113.931     99.384      103.298     47.809      69.531      -9999.25    -9999.25    -9999.25    -9999.25    -9999.25    -9999.25    -9999.25    -9999.25    
132.17      46.71       125.339     6.246       -9999.25    -9999.25    -9999.25    -9999.25    -9999.25    -9999.25    36.395      1.501       320.551     124.41      0.959       22.358      1.932       2.409       
132.2       -9999.25    -9999.25    -9999.25    139.27      118.887     100.214     108.026     50.444      69.415      -9999.25    -9999.25    -9999.25    -9999.25    -9999.25    -9999.25    -9999.25    -9999.25    
132.27      62.874      124.814     6.272       -9999.25    -9999.25    -9999.25    -9999.25    -9999.25    -9999.25    35.886      1.549       320.258     92.468      0.959       22.209      1.92        2.424       
132.3       -9999.25    -9999.25    -9999.25    137.917     102.005     98.965      109.538     54.382      70.242      -9999.25    -9999.25    -9999.25    -9999.25    -9999.25    -9999.25    -9999.25    -9999.25    
132.37      90.803      124.137     6.351       -9999.25    -9999.25    -9999.25    -9999.25    -9999.25    -9999.25    35.534      1.559       319.963     82.815      0.959       22.084      1.915       2.444       
132.4       -9999.25    -9999.25    -9999.25    127.448     90.089      94.972      110.509     58.284      67.174      -9999.25    -9999.25    -9999.25    -9999.25    -9999.25    -9999.25    -9999.25    -9999.25    
132.47      82.651      123.541     6.398       -9999.25    -9999.25    -9999.25    -9999.25    -9999.25    -9999.25    35.176      1.59        319.888     81.376      0.959       22.209      2.053       2.47        
132.5       -9999.25    -9999.25    -9999.25    125.544     93.427      92.293      111.916     60.516      63.192      -9999.25    -9999.25    -9999.25    -9999.25    -9999.25    -9999.25    -9999.25    -9999.25    
132.57      56.969      123.415     6.372       -9999.25    -9999.25    -9999.25    -9999.25    -9999.25    -9999.25    34.87       1.584       320.275     79.096      0.96        22.289      2.12        2.495       
132.6       -9999.25    -9999.25    -9999.25    125.483     99.162      90.994      110.305     62.707      63.218      -9999.25    -9999.25    -9999.25    -9999.25    -9999.25    -9999.25    -9999.25    -9999.25    
132.67      54.733      123.628     6.31        -9999.25    -9999.25    -9999.25    -9999.25    -9999.25    -9999.25    34.71       1.53        321.615     75.898      0.96        21.659      1.988       2.52        
132.7       -9999.25    -9999.25    -9999.25    131.275     108.39      89.696      101.8       66.793      63.879      -9999.25    -9999.25    -9999.25    -9999.25    -9999.25    -9999.25    -9999.25    -9999.25    
132.77      69.588      123.588     6.293       -9999.25    -9999.25    -9999.25    -9999.25    -9999.25    -9999.25    34.449      1.479       324.055     73.132      0.96        20.77       1.899       2.543       
132.8       -9999.25    -9999.25    -9999.25    129.537     107.757     87.382      88.38       68.825      63.071      -9999.25    -9999.25    -9999.25    -9999.25    -9999.25    -9999.25    -9999.25    -9999.25    
132.87      84.841      123.241     6.249       -9999.25    -9999.25    -9999.25    -9999.25    -9999.25    -9999.25    34.079      1.48        327.483     71.99       0.959       20.623      1.967       2.565       
132.9       -9999.25    -9999.25    -9999.25    116.663     93.618      83.923      73.339      62.898      59.323      -9999.25    -9999.25    -9999.25    -9999.25    -9999.25    -9999.25    -9999.25    -9999.25    
132.97      93.276      123.41      6.109       -9999.25    -9999.25    -9999.25    -9999.25    -9999.25    -9999.25    33.645      1.518       331.628     72.964      0.959       21.171      2.029       2.577       
133.0       -9999.25    -9999.25    -9999.25    114.511     83.308      72.98       59.953      60.434      51.784      -9999.25    -9999.25    -9999.25    -9999.25    -9999.25    -9999.25    -9999.25    -9999.25    
133.07      69.23       123.352     5.956       -9999.25    -9999.25    -9999.25    -9999.25    -9999.25    -9999.25    33.002      1.546       335.919     74.649      0.959       21.539      2.073       2.583       
133.1       -9999.25    -9999.25    -9999.25    112.607     74.595      60.368      50.398      61.975      41.843      -9999.25    -9999.25    -9999.25    -9999.25    -9999.25    -9999.25    -9999.25    -9999.25    
133.17      52.481      124.06      5.89        -9999.25    -9999.25    -9999.25    -9999.25    -9999.25    -9999.25    32.379      1.582       339.702     75.764      0.959       21.645      2.12        2.583       
133.2       -9999.25    -9999.25    -9999.25    90.898      67.148      55.291      45.047      61.938      35.758      -9999.25    -9999.25    -9999.25    -9999.25    -9999.25    -9999.25    -9999.25    -9999.25    
133.27      49.56       125.138     6.225       -9999.25    -9999.25    -9999.25    -9999.25    -9999.25    -9999.25    31.708      1.597       342.51      73.699      0.959       21.832      2.078       2.579       
133.3       -9999.25    -9999.25    -9999.25    70.864      63.172      50.234      42.008      60.867      32.904      -9999.25    -9999.25    -9999.25    -9999.25    -9999.25    -9999.25    -9999.25    -9999.25    
133.37      41.275      127.445     6.629       -9999.25    -9999.25    -9999.25    -9999.25    -9999.25    -9999.25    31.044      1.55        344.064     69.302      0.958       22.102      1.978       2.57        
