~Version Information Section
VERS.                                         2.0:CWLS log ASCII Standart – VERSION 2.0
WRAP.                                          NO:One line per depth step
~Well Information Section
STRT.M                                        0.0:Начальная глубина
STOP.M                                      133.6:Конечная глубина
STEP.M                                          0:Шаг квантования по глубине
NULL.                                    -9999.25:Признак "Нет данных"
WELL.                                       118Мх:Скважина
~Parameter Information Section
~Curve Information Section
DEPTH.M                                          :Глубина
BK.Ohm*M                                         :BK     (БК)
DS.mm                                            :DS  (ДС)
GGK.g/cm3                                        :GGKp
ГК.mcr/h                                         :GK          (ГК)
GZ1.Ohm*M                                        :GZ1   ГЗ1(A0.4M0.1N)
GZ2.Ohm*M                                        :GZ2   ГЗ2(A1.0M0.1N)
GZ3.Ohm*M                                        :GZ3   ГЗ3(A2.0M0.5N)
GZ4.Ohm*M                                        :GZ4   ГЗ4(A4.0M0.5N)
GZ5.Ohm*M                                        :GZ5   ГЗ5(A8.0M0.5N)
GZR.Ohm*M                                        :GZK   ГЗK(N0.5M2.0A)
ИК.Ohm*M                                         :IK
НГК.усл.ед                                       :NGK
NNKM.                                            :NNKm  (ННКм)
PS.mv                                            :PS       (ПС)
PZ.Ohm*M                                         :PZ    (КС)
RS.Ohm*M                                         :RS (Резистивиметр)
U1.mV                                            :U1
U2.mV                                            :U2
U3.mV                                            :U3
W.%                                              :W
~ASCII LOG DATA
# ...
44.8        50.234      151.941     2.309       4.612       60.91       60.097      19.426      10.923      11.453      45.377      11.252      1.193       2.404       917.926     67.771      1.005       1369.143    979.302     755.357     24.686      
45.0        55.719      153.052     2.289       5.292       47.0        36.043      25.592      9.771       11.691      52.358      11.732      1.113       2.463       913.606     70.994      1.007       1418.852    1199.942    1074.912    27.356      
45.2        23.174      160.037     2.31        6.268       28.331      27.2        29.573      9.206       11.577      58.315      11.832      1.12        2.149       909.526     74.405      1.01        1473.431    1229.28     1070.869    29.745      
45.4        16.106      158.608     2.329       5.642       31.853      36.64       37.025      10.885      11.801      61.353      11.611      1.199       2.049       905.926     78.353      1.012       1059.852    815.004     668.904     30.968      
45.6        34.356      151.072     2.307       4.996       33.877      39.773      44.575      14.938      13.287      63.292      11.613      1.257       2.337       902.806     84.046      1.013       724.985     520.534     415.67      27.298      
45.8        37.068      152.368     2.322       4.588       45.008      49.73       50.988      18.661      15.048      58.866      12.08       1.306       2.279       899.686     91.62       1.015       847.618     692.419     623.66      25.655      
46.0        41.687      151.331     2.365       4.023       60.865      60.962      58.065      23.053      15.737      49.711      12.518      1.345       2.43        896.566     99.328      1.017       749.652     701.293     731.128     26.692      
46.2        70.795      151.657     2.34        4.188       78.108      70.222      55.902      24.59       15.79       44.362      12.844      1.346       2.588       894.406     104.968     1.018       694.365     647.532     694.667     26.357      
46.4        74.817      151.775     2.316       4.617       76.662      73.019      47.707      22.926      15.626      46.515      13.137      1.243       2.564       892.726     107.466     1.018       737.902     482.582     434.679     22.588      
46.6        48.865      153.482     2.325       5.267       54.744      58.691      44.788      21.76       14.786      47.324      13.156      1.183       2.387       891.526     107.385     1.019       670.145     366.216     305.267     24.258      
46.8        25.468      154.834     2.308       5.288       49.761      72.164      48.331      24.082      13.612      41.577      12.767      1.213       2.247       890.806     106.016     1.02        499.724     474.347     599.522     27.05       
47.0        30.549      151.741     2.306       4.874       51.406      79.582      51.706      32.203      12.957      36.713      12.424      1.254       2.367       890.806     103.786     1.021       450.809     537.576     766.816     26.403      
47.2        49.431      152.725     2.33        4.64        59.385      76.296      47.987      40.801      12.847      35.906      12.366      1.195       2.331       891.046     100.805     1.022       489.788     495.499     607.221     25.861      
47.4        33.113      152.177     2.373       4.296       51.438      60.03       45.031      46.496      12.307      35.501      12.388      1.27        2.347       891.526     97.18       1.023       591.025     416.589     377.563     26.642      
47.6        34.277      154.835     2.41        4.247       51.987      61.652      47.548      49.553      11.246      36.321      12.23       1.147       2.36        894.646     93.017      1.023       777.1       348.608     210.243     25.64       
47.8        48.306      154.309     2.397       4.252       55.216      65.772      51.044      49.133      10.634      34.42       11.917      1.13        2.44        899.206     88.451      1.024       727.608     382.293     279.043     26.739      
48.0        26.363      157.741     2.368       4.237       48.891      63.285      49.272      44.623      10.255      34.06       11.712      1.145       2.278       904.246     83.858      1.025       615.732     498.586     476.338     27.721      
48.2        30.549      154.86      2.341       4.565       44.4        52.461      48.853      39.206      9.176       32.314      11.514      1.12        2.298       911.446     79.561      1.027       624.968     521.963     494.448     27.819      
48.4        26.002      158.346     2.306       4.997       41.641      49.907      44.144      33.482      8.072       28.976      11.254      1.116       2.247       920.806     75.613      1.028       598.59      437.327     362.236     31.793      
48.6        21.777      154.786     2.302       4.852       34.84       41.174      39.746      29.821      7.699       28.681      10.983      1.068       2.147       931.366     72.176      1.03        614.942     423.256     327.994     32.265      
48.8        22.699      156.582     2.32        4.806       31.102      37.379      37.864      29.389      7.96        28.494      10.714      1.176       2.149       940.726     69.49       1.032       742.326     476.743     336.974     32.732      
49.0        25.41       157.007     2.336       5.013       32.544      39.989      41.779      32.432      7.72        25.848      10.517      1.187       2.234       950.806     67.637      1.034       993.989     580.476     377.365     28.429      
49.2        31.189      158.558     2.39        4.588       36.738      44.09       42.644      34.39       7.849       24.455      10.392      1.107       2.343       961.606     66.321      1.036       883.905     393.529     222.49      30.019      
49.4        26.915      157.823     2.41        4.056       34.566      34.533      38.628      32.383      8.445       26.705      10.486      1.173       2.355       973.366     65.22       1.039       555.27      286.402     205.075     29.744      
49.6        23.55       158.549     2.394       4.043       35.846      31.966      34.06       29.823      9.003       35.347      10.438      1.15        2.305       985.126     63.957      1.042       698.31      465.744     348.74      31.98       
49.8        19.588      159.172     2.369       4.421       30.716      29.301      30.158      29.32       9.545       47.857      10.392      1.064       2.266       1000.486    62.561      1.045       747.19      466.903     327.593     31.568      
50.0        21.627      160.147     2.352       4.784       27.637      25.717      28.952      31.78       10.943      73.103      10.439      1.073       2.159       1018.966    61.218      1.048       818.744     307.726     163.025     30.925      
50.2        21.429      158.398     2.353       4.41        28.732      29.088      30.444      38.505      15.063      124.45      10.533      1.074       2.263       1037.446    60.17       1.051       996.936     363.927     204.132     29.817      
50.4        30.62       157.058     2.405       4.339       31.42       31.495      43.27       67.257      23.811      147.249     10.68       1.131       2.437       1052.806    59.58       1.053       756.972     433.644     327.991     33.737      
50.6        27.04       157.152     2.502       4.395       35.061      48.397      69.812      98.75       28.462      121.231     10.831      1.264       2.437       1066.246    59.848      1.057       672.285     395.986     286.144     30.564      
50.8        111.944     157.889     2.528       4.227       67.316      79.754      79.664      106.792     32.488      96.7        10.968      1.324       2.737       1076.086    61.218      1.061       833.784     645.252     566.985     23.863      
51.0        62.806      155.773     2.461       3.43        69.217      59.337      64.473      84.561      35.818      84.409      11.04       1.3         2.852       1080.406    63.125      1.066       1000.877    945.748     961.287     25.019      
