~Version Information Section
VERS.                                         2.0:CWLS log ASCII Standart – VERSION 2.0
WRAP.                                          NO:One line per depth step
~Well Information Section
STRT.M                                        0.1:Начальная глубина
STOP.M                                      153.3:Конечная глубина
STEP.M                                          0:Шаг квантования по глубине
NULL.                                    -9999.25:Признак "Нет данных"
WELL.                                        144К:Скважина
~Parameter Information Section
~Curve Information Section
DEPTH.M                                          :Глубина
БК.Омм                                           :BK     (БК)
DСР.мм                                           :DS  (ДС)
ПЛОТНОСТЬ.г/см^3                                 :GGKp
ГК.мкР/ч                                         :GK          (ГК)
А0.4М0.1N.Омм                                    :GZ1   ГЗ1(A0.4M0.1N)
А1.0М0.1N.Омм                                    :GZ2   ГЗ2(A1.0M0.1N)
А2.0М0.5N.Омм                                    :GZ3   ГЗ3(A2.0M0.5N)
А4.0М0.5N.Oмм                                    :GZ4   ГЗ4(A4.0M0.5N)
А8.0М1.0N.Омм                                    :GZ5   ГЗ5(A8.0M0.5N)
N0.5M2.0A.Омм                                    :GZR   ГЗK(N0.5M2.0A)
ИК.мСм/м                                         :IK
БЗ.ue                                            :NNKb  (ННКб)
МЗ.ue                                            :NNKm  (ННКм)
ПС.mv                                            :PS       (ПС)
N11.0M0.5A.Омм                                   :PZ    (КС)
R.Омм                                            :RS (Резистивиметр)
ПОРИСТОСТЬ.                                      :W
~ASCII LOG DATA
# ...
66.7        85.193      214.553     2.229       3.207       76.446      117.063     97.287      73.975      28.143      73.039      38.438      2.787       1.752       84.77       106.821     1.114       31.806      
66.8        81.853      212.975     2.226       3.288       76.312      118.115     100.121     73.127      27.762      74.552      37.615      2.966       1.765       85.491      106.751     1.115       31.453      
66.9        67.084      212.758     2.217       3.363       74.758      117.168     100.94      71.512      27.726      75.519      36.162      3.094       1.778       86.274      105.521     1.115       31.376      
67.0        43.059      212.795     2.209       3.454       67.762      109.745     100.536     70.14       27.726      76.506      35.451      3.084       1.776       87.063      103.92      1.115       31.659      
67.1        42.34       212.653     2.204       3.577       58.74       98.508      99.007      69.217      27.88       78.462      34.981      2.966       1.78        87.783      102.979     1.116       32.294      
67.2        43.348      212.733     2.201       3.666       52.452      89.18       97.408      68.901      28.067      82.278      35.07       2.794       1.768       88.372      103.219     1.117       32.964      
67.3        48.521      212.803     2.206       3.652       49.61       84.611      96.934      69.171      28.161      88.06       35.358      2.708       1.758       88.781      105.076     1.117       33.381      
67.4        60.439      212.778     2.223       3.532       52.567      87.179      97.809      71.014      28.329      94.468      35.786      2.707       1.764       88.986      108.235     1.116       33.302      
67.5        66.526      213.024     2.251       3.38        58.662      91.822      100.543     74.883      28.688      99.931      36.547      2.777       1.77        88.99       111.521     1.115       32.856      
67.6        67.995      213.065     2.28        3.289       63.835      95.081      104.37      78.933      29.1        103.356     37.018      2.856       1.807       88.82       114.187     1.114       32.002      
67.7        68.427      213.545     2.304       3.294       66.326      97.043      107.038     83.708      29.585      106.249     37.286      2.962       1.833       88.512      116.325     1.113       31.062      
67.8        69.435      213.675     2.314       3.433       67.508      98.246      107.881     88.507      29.846      108.595     37.648      3.065       1.847       88.12       117.801     1.111       30.236      
67.9        66.928      213.82      2.307       3.643       69.002      99.561      108.021     91.245      29.846      109.17      37.646      3.176       1.848       87.715      118.583     1.11        29.88       
68.0        72.087      213.201     2.288       3.827       70.082      100.445     106.583     92.205      29.433      108.557     38.011      3.247       1.85        87.358      118.866     1.109       30.088      
68.1        88.623      213.424     2.266       3.864       70.395      100.437     103.352     90.161      28.586      104.969     38.212      3.269       1.861       87.101      118.868     1.107       30.702      
68.2        93.185      213.374     2.246       3.734       69.528      98.004      98.714      85.269      27.643      98.326      38.377      3.145       1.86        86.973      118.59      1.106       31.615      
68.3        79.707      213.512     2.227       3.502       66.524      91.06       92.504      79.519      27.107      91.481      38.322      2.946       1.84        86.979      118.367     1.105       32.714      
68.4        69.01       213.404     2.212       3.293       63.531      84.874      85.859      74.04       26.619      85.968      38.241      2.731       1.804       87.103      118.932     1.104       33.804      
68.5        65.945      214.079     2.202       3.153       62.675      83.197      80.551      70.374      26.001      82.773      38.448      2.6         1.757       87.309      120.518     1.105       34.759      
68.6        65.553      214.568     2.195       3.089       63.654      84.57       77.985      69.153      25.288      81.913      38.166      2.538       1.722       87.55       122.59      1.105       35.4        
68.7        65.692      215.202     2.187       3.097       65.185      88.068      77.372      69.021      24.734      82.012      37.965      2.559       1.7         87.782      124.456     1.105       35.746      
68.8        66.435      214.418     2.18        3.192       65.737      91.482      77.171      69.213      24.583      82.622      37.662      2.598       1.719       87.966      123.874     1.105       35.999      
68.9        65.29       213.694     2.172       3.309       64.502      92.772      76.997      69.605      24.583      83.549      37.42       2.631       1.742       88.079      119.702     1.105       36.171      
69.0        61.616      213.517     2.16        3.408       60.452      91.572      76.808      70.029      24.88       84.234      36.894      2.632       1.77        88.119      113.243     1.105       36.331      
69.1        58.681      213.363     2.145       3.486       55.076      89.279      76.308      70.252      25.344      84.641      36.409      2.597       1.783       88.092      105.688     1.105       36.477      
69.2        47.516      213.119     2.132       3.588       51.066      86.517      75.637      70.238      25.727      84.757      36.319      2.555       1.771       88.017      98.205      1.104       36.626      
69.3        51.453      212.767     2.125       3.697       49.618      84.702      75.241      70.203      26.085      84.736      36.288      2.504       1.763       87.911      92.967      1.104       36.599      
69.4        58.009      212.578     2.122       3.805       49.701      84.556      75.161      70.047      26.339      83.971      36.259      2.476       1.758       87.805      90.701      1.104       36.379      
69.5        59.738      211.821     2.121       3.892       50.582      84.942      75.64       69.886      26.551      81.864      36.377      2.479       1.743       87.717      90.048      1.104       36.076      
69.6        67.247      211.66      2.124       3.934       52.716      85.706      76.776      69.846      26.751      78.734      36.402      2.521       1.728       87.665      90.225      1.104       35.74       
69.7        69.833      212.674     2.132       3.929       54.735      86.084      78.254      69.739      27.108      75.314      36.193      2.595       1.729       87.657      90.494      1.104       35.44       
69.8        70.422      212.992     2.147       3.915       55.684      85.85       79.796      69.272      27.697      72.318      35.64       2.662       1.734       87.695      90.6        1.104       35.059      
69.9        68.007      212.992     2.167       3.908       55.96       84.934      81.184      68.256      28.343      69.476      35.095      2.658       1.744       87.764      90.484      1.104       34.602      
70.0        62.107      213.992     2.193       3.919       55.996      83.818      82.189      66.978      29.002      66.758      34.643      2.602       1.752       87.851      90.305      1.103       34.168      
70.1        59.488      214.827     2.226       3.98        56.022      83.383      82.876      65.692      29.487      64.175      34.295      2.554       1.738       87.93       90.179      1.104       33.879      
70.2        60.186      214.369     2.26        4.098       56.617      83.3        83.863      64.418      30.016      61.881      34.001      2.584       1.727       87.976      90.18       1.104       33.637      
70.3        61.896      214.254     2.288       4.203       57.787      83.084      84.939      63.011      30.585      59.936      33.764      2.688       1.712       87.952      90.298      1.105       33.522      
