~Version Information Section
VERS.                                         2.0:CWLS log ASCII Standart – VERSION 2.0
WRAP.                                          NO:One line per depth step
~Well Information Section
STRT.M                                        0.6:Начальная глубина
STOP.M                                      191.4:Конечная глубина
STEP.M                                          0:Шаг квантования по глубине
NULL.                                    -9999.25:Признак "Нет данных"
WELL.                                       129Мх:Скважина
~Parameter Information Section
~Curve Information Section
DEPTH.M                                          :Глубина
BK.lgОмм                                         :BK     (БК)
ПРОФ_СР.мм                                       :DS  (ДС)
ГК.имп/мин                                       :GK          (ГК)
ГЗ1.Омм                                          :GZ1   ГЗ1(A0.4M0.1N)
ГЗ2.Омм                                          :GZ2   ГЗ2(A1.0M0.1N)
ГЗ3.Омм                                          :GZ3   ГЗ3(A2.0M0.5N)
ГЗ4.Oмм                                          :GZ4   ГЗ4(A4.0M0.5N)
ГЗ5.Oмм                                          :GZ5   ГЗ5(A8.0M0.5N)
ГЗК.Омм                                          :GZK   ГЗK(N0.5M2.0A)
ИК.мСм/м                                         :IK
НГК.усл.ед                                       :NNKb  (ННКб)
ННКМ.усл.ед                                      :NNKm  (ННКм)
PZ.Омм                                           :PZ    (КС)
РЕЗ.Омм                                          :RS (Резистивиметр)
U1.мВ                                            :U1
U2.mV                                            :U2
U3.мВ                                            :U3
КП.%                                             :Кп
ПС.                                              :ПС
~ASCII LOG DATA
# ...
160.4       18.221      121.733     6.118       9.127       7.762       8.837       16.164      15.489      10.876      11.006      3.368       2.215       16.951      1.14        939.183     1173.205    667.684     30.372      -156.04     
160.5       18.607      121.722     6.01        9.031       7.689       8.771       16.164      14.333      11.273      11.271      3.348       2.21        16.693      1.14        936.514     1168.475    659.199     30.628      -153.96     
160.6       18.439      121.718     7.181       8.977       7.642       8.707       16.122      13.533      11.771      11.208      3.362       2.205       16.153      1.14        930.489     1184.214    681.274     30.864      -151.6      
160.7       18.116      121.754     7.123       8.966       7.612       8.648       16.063      13.133      12.36       11.292      3.483       2.202       15.355      1.14        913.199     1199.247    703.343     31.431      -149.2      
160.8       17.879      121.792     6.893       8.966       7.597       8.594       16.01       13.0        13.047      11.191      3.481       2.203       14.441      1.14        895.978     1193.941    704.367     32.032      -146.88     
160.9       17.824      121.753     6.749       8.995       7.597       8.542       15.958      13.0        13.932      11.038      3.26        2.194       13.444      1.14        883.377     1183.49     690.636     31.725      -144.68     
161.0       17.797      121.644     6.605       9.074       7.608       8.488       15.905      13.0        15.274      10.951      3.244       2.175       12.38       1.14        874.921     1168.644    676.907     31.023      -142.76     
161.1       17.865      121.544     6.605       9.187       7.624       8.429       15.848      13.044      17.582      10.954      3.309       2.167       11.259      1.14        845.618     1153.328    670.031     30.251      -140.72     
161.2       18.018      121.562     6.605       9.283       7.624       8.364       15.784      13.178      21.51       10.951      3.351       2.171       10.115      1.14        885.38      1141.702    676.021     29.55       -138.52     
161.3       18.239      121.55      6.874       9.314       7.596       8.291       15.706      13.444      27.68       10.86       3.425       2.208       9.014       1.14        929.604     1135.172    686.473     29.623      -136.04     
161.4       18.745      121.561     6.989       9.314       7.48        8.213       15.605      13.8        36.357      10.862      3.443       2.243       8.087       1.14        994.666     1149.724    701.921     29.925      -133.32     
161.5       19.27       121.532     7.142       9.242       7.267       8.128       15.473      14.2        47.366      11.0        3.452       2.232       7.516       1.14        999.999     1188.302    717.978     30.697      -130.56     
161.6       19.214      121.564     7.181       9.088       6.992       8.034       15.302      14.6        60.075      11.0        3.438       2.211       7.373       1.14        1013.334    1226.889    729.577     31.364      -128.6      
161.7       18.681      121.472     7.2         8.893       6.696       7.926       15.088      15.0        73.654      11.005      3.387       2.178       7.373       1.14        1024.0      1219.891    719.871     31.88       -127.48     
161.8       17.99       121.499     7.513       8.701       6.411       7.801       14.834      15.489      87.284      11.005      3.269       2.152       7.373       1.14        1026.667    1254.068    701.843     31.811      -127.24     
161.9       17.703      121.49      7.53        8.533       6.161       7.654       14.547      16.156      100.348     11.093      3.229       2.145       7.373       1.14        1024.0      1285.586    681.974     31.503      -127.24     
162.0       17.303      121.625     7.354       8.383       5.956       7.488       14.232      17.089      112.334     11.126      3.2         2.145       7.661       1.14        1016.001    1338.667    676.254     31.415      -127.24     
162.1       17.181      121.872     7.507       8.246       5.846       7.303       13.892      18.2        122.651     11.243      3.254       2.148       8.311       1.14        1018.667    1327.999    674.243     31.427      -127.84     
162.2       17.262      122.148     7.661       8.127       5.846       7.102       13.53       19.4        130.346     11.497      3.322       2.157       9.169       1.14        1010.667    1322.667    675.079     31.618      -129.12     
162.3       17.539      122.381     7.167       8.037       5.88        6.891       13.139      20.511      134.446     11.633      3.384       2.169       10.025      1.14        1008.0      1325.333    694.535     32.053      -130.68     
162.4       17.566      122.788     6.97        7.984       6.108       6.678       12.705      21.489      134.454     11.871      3.346       2.179       10.795      1.14        1021.335    1333.334    713.992     32.763      -132.32     
162.5       17.459      123.405     7.334       7.951       6.517       6.479       12.215      22.289      134.454     12.083      3.147       2.186       11.493      1.14        1047.998    1354.665    721.424     32.72       -134.04     
162.6       17.13       123.916     7.071       7.931       7.091       6.336       11.662      23.133      131.0       12.371      3.185       2.191       12.234      1.14        1085.334    1373.334    710.402     32.54       -135.8      
162.7       16.704      122.573     6.72        7.931       7.81        6.293       11.054      24.156      125.389     12.848      3.287       2.158       13.197      1.14        1095.999    1392.0      737.071     32.401      -137.52     
162.8       16.534      120.821     7.462       7.957       8.693       6.293       10.423      25.489      118.947     13.161      3.21        2.116       14.535      1.14        1141.333    1408.0      782.572     32.632      -139.12     
162.9       16.876      120.704     7.834       8.162       9.811       6.393       9.824       26.956      112.436     13.465      3.161       2.171       16.311      1.14        1165.335    1432.001    828.071     33.591      -140.72     
163.0       16.977      120.308     7.802       8.787       11.334      6.637       9.365       28.422      106.188     13.911      3.209       2.22        18.481      1.14        1186.668    1461.332    824.826     33.797      -142.28     
163.1       16.414      120.132     7.795       10.164      13.51       7.006       9.165       29.622      100.347     15.074      3.242       2.19        20.958      1.14        1162.666    1485.335    803.266     33.367      -143.8      
163.2       14.39       120.084     7.354       12.606      16.593      7.47        9.165       30.467      95.025      15.938      3.292       2.158       23.7        1.14        1154.667    1503.999    781.71      31.863      -145.2      
163.3       14.466      120.106     6.931       16.328      20.755      8.008       9.341       30.867      90.299      16.818      3.371       2.138       26.759      1.14        1176.0      1522.667    799.24      29.576      -146.48     
163.4       37.417      120.192     6.086       21.342      26.013      8.598       9.936       31.0        86.246      17.739      3.626       2.153       30.249      1.14        1208.002    1544.002    814.173     25.716      -147.52     
163.5       86.745      120.061     5.376       27.479      32.229      9.221       10.931      31.0        82.887      18.716      4.208       2.253       34.25       1.14        1229.334    1567.999    829.105     22.834      -148.24     
163.6       133.285     120.036     4.666       34.411      39.128      9.849       12.266      31.0        80.196      19.662      4.86        2.477       38.723      1.14        1223.999    1584.0      829.334     20.646      -148.68     
163.7       155.753     119.969     4.243       41.779      46.404      10.456      13.863      31.089      78.085      20.609      5.53        2.693       43.468      1.14        1234.665    1578.667    855.998     19.352      -148.92     
