~Version Information Section
VERS.                                         2.0:CWLS log ASCII Standart – VERSION 2.0
WRAP.                                          NO:One line per depth step
~Well Information Section
STRT.M                                       -0.3:Начальная глубина
STOP.M                                      200.8:Конечная глубина
STEP.M                                          0:Шаг квантования по глубине
NULL.                                    -9999.25:Признак "Нет данных"
WELL.                                       124Мх:Скважина
~Parameter Information Section
~Curve Information Section
DEPTH.M                                          :Глубина
U1.мВ                                            :U1
U2.                                              :U2
U3.мВ                                            :U3
БЗ.имп/мин                                       :БЗ
ГГКП.имп/мин                                     :ГГКп
ГЗ1.Омм                                          :ГЗ1
ГЗ2.Омм                                          :ГЗ2
ГЗ3.Омм                                          :ГЗ3
ГЗ4.Oмм                                          :ГЗ4
ГЗ5.Oмм                                          :ГЗ5
ГЗК.Омм                                          :ГЗК
КП.%                                             :Кп
МЗ.                                              :МЗ жесткий
НГК.усл.ед                                       :ННКб
ННКМ.усл.ед                                      :ННКм
ПРОФ_СР.мм                                       :ПРОФ_СР
ПС.мВ                                            :ПС
BK.lgОмм                                         :BK
ГК.имп/мин                                       :GK
ИК.мСм/м                                         :IK
PZ.Омм                                           :PZ
RIS.Омм                                          :RIS
~ASCII LOG DATA
# ...
95.4        1229.28833  3347.843262 1465.689697 17421.4277342.395298    8.199       13.272      27.1        25.511999   31.200001   22.923      27.093081   28365.7148442.252412    1.848824    171.126007  608.607971  25.29298    5.894       13.464931   72.959999   1.06        
95.5        1210.17395  3338.565674 1448.212646 18417.5     2.366781    8.199       13.272      27.1        25.504      31.200001   22.839001   26.794714   29876.25    2.357227    1.793045    177.360001  609.840027  24.043631   6.106       13.386703   72.720001   1.06        
95.6        1242.034546 3322.868164 1376.85022  19192.0     2.349731    8.199       13.272      27.1        25.464001   31.16       22.677999   26.85759    30204.0     2.461181    1.784298    173.794998  611.072021  22.080046   7.162       13.266119   72.480003   1.06        
95.7        1298.208862 3308.570313 1299.199219 19294.6660162.339793    8.199       13.272      27.1        25.4        31.063999   22.461      27.638353   28613.3339842.426943    1.778985    167.634995  611.687988  22.029268   6.278       13.213705   72.160004   1.06        
95.8        1370.09729  3303.848389 1233.816406 18768.0     2.332495    8.199       13.272      27.08       25.327999   30.903999   22.229      28.254656   27205.3339842.422477    1.784039    164.009995  612.304016  22.387213   5.395       13.157203   71.919998   1.06        
95.9        1419.348633 3349.528564 1271.652344 18116.0     2.32408     8.201       13.272      27.059999   25.24       30.68       22.01       28.167322   25860.0     2.491697    1.778233    165.985992  613.536011  22.233099   5.946       13.13836    71.68       1.06        
96.0        1443.895996 3436.358398 1398.13501  16797.1425782.318291    8.208       13.272      27.040001   25.136      30.392      21.829      27.562885   24104.2851562.570126    1.755297    166.287994  614.151978  21.379623   6.221       13.13836    71.360001   1.06        
96.1        1435.641479 3502.588867 1512.009888 15389.3330082.316676    8.231       13.272      27.02       25.048      30.112      21.695      26.623114   23292.0     2.731079    1.824727    162.253998  614.768005  20.892963   5.197       13.14285    70.959999   1.06        
96.2        1413.425781 3506.268311 1527.364258 13897.1425782.325197    8.271       13.272      26.98       24.959999   29.872      21.611      26.131262   22998.5722662.836828    1.928712    154.802994  615.383972  21.086281   4.992       13.213705   70.639999   1.06        
96.3        1384.63562  3459.423828 1459.840698 13054.6669922.344691    8.323       13.272      26.940001   24.872      29.656      21.566999   26.143387   22873.3339842.980416    2.063791    153.222     616.0       25.822598   5.779       13.309199   70.32       1.06        
96.4        1400.774048 3435.99707  1401.337646 13798.5712892.362221    8.38        13.272      26.9        24.784      29.464001   21.561001   26.548761   23757.1425782.873573    2.176436    153.238007  616.0       29.512094   5.805       13.489816   70.0        1.06        
96.5        1461.395996 3434.6604   1351.444702 14861.3330082.377287    8.436       13.272      26.84       24.695999   29.296      21.561001   27.012892   23338.6660162.74643     2.166523    154.192001  616.0       36.2243     5.856       13.629548   69.760002   1.06        
96.6        1557.101685 3440.485352 1305.328247 15618.6669922.387206    8.491       13.272      26.780001   24.584      29.128      21.561001   26.821587   22598.6660162.71216     2.11278     156.929993  616.0       38.6367     5.914       13.73136    69.519997   1.06        
96.7        1643.200684 3432.823486 1256.806763 14945.7138672.391243    8.545       13.273      26.719999   24.455999   28.92       21.561001   26.041027   21828.5722662.799223    1.976341    158.964996  616.0       28.973436   5.971       13.990906   69.199997   1.06        
96.8        1660.72998  3413.003906 1227.061401 13741.3330082.399604    8.602       13.279      26.68       24.304001   28.719999   21.591999   25.486492   20756.0     3.055542    1.965443    157.154007  616.0       24.378107   4.96        14.104174   68.879997   1.06        
96.9        1613.777588 3393.182373 1219.853638 12862.8574222.412556    8.671       13.287      26.620001   24.143999   28.496      21.66       24.789658   21212.8574223.165567    2.085572    154.929001  616.0       20.137243   4.454       14.191039   68.639999   1.06        
97.0        1511.692993 3376.404297 1235.968994 13090.0     2.416988    8.751       13.298      26.559999   23.976      28.247999   21.775      23.708738   22441.4277343.290924    2.214377    153.716003  616.0       28.707802   4.781       14.138473   68.400002   1.06        
97.1        1496.083252 3421.383057 1304.037231 14412.8574222.416883    8.807       13.296      26.48       23.816      27.968      21.943001   24.041786   23247.1425783.135712    2.320883    154.268997  616.0       28.119009   4.95        14.033511   68.239998   1.06        
97.2        1564.367065 3525.687744 1421.84021  15804.6152342.407677    8.846       13.295      26.42       23.664      27.704      22.166      24.531609   23401.5390632.886682    2.269446    154.664993  616.0       29.308933   5.798       13.93942    68.080002   1.06        
97.3        1627.389282 3606.206543 1513.656982 16558.5722662.385471    8.861       13.292      26.32       23.52       27.440001   22.437      24.707766   23351.4277342.879704    2.193184    153.914001  616.0       29.308933   6.01        13.996977   67.919998   1.06        
97.4        1602.950317 3604.240967 1530.108643 16725.3339842.368742    8.861       13.267      26.219999   23.384001   27.224001   22.735001   25.367617   23070.6660162.880402    2.150809    153.839996  616.0       29.308933   6.432       14.147473   67.68       1.06        
97.5        1493.633667 3522.227051 1473.421021 16671.4277342.368072    8.861       13.225      26.139999   23.256001   27.032      23.028      25.239868   22587.1425782.896218    2.050577    154.725998  616.0       28.906797   5.51        14.256997   67.519997   1.06        
97.6        1394.247803 3455.913818 1449.819214 16537.3339842.382746    8.844       13.169      26.040001   23.128      26.864      23.271999   25.000507   23288.0     2.92599     1.920745    155.266006  616.0       28.906797   5.05        14.375045   67.360001   1.06        
97.7        1304.140259 3405.01416  1459.648438 16234.6669922.406627    8.797       13.1        25.940001   23.0        26.672001   23.427999   25.421522   23550.6660162.984914    1.937195    154.662994  616.0       28.510185   4.65        14.336918   67.199997   1.06        
97.8        1289.110352 3369.325684 1432.831665 15613.3330082.431586    8.739       13.036      25.879999   22.879999   26.448      23.489      25.457136   23104.0     2.980416    2.059261    153.757004  616.0       28.119009   4.57        14.153881   67.040001   1.06        
97.9        1342.205322 3333.135254 1333.107666 14524.0     2.447016    8.665       12.974      25.82       22.76       26.176001   23.489      25.331444   22625.3339842.912495    2.1675      155.171997  616.0       27.35269    6.24        13.975655   66.959999   1.06        
98.0        1400.246948 3312.650635 1240.09668  13828.0     2.446645    8.582       12.905      25.76       22.615999   25.903999   23.489      26.247623   22268.0     2.77341     2.248547    158.565002  616.0       26.242187   6.237       13.73136    66.879997   1.06        
98.1        1393.152466 3309.153809 1229.258179 13645.3330082.431086    8.505       12.824      25.719999   22.440001   25.608      23.469999   26.674118   23038.6660162.661301    2.062633    161.369995  616.0       26.977394   6.221       13.746271   66.800003   1.06        
98.2        1317.929932 3322.655518 1303.778076 14026.6669922.411872    8.441       12.737      25.66       22.224001   25.312      23.410999   26.23667    23641.3339842.7869      1.887441    162.850006  616.0       27.733198   5.942       13.891397   66.800003   1.06        
