~Version Information Section
VERS.                                         2.0:CWLS log ASCII Standart – VERSION 2.0
WRAP.                                          NO:One line per depth step
~Well Information Section
STRT.M                                        0.1:Начальная глубина
STOP.M                                      153.3:Конечная глубина
STEP.M                                          0:Шаг квантования по глубине
NULL.                                    -9999.25:Признак "Нет данных"
WELL.                                        144К:Скважина
~Parameter Information Section
~Curve Information Section
DEPTH.M                                          :Глубина
БК.Омм                                           :BK     (БК)
DСР.мм                                           :DS  (ДС)
ПЛОТНОСТЬ.г/см^3                                 :GGKp
ГК.мкР/ч                                         :GK          (ГК)
А0.4М0.1N.Омм                                    :GZ1   ГЗ1(A0.4M0.1N)
А1.0М0.1N.Омм                                    :GZ2   ГЗ2(A1.0M0.1N)
А2.0М0.5N.Омм                                    :GZ3   ГЗ3(A2.0M0.5N)
А4.0М0.5N.Oмм                                    :GZ4   ГЗ4(A4.0M0.5N)
А8.0М1.0N.Омм                                    :GZ5   ГЗ5(A8.0M0.5N)
N0.5M2.0A.Омм                                    :GZR   ГЗK(N0.5M2.0A)
ИК.мСм/м                                         :IK
БЗ.ue                                            :NNKb  (ННКб)
МЗ.ue                                            :NNKm  (ННКм)
ПС.mv                                            :PS       (ПС)
N11.0M0.5A.Омм                                   :PZ    (КС)
R.Омм                                            :RS (Резистивиметр)
ПОРИСТОСТЬ.                                      :W
~ASCII LOG DATA
# ...
81.5        57.595      217.254     2.401       4.425       48.29       69.733      52.079      55.143      39.1        84.129      31.478      2.925       1.707       79.261      91.662      1.101       31.809      
81.6        59.127      217.103     2.401       4.495       49.267      71.972      55.973      57.377      40.688      83.006      31.562      2.905       1.723       79.696      93.103      1.101       32.142      
81.7        63.595      216.969     2.383       4.553       51.287      75.62       60.134      58.802      41.687      79.375      31.693      2.861       1.756       80.215      94.609      1.101       32.202      
81.8        72.635      217.535     2.359       4.636       53.718      80.018      64.039      59.181      42.302      73.292      31.744      2.847       1.783       80.803      95.995      1.101       31.997      
81.9        78.49       216.076     2.339       4.624       55.481      84.048      67.303      58.87       42.737      66.011      31.731      2.857       1.8         81.447      97.056      1.101       31.572      
82.0        79.305      215.357     2.323       4.54        57.932      86.765      69.607      57.583      42.737      59.261      31.667      2.937       1.825       82.133      97.848      1.101       31.153      
82.1        81.561      215.357     2.313       4.49        61.048      88.069      70.888      55.351      42.504      54.036      31.506      3.021       1.839       82.849      98.231      1.101       30.833      
82.2        78.425      214.727     2.311       4.558       62.797      88.187      71.228      52.801      41.82       50.194      31.305      3.071       1.852       83.586      97.851      1.101       30.655      
82.3        70.205      214.727     2.316       4.724       63.227      86.894      70.686      50.252      40.673      47.233      30.797      3.042       1.844       84.338      96.783      1.101       30.615      
82.4        57.359      216.011     2.32        4.904       60.868      84.455      69.018      48.234      39.46       45.252      30.172      2.919       1.809       85.092      95.289      1.101       30.74       
82.5        47.167      216.011     2.318       5.117       55.546      82.493      66.415      46.652      38.328      44.235      29.771      2.786       1.759       85.836      93.43       1.102       31.011      
82.6        41.938      215.272     2.316       5.287       49.94       80.048      63.757      45.371      37.37       43.85       29.431      2.683       1.707       86.552      91.548      1.102       31.358      
82.7        41.868      215.209     2.316       5.401       45.419      76.771      61.751      44.617      37.016      43.8        29.236      2.651       1.676       87.232      89.693      1.103       31.737      
82.8        43.14       215.238     2.314       5.431       42.752      73.293      60.894      44.326      37.016      44.362      29.013      2.677       1.659       87.859      88.328      1.104       32.047      
82.9        45.605      215.219     2.31        5.482       41.749      71.083      60.862      44.867      37.228      46.054      28.776      2.717       1.654       88.422      87.865      1.104       32.34       
83.0        48.139      215.407     2.307       5.51        41.535      70.333      61.456      46.841      38.224      49.207      28.597      2.741       1.656       88.904      87.979      1.103       32.433      
83.1        50.744      214.947     2.31        5.473       42.083      69.963      63.309      49.919      39.484      52.783      28.387      2.718       1.658       89.292      89.067      1.103       32.404      
83.2        54.245      214.912     2.319       5.305       43.4        70.131      66.47       53.535      41.006      55.626      28.23       2.686       1.665       89.579      91.581      1.102       32.08       
83.3        60.193      214.417     2.331       5.002       45.403      70.96       70.717      57.319      42.944      57.237      28.091      2.704       1.68        89.769      94.748      1.101       31.465      
83.4        70.615      214.237     2.346       4.596       48.571      73.886      75.442      61.019      44.426      57.559      28.056      2.834       1.709       89.875      98.092      1.101       30.573      
83.5        91.203      214.047     2.359       4.159       53.859      78.922      80.698      64.229      45.34       57.535      27.947      3.042       1.75        89.927      101.959     1.101       29.394      
83.6        123.478     214.871     2.368       3.84        61.574      84.593      85.571      66.026      47.067      56.842      27.921      3.264       1.8         89.959      105.749     1.101       28.048      
83.7        145.7       214.722     2.371       3.707       70.926      92.263      88.918      66.5        48.393      55.21       27.922      3.477       1.85        90.002      108.617     1.101       26.891      
83.8        142.709     212.808     2.373       3.702       80.811      102.062     92.707      66.26       49.208      53.067      27.63       3.646       1.884       90.078      110.145     1.101       25.994      
83.9        137.597     213.963     2.384       3.81        91.321      113.951     96.615      65.163      49.208      50.735      27.201      3.809       1.905       90.199      109.348     1.101       25.653      
84.0        130.208     213.828     2.404       3.994       96.938      120.81      98.379      63.29       47.759      48.662      26.563      3.868       1.933       90.352      105.287     1.101       25.729      
84.1        106.86      213.431     2.426       4.152       93.833      118.321     98.673      61.279      45.893      47.346      25.761      3.829       1.967       90.517      98.616      1.101       26.092      
84.2        73.855      213.065     2.439       4.226       82.864      108.99      95.067      59.101      43.826      46.952      24.803      3.601       1.982       90.668      90.942      1.101       26.725      
84.3        38.801      213.969     2.444       4.284       64.172      93.098      86.447      56.559      41.531      47.025      24.162      3.327       1.95        90.779      83.314      1.101       27.491      
84.4        26.483      214.764     2.439       4.402       48.845      80.71       76.416      53.425      39.078      47.452      23.884      3.105       1.887       90.825      76.67       1.101       28.263      
84.5        32.355      214.684     2.424       4.586       42.695      77.149      67.506      50.549      36.74       47.809      23.843      2.99        1.779       90.783      71.775      1.101       29.043      
84.6        41.288      214.902     2.398       4.805       40.185      75.57       61.489      48.347      34.743      47.813      24.082      2.925       1.727       90.654      68.387      1.101       29.714      
84.7        43.908      215.085     2.372       4.99        38.83       71.812      58.067      46.45       33.133      47.665      24.349      2.871       1.72        90.453      65.897      1.101       30.324      
84.8        41.672      215.085     2.357       5.096       38.071      66.145      55.571      44.582      32.047      47.279      24.254      2.829       1.699       90.203      64.051      1.101       30.838      
84.9        39.386      214.793     2.35        5.054       37.564      60.194      52.972      42.736      31.413      47.042      24.091      2.787       1.688       89.937      62.921      1.101       31.27       
85.0        38.544      214.793     2.343       4.895       37.208      55.502      50.355      41.481      31.339      47.14       23.947      2.746       1.674       89.686      62.533      1.101       31.551      
85.1        37.044      215.598     2.337       4.732       37.052      51.714      48.137      40.781      31.3        47.503      23.872      2.708       1.66        89.483      62.553      1.101       31.647      
