~Version Information Section
VERS.                                         2.0:CWLS log ASCII Standart – VERSION 2.0
WRAP.                                          NO:One line per depth step
~Well Information Section
STRT.M                                        0.5:Начальная глубина
STOP.M                                      158.2:Конечная глубина
STEP.M                                          0:Шаг квантования по глубине
NULL.                                    -9999.25:Признак "Нет данных"
WELL.                                       136Мх:Скважина
~Parameter Information Section
~Curve Information Section
DEPTH.M                                          :Глубина
BK.Ohm*M                                         :BK     (БК)
DS.mm                                            :DS  (ДС)
GGK.g/cm3                                        :GGKp
ГК.mcr/h                                         :GK          (ГК)
GZ1.Ohm*M                                        :GZ1   ГЗ1(A0.4M0.1N)
GZ2.Ohm*M                                        :GZ2   ГЗ2(A1.0M0.1N)
GZ3.Ohm*M                                        :GZ3   ГЗ3(A2.0M0.5N)
GZ4.Ohm*M                                        :GZ4   ГЗ4(A4.0M0.5N)
GZ5.Ohm*M                                        :GZ5   ГЗ5(A8.0M0.5N)
GZR.Ohm*M                                        :GZK   ГЗK(N0.5M2.0A)
ИК.Ohm*M                                         :IK
НГК.ue                                           :NGK     (НГК)
NNKM.                                            :NNKm  (ННКм)
PS.mv                                            :PS       (ПС)
PZ.Ohm*M                                         :PZ    (КС)
RS.Ohm*M                                         :RS (Резистивиметр)
U1.mV                                            :U1
U2.mV                                            :U2
U3.mV                                            :U3
КП.%                                             :Кп
~ASCII LOG DATA
# ...
58.1        3.757       100.486     -9999.25    5.439       0.117       0.043       0.125       -0.265      5.0         0.084       9.559       1.055       1.261       117.78      0.773       1.087       -2095.58    229.987     -1805.73    50.388      
58.2        3.628       100.477     -9999.25    5.162       0.121       0.041       0.125       -0.252      5.0         0.203       10.209      0.989       1.256       119.589     0.868       1.087       -2172.86    195.747     -1772.72    47.231      
58.3        3.745       100.486     -9999.25    4.477       0.123       0.041       0.125       -0.252      5.0         0.892       10.446      0.856       1.275       121.362     1.008       1.087       -2225.11    155.861     -1819.46    40.92       
58.4        3.814       100.415     -9999.25    4.059       0.123       0.041       0.125       -0.252      5.0         11.822      10.446      0.787       1.335       123.148     1.193       1.087       -2251.23    125.399     -1898.67    35.984      
58.5        2.67        100.43      -9999.25    3.669       0.123       0.044       0.128       -0.306      5.0         30.81       10.954      0.749       1.418       125.083     1.4         1.087       -2250.67    111.084     -1972.12    42.003      
58.6        0.896       100.452     -9999.25    3.829       0.125       0.049       0.137       -0.664      5.0         47.159      10.954      0.776       1.525       127.352     1.624       1.087       -2246.83    130.67      -1973.37    51.169      
58.7        0.762       100.407     -9999.25    4.186       0.126       0.05        0.134       -0.751      5.0         55.952      10.954      0.817       1.575       130.104     1.865       1.087       -2211.27    187.47      -1889.86    56.941      
58.8        8.281       100.358     -9999.25    4.749       0.127       0.053       0.127       -0.751      5.0         61.649      10.954      0.855       1.54        133.407     2.134       1.087       -2140.96    249.316     -1823.33    51.822      
58.9        9.99        100.968     -9999.25    5.21        0.148       0.056       0.124       -0.776      5.0         61.649      10.954      0.876       1.444       137.272     2.458       1.087       -2063.49    250.156     -1875.47    44.698      
59.0        10.938      108.056     -9999.25    5.601       0.296       0.061       0.122       -0.806      5.0         61.649      10.954      0.888       1.347       141.578     2.906       1.087       -2022.26    211.208     -1994.25    42.659      
59.1        11.684      117.298     -9999.25    5.838       1.559       0.061       0.116       -0.844      5.0         55.926      10.954      0.89        1.552       146.102     3.506       1.087       -2018.65    162.824     -2104.32    43.071      
59.2        12.276      132.114     -9999.25    6.216       3.566       0.062       0.104       -0.936      5.0         41.398      10.954      0.911       1.773       150.65      4.284       1.087       -2027.79    144.746     -2140.96    46.92       
59.3        13.297      141.301     -9999.25    6.458       5.596       0.062       0.093       -1.081      5.0         29.017      10.954      0.893       1.786       155.067     5.242       1.087       -2032.39    135.964     -2157.47    50.411      
59.4        12.443      141.312     -9999.25    6.65        7.636       0.062       0.092       -1.008      5.0         24.31       11.026      0.913       1.792       159.183     6.395       1.087       -2034.69    146.752     -2165.46    50.779      
59.5        11.633      142.088     1.892       6.613       9.624       0.062       0.089       -1.008      5.0         22.858      11.065      0.931       1.772       162.932     7.706       1.087       -1973.64    180.207     -2162.91    49.408      
59.6        12.488      144.235     1.884       6.594       10.518      0.136       0.089       -0.972      5.0         22.858      11.073      0.984       1.728       166.356     9.15        1.087       -1937.55    206.411     -2145.12    46.015      
59.7        13.085      143.897     1.876       6.468       10.695      1.017       0.091       -0.959      5.0         22.858      11.142      0.982       1.668       169.474     10.679      1.087       -1938.6     203.661     -2115.16    44.289      
59.8        16.306      143.383     1.873       6.274       11.187      2.841       0.094       -0.968      5.0         22.858      11.297      0.906       1.672       172.3       12.247      1.087       -2029.38    166.904     -2101.24    42.233      
59.9        16.639      143.795     1.861       6.076       11.588      4.845       0.097       -0.968      6.0         22.985      11.484      0.851       1.723       174.907     13.737      1.087       -2123.86    121.663     -2116.31    39.891      
60.0        18.804      143.022     1.851       6.01        12.581      7.728       0.098       -0.968      6.0         23.226      11.697      0.874       1.8         177.316     15.053      1.087       -2181.2     90.196      -2143.81    36.272      
60.1        28.336      142.222     1.835       5.632       14.78       10.544      0.101       -0.968      6.0         23.172      11.894      0.948       1.871       179.469     16.111      1.087       -2209.87    94.935      -2111.67    33.906      
60.2        25.927      142.955     1.802       5.276       16.867      12.316      0.101       -0.799      6.0         23.172      12.025      0.99        1.96        181.325     16.862      1.087       -2196.42    148.627     -1998.88    33.452      
60.3        18.558      143.901     1.781       5.026       18.462      12.859      0.099       -0.415      10.0        23.099      12.046      0.982       2.046       182.856     17.298      1.087       -2154.7     205.374     -1908.14    34.011      
60.4        16.542      143.961     1.75        5.265       19.227      12.863      0.098       -0.038      12.0        22.269      11.937      1.03        2.097       184.048     17.5        1.087       -2098.08    238.019     -1887.01    33.868      
60.5        15.158      144.166     1.723       5.705       19.227      12.863      0.1         0.158       13.0        20.441      11.677      1.114       2.112       184.921     17.556      1.087       -2045.22    225.34      -1957.49    35.189      
60.6        13.188      144.149     1.693       6.025       19.227      12.956      0.1         0.321       13.0        18.066      11.341      1.197       2.057       185.552     17.556      1.087       -2036.59    193.699     -2031.06    38.143      
60.7        12.018      144.34      1.652       6.214       18.933      12.217      0.102       0.321       13.0        16.247      11.032      1.231       1.998       186.025     17.556      1.087       -2051.93    165.686     -2080.92    44.014      
60.8        11.861      144.917     1.626       6.383       17.477      11.402      0.17        0.321       12.0        15.32       10.721      1.239       1.951       186.424     17.539      1.087       -2082.19    157.145     -2070.24    46.839      
60.9        12.245      145.25      1.614       6.665       15.903      10.957      0.923       4.0         12.0        14.798      10.485      1.223       1.869       186.795     17.511      1.087       -2096.51    183.305     -1968.61    46.16       
61.0        13.624      146.768     1.609       6.822       14.229      10.825      2.258       4.0         10.0        14.486      10.317      1.163       1.79        187.176     17.5        1.087       -2101.74    217.576     -1843.82    45.063      
61.1        13.514      148.669     1.631       6.765       13.153      10.784      3.738       4.0         10.0        14.152      10.214      1.156       1.725       187.565     17.5        1.087       -2100.7     246.859     -1754.59    46.587      
61.2        14.163      146.609     1.639       6.688       12.464      10.675      5.223       4.0         9.0         13.807      10.162      1.074       1.686       187.969     17.5        1.087       -2095.25    248.748     -1761.75    49.16       
