~Version Information Section
VERS.                                         2.0:CWLS log ASCII Standart – VERSION 2.0
WRAP.                                          NO:One line per depth step
~Well Information Section
STRT.M                                       -2.2:Начальная глубина
STOP.M                                      205.6:Конечная глубина
STEP.M                                          0:Шаг квантования по глубине
NULL.                                    -9999.25:Признак "Нет данных"
WELL.                                       108Мх:Скважина
~Parameter Information Section
~Curve Information Section
DEPTH.M                                          :Глубина
BK.Ohm*M                                         :BK     (БК)
DS.mm                                            :DS  (ДС)
GGK.g/cm3                                        :GGKp
ГК.mcr/h                                         :GK          (ГК)
GZ1.Ohm*M                                        :GZ1   ГЗ1(A0.4M0.1N)
GZ2.Ohm*M                                        :GZ2   ГЗ2(A1.0M0.1N)
GZ3.Ohm*M                                        :GZ3   ГЗ3(A2.0M0.5N)
GZ4.Ohm*M                                        :GZ4   ГЗ4(A4.0M0.5N)
GZ5.Ohm*M                                        :GZ5   ГЗ5(A8.0M0.5N)
GZR.Ohm*M                                        :GZK   ГЗK(N0.5M2.0A)
ИК.Ohm*M                                         :IK
НГК.ue                                           :NGK     (НГК)
NNKM.                                            :NNKm  (ННКм)
PS.mv                                            :PS       (ПС)
PZ.Ohm*M                                         :PZ    (КС)
RS.Ohm*M                                         :RS (Резистивиметр)
U1.mV                                            :U1
U2.mV                                            :U2
U3.mV                                            :U3
КП.%                                             :Кп
~ASCII LOG DATA
# ...
133.4       -9999.25    125.856     -9999.25    -9999.25    58.307      41.881      64.951      59.847      49.039      179.618     -9999.25    -9999.25    -9999.25    696.987     88.402      3.085       1728.638    1102.249    999.749     -9999.25    
133.43      52.355      -9999.25    2.374       4.692       -9999.25    -9999.25    -9999.25    -9999.25    -9999.25    -9999.25    39.362      1.704       2.241       -9999.25    -9999.25    -9999.25    -9999.25    -9999.25    -9999.25    23.663      
133.5       -9999.25    126.4       -9999.25    -9999.25    64.101      49.965      70.804      67.185      46.335      178.06      -9999.25    -9999.25    -9999.25    672.576     96.72       3.085       1833.554    1079.471    876.501     -9999.25    
133.53      57.611      -9999.25    2.409       4.41        -9999.25    -9999.25    -9999.25    -9999.25    -9999.25    -9999.25    41.672      1.788       2.286       -9999.25    -9999.25    -9999.25    -9999.25    -9999.25    -9999.25    22.226      
133.6       -9999.25    124.701     -9999.25    -9999.25    71.376      60.488      75.937      73.118      43.971      173.496     -9999.25    -9999.25    -9999.25    649.164     105.276     3.085       1843.975    1033.965    732.487     -9999.25    
133.63      63.604      -9999.25    2.411       4.344       -9999.25    -9999.25    -9999.25    -9999.25    -9999.25    -9999.25    43.669      1.82        2.238       -9999.25    -9999.25    -9999.25    -9999.25    -9999.25    -9999.25    22.069      
133.7       -9999.25    123.754     -9999.25    -9999.25    81.285      72.666      80.393      77.404      42.102      167.051     -9999.25    -9999.25    -9999.25    626.409     113.78      3.085       1722.305    967.659     595.08      -9999.25    
133.73      99.746      -9999.25    2.409       4.23        -9999.25    -9999.25    -9999.25    -9999.25    -9999.25    -9999.25    46.078      1.782       2.199       -9999.25    -9999.25    -9999.25    -9999.25    -9999.25    -9999.25    22.471      
133.8       -9999.25    124.79      -9999.25    -9999.25    93.624      87.744      84.097      80.12       40.748      159.307     -9999.25    -9999.25    -9999.25    605.557     121.937     3.085       1494.597    884.1       545.067     -9999.25    
133.83      161.139     -9999.25    2.406       3.962       -9999.25    -9999.25    -9999.25    -9999.25    -9999.25    -9999.25    48.087      1.752       2.213       -9999.25    -9999.25    -9999.25    -9999.25    -9999.25    -9999.25    22.913      
133.9       -9999.25    124.73      -9999.25    -9999.25    108.101     106.34      87.097      81.549      39.797      150.519     -9999.25    -9999.25    -9999.25    588.758     129.435     3.085       1253.095    801.225     547.327     -9999.25    
133.93      158.968     -9999.25    2.391       3.795       -9999.25    -9999.25    -9999.25    -9999.25    -9999.25    -9999.25    49.383      1.726       2.245       -9999.25    -9999.25    -9999.25    -9999.25    -9999.25    -9999.25    23.133      
134.0       -9999.25    124.679     -9999.25    -9999.25    123.769     128.562     89.415      81.807      39.062      141.037     -9999.25    -9999.25    -9999.25    578.085     135.993     3.085       1120.827    746.301     579.437     -9999.25    
134.03      162.702     -9999.25    2.377       3.763       -9999.25    -9999.25    -9999.25    -9999.25    -9999.25    -9999.25    50.894      1.724       2.272       -9999.25    -9999.25    -9999.25    -9999.25    -9999.25    -9999.25    23.323      
134.1       -9999.25    124.522     -9999.25    -9999.25    140.096     153.263     91.22       81.377      38.573      131.404     -9999.25    -9999.25    -9999.25    573.191     141.366     3.085       1079.208    725.559     581.573     -9999.25    
134.13      228.439     -9999.25    2.374       3.784       -9999.25    -9999.25    -9999.25    -9999.25    -9999.25    -9999.25    51.99       1.743       2.317       -9999.25    -9999.25    -9999.25    -9999.25    -9999.25    -9999.25    23.329      
134.2       -9999.25    124.617     -9999.25    -9999.25    156.048     175.248     92.278      80.267      38.245      122.025     -9999.25    -9999.25    -9999.25    574.693     145.386     3.085       1079.218    728.503     597.269     -9999.25    
134.23      343.001     -9999.25    2.373       3.636       -9999.25    -9999.25    -9999.25    -9999.25    -9999.25    -9999.25    52.522      1.774       2.341       -9999.25    -9999.25    -9999.25    -9999.25    -9999.25    -9999.25    23.514      
134.3       -9999.25    125.308     -9999.25    -9999.25    170.409     191.04      92.176      78.261      37.84       113.388     -9999.25    -9999.25    -9999.25    581.162     147.957     3.085       1092.654    749.454     652.852     -9999.25    
134.33      342.549     -9999.25    2.369       3.588       -9999.25    -9999.25    -9999.25    -9999.25    -9999.25    -9999.25    52.888      1.795       2.314       -9999.25    -9999.25    -9999.25    -9999.25    -9999.25    -9999.25    23.942      
134.4       -9999.25    125.752     -9999.25    -9999.25    184.652     198.202     90.517      75.105      37.173      106.02      -9999.25    -9999.25    -9999.25    592.015     149.125     3.085       1220.568    814.835     743.392     -9999.25    
134.43      263.742     -9999.25    2.349       3.647       -9999.25    -9999.25    -9999.25    -9999.25    -9999.25    -9999.25    53.219      1.81        2.299       -9999.25    -9999.25    -9999.25    -9999.25    -9999.25    -9999.25    24.303      
134.5       -9999.25    125.959     -9999.25    -9999.25    198.578     194.949     87.403      70.984      36.331      100.383     -9999.25    -9999.25    -9999.25    605.153     149.002     3.085       1400.861    909.816     796.841     -9999.25    
134.53      296.091     -9999.25    2.329       3.876       -9999.25    -9999.25    -9999.25    -9999.25    -9999.25    -9999.25    53.212      1.849       2.316       -9999.25    -9999.25    -9999.25    -9999.25    -9999.25    -9999.25    23.952      
134.6       -9999.25    126.818     -9999.25    -9999.25    212.715     179.613     83.083      66.186      35.406      96.112      -9999.25    -9999.25    -9999.25    619.957     147.808     3.085       1569.251    1005.451    799.612     -9999.25    
134.63      345.844     -9999.25    2.313       4.088       -9999.25    -9999.25    -9999.25    -9999.25    -9999.25    -9999.25    53.02       1.882       2.33        -9999.25    -9999.25    -9999.25    -9999.25    -9999.25    -9999.25    23.282      
134.7       -9999.25    126.859     -9999.25    -9999.25    220.366     157.11      77.929      61.066      34.284      92.908      -9999.25    -9999.25    -9999.25    635.856     145.799     3.085       1639.241    1057.078    778.606     -9999.25    
134.73      363.714     -9999.25    2.303       4.211       -9999.25    -9999.25    -9999.25    -9999.25    -9999.25    -9999.25    53.199      1.868       2.303       -9999.25    -9999.25    -9999.25    -9999.25    -9999.25    -9999.25    22.563      
134.8       -9999.25    126.289     -9999.25    -9999.25    221.526     132.989     73.029      56.162      32.907      90.625      -9999.25    -9999.25    -9999.25    650.85      143.285     3.085       1718.029    1072.324    757.708     -9999.25    
134.83      350.733     -9999.25    2.301       4.402       -9999.25    -9999.25    -9999.25    -9999.25    -9999.25    -9999.25    53.003      1.778       2.231       -9999.25    -9999.25    -9999.25    -9999.25    -9999.25    -9999.25    22.298      
134.9       -9999.25    127.113     -9999.25    -9999.25    214.887     110.632     69.163      52.097      31.332      89.281      -9999.25    -9999.25    -9999.25    663.163     140.589     3.085       1744.556    1072.544    727.374     -9999.25    
134.93      306.075     -9999.25    2.299       4.512       -9999.25    -9999.25    -9999.25    -9999.25    -9999.25    -9999.25    51.682      1.741       2.184       -9999.25    -9999.25    -9999.25    -9999.25    -9999.25    -9999.25    22.424      
