~Version Information Section
VERS.                                         2.0:CWLS log ASCII Standart – VERSION 2.0
WRAP.                                          NO:One line per depth step
~Well Information Section
STRT.M                                        0.0:Начальная глубина
STOP.M                                      211.0:Конечная глубина
STEP.M                                          0:Шаг квантования по глубине
NULL.                                    -9999.25:Признак "Нет данных"
WELL.                                       125Мх:Скважина
~Parameter Information Section
~Curve Information Section
DEPTH.M                                          :Глубина
BK.lgОмм                                         :BK
D.                                               :D sr
GGKP.g/sm3                                       :GGKp
ГК.гамма                                         :GK
ИК.мСм/м                                         :IK
KP.%                                             :Kp
PS.                                              :PS       (ПС)
PZ.Омм                                           :PZ
RIS.Омм                                          :RIS
U1.                                              :U1
U2.                                              :U2
U3.                                              :U3
БЗ.                                              :БЗ (ГГК-1)
ГЗ1.Омм                                          :ГЗ1
ГЗ2.Омм                                          :ГЗ2
ГЗ3.Омм                                          :ГЗ3
ГЗ4.Oмм                                          :ГЗ4
ГЗ5.Oмм                                          :ГЗ5
ГЗК.Омм                                          :ГЗК
ИКБ.мСм/м                                        :ИКБ
МЗ.                                              :МЗ жесткий (ГГК-4)
ННКМ.усл.ед                                      :ННКм
ИКМ.мСм/м                                        :ИКМ
НГК.усл.ед                                       :ННКб
~ASCII LOG DATA
# ...
70.2        234.963     135.358     2.358       4.603       20.24       22.544      74.55       1.082       -1.444      260.651     134.417     178.532     12110.0     13.668      21.239      29.566      2349.619    495.37      26.74       20.616      17281.428   1.075       16.342      3.261       
70.3        306.196     135.988     2.375       3.752       20.819      20.635      69.646      1.082       -1.424      285.912     122.825     191.211     11456.0     13.668      21.239      29.566      2349.815    495.026     26.74       20.697      16948.0     1.259       16.75       3.946       
70.4        295.121     135.348     2.392       2.874       21.152      19.364      65.811      1.082       -1.409      333.564     120.209     213.225     10977.143   13.668      21.239      29.566      2350.012    495.088     26.74       20.741      16730.0     1.572       16.544      4.633       
70.5        251.189     133.55      2.405       2.214       21.374      18.89       63.592      1.082       -1.409      407.337     134.068     250.978     10738.667   13.668      21.239      29.566      2350.208    495.171     26.74       20.756      16974.666   1.676       16.212      5.182       
70.6        233.884     132.601     2.416       1.884       21.36       19.489      63.517      1.082       -1.409      488.137     167.443     295.937     10827.143   13.668      21.239      29.566      2350.273    495.223     26.74       20.713      17040.0     1.704       15.776      5.037       
70.7        235.505     132.55      2.423       1.732       21.177      20.409      66.185      1.082       -1.409      568.505     203.615     340.901     11082.667   13.668      21.239      29.566      2350.273    495.275     26.74       20.619      17209.334   1.597       15.302      4.323       
70.8        208.449     132.634     2.42        1.906       20.808      21.906      71.478      1.082       -1.409      623.902     227.927     369.558     11272.308   13.668      21.239      29.566      2350.273    495.193     26.74       20.485      18047.691   1.557       14.735      4.094       
70.9        122.744     132.889     2.408       2.238       20.299      24.195      79.157      1.082       -1.409      640.873     233.257     373.174     12081.333   13.668      21.239      29.566      2350.273    495.11      26.74       20.317      19409.334   1.493       14.096      3.401       
71.0        66.374      132.967     2.389       2.788       20.022      26.593      89.045      1.082       -1.409      628.506     222.406     359.043     13441.333   13.668      21.239      29.566      2350.273    495.027     26.74       20.054      20992.0     1.47        13.435      3.089       
71.1        51.761      133.168     2.362       3.628       19.735      29.065      100.441     1.082       -1.409      605.475     200.466     341.461     14534.286   13.668      21.239      29.566      2350.273    494.944     26.74       19.732      21444.285   1.307       12.782      2.623       
71.2        78.524      133.426     2.331       4.672       19.238      31.516      112.896     1.082       -1.409      599.067     183.478     337.316     15380.0     13.668      21.239      29.566      2350.273    494.862     26.74       19.326      21458.572   1.17        12.454      2.19        
71.3        133.66      134.006     2.307       5.546       18.657      32.79       125.529     1.082       -1.409      612.534     179.702     353.421     14860.0     13.668      21.239      29.566      2350.273    494.758     26.74       18.838      20098.666   0.958       12.439      1.762       
71.4        193.642     136.812     2.298       6.146       18.053      33.452      137.324     1.082       -1.409      641.013     186.857     386.197     14152.857   13.668      21.239      29.566      2350.273    494.623     26.74       18.263      18604.285   0.912       12.415      1.741       
71.5        1111.732    141.252     2.293       6.406       17.579      34.307      147.771     1.082       -1.409      678.686     193.279     428.333     13807.5     13.668      21.239      29.566      2350.273    494.488     26.74       17.681      18292.5     0.88        12.384      1.691       
71.6        1790.606    141.556     2.292       6.421       17.158      34.592      156.274     1.082       -1.409      716.36      199.702     466.713     13321.538   13.668      21.239      29.566      2350.273    494.354     26.74       17.103      18100.0     0.876       12.316      1.577       
71.7        1803.018    138.253     2.297       6.295       16.815      33.718      162.926     1.082       -1.409      728.506     198.991     485.386     13753.333   13.668      21.239      29.566      2350.273    494.352     26.74       16.554      17710.666   0.872       12.261      1.575       
71.8        295.801     138.413     2.298       6.156       16.514      33.064      167.907     1.082       -1.409      719.061     194.746     487.466     13814.667   13.668      21.239      29.566      2350.273    494.352     26.74       16.031      17612.0     0.849       12.192      1.749       
71.9        182.39      138.601     2.29        6.291       16.075      33.12       171.137     1.082       -1.409      699.252     187.398     478.014     13622.857   13.668      21.239      29.566      2350.273    494.352     26.74       15.577      17675.715   0.841       12.112      1.751       
72.0        167.88      138.637     2.292       6.395       15.743      32.771      172.959     1.082       -1.409      660.422     178.678     452.931     13920.0     13.668      21.239      29.566      2350.273    494.352     26.74       15.186      17833.334   0.915       11.99       1.747       
72.1        104.232     138.16      2.298       6.349       15.497      32.394      173.638     1.082       -1.428      611.616     167.779     421.578     14035.714   13.668      21.239      29.566      2350.273    494.352     26.74       14.867      18040.0     0.912       11.902      1.714       
72.2        69.823      138.252     2.304       6.148       15.347      32.956      173.561     1.082       -1.446      561.733     156.878     390.223     13746.25    13.668      21.239      29.566      2350.273    494.352     26.74       14.616      18522.5     0.875       11.817      1.657       
72.3        55.719      138.771     2.318       6.044       15.181      33.585      173.251     1.082       -1.465      511.854     145.978     358.87      13369.23    13.668      21.239      29.566      2350.273    494.352     26.74       14.44       18630.77    0.879       11.748      1.68        
72.4        60.534      139.4       2.332       5.945       14.979      33.44       172.738     1.082       -1.484      461.975     135.079     327.517     13082.667   13.668      21.239      29.566      2350.273    494.301     26.74       14.303      18313.334   0.909       11.666      1.739       
72.5        46.132      138.93      2.339       5.85        14.548      33.509      172.056     1.082       -1.503      412.095     124.179     296.164     12560.0     13.668      21.239      29.566      2350.273    494.239     26.74       14.185      18380.0     0.949       11.609      1.846       
72.6        38.019      138.106     2.337       5.668       14.273      33.512      171.243     1.082       -1.521      355.5       110.775     256.397     12507.143   13.668      21.239      29.566      2350.273    494.177     26.74       14.07       18128.572   1.009       11.494      1.88        
72.7        33.42       138.039     2.329       5.656       13.993      33.544      170.342     1.082       -1.538      308.877     99.549      222.898     12646.25    13.668      21.239      29.566      2350.273    494.115     26.74       13.951      17901.25    0.971       11.36       1.838       
72.8        36.475      138.248     2.313       5.59        14.042      33.739      169.515     1.082       -1.556      278.432     93.126      197.524     12720.0     13.668      21.239      29.566      2350.273    494.053     26.74       13.824      17727.691   0.944       11.217      1.797       
