~Version Information Section
VERS.                                         2.0:CWLS log ASCII Standart – VERSION 2.0
WRAP.                                          NO:One line per depth step
~Well Information Section
STRT.M                                        0.0:Начальная глубина
STOP.M                                      208.6:Конечная глубина
STEP.M                                          0:Шаг квантования по глубине
NULL.                                    -9999.25:Признак "Нет данных"
WELL.                                       140Мх:Скважина
~Parameter Information Section
~Curve Information Section
DEPTH.M                                          :Глубина
GZ1.ohmm                                         :Подошвенный градиент-зонд А0.4М0.1N
GZ2.ohmm                                         :Подошвенный градиент-зонд А1.0М0.1N
GZ3.ohmm                                         :Подошвенный градиент-зонд А2.0М0.5N
GZ5.ohmm                                         :Подошвенный градиент-зонд А8.0М1.0N
GZ3R.GZ3R                                        :GZ3R
GZ4.ohmm                                         :Подошвенный градиент-зонд А4.0М0.5N
GGK.g/cc                                         :Плотностной гамма-гамма каротаж
ГК.ur/h                                          :Гамма каротаж
ИК.ohmm                                          :Индукционный каротаж (сопротивление),
BK.ohmm                                          :Боковой каротаж
NKTS.ue                                          :Нейтронный каротаж по тепловым нейтронам (малый зонд)
WNK.De                                           :Водородосодержание по НК
НГК.ue                                           :Нейтронный каротаж по тепловым нейтронам (большой зонд)
PZ.ohmm                                          :Потенциал-зонд ИММ 0,5А; В4 0,25М
-.                                               :-      SP mv)
DS1.m                                            :Профиль 1 сечения ствола скважины по профилеметрии
DS.m                                             :Кавернометрия
DS2.m                                            :Профиль 2 сечения ствола скважины по профилеметрии
~ASCII LOG DATA
# ...
100.0       -9999.25    -9999.25    -9999.25    -9999.25    -9999.25    -9999.25    2.43        10.192      9.392       18.812      1.383       38.872      1.713       22.852      3776.774    0.157       0.153       0.149       
100.1       36.791      17.988      16.618      42.063      19.298      25.013      -9999.25    -9999.25    -9999.25    -9999.25    -9999.25    -9999.25    -9999.25    -9999.25    -9999.25    -9999.25    -9999.25    -9999.25    
100.2       -9999.25    -9999.25    -9999.25    -9999.25    -9999.25    -9999.25    2.416       9.772       9.36        19.085      1.264       39.109      1.568       21.064      3782.106    0.165       0.161       0.157       
100.3       31.977      19.217      10.074      17.896      16.069      13.032      -9999.25    -9999.25    -9999.25    -9999.25    -9999.25    -9999.25    -9999.25    -9999.25    -9999.25    -9999.25    -9999.25    -9999.25    
100.4       -9999.25    -9999.25    -9999.25    -9999.25    -9999.25    -9999.25    2.269       9.223       9.221       15.557      1.207       42.552      1.421       21.176      3795.311    0.16        0.161       0.162       
100.5       29.78       20.113      8.559       12.938      16.057      11.759      -9999.25    -9999.25    -9999.25    -9999.25    -9999.25    -9999.25    -9999.25    -9999.25    -9999.25    -9999.25    -9999.25    -9999.25    
100.6       -9999.25    -9999.25    -9999.25    -9999.25    -9999.25    -9999.25    2.13        8.597       9.112       15.314      1.176       47.72       1.372       21.042      3796.996    0.174       0.175       0.177       
100.7       28.184      17.78       7.03        11.142      14.686      9.96        -9999.25    -9999.25    -9999.25    -9999.25    -9999.25    -9999.25    -9999.25    -9999.25    -9999.25    -9999.25    -9999.25    -9999.25    
100.8       -9999.25    -9999.25    -9999.25    -9999.25    -9999.25    -9999.25    2.205       7.923       9.104       14.571      1.355       56.4        1.563       20.743      3795.27     0.156       0.153       0.15        
100.9       25.725      18.158      5.644       9.97        13.714      8.199       -9999.25    -9999.25    -9999.25    -9999.25    -9999.25    -9999.25    -9999.25    -9999.25    -9999.25    -9999.25    -9999.25    -9999.25    
101.0       -9999.25    -9999.25    -9999.25    -9999.25    -9999.25    -9999.25    2.424       7.658       9.185       17.881      1.475       44.215      2.212       20.04       3791.981    0.156       0.152       0.149       
101.1       28.403      19.838      5.331       9.001       13.433      7.155       -9999.25    -9999.25    -9999.25    -9999.25    -9999.25    -9999.25    -9999.25    -9999.25    -9999.25    -9999.25    -9999.25    -9999.25    
101.2       -9999.25    -9999.25    -9999.25    -9999.25    -9999.25    -9999.25    2.491       7.195       9.284       17.649      1.52        34.702      2.205       20.038      3774.953    0.156       0.153       0.149       
101.3       22.112      15.713      7.689       8.78        14.983      7.663       -9999.25    -9999.25    -9999.25    -9999.25    -9999.25    -9999.25    -9999.25    -9999.25    -9999.25    -9999.25    -9999.25    -9999.25    
101.4       -9999.25    -9999.25    -9999.25    -9999.25    -9999.25    -9999.25    2.47        7.11        9.315       19.421      1.535       35.215      2.242       20.942      3772.534    0.156       0.153       0.149       
101.5       25.772      19.315      10.857      9.033       15.854      7.788       -9999.25    -9999.25    -9999.25    -9999.25    -9999.25    -9999.25    -9999.25    -9999.25    -9999.25    -9999.25    -9999.25    -9999.25    
101.6       -9999.25    -9999.25    -9999.25    -9999.25    -9999.25    -9999.25    2.475       7.182       9.3         17.955      1.464       32.909      2.162       20.94       3768.408    0.156       0.152       0.148       
101.7       24.118      19.053      12.033      9.088       15.777      7.744       -9999.25    -9999.25    -9999.25    -9999.25    -9999.25    -9999.25    -9999.25    -9999.25    -9999.25    -9999.25    -9999.25    -9999.25    
101.8       -9999.25    -9999.25    -9999.25    -9999.25    -9999.25    -9999.25    2.522       6.983       9.252       17.969      1.532       37.51       2.024       21.629      3757.025    0.156       0.152       0.149       
101.9       27.146      18.34       14.473      8.884       15.554      7.652       -9999.25    -9999.25    -9999.25    -9999.25    -9999.25    -9999.25    -9999.25    -9999.25    -9999.25    -9999.25    -9999.25    -9999.25    
102.0       -9999.25    -9999.25    -9999.25    -9999.25    -9999.25    -9999.25    2.48        8.24        9.216       19.034      1.515       37.748      1.993       21.229      3741.976    0.157       0.154       0.151       
102.1       27.325      16.963      20.237      8.91        15.622      7.31        -9999.25    -9999.25    -9999.25    -9999.25    -9999.25    -9999.25    -9999.25    -9999.25    -9999.25    -9999.25    -9999.25    -9999.25    
102.2       -9999.25    -9999.25    -9999.25    -9999.25    -9999.25    -9999.25    2.431       9.207       9.092       16.413      1.423       35.803      2.018       19.92       3734.05     0.158       0.155       0.151       
102.3       27.337      16.706      19.997      8.517       16.62       7.412       -9999.25    -9999.25    -9999.25    -9999.25    -9999.25    -9999.25    -9999.25    -9999.25    -9999.25    -9999.25    -9999.25    -9999.25    
102.4       -9999.25    -9999.25    -9999.25    -9999.25    -9999.25    -9999.25    2.446       7.968       8.939       15.123      1.454       36.439      2.138       20.523      3732.024    0.155       0.151       0.148       
102.5       28.945      19.846      19.337      8.333       16.321      7.065       -9999.25    -9999.25    -9999.25    -9999.25    -9999.25    -9999.25    -9999.25    -9999.25    -9999.25    -9999.25    -9999.25    -9999.25    
102.6       -9999.25    -9999.25    -9999.25    -9999.25    -9999.25    -9999.25    2.456       7.972       8.883       17.017      1.538       35.471      2.299       21.155      3730.91     0.154       0.151       0.148       
102.7       25.471      16.76       18.154      8.381       16.223      6.456       -9999.25    -9999.25    -9999.25    -9999.25    -9999.25    -9999.25    -9999.25    -9999.25    -9999.25    -9999.25    -9999.25    -9999.25    
102.8       -9999.25    -9999.25    -9999.25    -9999.25    -9999.25    -9999.25    2.505       7.496       8.869       19.936      1.563       33.882      2.234       19.982      3735.915    0.154       0.151       0.148       
102.9       24.292      16.928      16.791      8.39        18.082      6.312       -9999.25    -9999.25    -9999.25    -9999.25    -9999.25    -9999.25    -9999.25    -9999.25    -9999.25    -9999.25    -9999.25    -9999.25    
103.0       -9999.25    -9999.25    -9999.25    -9999.25    -9999.25    -9999.25    2.492       7.762       8.821       19.614      1.57        37.327      2.081       19.544      3741.726    0.155       0.152       0.148       
103.1       24.256      17.531      17.99       8.414       18.615      7.334       -9999.25    -9999.25    -9999.25    -9999.25    -9999.25    -9999.25    -9999.25    -9999.25    -9999.25    -9999.25    -9999.25    -9999.25    
103.2       -9999.25    -9999.25    -9999.25    -9999.25    -9999.25    -9999.25    2.417       8.636       8.714       16.563      1.524       36.995      1.949       19.457      3744.645    0.156       0.152       0.149       
103.3       26.092      18.618      18.566      8.716       18.495      9.174       -9999.25    -9999.25    -9999.25    -9999.25    -9999.25    -9999.25    -9999.25    -9999.25    -9999.25    -9999.25    -9999.25    -9999.25    
103.4       -9999.25    -9999.25    -9999.25    -9999.25    -9999.25    -9999.25    2.429       9.574       8.573       14.896      1.392       37.874      1.778       18.319      3751.234    0.156       0.153       0.15        
