~Version Information Section
VERS.                                         2.0:CWLS log ASCII Standart – VERSION 2.0
WRAP.                                          NO:One line per depth step
~Well Information Section
STRT.M                                       -0.3:Начальная глубина
STOP.M                                      200.8:Конечная глубина
STEP.M                                          0:Шаг квантования по глубине
NULL.                                    -9999.25:Признак "Нет данных"
WELL.                                       124Мх:Скважина
~Parameter Information Section
~Curve Information Section
DEPTH.M                                          :Глубина
U1.мВ                                            :U1
U2.                                              :U2
U3.мВ                                            :U3
БЗ.имп/мин                                       :БЗ
ГГКП.имп/мин                                     :ГГКп
ГЗ1.Омм                                          :ГЗ1
ГЗ2.Омм                                          :ГЗ2
ГЗ3.Омм                                          :ГЗ3
ГЗ4.Oмм                                          :ГЗ4
ГЗ5.Oмм                                          :ГЗ5
ГЗК.Омм                                          :ГЗК
КП.%                                             :Кп
МЗ.                                              :МЗ жесткий
НГК.усл.ед                                       :ННКб
ННКМ.усл.ед                                      :ННКм
ПРОФ_СР.мм                                       :ПРОФ_СР
ПС.мВ                                            :ПС
BK.lgОмм                                         :BK
ГК.имп/мин                                       :GK
ИК.мСм/м                                         :IK
PZ.Омм                                           :PZ
RIS.Омм                                          :RIS
~ASCII LOG DATA
# ...
147.6       1570.0      3593.33252  1413.836304 15600.0     2.381319    8.892       12.829      26.200001   27.768      26.200001   26.483      23.934076   22865.3339843.218305    2.144074    162.602005  437.359985  56.885292   6.931       22.740711   111.599998  1.06        
147.7       1570.0      3576.66748  1443.33313  15738.5712892.388992    8.89        12.857      26.08       27.823999   26.271999   26.337      24.108829   23218.5722663.154677    2.149192    162.457001  439.208008  56.885292   6.819       22.653648   111.839996  1.06        
147.8       1570.0      3560.0      1453.333374 15957.1425782.402197    8.89        12.881      25.959999   27.872      26.344      26.226      24.185432   23300.0     3.079034    2.146082    162.283997  441.671997  57.147861   6.259       22.684481   111.919998  1.06        
147.9       1566.666382 3543.33252  1463.333862 15657.1425782.427376    8.89        12.903      25.879999   27.92       26.4        26.148001   23.825766   22811.4277343.139508    2.146911    162.110001  443.519989  56.623932   6.259       22.573364   112.0       1.06        
148.0       1563.333618 3533.333496 1460.000732 15762.8574222.453534    8.892       12.922      25.82       27.952      26.455999   26.097      23.601948   22854.2851563.169745    2.164015    161.798996  445.368011  56.754456   6.259       22.433094   112.0       1.06        
148.1       1546.665649 3543.334473 1449.999268 15596.0     2.47864     8.896       12.941      25.74       27.976      26.511999   26.066      23.329258   22629.3339843.135475    2.176436    161.578995  447.832001  57.676651   5.944       22.324419   112.0       1.06        
148.2       1533.334351 3546.666504 1463.331543 15344.6152342.498355    8.902       12.96       25.66       27.992001   26.552      26.051001   22.93969    22752.3085943.160902    2.173909    161.516006  449.679993  58.613819   5.472       22.192631   111.919998  1.06        
148.3       1513.333374 3543.333252 1456.666626 15560.0     2.503886    8.91        12.977      25.6        28.0        26.576      26.049      22.300646   23438.5722663.261074    2.156707    161.468002  450.911987  55.847015   6.022       22.115576   111.839996  1.06        
148.4       1523.334106 3516.665283 1446.664185 15425.7138672.499283    8.919       12.993      25.559999   28.0        26.591999   26.049      22.060083   23290.0     3.310225    2.132801    161.459     452.76001   50.118729   6.298       21.876574   111.760002  1.06        
148.5       1529.999023 3523.332275 1410.000488 14992.8574222.492738    8.929       13.008      25.540001   28.0        26.6        26.049      22.208014   22790.0     3.38838     2.161113    161.630005  453.992004  50.699078   5.978       21.646896   111.599998  1.06        
148.6       1536.665894 3533.334961 1406.666626 14502.8574222.486403    8.942       13.023      25.540001   28.0        26.6        26.049      22.364372   22200.0     3.416607    2.204652    161.944     454.608002  53.703182   5.914       21.441742   111.440002  1.06        
148.7       1523.334106 3550.000488 1413.33252  13594.2861332.483609    8.953       13.036      25.540001   28.0        26.6        26.059999   22.564075   21711.4277343.40234     2.214435    162.160995  455.839996  59.841152   6.067       21.098383   111.279999  1.06        
148.8       1510.0      3540.0      1436.666626 13021.3330082.480493    8.962       13.05       25.540001   28.0        26.591999   26.089001   22.937126   21361.3339843.253477    2.201801    162.195999  457.071991  63.386978   6.067       20.906942   111.040001  1.06        
148.9       1520.000977 3526.666016 1463.334839 13145.7138672.468896    8.969       13.066      25.559999   27.983999   26.576      26.142      22.95484    21321.4277343.170675    2.156323    162.078003  457.687988  64.120964   5.837       20.5124     110.559998  1.06        
149.0       1533.332031 3506.667969 1489.999023 13570.6669922.45232     8.98        13.085      25.620001   27.952      26.552      26.23       22.544764   21126.6660163.231302    2.137173    162.003006  458.303986  63.82634    5.798       20.354162   110.080002  1.06        
149.1       1550.0      3486.665771 1503.333862 13945.3330082.428267    8.984       13.106      25.68       27.896      26.52       26.360001   22.327599   20296.0     3.289775    2.159527    162.029007  459.536011  62.373478   5.722       19.956495   109.599998  1.06        
149.2       1550.0      3473.333496 1510.0      14116.9228522.402861    8.984       13.111      25.74       27.816      26.48       26.535      22.223465   19695.3847663.360236    2.166166    162.044006  460.152008  59.566212   6.096       19.721531   109.120003  1.06        
149.3       1543.333374 3470.0      1513.333374 13977.1425782.383266    8.984       13.111      25.799999   27.712      26.448      26.750999   22.211943   19775.7148443.303949    2.159364    161.936996  461.384003  58.479004   6.47        19.492418   108.559998  1.06        
149.4       1533.33252  3470.0      1516.66687  13901.4287112.375638    8.966       13.111      25.84       27.608      26.424      26.987      22.271969   20262.8574223.203703    2.180028    161.949005  462.615997  62.086903   6.074       19.430304   108.0       1.06        
149.5       1523.333618 3503.330811 1520.0      14018.4619142.377519    8.928       13.1        25.860001   27.504      26.408001   27.211      22.837      20912.3085943.157338    2.193022    162.031998  463.847992  63.241184   5.875       19.22929    107.440002  1.06        
149.6       1520.0      3536.669189 1520.0      14136.0     2.387717    8.869       13.071      25.879999   27.416      26.4        27.364      23.636883   21757.3339843.115788    2.133343    162.154007  464.463989  57.809601   6.086       19.068321   106.639999  1.06        
149.7       1523.33313  3570.0      1516.66687  14497.1425782.399781    8.789       13.021      25.9        27.336      26.4        27.422001   24.116034   21698.5722663.140903    2.074036    162.276993  465.696014  52.966343   6.106       19.068321   105.839996  1.06        
149.8       1530.0      3563.333252 1506.666626 15080.0     2.409535    8.704       12.949      25.9        27.264      26.4        27.422001   24.526772   21172.7265633.104614    2.045269    162.078003  466.312012  26.001593   6.202       18.606037   105.199997  1.06        
149.9       1499.997437 3553.33252  1489.999023 15861.8183592.412071    8.627       12.87       25.9        27.200001   26.392      27.422001   25.018898   21350.0     2.964911    2.036664    161.809006  466.928009  33.806488   6.253       17.918257   104.639999  1.06        
150.0       1463.336426 3543.333496 1476.667114 16137.5     2.411023    8.556       12.786      25.92       27.136      26.375999   27.379999   25.054508   21605.0     2.903893    2.0631      161.675003  467.544006  44.055492   6.355       17.64353    104.160004  1.06        
150.1       1423.33313  3536.666504 1470.0      16087.1425782.407254    8.488       12.693      25.940001   27.063999   26.351999   27.257      24.838392   21972.8574222.895055    2.092957    161.673004  468.776001  51.880009   6.063       16.992643   103.839996  1.06        
150.2       1420.0      3526.66748  1493.331543 15741.4287112.403978    8.434       12.59       25.959999   26.992001   26.280001   27.087999   24.82099    22190.0     2.858543    2.113946    161.774002  469.391998  53.088448   5.626       16.763617   103.519997  1.06        
150.3       1413.333374 3516.666748 1510.0      15530.0     2.402289    8.4         12.499      25.98       26.92       26.16       26.936001   24.670309   22264.2851562.781551    2.073972    161.787003  470.007996  49.888443   5.907       16.818878   103.040001  1.06        
150.4       1399.999023 3510.0      1523.33252  15710.0     2.404279    8.386       12.423      26.0        26.84       26.007999   26.825001   24.431477   22444.2851562.813956    2.017606    162.014999  470.623993  48.640724   6.048       17.005646   102.480003  1.06        
