~Version Information Section
VERS.                                         2.0:CWLS log ASCII Standart – VERSION 2.0
WRAP.                                          NO:One line per depth step
~Well Information Section
STRT.M                                        0.6:Начальная глубина
STOP.M                                      205.9:Конечная глубина
STEP.M                                          0:Шаг квантования по глубине
NULL.                                    -9999.25:Признак "Нет данных"
WELL.                                       106Мх:Скважина
~Parameter Information Section
~Curve Information Section
DEPTH.M                                          :Глубина
BK.Ohm*M                                         :BK     (БК)
DS.mm                                            :DS  (ДС)
GGK.g/cm3                                        :GGKp
ГК.mcr/h                                         :GK          (ГК)
GZ1.Ohm*M                                        :GZ1   ГЗ1(A0.4M0.1N)
GZ2.Ohm*M                                        :GZ2   ГЗ2(A1.0M0.1N)
GZ3.Ohm*M                                        :GZ3   ГЗ3(A2.0M0.5N)
U2.mV                                            :U2
U3.mV                                            :U3
КП.%                                             :Кп
GZ4.Ohm*M                                        :GZ4   ГЗ4(A4.0M0.5N)
GZ5.Ohm*M                                        :GZ5   ГЗ5(A8.0M0.5N)
GZR.Ohm*M                                        :GZK   ГЗK(N0.5M2.0A)
ИК.Ohm*M                                         :IK
НГК.u.e.                                         :NGK
NNKM.                                            :NNKm  (ННКм)
PS.mv                                            :PS       (ПС)
PZ.Ohm*M                                         :PZ    (КС)
RS.Ohm*M                                         :RS (Резистивиметр)
U1.mV                                            :U1
~ASCII LOG DATA
# ...
147.8       34.914      132.234     2.363       7.322       21.675      13.672      14.381      350.0       336.668     30.676      54.146      38.003      13.612      19.874      1.161       2.128       760.076     30.4        1.1         336.665     
147.9       30.62       132.482     2.355       7.318       21.331      14.436      14.019      350.0       363.332     32.924      48.016      34.904      13.579      19.824      1.129       2.078       755.627     30.4        1.1         316.667     
148.0       33.266      133.316     2.34        7.47        20.769      15.459      13.903      330.0       392.222     33.522      41.938      32.613      13.473      19.627      1.168       2.064       751.178     30.4        1.1         333.333     
148.1       32.659      132.003     2.321       7.736       20.119      16.246      13.77       310.0       412.223     32.391      35.947      31.083      13.331      19.337      1.118       2.102       745.702     30.4        1.1         356.668     
148.2       34.995      132.259     2.301       7.836       19.379      16.997      13.528      300.0       428.888     31.884      31.482      30.104      13.297      19.173      1.127       2.109       739.2       30.4        1.1         403.332     
148.3       30.832      131.042     2.288       8.014       18.88       17.482      13.331      280.0       436.667     31.767      30.0        29.442      13.262      19.08       1.135       2.092       732.356     30.4        1.1         426.668     
148.4       29.309      131.686     2.28        8.367       18.788      17.89       13.165      280.0       437.778     31.772      29.963      28.934      13.131      18.942      1.113       2.049       726.88      30.37       1.1         450.0       
148.5       30.2        132.183     2.28        8.628       18.788      18.115      12.943      320.0       443.334     32.183      29.798      28.504      13.042      18.897      1.075       1.992       722.431     30.267      1.1         463.333     
148.6       28.642      131.805     2.287       8.723       18.92       17.979      12.812      360.0       456.668     32.527      29.5        28.123      12.905      18.673      1.039       1.973       718.324     30.015      1.1         476.668     
148.7       28.054      131.517     2.295       8.527       19.12       17.556      12.798      350.0       476.665     33.018      29.129      27.785      12.872      18.629      1.091       1.972       713.533     29.615      1.1         460.002     
148.8       29.992      130.968     2.298       8.36        19.12       16.979      12.7        320.0       483.333     32.981      28.701      27.505      12.896      18.561      1.176       2.016       708.742     29.096      1.1         423.331     
148.9       31.261      131.272     2.305       8.314       18.663      16.646      12.944      310.0       471.112     32.704      28.238      27.316      13.014      18.649      1.176       2.06        704.978     28.578      1.1         383.334     
149.0       32.584      131.69      2.309       8.204       18.322      16.554      13.496      290.0       446.667     32.625      27.817      27.225      13.165      18.741      1.117       2.038       702.24      28.133      1.1         363.333     
149.1       34.914      130.894     2.308       8.267       18.058      16.851      14.34       280.0       422.221     34.267      27.542      27.394      13.338      18.942      1.023       2.019       700.529     27.822      1.1         339.998     
149.2       34.514      131.779     2.315       8.273       18.058      17.233      15.29       280.0       410.0       35.671      27.477      27.97       13.464      19.102      1.06        2.036       699.502     27.615      1.1         316.668     
149.3       34.674      132.005     2.326       8.304       18.306      17.407      16.382      280.0       411.111     35.886      27.618      29.184      13.523      19.22       1.099       2.056       699.16      27.481      1.1         303.333     
149.4       34.435      131.914     2.331       8.526       18.55       17.578      17.291      340.0       422.221     34.313      27.912      30.749      13.506      19.314      1.167       2.084       699.16      27.407      1.1         349.996     
149.5       30.409      131.34      2.341       8.379       18.902      17.8        18.047      270.0       437.777     32.748      28.235      32.383      13.458      19.433      1.156       2.119       699.16      27.407      1.1         400.0       
149.6       27.606      131.419     2.35        8.299       19.309      15.782      18.589      270.0       451.112     31.581      28.397      33.568      13.414      19.409      1.152       2.154       699.502     27.422      1.1         446.666     
149.7       32.734      130.704     2.351       7.869       20.386      15.909      18.89       340.0       462.222     30.483      28.304      34.304      13.308      19.505      1.191       2.184       700.187     27.526      1.1         440.0       
149.8       37.325      131.137     2.35        7.647       21.249      15.904      18.878      340.0       467.778     29.321      28.035      34.962      13.189      19.481      1.242       2.204       701.213     27.689      1.1         433.333     
149.9       38.282      131.499     2.351       7.566       21.959      15.665      18.554      380.0       464.445     28.468      27.721      36.185      13.117      19.603      1.25        2.222       702.24      27.837      1.1         456.665     
150.0       38.548      131.377     2.351       7.558       21.959      15.409      18.156      360.0       454.444     28.154      27.457      38.631      13.167      19.651      1.194       2.231       703.609     27.985      1.1         460.0       
150.1       39.628      131.428     2.351       7.599       21.749      15.412      17.628      360.0       445.555     28.468      27.315      41.83       13.288      19.849      1.11        2.18        705.32      28.178      1.1         456.664     
150.2       36.983      131.341     2.348       7.756       21.494      15.408      17.359      330.0       444.444     29.155      27.324      45.216      13.441      19.899      1.046       2.111       707.031     28.548      1.1         416.668     
150.3       34.594      131.655     2.34        7.884       21.235      15.563      17.218      320.0       450.0       29.548      27.448      47.662      13.585      19.849      1.001       2.071       708.058     29.096      1.1         396.666     
150.4       31.405      132.916     2.332       8.161       21.078      18.135      17.291      310.0       458.889     30.21       27.614      49.356      13.695      19.849      0.989       2.038       708.4       29.793      1.1         383.334     
150.5       30.2        132.896     2.321       8.348       20.932      18.458      17.281      310.0       471.112     30.634      27.746      50.579      13.829      19.7        1.023       2.034       709.084     30.504      1.1         380.0       
150.6       31.696      131.288     2.312       8.504       20.691      18.653      17.232      310.0       486.668     31.303      27.78       52.178      14.023      19.553      1.047       2.039       710.796     31.2        1.1         383.334     
150.7       32.885      131.536     2.313       8.659       20.283      18.615      17.208      310.0       495.556     31.418      27.705      53.495      14.197      19.409      1.082       2.043       713.876     31.926      1.1         383.333     
150.8       31.696      131.527     2.319       8.538       19.855      18.469      17.133      340.0       496.667     30.645      27.57       54.342      14.443      19.338      1.121       2.046       717.298     32.741      1.1         383.333     
150.9       31.842      131.906     2.326       8.391       19.453      18.382      17.203      320.0       486.667     29.561      27.455      53.495      14.716      19.244      1.171       2.081       720.72      33.674      1.1         380.0       
