~Version Information Section
VERS.                                         2.0:CWLS log ASCII Standart – VERSION 2.0
WRAP.                                          NO:One line per depth step
~Well Information Section
STRT.M                                        2.0:Начальная глубина
STOP.M                                      201.2:Конечная глубина
STEP.M                                          0:Шаг квантования по глубине
NULL.                                    -9999.25:Признак "Нет данных"
WELL.                                       126Мх:Скважина
~Parameter Information Section
~Curve Information Section
DEPTH.M                                          :Глубина
BK.ohmm                                          :BK
ПРОФ_СР.мм                                       :DS  (ДС)
W.g/cm3                                          :GGKp
ГК.мкР/час                                       :GK          (ГК)
ГЗ1.Омм                                          :GZ1   ГЗ1(A0.4M0.1N)
ГЗ2.Омм                                          :GZ2   ГЗ2(A1.0M0.1N)
ГЗ3.Омм                                          :GZ3   ГЗ3(A2.0M0.5N)
ГЗ4.Oмм                                          :GZ4   ГЗ4(A4.0M0.5N)
ГЗ5.Oмм                                          :GZ5   ГЗ5(A8.0M0.5N)
ГЗК.Омм                                          :GZK   ГЗK(N0.5M2.0A)
ИК.ohmm                                          :IK
НГК.усл.ед.                                      :NGK
ННКМ.усл.ед                                      :NNKm  (ННКм)
PS.мВ                                            :PS       (ПС)
PZ.Омм                                           :PZ    (КС)
RIS.Омм                                          :RS (Резистивиметр)
U1.мВ                                            :U1
U2.мВ                                            :U2
U3.mv                                            :U3
~ASCII LOG DATA
# ...
178.8       330.37      120.324     2.267       3.553       139.32      93.018      106.801     84.536      184.933     254.786     17.487      1.31        2.516       105.91      382.823     1.359       1113.73     943.843     850.153     
178.9       284.446     121.136     2.26        3.453       139.32      102.873     107.601     84.536      198.135     254.386     17.557      1.293       2.551       112.773     420.801     1.357       1113.867    991.807     939.47      
179.0       265.461     122.014     2.266       3.716       139.32      108.614     111.6       84.536      208.135     252.186     17.638      1.301       2.558       120.694     461.03      1.357       1041.824    946.999     924.353     
179.1       272.898     121.735     2.268       3.581       138.24      110.797     115.2       85.136      202.335     248.586     17.657      1.31        2.528       127.03      478.328     1.358       1030.15     901.912     860.691     
179.2       297.167     120.594     2.247       3.63        138.24      117.404     117.2       88.336      197.935     242.986     17.687      1.314       2.443       132.838     494.87      1.362       1146.269    916.015     798.589     
179.3       311.889     120.827     2.239       3.409       138.24      124.325     119.6       92.536      198.933     239.786     17.744      1.285       2.36        137.59      505.399     1.369       1199.622    906.36      744.928     
179.4       281.19      121.439     2.256       3.382       140.4       128.738     123.201     97.336      209.934     239.786     17.762      1.281       2.341       142.342     510.663     1.379       1041.998    808.265     704.766     
179.5       250.035     121.886     2.289       3.28        141.48      151.841     125.6       100.536     211.135     239.986     17.817      1.286       2.359       146.566     510.287     1.39        806.503     680.288     668.628     
179.6       233.346     121.306     2.32        3.222       138.24      180.606     129.2       101.136     205.735     240.986     17.781      1.304       2.504       151.846     509.159     1.4         705.158     613.183     622.27      
179.7       263.027     121.825     2.332       3.068       137.16      210.945     130.801     104.336     202.735     243.784     17.928      1.327       2.654       156.598     508.783     1.411       741.163     601.175     556.242     
179.8       316.228     122.245     2.506       2.964       136.08      221.463     131.2       107.936     200.334     252.186     17.902      1.347       2.823       160.822     509.159     1.423       726.848     558.341     477.656     
179.9       389.942     122.115     2.53        3.143       135.0       223.756     133.201     109.736     200.334     253.786     17.873      1.443       2.982       163.462     510.663     1.436       606.808     464.871     401.373     
180.0       501.187     122.748     2.533       3.313       135.0       234.14      135.2       111.136     200.334     253.586     17.863      1.516       3.028       165.574     514.423     1.45        488.469     375.993     335.964     
180.1       459.198     121.857     2.528       3.468       132.84      242.03      137.2       113.736     200.534     252.186     17.945      1.603       3.064       167.158     519.687     1.462       426.442     319.077     283.75      
180.2       276.058     122.429     2.508       3.327       132.84      256.248     139.2       115.336     201.934     249.586     17.93       1.653       3.085       168.742     524.951     1.472       433.759     349.115     338.162     
180.3       247.172     122.11      2.497       3.067       131.76      265.619     141.2       118.936     205.134     248.186     17.987      1.696       3.088       170.854     530.215     1.48        505.309     448.08      465.115     
180.4       250.611     121.738     2.499       2.968       131.76      268.9       144.001     120.736     208.934     245.586     17.928      1.695       3.074       172.966     535.479     1.483       636.631     594.331     625.248     
180.5       296.483     121.511     2.478       3.129       131.76      265.018     149.2       121.736     211.734     244.586     17.927      1.682       3.106       175.606     539.239     1.483       779.014     712.621     716.765     
180.6       408.319     121.955     2.484       3.587       132.84      265.241     150.801     122.736     213.134     244.186     17.989      1.67        3.151       178.246     543.375     1.48        915.898     749.05      691.48      
180.7       407.38      121.936     2.472       3.64        133.92      269.24      151.6       120.138     211.935     245.986     17.928      1.726       3.264       180.886     544.127     1.471       1051.245    699.756     555.982     
180.8       373.25      121.828     2.469       3.496       135.0       286.522     155.6       105.537     209.735     247.186     17.923      1.826       3.366       183.526     541.495     1.456       1112.103    633.793     436.668     
180.9       283.792     122.577     2.488       3.325       136.08      308.531     160.001     100.736     207.134     249.186     17.898      1.873       3.34        186.166     535.854     1.44        1071.465    637.947     459.602     
181.0       287.078     121.703     2.489       3.467       140.4       323.815     165.2       97.336      206.134     250.986     17.861      1.952       3.328       188.278     527.583     1.424       1035.191    743.638     613.224     
181.1       276.694     122.258     2.484       3.512       142.56      314.946     167.2       96.536      204.935     252.186     17.861      1.914       3.358       189.862     517.055     1.412       1112.852    883.905     755.783     
181.2       231.739     122.331     2.519       3.326       153.36      302.773     170.0       96.936      202.935     253.986     17.875      1.935       3.404       190.918     509.159     1.402       1219.533    956.139     791.852     
181.3       203.236     122.144     2.521       3.043       154.44      296.721     176.4       99.736      201.134     254.786     17.922      1.92        3.444       191.446     504.271     1.394       1214.65     930.691     751.13      
181.4       195.884     122.026     2.54        2.891       154.44      300.424     183.601     105.536     199.934     255.186     17.873      1.974       3.439       191.446     501.263     1.387       1061.589    805.471     648.978     
181.5       196.336     122.09      2.555       2.858       154.44      301.648     186.801     110.935     197.935     257.185     17.843      2.014       3.415       191.446     499.759     1.382       950.166     679.664     530.053     
181.6       197.697     122.118     2.552       2.839       154.44      301.445     186.801     117.136     195.935     258.986     17.871      2.017       3.407       191.446     498.255     1.379       935.789     583.029     408.349     
181.7       207.014     122.113     2.557       2.872       154.44      293.896     186.801     119.936     194.534     259.786     17.918      2.002       3.389       191.446     497.127     1.378       1001.346    592.189     397.356     
181.8       227.51      122.203     2.535       2.974       154.44      292.876     186.801     122.136     195.534     260.186     17.853      1.975       3.37        191.446     495.999     1.377       1066.029    701.783     525.558     
181.9       244.343     122.092     2.492       3.105       154.44      292.06      186.801     125.536     196.534     261.986     17.825      1.933       3.369       191.446     495.623     1.377       1090.627    816.086     671.159     
182.0       241.546     122.006     2.462       3.2         152.28      292.06      186.801     129.936     197.534     263.185     17.855      1.952       3.378       191.446     495.999     1.377       1088.41     840.338     695.907     
182.1       254.097     121.772     2.438       3.382       156.6       292.06      186.401     131.936     198.334     264.586     17.916      1.984       3.422       191.446     497.503     1.377       1093.324    835.978     685.004     
