~Version Information Section
VERS.                                         2.0:CWLS log ASCII Standart – VERSION 2.0
WRAP.                                          NO:One line per depth step
~Well Information Section
STRT.M                                        7.7:Начальная глубина
STOP.M                                      168.6:Конечная глубина
STEP.M                                          0:Шаг квантования по глубине
NULL.                                    -9999.25:Признак "Нет данных"
WELL.                                       137Мх:Скважина
~Parameter Information Section
~Curve Information Section
DEPTH.M                                          :Глубина
ГК.мкР/ч                                         :GK
U1.                                              :U1
U12.                                             :U12
U2.                                              :U2
W.усл.ед                                         :W
ЗОНД.                                            :Зонд N0
НГК.                                             :НГК
ННКМ.усл.ед                                      :ННКм
ПЛОТНОСТЬ.г/см3                                  :плотность
РЕЗИСТИВИМЕТР.Ом                                 :Резистивиметр
~ASCII LOG DATA
# ...
117.5       10.349      192.375     159.348     147.441     29.145      50.908      1.203       1.198       2.314       0.576       
117.6       10.82       258.418     175.313     126.095     29.515      68.222      1.171       1.182       2.303       0.582       
117.7       10.833      339.859     217.888     139.852     29.676      85.031      1.156       1.261       2.3         0.591       
117.8       10.366      484.149     340.121     241.719     30.124      93.456      1.171       1.254       2.299       0.598       
117.9       10.019      675.889     515.405     396.596     30.753      87.878      1.221       1.227       2.313       0.598       
118.0       9.414       888.202     722.483     589.837     30.682      66.395      1.282       1.279       2.331       0.59        
118.1       8.079       1037.241    845.878     691.557     30.403      40.758      1.317       1.358       2.341       0.58        
118.2       6.607       1123.006    885.591     701.758     30.247      24.554      1.333       1.473       2.346       0.572       
118.3       5.454       1172.05     861.766     637.787     29.884      17.771      1.341       1.646       2.334       0.57        
118.4       4.614       1220.768    836.828     576.518     29.451      15.051      1.329       1.719       2.323       0.57        
118.5       4.506       1153.16     767.542     512.33      28.891      14.275      1.29        1.768       2.32        0.575       
118.6       4.656       992.428     670.488     456.42      28.779      14.483      1.279       1.694       2.326       0.595       
118.7       5.019       738.572     545.668     408.787     28.833      16.303      1.306       1.644       2.356       0.623       
118.8       5.049       574.799     462.888     376.571     28.716      20.496      1.366       1.622       2.402       0.637       
118.9       5.372       478.233     406.677     345.874     28.411      25.724      1.397       1.618       2.447       0.64        
119.0       6.48        466.073     401.878     347.253     28.13       30.707      1.412       1.635       2.484       0.64        
119.1       7.275       471.114     421.92      379.189     27.399      34.134      1.442       1.654       2.498       0.64        
119.2       6.964       530.095     493.801     460.722     26.392      35.063      1.475       1.766       2.497       0.64        
119.3       6.145       594.605     556.861     521.767     25.325      34.87       1.461       1.827       2.498       0.64        
119.4       5.4         664.645     611.101     562.322     24.033      34.843      1.428       1.948       2.498       0.64        
119.5       5.089       655.442     552.167     471.597     23.18       35.501      1.436       1.917       2.51        0.64        
119.6       5.132       627.204     486.157     382.288     22.509      37.386      1.469       1.876       2.506       0.64        
119.7       5.434       579.931     413.069     294.397     21.991      40.938      1.528       1.888       2.494       0.64        
119.8       6.293       609.757     468.994     365.357     21.581      45.937      1.599       1.901       2.485       0.64        
119.9       7.724       687.688     583.654     501.997     21.35       50.39       1.664       1.986       2.482       0.64        
120.0       9.313       748.224     676.289     615.455     21.103      51.987      1.69        2.02        2.488       0.64        
120.1       10.198      743.259     688.165     640.048     21.001      48.547      1.696       2.035       2.486       0.64        
120.2       9.926       672.793     619.281     575.777     21.014      40.807      1.711       2.042       2.469       0.64        
120.3       8.812       602.328     550.398     511.506     20.78       32.251      1.744       2.022       2.45        0.64        
120.4       7.876       455.561     435.494     427.666     20.396      23.963      1.73        2.017       2.438       0.64        
120.5       7.154       309.745     318.939     338.801     20.014      16.295      1.617       2.165       2.455       0.64        
120.6       6.788       164.878     200.734     244.912     20.152      11.165      1.458       2.159       2.475       0.64        
120.7       6.973       122.914     157.063     201.318     20.589      9.114       1.362       2.134       2.485       0.64        
120.8       7.589       106.601     143.554     193.474     21.748      8.737       1.293       1.915       2.483       0.64        
120.9       8.474       149.242     163.096     189.234     23.395      9.013       1.24        1.588       2.47        0.637       
121.0       9.767       172.753     166.776     169.964     24.987      9.705       1.234       1.48        2.466       0.63        
121.1       10.052      177.132     154.594     135.663     26.55       10.444      1.223       1.371       2.451       0.623       
121.2       9.473       149.692     143.755     139.835     27.632      10.997      1.223       1.335       2.44        0.62        
121.3       9.467       142.867     153.007     165.368     28.15       11.436      1.22        1.326       2.418       0.62        
121.4       9.574       148.376     157.498     168.929     28.239      11.868      1.222       1.359       2.393       0.62        
121.5       9.893       164.668     162.067     162.329     28.317      12.344      1.238       1.367       2.383       0.62        
121.6       9.997       191.743     166.715     145.569     28.155      12.837      1.253       1.329       2.375       0.622       
121.7       10.059      209.244     181.033     157.784     28.251      13.246      1.279       1.322       2.372       0.631       
121.8       10.086      198.108     180.089     165.801     28.458      13.52       1.267       1.339       2.365       0.632       
121.9       10.129      153.313     159.73      170.697     28.814      13.694      1.233       1.34        2.369       0.625       
122.0       9.934       118.505     146.607     187.361     28.745      13.764      1.194       1.347       2.381       0.624       
122.1       9.396       93.683      140.72      215.794     28.226      13.769      1.178       1.333       2.397       0.624       
122.2       8.86        145.158     153.057     214.554     27.56       13.795      1.185       1.315       2.407       0.626       
122.3       8.679       257.92      172.231     172.949     26.823      13.897      1.207       1.309       2.413       0.629       
122.4       8.668       310.589     186.977     137.966     26.227      14.017      1.225       1.304       2.416       0.634       
122.5       8.727       278.076     177.417     125.043     26.268      14.099      1.227       1.327       2.411       0.647       
122.6       8.854       160.381     143.549     134.18      26.858      14.136      1.239       1.338       2.411       0.652       
122.7       9.33        116.286     114.182     117.797     27.517      14.082      1.23        1.356       2.404       0.643       
122.8       9.766       109.593     102.359     100.823     28.081      14.021      1.218       1.362       2.401       0.633       
122.9       9.81        110.563     116.57      140.41      28.362      14.003      1.191       1.379       2.394       0.629       
123.0       9.55        120.194     127.125     160.487     28.423      13.986      1.157       1.377       2.383       0.629       
123.1       8.808       138.486     134.024     161.055     28.191      13.952      1.135       1.36        2.374       0.629       
123.2       8.45        213.9       145.192     114.775     27.921      13.876      1.142       1.348       2.357       0.632       
123.3       8.634       308.033     172.777     98.308      27.689      13.761      1.163       1.329       2.341       0.64        
123.4       9.268       340.373     192.032     113.495     27.57       13.663      1.177       1.337       2.333       0.64        
123.5       9.726       292.201     186.537     130.523     27.579      13.63       1.176       1.342       2.335       0.634       
