~Version Information Section
VERS.                                         2.0:CWLS log ASCII Standart – VERSION 2.0
WRAP.                                          NO:One line per depth step
~Well Information Section
STRT.M                                      -0.07:Начальная глубина
STOP.M                                     189.23:Конечная глубина
STEP.M                                          0:Шаг квантования по глубине
NULL.                                    -9999.25:Признак "Нет данных"
WELL.                                       127Мх:Скважина
~Parameter Information Section
~Curve Information Section
DEPTH.M                                          :Глубина
BK.                                              :BK
ГК.гамма                                         :GK
ИК.                                              :IK
НГК.усл.ед                                       :NGK
PSЭ3.                                            :PSэ3
PZЭ3.                                            :PZэ3
U1.                                              :U1
U2.                                              :U2
U3.                                              :U3
W.усл.ед                                         :W
ГЗ1.                                             :ГЗ1
ГЗ2.                                             :ГЗ2
ГЗ3.                                             :ГЗ3
ГЗ4.                                             :ГЗ4
ГЗ5.                                             :ГЗ5
ГЗК.                                             :ГЗК
ННКМ.усл.ед                                      :ННКм
PL.g/cm3                                         :Плотность
ПРОФ_СР.                                         :ПРОФ_СР
IS.                                              :РЕЗ
~ASCII LOG DATA
# ...
79.93       1.11        8.105       28.04       1.115       -9999.25    -9999.25    -9999.25    -9999.25    -9999.25    43.813      0.042       19.927      10.006      20.492      16.573      9.997       1.204       1.783       100.921     1.086       
80.03       1.126       7.27        28.044      1.109       -9999.25    -9999.25    -9999.25    -9999.25    -9999.25    44.735      0.042       19.932      10.009      20.495      16.223      9.998       1.184       1.784       100.916     1.087       
80.13       1.143       5.807       28.071      1.073       -9999.25    -9999.25    -9999.25    -9999.25    -9999.25    43.66       0.041       19.94       10.011      20.496      14.674      9.998       1.17        1.784       100.939     1.088       
80.23       1.162       4.518       28.069      1.018       -9999.25    -9999.25    -9999.25    -9999.25    -9999.25    43.112      0.038       19.939      10.013      20.5        14.869      9.998       1.172       1.783       100.937     1.088       
80.33       1.179       3.843       28.073      0.935       -9999.25    -9999.25    -9999.25    -9999.25    -9999.25    43.336      0.037       19.931      10.015      20.511      16.262      10.0        1.175       1.78        100.897     1.088       
80.43       1.198       3.78        28.175      0.975       -9999.25    -9999.25    -9999.25    -9999.25    -9999.25    44.141      0.037       19.925      10.017      20.524      16.622      9.996       1.18        1.775       100.968     1.088       
80.53       1.2         3.891       28.176      1.018       -9999.25    -9999.25    -9999.25    -9999.25    -9999.25    44.816      0.037       19.931      10.008      20.521      15.854      9.993       1.188       1.768       100.958     1.088       
80.63       1.117       3.835       28.22       0.984       -9999.25    -9999.25    -9999.25    -9999.25    -9999.25    44.543      0.037       19.933      9.996       20.512      14.352      9.995       1.186       1.763       100.96      1.088       
80.73       0.925       3.669       28.318      0.957       -9999.25    -9999.25    -9999.25    -9999.25    -9999.25    44.07       0.037       19.925      9.989       20.508      13.497      9.996       1.166       1.764       100.907     1.088       
80.83       0.924       3.476       28.229      0.971       -9999.25    -9999.25    -9999.25    -9999.25    -9999.25    46.14       0.036       19.922      9.985       20.508      11.494      9.994       1.149       1.771       100.901     1.088       
80.93       1.025       3.267       28.287      0.928       -9999.25    -9999.25    -9999.25    -9999.25    -9999.25    49.064      0.036       19.925      9.981       20.501      9.859       9.992       1.138       1.785       100.817     1.088       
81.03       1.04        3.222       28.193      0.837       -9999.25    -9999.25    -9999.25    -9999.25    -9999.25    48.663      0.036       19.932      9.976       20.498      9.826       9.992       1.131       1.806       100.863     1.088       
81.13       1.037       3.39        28.193      0.925       -9999.25    -9999.25    -9999.25    -9999.25    -9999.25    48.494      0.036       19.933      9.977       20.5        10.395      9.996       1.135       1.831       100.864     1.087       
81.23       1.04        3.582       28.223      0.995       -9999.25    -9999.25    -9999.25    -9999.25    -9999.25    47.117      0.036       19.933      9.983       20.501      12.784      9.992       1.14        1.864       100.831     1.087       
81.33       1.073       3.552       28.142      1.002       -9999.25    -9999.25    -9999.25    -9999.25    -9999.25    44.709      0.037       19.934      9.986       20.499      15.201      9.986       1.141       1.899       100.836     1.087       
81.43       1.068       3.444       27.941      0.908       -9999.25    -9999.25    -9999.25    -9999.25    -9999.25    43.303      0.038       19.935      9.986       20.493      17.525      9.981       1.139       1.937       100.854     1.086       
81.53       1.056       3.484       28.098      0.881       -9999.25    -9999.25    -9999.25    -9999.25    -9999.25    42.303      0.038       19.939      9.99        20.488      18.555      9.974       1.131       1.978       100.875     1.086       
81.63       1.07        3.839       28.172      0.853       -9999.25    -9999.25    -9999.25    -9999.25    -9999.25    42.056      0.039       19.938      9.992       20.482      17.066      9.977       1.115       2.017       100.888     1.086       
81.73       1.136       4.024       28.081      0.886       -9999.25    -9999.25    -9999.25    -9999.25    -9999.25    43.897      0.038       19.93       9.998       20.487      16.92       9.977       1.105       2.05        100.835     1.086       
81.83       1.17        4.011       28.128      0.909       -9999.25    -9999.25    -9999.25    -9999.25    -9999.25    46.017      0.039       19.92       10.004      20.482      16.654      9.984       1.099       2.076       100.881     1.085       
81.93       1.134       3.964       28.263      0.939       -9999.25    -9999.25    -9999.25    -9999.25    -9999.25    46.45       0.038       19.911      10.007      20.479      16.011      9.986       1.091       2.091       100.862     1.086       
82.03       1.108       4.064       28.342      0.875       -9999.25    -9999.25    -9999.25    -9999.25    -9999.25    45.928      0.038       19.904      10.008      20.48       13.931      9.991       1.073       2.097       100.812     1.086       
82.13       1.123       4.385       28.277      0.807       -9999.25    -9999.25    -9999.25    -9999.25    -9999.25    42.712      0.038       19.897      10.009      20.483      12.211      10.004      1.068       2.097       100.812     1.087       
82.23       1.158       4.616       28.214      0.878       -9999.25    -9999.25    -9999.25    -9999.25    -9999.25    40.562      0.037       19.897      10.01       20.483      12.61       10.008      1.094       2.084       100.858     1.087       
82.33       1.15        4.522       28.31       0.855       -9999.25    -9999.25    -9999.25    -9999.25    -9999.25    41.57       0.037       19.904      10.006      20.478      14.05       10.008      1.134       2.062       100.858     1.087       
82.43       1.112       4.136       28.323      0.854       -9999.25    -9999.25    -9999.25    -9999.25    -9999.25    42.924      0.037       19.912      9.999       20.486      13.883      10.001      1.196       2.039       100.864     1.087       
82.53       1.105       3.676       28.297      0.82        -9999.25    -9999.25    -9999.25    -9999.25    -9999.25    43.709      0.037       19.921      9.994       20.489      12.685      10.002      1.26        2.015       100.883     1.087       
82.63       1.125       3.454       28.193      0.779       -9999.25    -9999.25    -9999.25    -9999.25    -9999.25    41.172      0.037       19.928      9.994       20.488      12.899      10.004      1.28        1.991       100.853     1.087       
82.73       1.136       3.543       28.243      0.779       -9999.25    -9999.25    -9999.25    -9999.25    -9999.25    38.951      0.037       19.932      9.994       20.487      14.682      9.996       1.275       1.973       100.843     1.086       
82.83       1.141       3.88        28.189      0.86        -9999.25    -9999.25    -9999.25    -9999.25    -9999.25    40.422      0.037       19.933      9.991       20.479      16.422      9.991       1.248       1.963       100.858     1.086       
82.93       1.123       4.391       28.244      0.904       -9999.25    -9999.25    -9999.25    -9999.25    -9999.25    41.134      0.038       19.931      9.99        20.463      16.703      9.994       1.167       1.96        100.894     1.086       
83.03       1.107       4.812       28.234      0.945       -9999.25    -9999.25    -9999.25    -9999.25    -9999.25    42.392      0.039       19.925      9.992       20.456      17.01       10.0        1.099       1.967       100.85      1.085       
