~Version Information Section
VERS.                                         2.0:CWLS log ASCII Standart – VERSION 2.0
WRAP.                                          NO:One line per depth step
~Well Information Section
STRT.M                                        0.0:Начальная глубина
STOP.M                                      166.2:Конечная глубина
STEP.M                                          0:Шаг квантования по глубине
NULL.                                    -9999.25:Признак "Нет данных"
WELL.                                         1Мх:Скважина
~Parameter Information Section
~Curve Information Section
DEPTH.M                                          :Глубина
BK.lgОмм                                         :BK
ПРОФ_СР.мм                                       :ПРОФ_СР
GGKP.имп/мин                                     :GGKp
ГК.мкР/час                                       :GK
ИК.мСм/м                                         :IK
PS.мВ                                            :PS
PZ.Омм                                           :PZ
RIS.Омм                                          :RIS
U1.мВ                                            :U1
U2.мВ                                            :U2
U3.mv                                            :U3
WS.%                                             :WS
ГЗ1.Омм                                          :ГЗ1
ГЗ2.Омм                                          :ГЗ2
ГЗ3.Омм                                          :ГЗ3
ГЗ4.Oмм                                          :ГЗ4
ГЗК.Омм                                          :ГЗК
НГК.усл.ед                                       :ННКб
ННКМ.усл.ед                                      :ННКм
ГЗ5.Oмм                                          :ГЗ5
ПЛ1.имп/мин                                      :ПЛ1
ПЛ2.имп/мин                                      :ПЛ2
ПЛ3.имп/мин                                      :ПЛ3
ПЛ4.имп/мин                                      :ПЛ4
~ASCII LOG DATA
# ...
140.4       65.16       148.537     2.351       3.486       34.699      140.277     70.279      1.055       976.587     832.194     764.117     21.235      16.512      21.47       20.077      28.325      19.319      5.393       2.811       20.071      12840.0     22220.0     13820.0     2460.0      
140.5       70.072      148.07      2.356       3.538       34.57       138.951     70.513      1.065       1141.265    941.998     831.372     21.689      16.145      20.043      19.877      26.925      19.319      5.528       2.767       19.571      14760.0     22360.0     13740.0     2440.0      
140.6       83.851      148.317     2.356       3.574       34.478      137.89      71.559      1.065       1290.382    986.923     818.746     21.905      17.852      20.219      19.777      26.725      19.319      5.691       2.82        19.171      15120.0     22300.0     13500.0     2640.0      
140.7       96.274      148.929     2.357       3.559       34.532      137.052     73.042      1.065       1408.005    957.076     728.049     22.364      19.362      20.206      19.577      19.825      19.319      5.786       2.894       18.871      14280.0     22420.0     13640.0     2820.0      
140.8       100.031     149.625     2.35        3.61        34.868      136.468     75.235      1.065       1495.45     918.166     639.609     23.115      19.386      19.508      19.477      19.825      19.319      5.684       2.949       18.671      16200.0     22520.0     14120.0     2800.0      
140.9       96.43       149.828     2.347       3.601       34.699      136.148     77.513      1.065       1537.347    895.674     594.378     23.776      19.981      19.342      19.277      19.825      19.319      5.347       2.933       18.671      14760.0     22720.0     14360.0     2960.0      
141.0       91.905      149.354     2.315       3.481       35.095      136.114     79.255      1.065       1527.771    891.577     598.61      24.909      19.71       19.127      19.277      19.825      19.319      5.0         2.849       18.471      16080.0     22700.0     14920.0     2880.0      
141.1       93.271      149.774     2.278       3.434       35.133      136.102     80.55       1.065       1497.599    920.718     649.956     26.456      19.971      19.463      19.077      19.825      19.319      4.641       2.754       18.371      16560.0     22520.0     14980.0     2960.0      
141.2       96.089      150.237     2.238       3.354       35.095      136.106     81.345      1.065       1459.458    987.137     744.705     26.883      20.271      19.801      18.877      19.925      19.519      4.483       2.694       18.271      15960.0     22880.0     14660.0     2920.0      
141.3       100.695     150.556     2.223       3.391       35.057      136.153     81.944      1.075       1428.676    1047.522    827.197     27.136      20.605      20.502      18.877      20.025      19.619      4.346       2.675       17.671      17040.0     23440.0     14440.0     2840.0      
141.4       103.773     150.014     2.23        3.538       35.057      136.175     82.228      1.075       1413.334    1082.534    872.472     26.817      21.185      21.204      18.877      20.125      19.819      4.275       2.655       17.871      15480.0     23380.0     14420.0     2720.0      
141.5       104.477     150.296     2.219       3.65        35.133      136.124     82.226      1.086       1422.944    1104.421    895.394     26.539      21.184      21.594      18.877      20.625      19.919      4.201       2.604       18.071      15960.0     23060.0     14720.0     2740.0      
141.6       104.639     150.338     2.206       3.833       35.001      135.908     81.991      1.086       1469.571    1154.862    946.509     26.664      21.083      21.905      19.177      21.125      20.119      4.211       2.545       18.571      17280.0     23420.0     14820.0     2620.0      
141.7       104.963     150.331     2.193       4.053       35.037      135.51      81.886      1.086       1505.861    1212.316    1019.325    26.543      21.393      22.554      19.477      21.225      20.219      4.31        2.511       19.971      18960.0     23760.0     14760.0     2720.0      
141.8       104.104     150.176     2.202       4.056       35.095      135.067     81.689      1.086       1481.212    1234.502    1079.749    26.166      20.958      22.82       19.777      21.425      20.519      4.433       2.515       21.171      15960.0     24360.0     14640.0     2680.0      
141.9       100.702     150.157     2.236       3.963       34.905      134.587     81.144      1.086       1380.154    1188.239    1079.196    26.129      20.348      22.582      20.977      21.725      21.119      4.486       2.544       21.271      18720.0     24540.0     14160.0     2640.0      
142.0       97.968      150.873     2.244       3.915       34.905      134.124     80.423      1.086       1193.561    1045.945    974.769     26.56       20.193      22.586      21.177      21.825      21.219      4.459       2.562       20.871      18000.0     24800.0     14260.0     2560.0      
142.1       98.278      150.98      2.237       3.755       34.83       133.762     79.833      1.086       961.271     850.944     813.763     27.208      20.208      22.405      21.377      21.925      21.119      4.398       2.568       20.571      18720.0     24400.0     13760.0     2680.0      
142.2       99.323      150.48      2.246       3.677       34.259      133.52      79.058      1.086       768.014     685.285     674.435     27.933      20.208      21.978      21.577      22.025      21.119      4.308       2.564       20.271      17160.0     24100.0     13540.0     2540.0      
142.3       100.546     150.5       2.241       3.78        34.096      133.515     78.405      1.096       658.35      587.527     588.808     28.243      20.546      21.905      21.577      22.125      21.019      4.214       2.556       20.071      17280.0     24320.0     13960.0     2560.0      
142.4       101.733     151.128     2.251       3.847       34.022      133.8       77.422      1.096       621.144     556.958     564.975     28.488      21.572      21.836      21.577      22.225      20.919      4.096       2.537       19.571      15960.0     24160.0     13880.0     2620.0      
142.5       103.526     151.013     2.246       3.827       34.096      134.337     76.327      1.096       640.367     586.927     604.342     28.356      22.215      21.885      21.677      22.225      20.819      4.003       2.508       19.471      15360.0     23760.0     13740.0     2500.0      
142.6       104.154     150.928     2.225       3.742       33.478      135.087     75.348      1.096       676.342     635.246     663.324     28.236      22.849      21.998      21.777      22.225      20.719      3.956       2.485       19.371      17160.0     23960.0     13920.0     2460.0      
142.7       102.503     151.243     2.222       3.596       33.722      136.051     74.428      1.096       696.113     665.641     703.605     28.658      23.454      22.365      21.777      22.225      20.619      3.992       2.48        18.971      16800.0     23240.0     13820.0     2300.0      
142.8       97.604      151.396     2.216       3.486       33.118      137.144     73.554      1.096       700.603     674.431     716.574     28.703      22.83       22.026      21.577      22.225      20.419      4.074       2.49        18.971      16080.0     22960.0     13380.0     2260.0      
142.9       90.969      150.986     2.212       3.519       33.358      138.279     73.024      1.096       713.807     686.422     727.059     28.211      21.954      21.466      20.877      22.225      20.319      4.191       2.496       18.971      13800.0     23460.0     13220.0     2360.0      
143.0       86.734      151.868     2.217       3.56        32.766      139.513     72.614      1.096       755.406     715.019     745.609     28.027      21.664      21.978      20.577      22.325      20.119      4.195       2.497       19.071      12120.0     22840.0     13180.0     2320.0      
