~Version Information Section
VERS.                                         2.0:CWLS log ASCII Standart – VERSION 2.0
WRAP.                                          NO:One line per depth step
~Well Information Section
STRT.M                                        1.6:Начальная глубина
STOP.M                                      209.3:Конечная глубина
STEP.M                                          0:Шаг квантования по глубине
NULL.                                    -9999.25:Признак "Нет данных"
WELL.                                       132Мх:Скважина
~Parameter Information Section
~Curve Information Section
DEPTH.M                                          :Глубина
BК.                                              :BК (Омм)
DS.mm                                            :DS
GGK.g/cm3                                        :GGKp
IК.                                              :IК (Омм)
NGК.                                             :NGК (усл.ед.)
PS.mV                                            :PS
PZ.                                              :PZ (Омм)
REZ.                                             :REZ (Омм)
U1.                                              :U1 (ue)
U2.                                              :U2 (ue)
U3.                                              :U3 (ue)
ГК.mcr/h                                         :ГКканаломНГК
~ASCII LOG DATA
# ...
57.7        16.833      127.857     2.339       12.287      1.156       166.232     17.594      2.416       2069.938    2130.937    2181.998    8.967       
57.8        12.317      128.332     2.364       12.267      1.162       168.076     17.376      2.418       2067.595    2133.427    2189.403    9.055       
57.9        12.272      128.635     2.386       12.266      1.18        170.002     17.437      2.418       2069.623    2134.791    2190.202    9.188       
58.0        12.9        129.107     2.37        12.305      1.174       171.993     17.626      2.417       2074.302    2133.734    2183.509    9.288       
58.1        12.339      128.076     2.331       12.324      1.138       174.005     17.709      2.418       2073.132    2132.248    2181.778    9.266       
58.2        12.593      127.541     2.299       12.503      1.102       175.994     17.673      2.417       2066.68     2130.132    2184.019    9.131       
58.3        12.871      127.825     2.312       12.687      1.088       177.983     17.622      2.418       2063.264    2124.84     2176.8      8.96        
58.4        12.89       129.555     2.342       13.027      1.097       180.009     17.632      2.419       2063.672    2122.045    2170.712    8.896       
58.5        12.769      129.301     2.398       13.317      1.116       182.066     17.716      2.42        2060.005    2121.787    2173.756    8.931       
58.6        12.667      127.861     2.421       13.644      1.123       184.108     17.889      2.421       2052.941    2121.793    2180.739    8.922       
58.7        12.722      128.871     2.385       14.167      1.126       186.132     18.106      2.42        2051.303    2121.076    2180.89     8.652       
58.8        12.547      127.614     2.367       14.539      1.134       188.15      18.461      2.422       2055.608    2121.104    2176.623    8.136       
58.9        13.484      124.232     2.377       14.901      1.169       190.141     19.069      2.421       2059.615    2122.985    2176.398    7.424       
59.0        14.579      124.105     2.444       15.681      1.229       192.098     19.81       2.422       2057.904    2123.181    2178.54     6.844       
59.1        12.941      124.098     2.477       16.374      1.373       194.028     20.82       2.428       2050.566    2121.449    2182.538    6.296       
59.2        16.572      124.611     2.428       17.246      1.524       195.926     21.997      2.429       2045.806    2119.913    2184.379    5.861       
59.3        41.325      125.761     2.363       19.063      1.636       197.803     23.515      2.434       2049.895    2121.073    2182.676    5.287       
59.4        41.051      127.023     2.298       20.362      1.647       199.676     27.046      2.434       2054.278    2124.08     2184.34     5.032       
59.5        37.284      125.011     2.244       22.611      1.591       201.497     32.639      2.433       2053.999    2126.431    2189.348    5.223       
59.6        40.098      122.77      2.212       24.003      1.53        203.206     39.005      2.434       2050.561    2126.62     2193.247    5.602       
59.7        38.745      125.755     2.229       25.328      1.463       204.781     43.725      2.434       2052.145    2127.552    2193.542    5.699       
59.8        33.151      125.484     2.278       27.092      1.439       206.207     46.525      2.435       2059.308    2130.258    2191.668    5.612       
59.9        33.609      125.705     2.275       28.161      1.48        207.459     48.722      2.434       2061.679    2131.681    2192.078    5.691       
60.0        39.36       125.665     2.242       29.887      1.572       208.507     51.044      2.436       2063.75     2132.423    2191.49     5.805       
60.1        60.378      125.64      2.21        31.075      1.72        209.361     54.707      2.435       2071.744    2133.279    2185.255    5.756       
60.2        60.915      126.054     2.215       33.199      1.838       210.017     59.732      2.434       2085.78     2133.958    2172.626    5.755       
60.3        58.694      126.12      2.228       34.383      1.934       210.475     65.946      2.436       2100.678    2133.98     2157.886    5.968       
60.4        63.781      126.455     2.255       35.981      1.943       210.707     70.982      2.438       2111.602    2132.68     2144.661    6.221       
60.5        64.679      126.3       2.287       37.693      1.872       210.738     73.808      2.437       2110.112    2130.445    2141.833    6.309       
60.6        61.305      126.147     2.305       38.447      1.792       210.585     75.692      2.437       2102.095    2126.923    2142.809    6.102       
60.7        59.538      126.099     2.317       39.386      1.756       210.266     78.099      2.435       2094.256    2122.206    2141.165    5.82        
60.8        49.636      126.097     2.298       39.792      1.765       209.821     81.115      2.434       2087.145    2120.479    2144.694    5.741       
60.9        40.537      125.971     2.288       40.197      1.738       209.284     84.032      2.436       2080.384    2123.027    2156.324    5.939       
61.0        51.859      125.841     2.279       40.631      1.738       208.645     86.668      2.435       2070.552    2125.748    2171.283    6.025       
61.1        69.306      126.113     2.322       41.328      1.844       207.947     89.22       2.431       2067.111    2127.411    2177.92     5.804       
61.2        69.26       126.622     2.364       42.442      1.999       207.214     90.637      2.43        2064.094    2130.22     2186.694    5.462       
61.3        79.219      127.527     2.363       43.426      2.109       206.455     93.573      2.429       2063.123    2134.818    2197.023    5.331       
61.4        85.108      126.857     2.325       44.641      2.117       205.692     96.704      2.428       2067.844    2137.287    2197.352    5.415       
61.5        80.21       126.486     2.289       45.7        2.104       204.93      99.744      2.43        2070.03     2135.651    2191.966    5.557       
61.6        80.596      126.581     2.272       46.685      2.064       204.207     100.901     2.43        2069.464    2133.505    2188.253    5.714       
61.7        89.904      127.24      2.227       47.015      2.009       203.51      101.84      2.427       2067.048    2131.722    2187.148    5.784       
61.8        100.059     126.517     2.179       47.549      1.982       202.85      102.991     2.428       2064.695    2128.882    2183.803    5.977       
61.9        94.228      125.75      2.153       47.857      1.992       202.24      101.848     2.429       2063.227    2126.761    2180.971    6.211       
62.0        92.252      125.976     2.163       48.212      2.004       201.658     100.776     2.43        2061.547    2126.148    2181.369    6.295       
62.1        87.955      126.065     2.195       48.701      1.979       201.127     99.996      2.428       2055.972    2125.489    2185.591    6.174       
62.2        74.915      126.171     2.211       48.698      1.95        200.692     100.297     2.429       2053.257    2125.573    2188.487    6.379       
62.3        75.785      126.123     2.22        48.686      1.947       200.29      99.733      2.431       2055.973    2127.678    2189.948    6.841       
62.4        85.883      125.713     2.251       48.756      1.947       199.91      100.733     2.429       2063.589    2130.442    2187.741    6.871       
62.5        80.548      126.403     2.276       48.989      1.928       199.586     102.328     2.429       2066.973    2131.483    2186.329    6.438       
62.6        67.145      126.671     2.27        49.058      1.924       199.303     104.077     2.429       2062.238    2130.829    2189.703    5.893       
62.7        67.445      125.141     2.2         49.384      1.95        199.056     104.753     2.427       2060.868    2130.058    2189.518    5.809       
