~Version Information Section
VERS.                                         2.0:CWLS log ASCII Standart – VERSION 2.0
WRAP.                                          NO:One line per depth step
~Well Information Section
STRT.M                                        0.6:Начальная глубина
STOP.M                                      209.2:Конечная глубина
STEP.M                                          0:Шаг квантования по глубине
NULL.                                    -9999.25:Признак "Нет данных"
WELL.                                       107Мх:Скважина
~Parameter Information Section
~Curve Information Section
DEPTH.M                                          :Глубина
PS.mv                                            :PS       (ПС)
PZ.Ohm*M                                         :PZ    (КС)
RS.Ohm*M                                         :RS (Резистивиметр)
U1.mV                                            :U1
U2.mV                                            :U2
U3.mV                                            :U3
КП.%                                             :Кп
BK.Ohm*M                                         :BK     (БК)
DS.mm                                            :DS  (ДС)
GGK.g/cm3                                        :GGKp
ГК.mcr/h                                         :GK          (ГК)
GZ1.Ohm*M                                        :GZ1   ГЗ1(A0.4M0.1N)
GZ2.Ohm*M                                        :GZ2   ГЗ2(A1.0M0.1N)
GZ3.Ohm*M                                        :GZ3   ГЗ3(A2.0M0.5N)
GZ4.Ohm*M                                        :GZ4   ГЗ4(A4.0M0.5N)
GZ5.Ohm*M                                        :GZ5   ГЗ5(A8.0M0.5N)
GZR.Ohm*M                                        :GZK   ГЗK(N0.5M2.0A)
ИК.Ohm*M                                         :IK
НГК.u.e.                                         :NGK
NNKM.                                            :NNKm  (ННКм)
~ASCII LOG DATA
# ...
138.2       1059.313    129.399     1.0         1202.903    559.4       370.564     28.772      29.174      151.573     2.36        6.289       98.67       58.314      70.062      20.423      20.07       87.8        11.672      1.072       16.074      
138.3       1058.961    126.767     1.0         1209.493    603.274     424.753     27.588      31.477      152.038     2.353       6.127       98.67       57.274      70.062      20.423      20.07       86.76       11.749      1.097       15.99       
138.4       1058.584    125.639     1.0         1213.813    692.446     546.666     25.46       33.266      151.243     2.37        6.122       98.67       56.754      70.062      20.423      19.93       85.72       11.87       1.133       15.885      
138.5       1058.232    124.887     1.0         1200.9      798.019     704.593     24.323      34.041      151.593     2.367       6.197       98.67       56.234      69.622      20.423      19.93       85.72       11.87       1.138       15.858      
138.6       1057.905    124.511     1.0         1183.15     886.258     834.794     23.96       34.041      151.825     2.386       6.141       98.67       56.234      69.182      20.423      19.93       84.68       11.914      1.144       15.848      
138.7       1057.654    124.887     1.0         1184.483    946.676     915.848     24.794      33.266      151.756     2.453       6.436       99.09       56.234      68.742      20.423      19.93       84.68       11.955      1.179       16.042      
138.8       1057.453    125.639     1.0         1186.662    972.825     951.357     26.129      42.855      151.284     2.508       6.215       99.09       56.234      68.742      20.423      19.93       84.68       12.059      1.212       16.44       
138.9       1057.302    126.767     1.0         1171.234    953.76      924.581     27.226      52.845      151.795     2.478       6.204       99.09       56.234      67.862      20.303      19.93       83.64       12.059      1.242       16.893      
139.0       1057.201    128.271     1.0         1126.459    891.803     846.306     29.346      52.845      151.082     2.38        5.669       99.09       55.194      67.862      20.183      20.07       83.64       12.162      1.262       17.912      
139.1       1057.151    130.151     1.0         1032.18     805.069     765.145     30.835      51.642      151.3       2.333       5.271       99.51       55.194      67.862      20.183      20.21       82.6        12.287      1.252       18.438      
139.2       1057.151    131.655     1.0         909.933     717.754     707.83      29.192      32.81       151.456     2.272       5.106       99.51       55.194      67.862      20.063      20.49       82.6        12.473      1.241       17.244      
139.3       1057.227    132.783     1.0         823.555     675.938     706.988     25.825      26.546      151.462     2.305       5.371       99.51       54.674      67.862      20.063      20.35       82.6        12.744      1.179       16.289      
139.4       1057.352    133.535     1.0         776.045     673.227     747.221     22.394      26.546      151.374     2.273       5.88        99.51       52.594      67.862      20.063      20.21       82.6        12.744      1.121       15.796      
139.5       1057.528    133.911     1.0         749.366     677.979     782.188     21.971      27.29       151.399     2.322       6.01        98.67       48.954      67.862      20.063      19.65       81.56       12.964      1.08        15.304      
139.6       1057.78     133.911     1.0         775.783     710.706     822.189     21.849      27.733      151.417     2.366       6.179       98.25       48.434      67.862      20.063      19.51       80.52       13.187      1.133       15.24       
139.7       1058.107    133.911     1.0         889.067     791.537     876.897     21.038      30.409      151.649     2.457       6.428       96.99       47.394      67.862      20.063      18.95       78.44       13.444      1.241       15.16       
139.8       1058.534    133.911     1.0         1018.797    859.635     892.007     20.307      41.495      151.142     2.477       6.501       96.15       45.834      67.422      20.063      18.67       77.4        13.444      1.311       16.527      
139.9       1059.062    133.911     1.0         1091.515    873.022     852.106     20.277      87.096      151.577     2.379       5.863       96.15       45.314      66.982      20.063      18.11       75.32       13.683      1.373       18.256      
140.0       1059.665    133.911     1.0         1130.041    869.107     809.996     20.697      123.88      151.122     2.306       4.907       96.15       44.274      64.782      20.063      17.41       74.28       13.896      1.427       18.771      
140.1       1060.344    133.911     1.0         1144.171    859.654     779.404     20.643      123.88      150.56      2.282       4.413       96.15       44.274      63.022      20.183      17.27       72.2        14.045      1.473       18.995      
140.2       1061.099    133.911     1.0         1097.036    816.647     738.288     20.289      149.969     150.576     2.341       4.372       96.15       43.754      61.702      20.183      16.99       69.08       14.045      1.454       19.07       
140.3       1061.903    133.911     1.0         1058.074    785.707     713.864     20.103      145.881     150.674     2.348       4.522       96.15       43.754      60.822      20.063      16.85       68.04       14.177      1.464       19.1        
140.4       1062.758    133.911     1.0         1162.569    857.977     763.341     20.107      122.18      151.021     2.395       4.629       96.15       43.754      60.382      18.863      16.85       67.0        14.315      1.503       19.28       
140.5       1063.638    133.911     1.0         1345.894    994.863     867.916     19.687      111.173     151.308     2.408       4.583       96.15       43.234      60.382      17.903      16.71       67.0        14.396      1.562       19.699      
140.6       1064.518    134.287     1.0         1453.732    1098.028    971.981     19.045      99.77       151.164     2.424       4.349       96.15       43.234      59.942      17.783      16.71       65.96       14.426      1.593       20.015      
140.7       1065.373    135.039     1.0         1496.211    1160.525    1055.646    17.797      99.77       151.385     2.418       4.148       96.15       42.194      59.502      17.663      16.71       64.92       14.426      1.603       20.175      
140.8       1066.177    136.167     1.0         1510.506    1183.079    1091.607    16.546      141.906     151.091     2.439       4.198       96.15       42.194      59.502      17.543      16.57       63.88       14.417      1.571       20.304      
140.9       1066.932    137.295     1.0         1447.149    1128.641    1051.362    15.999      185.78      151.231     2.465       4.414       96.15       42.194      59.502      17.423      16.43       63.88       14.417      1.541       20.472      
141.0       1067.636    131.279     1.0         1331.03     1025.769    965.074     16.812      216.77      151.141     2.476       4.616       96.15       42.194      59.062      17.303      16.43       63.88       14.336      1.509       20.606      
141.1       1068.264    122.632     1.0         1241.161    943.14      892.118     18.115      212.814     150.671     2.482       4.667       96.57       42.194      59.062      17.183      16.43       63.88       14.298      1.533       21.095      
141.2       1068.818    112.855     1.0         1220.779    911.466     853.55      18.946      209.894     151.16      2.501       4.611       96.57       42.194      59.062      16.943      16.43       62.84       14.168      1.58        21.585      
141.3       1069.27     102.326     1.0         1287.648    946.162     862.908     19.378      97.724      151.586     2.496       4.41        96.57       42.194      59.062      16.943      16.43       61.8        14.061      1.667       21.71       
