~Version Information Section
VERS.                                         2.0:CWLS log ASCII Standart – VERSION 2.0
WRAP.                                          NO:One line per depth step
~Well Information Section
STRT.M                                        0.7:Начальная глубина
STOP.M                                      200.1:Конечная глубина
STEP.M                                          0:Шаг квантования по глубине
NULL.                                    -9999.25:Признак "Нет данных"
WELL.                                       111Мх:Скважина
~Parameter Information Section
~Curve Information Section
DEPTH.M                                          :Глубина
DСР.mm                                           :Dср
ГК.1/min                                         :GK
ИК.mSim/m                                        :IK
N0.5M2.0A.Омм                                    :N0
НГК.усл.ед                                       :NGK
PZ.Ohm*M                                         :PZ
R.Ohm*M                                          :R
PS.mV                                            :ПС
U1.mV                                            :U1
U2.                                              :U2
U3.mV                                            :U3
А0.4М0.1N.Омм                                    :А0
А1.0М0.1N.Омм                                    :А1
А2.0М0.5N.Омм                                    :А2
А4.0М0.5N.Oмм                                    :А4
А8.0М1.0N.Омм                                    :А8
BK.Ohm*M                                         :БК
ГГК.1/min                                        :ГГК
КП.%                                             :Кп
ННКМ.усл.ед                                      :ННКм
~ASCII LOG DATA
# ...
151.1       132.7       6.662       22.411      30.95       1.376       53.9        1.06        357.28      1000.465    1392.721    1272.093    42.79       33.021      32.952      24.225      16.146      37.938      2.327       33.941      1.934       
151.2       133.546     6.444       22.369      30.918      1.444       53.9        1.06        357.28      973.996     1399.176    1309.964    42.317      32.966      32.765      23.868      16.168      40.778      2.315       33.957      1.925       
151.3       133.226     6.298       22.32       30.918      1.477       54.0        1.06        357.28      978.376     1350.856    1354.886    41.592      32.81       32.624      23.558      16.174      41.384      2.291       33.718      1.93        
151.4       133.321     6.029       22.225      30.95       1.376       54.1        1.06        357.28      975.763     1303.098    1398.462    40.863      32.893      32.396      23.223      16.132      38.78       2.26        33.271      1.951       
151.5       133.258     5.894       22.21       31.035      1.389       54.3        1.06        357.28      979.195     1243.33     1417.415    40.192      33.455      32.139      22.886      15.996      36.077      2.241       32.659      1.97        
151.6       133.245     6.451       22.226      31.198      1.459       54.6        1.06        357.28      984.401     1178.053    1398.508    39.812      33.89       32.037      22.775      15.826      34.369      2.234       32.081      1.973       
151.7       132.844     6.486       22.091      31.469      1.305       55.0        1.06        357.28      1000.0      1102.001    1348.53     39.98       34.182      32.037      22.837      15.643      33.782      2.24        32.024      1.966       
151.8       131.837     6.662       21.919      31.687      1.301       55.2        1.06        357.28      982.0       1088.0      1292.554    40.215      34.57       32.057      22.875      15.372      34.735      2.258       31.942      1.949       
151.9       132.0       6.445       21.874      31.746      1.408       55.4        1.06        357.28      976.001     1076.0      1236.689    40.215      34.723      32.085      22.875      15.009      36.141      2.272       31.869      1.965       
152.0       132.122     6.01        21.906      31.79       1.432       55.5        1.06        357.28      970.0       1078.0      1214.648    40.215      34.557      32.17       22.87       14.615      37.076      2.285       31.897      1.994       
152.1       132.175     5.792       21.944      31.962      1.381       55.6        1.06        357.28      964.0       1078.0      1211.868    40.292      34.156      32.383      22.995      14.24       39.069      2.286       31.74       2.02        
152.2       132.079     5.683       22.006      32.213      1.341       55.6        1.06        357.403     960.0       1076.0      1226.305    40.731      34.156      32.768      23.346      13.94       41.891      2.291       31.796      2.041       
152.3       131.773     5.318       22.078      32.444      1.443       55.6        1.06        357.773     960.0       1068.0      1246.736    41.728      34.63       33.267      23.821      13.765      41.519      2.293       32.01       2.084       
152.4       132.17      5.44        22.102      32.628      1.28        55.6        1.06        358.389     958.0       1050.001    1276.799    42.724      35.021      33.716      24.218      13.684      37.698      2.288       31.696      2.121       
152.5       132.098     6.048       22.045      32.525      1.136       55.6        1.06        359.251     956.0       1033.0      1293.6      43.257      35.351      34.112      24.414      13.627      34.579      2.279       31.241      2.081       
152.6       131.99      6.067       21.92       32.197      1.284       55.6        1.06        360.483     954.0       1017.999    1316.002    43.427      35.675      34.329      24.469      13.573      33.957      2.263       30.799      2.052       
152.7       132.466     6.106       21.731      31.896      1.244       55.2        1.06        361.838     952.0       1010.0      1341.199    43.427      35.645      34.35       24.465      13.537      36.159      2.253       30.467      2.059       
152.8       132.57      6.221       21.522      31.465      1.333       54.5        1.06        363.07      950.0       1008.0      1374.801    43.183      35.094      34.35       24.302      13.535      38.049      2.256       30.391      2.088       
152.9       132.574     6.336       21.339      30.735      1.253       53.7        1.06        364.302     950.0       1017.0      1399.998    42.576      34.278      34.215      23.874      13.56       37.137      2.28        30.183      2.129       
153.0       132.354     4.954       21.194      29.51       1.248       52.7        1.06        365.534     950.0       1026.0      1419.6      41.825      33.621      33.757      23.268      13.584      35.411      2.307       29.977      2.113       
153.1       132.876     5.136       21.066      27.619      1.428       51.6        1.06        366.52      956.0       1041.001    1430.8      41.028      33.21       32.894      22.465      13.599      33.39       2.32        30.307      2.062       
153.2       132.908     6.048       20.89       25.472      1.356       50.5        1.06        367.506     964.0       1055.999    1436.4      40.11       32.633      31.762      21.53       13.658      32.38       2.315       31.475      2.012       
153.3       131.882     6.365       20.702      23.617      1.376       49.6        1.06        368.614     974.0       1074.001    1430.8      39.115      31.991      30.752      20.757      13.86       33.066      2.305       32.52       1.967       
153.4       132.203     6.682       20.532      22.078      1.653       48.6        1.06        369.723     985.999     1088.999    1422.401    38.404      31.67       30.059      20.273      14.319      33.215      2.298       33.503      1.932       
153.5       132.246     6.451       20.332      20.89       1.555       47.6        1.06        370.955     996.0       1098.0      1414.0      37.896      31.534      29.64       20.006      15.096      32.661      2.302       33.977      1.91        
153.6       132.206     6.336       20.123      20.18       1.393       46.5        1.06        372.434     996.0       1088.999    1408.4      37.244      31.434      29.496      19.917      16.119      32.96       2.307       34.466      1.916       
153.7       132.16      6.202       19.956      19.792      1.632       45.6        1.06        373.912     992.0       1071.001    1408.4      36.577      31.347      29.496      19.917      17.262      33.584      2.306       34.929      1.941       
153.8       132.099     6.339       19.797      19.538      1.44        44.7        1.06        375.514     986.0       1049.999    1411.2      36.202      31.363      29.496      19.917      18.42       33.381      2.296       34.992      1.972       
153.9       131.608     6.682       19.623      19.365      1.388       43.9        1.06        377.115     978.0       1029.001    1414.0      36.124      31.486      29.528      19.934      19.375      32.926      2.285       34.175      1.978       
154.0       131.763     6.442       19.483      19.22       1.294       43.2        1.06        378.594     972.0       1011.0      1416.8      36.124      31.533      29.702      20.125      19.872      32.662      2.282       33.27       1.97        
154.1       131.927     6.202       19.362      19.07       1.296       42.6        1.06        380.072     970.0       1005.0      1416.8      35.952      31.54       29.945      20.375      19.984      32.411      2.278       32.359      1.946       
154.2       132.01      6.573       19.231      18.93       1.315       42.0        1.06        381.674     972.0       1028.999    1390.996    35.483      31.492      30.044      20.451      19.939      33.911      2.27        32.141      1.929       
