~Version Information Section
VERS.                                         2.0:CWLS log ASCII Standart – VERSION 2.0
WRAP.                                          NO:One line per depth step
~Well Information Section
STRT.M                                        1.2:Начальная глубина
STOP.M                                      169.7:Конечная глубина
STEP.M                                          0:Шаг квантования по глубине
NULL.                                    -9999.25:Признак "Нет данных"
WELL.                                       115Мх:Скважина
~Parameter Information Section
~Curve Information Section
DEPTH.M                                          :Глубина
BK.Ohm*M                                         :BK     (БК)
DS.mm                                            :DS  (ДС)
GGK.g/cm3                                        :GGKp
ГК.mcr/h                                         :GK          (ГК)
GZ1.Ohm*M                                        :GZ1   ГЗ1(A0.4M0.1N)
GZ2.Ohm*M                                        :GZ2   ГЗ2(A1.0M0.1N)
GZ3.Ohm*M                                        :GZ3   ГЗ3(A2.0M0.5N)
GZ4.Ohm*M                                        :GZ4   ГЗ4(A4.0M0.5N)
GZ5.Ohm*M                                        :GZ5   ГЗ5(A8.0M0.5N)
GZR.Ohm*M                                        :GZK   ГЗK(N0.5M2.0A)
ИК.Ohm*M                                         :IK
НГК.ue                                           :NGK     (НГК)
NNKM.                                            :NNKm  (ННКм)
PS.mv                                            :PS       (ПС)
PZ.Ohm*M                                         :PZ    (КС)
RS.Ohm*M                                         :RS (Резистивиметр)
U1.mV                                            :U1
U2.mV                                            :U2
U3.mV                                            :U3
КП.%                                             :Кп
~ASCII LOG DATA
# ...
116.4       24.66       134.853     2.284       6.314       2.318       6.89        6.077       7.225       5.371       6.019       19.892      1.118       2.153       1096.187    31.472      0.99        787.176     709.312     650.036     31.009      
116.5       24.322      134.365     2.3         6.56        2.318       6.842       5.877       7.225       5.371       6.019       19.871      1.105       2.148       1096.87     31.526      0.99        514.067     521.501     557.277     30.005      
116.6       24.266      134.575     2.309       6.598       2.236       6.818       5.777       7.325       5.371       6.019       19.978      1.083       2.141       1096.71     31.547      0.99        271.996     330.181     428.224     29.711      
116.7       24.378      134.9       2.307       6.094       2.333       6.866       5.777       7.325       5.371       6.019       19.914      1.079       2.165       1096.495    31.521      0.99        152.43      225.74      334.674     30.198      
116.8       23.988      134.499     2.279       5.862       2.449       6.914       5.777       7.325       5.371       6.019       19.85       1.034       2.152       1096.32     31.458      0.99        204.587     236.788     296.196     31.382      
116.9       23.388      134.617     2.243       5.775       2.536       6.939       5.777       7.325       5.371       6.019       19.764      1.038       2.055       1096.063    31.355      0.99        305.948     276.433     277.271     32.748      
117.0       22.646      136.104     2.231       6.217       2.527       6.938       5.777       7.325       5.371       6.019       19.743      1.085       1.993       1096.268    31.205      0.99        456.513     344.675     277.902     32.409      
117.1       22.029      136.425     2.236       6.351       2.415       6.89        5.777       7.325       5.371       6.019       19.597      1.176       2.0         1096.397    31.035      0.99        535.805     382.895     278.802     31.148      
117.2       21.086      135.264     2.259       6.374       2.376       6.866       5.777       7.325       5.271       6.019       19.597      1.205       2.032       1096.006    30.86       0.99        543.826     391.096     279.97      29.623      
117.3       21.577      134.535     2.294       5.874       2.445       6.842       5.777       7.325       5.271       6.019       19.638      1.204       2.101       1095.545    30.683      0.99        497.343     402.484     334.181     29.349      
117.4       24.099      133.415     2.321       5.594       2.56        6.914       5.777       7.325       5.271       6.019       19.659      1.172       2.179       1094.62     30.502      0.99        467.626     447.08      441.167     29.701      
117.5       24.717      133.46      2.351       5.591       2.657       6.963       5.777       7.225       5.271       6.019       19.638      1.208       2.239       1094.437    30.327      0.99        536.242     532.598     542.606     29.857      
117.6       23.496      134.251     2.373       5.757       2.643       6.987       5.877       7.225       5.271       6.019       19.638      1.265       2.244       1094.366    30.157      0.99        686.419     625.827     585.723     29.013      
117.7       23.174      134.473     2.397       5.673       2.536       6.963       5.877       7.225       5.271       6.019       19.575      1.256       2.212       1094.935    29.987      0.99        698.203     596.56      538.544     28.162      
117.8       22.856      133.853     2.416       5.571       2.464       6.938       5.977       7.225       5.271       6.019       19.492      1.168       2.188       1095.413    29.824      0.99        490.018     437.083     459.395     28.315      
117.9       23.281      133.97      2.437       5.599       2.454       6.963       5.977       7.125       5.271       6.019       19.473      1.101       2.174       1095.784    29.656      0.99        260.179     295.155     419.11      29.444      
118.0       24.099      134.239     2.421       5.756       2.488       7.059       5.977       7.125       5.371       6.019       19.451      1.079       2.116       1096.364    29.488      0.994       228.659     300.991     449.662     31.152      
118.1       24.774      134.859     2.398       5.889       2.357       7.011       5.977       7.025       5.371       6.019       19.473      1.077       2.044       1096.561    29.314      0.994       395.452     454.586     551.05      31.903      
118.2       24.491      134.705     2.357       6.221       2.256       6.939       5.877       7.025       5.571       6.019       19.35       1.033       1.999       1097.274    29.113      0.994       497.682     519.387     557.488     32.736      
118.3       23.442      135.45      2.329       6.666       2.212       6.866       5.877       7.025       5.571       6.019       19.229      1.037       1.978       1098.062    28.882      0.994       535.332     495.38      468.971     33.042      
118.4       21.827      134.633     2.313       6.809       2.198       6.842       5.877       7.025       5.571       6.019       19.149      1.0         2.014       1098.774    28.617      0.994       579.54      517.446     474.152     33.425      
118.5       21.528      134.821     2.315       6.703       2.246       6.818       5.877       7.025       5.571       6.119       19.031      1.032       2.038       1099.643    28.318      0.994       694.876     674.386     667.988     33.552      
118.6       21.135      135.361     2.317       6.39        2.304       6.769       5.877       7.025       5.571       6.019       19.01       1.007       2.003       1100.066    27.985      0.994       705.796     745.523     789.815     33.673      
118.7       20.606      134.217     2.311       6.381       2.42        6.818       5.877       7.025       5.571       6.019       18.992      1.052       1.967       1100.456    27.628      0.994       541.156     595.969     650.969     33.872      
118.8       20.417      135.578     2.297       6.573       2.358       6.793       5.877       7.025       5.571       6.019       18.953      1.053       1.942       1100.51     27.26       0.994       334.1       365.431     396.861     34.335      
118.9       20.989      136.194     2.275       6.672       2.41        6.818       5.877       7.025       5.571       6.019       18.973      1.037       1.934       1100.254    26.888      0.994       260.148     274.56      288.123     34.649      
119.0       21.478      134.759     2.254       6.681       2.56        6.89        5.877       7.025       5.371       5.919       18.914      1.022       1.953       1100.537    26.528      0.994       337.22      345.083     350.578     34.669      
119.1       20.989      135.409     2.244       6.65        2.637       7.011       5.877       7.025       5.371       5.819       18.992      1.008       1.969       1100.616    26.188      0.994       432.202     437.32      438.843     33.971      
119.2       21.38       136.357     2.24        6.669       2.362       6.939       5.877       7.025       5.271       5.819       19.012      1.026       1.976       1100.697    25.875      0.994       545.105     551.285     552.928     33.134      
119.3       21.979      134.889     2.236       6.717       2.251       6.914       5.877       7.025       5.271       5.819       19.13       1.042       1.982       1100.396    25.605      0.999       608.349     624.014     635.468     32.548      
119.4       21.677      135.71      2.243       6.625       2.251       6.914       5.877       7.025       5.271       5.819       19.014      1.045       1.987       1100.232    25.38       0.999       621.945     655.518     686.474     32.503      
119.5       21.478      134.471     2.257       6.577       2.304       6.963       5.877       7.025       5.171       5.719       19.149      1.053       2.009       1100.173    25.207      0.999       613.247     637.734     663.246     32.083      
