~Version Information Section
VERS.                                         2.0:CWLS log ASCII Standart – VERSION 2.0
WRAP.                                          NO:One line per depth step
~Well Information Section
STRT.M                                        1.2:Начальная глубина
STOP.M                                      169.7:Конечная глубина
STEP.M                                          0:Шаг квантования по глубине
NULL.                                    -9999.25:Признак "Нет данных"
WELL.                                       115Мх:Скважина
~Parameter Information Section
~Curve Information Section
DEPTH.M                                          :Глубина
BK.Ohm*M                                         :BK     (БК)
DS.mm                                            :DS  (ДС)
GGK.g/cm3                                        :GGKp
ГК.mcr/h                                         :GK          (ГК)
GZ1.Ohm*M                                        :GZ1   ГЗ1(A0.4M0.1N)
GZ2.Ohm*M                                        :GZ2   ГЗ2(A1.0M0.1N)
GZ3.Ohm*M                                        :GZ3   ГЗ3(A2.0M0.5N)
GZ4.Ohm*M                                        :GZ4   ГЗ4(A4.0M0.5N)
GZ5.Ohm*M                                        :GZ5   ГЗ5(A8.0M0.5N)
GZR.Ohm*M                                        :GZK   ГЗK(N0.5M2.0A)
ИК.Ohm*M                                         :IK
НГК.ue                                           :NGK     (НГК)
NNKM.                                            :NNKm  (ННКм)
PS.mv                                            :PS       (ПС)
PZ.Ohm*M                                         :PZ    (КС)
RS.Ohm*M                                         :RS (Резистивиметр)
U1.mV                                            :U1
U2.mV                                            :U2
U3.mV                                            :U3
КП.%                                             :Кп
~ASCII LOG DATA
# ...
148.4       122.744     124.063     2.127       3.681       33.827      45.101      23.777      32.925      19.271      43.619      46.328      1.263       2.395       1075.126    241.941     1.039       971.931     808.274     704.768     31.204      
148.5       120.504     124.449     2.126       3.756       35.138      49.492      24.777      53.325      19.471      44.919      46.094      1.229       2.439       1077.046    238.562     1.034       736.39      680.274     668.626     31.551      
148.6       118.85      124.501     2.135       3.798       35.098      51.885      25.077      54.925      19.771      46.919      45.935      1.2         2.463       1078.966    234.665     1.034       635.058     613.181     622.27      31.039      
148.7       114.551     124.097     2.156       3.623       34.667      52.441      25.477      55.025      20.271      49.319      45.612      1.178       2.449       1080.406    230.251     1.03        671.063     601.175     556.242     29.912      
148.8       109.648     123.872     2.165       3.557       33.792      51.488      29.977      55.425      20.471      51.719      45.771      1.202       2.455       1081.126    225.43      1.03        656.741     558.346     477.652     28.931      
148.9       108.393     124.106     2.183       3.439       32.352      50.037      30.477      60.425      22.971      56.419      45.771      1.217       2.479       1081.846    220.197     1.025       536.724     464.876     401.381     28.746      
149.0       109.396     124.154     2.191       3.427       32.275      50.58       31.477      60.525      25.671      58.819      45.401      1.231       2.452       1082.566    214.578     1.025       418.365     375.987     335.961     29.28       
149.1       109.396     124.182     2.192       3.713       33.671      53.989      62.977      62.225      34.471      59.019      44.994      1.241       2.391       1083.526    208.464     1.025       356.342     319.082     283.75      29.544      
149.2       109.144     124.159     2.184       3.742       35.489      57.555      63.077      62.525      39.971      59.919      44.932      1.227       2.382       1084.726    201.835     1.025       363.659     349.121     338.162     29.42       
149.3       110.154     124.026     2.179       3.802       36.598      60.578      62.977      62.825      49.271      61.919      44.869      1.233       2.4         1086.166    194.654     1.025       435.216     448.071     465.126     29.164      
149.4       111.429     123.694     2.166       3.465       36.487      61.57       62.777      64.125      52.971      63.119      44.541      1.234       2.443       1087.366    186.959     1.025       566.516     594.324     625.237     29.793      
149.5       112.72      123.812     2.155       3.418       36.008      62.04       62.677      66.525      53.271      53.619      44.218      1.256       2.482       1088.806    178.953     1.025       708.921     712.631     716.767     30.641      
149.6       110.408     124.175     2.162       3.404       35.326      62.427      61.877      67.025      56.971      53.419      43.771      1.267       2.485       1090.486    170.633     1.025       845.798     749.05      691.48      30.924      
149.7       107.895     123.855     2.175       3.453       34.727      62.319      61.677      66.325      58.871      52.719      43.51       1.297       2.487       1092.406    162.178     1.025       981.144     699.743     555.982     30.197      
149.8       107.647     123.751     2.181       3.571       34.875      62.924      61.177      64.425      63.371      51.119      43.169      1.322       2.512       1094.326    153.73      1.025       1042.005    633.796     436.663     29.295      
149.9       104.713     124.142     2.194       3.613       34.745      63.225      60.677      62.125      63.071      48.319      42.812      1.347       2.543       1096.246    145.396     1.025       1001.378    637.943     459.584     29.069      
150.0       102.565     124.302     2.217       3.762       35.99       64.821      60.477      60.925      62.971      47.019      42.484      1.311       2.569       1098.166    137.284     1.025       965.091     743.652     613.233     29.335      
150.1       103.514     124.206     2.226       3.881       37.501      66.32       60.077      53.525      61.671      45.619      42.239      1.272       2.592       1099.846    129.532     1.025       1042.752    883.89      755.783     29.9        
150.2       105.925     124.552     2.239       3.829       37.769      66.078      58.977      48.825      60.071      45.319      41.787      1.259       2.6         1101.526    122.378     1.025       1149.433    956.143     791.852     30.243      
150.3       105.925     124.919     2.252       3.789       38.431      66.102      41.977      45.325      59.571      43.619      41.315      1.29        2.634       1102.966    115.924     1.025       1144.543    930.696     751.125     29.893      
150.4       97.051      124.455     2.258       3.875       38.503      65.294      40.677      42.225      59.271      43.019      41.019      1.37        2.704       1104.166    110.262     1.025       991.508     805.479     648.99      29.214      
150.5       83.176      124.518     2.253       3.926       37.434      62.876      39.777      40.225      58.871      41.419      40.305      1.411       2.721       1105.366    105.38      1.025       880.063     679.652     530.047     28.229      
150.6       70.307      124.208     2.258       3.928       37.039      60.165      39.677      39.525      49.771      41.219      39.596      1.41        2.678       1106.566    101.148     1.025       865.689     583.036     408.349     27.577      
150.7       58.479      124.133     2.252       3.89        36.66       57.265      38.477      39.425      47.571      40.219      39.342      1.392       2.684       1107.526    97.548      1.025       931.246     592.194     397.356     27.818      
150.8       56.754      124.127     2.242       3.829       31.994      51.125      37.377      39.125      44.371      38.419      39.121      1.34        2.731       1108.246    94.526      1.025       995.931     701.773     525.571     28.304      
150.9       69.183      124.513     2.235       3.747       27.481      42.19       36.177      38.125      34.771      38.219      39.04       1.329       2.736       1109.206    92.014      1.025       1020.526    816.081     671.148     28.774      
151.0       84.723      124.634     2.225       3.535       25.797      38.91       35.977      37.325      34.771      36.419      39.359      1.332       2.718       1110.166    89.961      1.025       1018.309    840.33      695.901     28.721      
151.1       91.201      124.502     2.203       3.435       23.92       35.621      35.677      36.525      35.071      35.819      39.765      1.346       2.766       1111.126    88.347      1.025       1023.224    835.976     685.004     28.773      
151.2       95.94       124.499     2.198       3.475       25.361      36.138      35.777      36.325      36.271      36.419      39.882      1.377       2.785       1112.326    87.114      1.025       1059.496    906.496     780.292     28.663      
151.3       101.158     124.307     2.19        3.61        27.633      36.733      36.177      36.425      36.871      36.519      40.002      1.388       2.737       1113.526    86.173      1.025       1085.311    987.168     897.849     28.415      
151.4       89.125      124.038     2.189       3.864       28.684      36.992      35.477      36.725      36.871      35.919      40.162      1.416       2.696       1114.966    85.506      1.025       1063.92     986.568     910.031     28.267      
151.5       55.208      123.957     2.205       4.002       30.142      37.248      29.477      37.425      36.371      35.319      40.008      1.398       2.651       1116.166    85.096      1.03        990.108     890.846     797.4       28.356      
