~Version Information Section
VERS.                                         2.0:CWLS log ASCII Standart – VERSION 2.0
WRAP.                                          NO:One line per depth step
~Well Information Section
STRT.M                                        1.0:Начальная глубина
STOP.M                                      199.5:Конечная глубина
STEP.M                                          0:Шаг квантования по глубине
NULL.                                    -9999.25:Признак "Нет данных"
WELL.                                       122Мх:Скважина
~Parameter Information Section
~Curve Information Section
DEPTH.M                                          :Глубина
БК.Омм                                           :BK     (БК)
DСР.мм                                           :DS  (ДС)
ГК.гамма                                         :GK          (ГК)
А0.4М0.1N.Омм.ohmm                               :GZ1   ГЗ1(A0.4M0.1N)
А1.0М0.1N.Омм.ohmm                               :GZ2   ГЗ2(A1.0M0.1N)
А2.0М0.5N.Омм.ohmm                               :GZ3   ГЗ3(A2.0M0.5N)
А4.0М0.5N.Oмм.ohmm                               :GZ4   ГЗ4(A4.0M0.5N)
А8.0М1.0N.Омм.ohmm                               :GZ5   ГЗ5(A8.0M0.5N)
N0.5M2.0A.Омм.ohmm                               :GZK   ГЗK(N0.5M2.0A)
ИК.мСм/м                                         :IK
НГК.усл.ед                                       :NGK     (НГК)
ПС.mv                                            :PS       (ПС)
КС.Омм                                           :PZ    (КС)
R.Омм                                            :RS (Резистивиметр)
ПЛОТНОСТЬ.г/см3                                  :ГГКп
П.                                               :п
ННКМ.усл.ед                                      :ННКм
~ASCII LOG DATA
# ...
41.7        14.737      157.859     4.893       22.416      24.136      21.458      17.335      17.326      27.714      19.917      1.06        32.5        25.577      1.212       2.389       38.057      136.019     
41.8        14.083      157.609     4.626       25.384      29.759      22.842      19.342      17.18       27.949      20.627      1.056       33.125      24.39       1.213       2.387       38.214      132.657     
41.9        17.108      158.087     4.833       29.091      34.05       23.286      21.178      17.558      26.769      21.327      1.056       33.0        24.082      1.214       2.383       38.135      132.35      
42.0        18.982      158.649     5.236       30.35       33.369      22.057      21.639      18.143      25.388      21.864      1.046       32.125      24.429      1.214       2.378       37.824      134.957     
42.1        18.318      158.949     5.644       27.943      28.972      20.095      21.27       18.329      24.928      22.324      1.023       31.125      24.813      1.212       2.374       37.581      137.87      
42.2        17.34       157.156     6.055       24.723      23.85       18.152      20.013      18.084      24.946      23.135      1.008       31.625      25.03       1.212       2.382       36.974      139.151     
42.3        18.673      157.002     6.521       22.61       20.779      16.465      17.879      17.607      25.415      23.837      1.013       32.375      24.997      1.212       2.408       36.765      140.542     
42.4        20.134      155.479     6.864       21.128      19.904      15.479      16.62       17.056      26.151      24.23       1.034       32.375      25.129      1.212       2.442       37.154      140.006     
42.5        22.092      152.632     7.145       19.311      18.681      15.126      16.153      16.995      27.011      24.674      1.055       32.125      25.818      1.212       2.47        37.167      137.301     
42.6        27.828      153.959     7.185       17.42       16.414      15.165      16.188      17.804      28.757      25.007      1.071       30.875      27.111      1.212       2.482       37.289      135.634     
42.7        31.357      152.003     7.066       16.715      15.694      15.556      16.529      18.301      30.736      25.064      1.087       30.75       28.865      1.212       2.47        37.473      133.907     
42.8        32.428      150.902     6.767       18.997      17.493      16.918      17.294      19.114      34.209      25.205      1.102       34.375      30.356      1.212       2.434       37.421      132.353     
42.9        42.534      150.56      6.257       21.516      19.435      19.05       18.266      21.418      38.562      25.058      1.126       35.625      32.622      1.212       2.377       37.452      131.918     
43.0        57.605      150.419     5.522       22.579      21.44       21.007      18.808      23.098      40.799      24.757      1.167       34.25       36.539      1.212       2.318       37.772      132.086     
43.1        55.312      150.414     4.908       21.645      20.635      24.408      20.151      24.751      43.709      24.306      1.236       30.875      40.488      1.214       2.273       38.181      132.695     
43.2        48.659      150.7       4.528       20.524      21.518      28.419      24.431      27.384      47.357      23.734      1.332       26.125      44.377      1.215       2.246       38.719      130.919     
43.3        43.509      150.496     4.513       28.835      28.128      31.207      29.175      29.109      47.911      23.125      1.387       23.75       47.282      1.216       2.237       39.098      129.764     
43.4        40.187      150.166     4.513       45.922      36.82       34.699      31.949      30.06       46.993      22.758      1.364       21.875      47.571      1.223       2.241       39.172      129.653     
43.5        37.649      149.685     4.541       60.103      42.959      37.397      34.253      30.872      45.879      22.333      1.292       19.375      46.869      1.228       2.261       38.784      131.968     
43.6        29.74       150.968     4.604       64.011      43.862      37.125      35.732      31.12       43.712      22.052      1.261       17.75       47.107      1.228       2.285       38.06       134.471     
43.7        21.116      152.167     4.69        63.207      43.282      35.62       35.631      31.055      40.385      22.139      1.28        14.188      46.193      1.226       2.311       36.922      138.327     
43.8        17.705      154.23      4.749       66.881      43.816      33.811      35.143      30.457      37.048      22.315      1.274       10.625      42.729      1.223       2.336       35.508      142.159     
43.9        16.615      154.634     4.748       73.17       47.173      32.005      34.4        28.919      34.504      22.56       1.21        9.063       38.524      1.22        2.355       34.571      145.633     
44.0        17.153      153.699     4.672       76.721      53.685      30.418      32.065      26.298      31.779      22.98       1.133       8.875       35.048      1.218       2.368       33.914      147.691     
44.1        20.043      153.136     4.507       69.212      50.67       28.926      27.795      24.349      29.167      23.579      1.077       15.875      32.952      1.215       2.37        33.684      147.567     
44.2        18.835      153.76      4.393       51.983      40.355      26.445      23.474      23.118      27.666      24.184      1.049       21.5        32.017      1.212       2.372       33.961      145.932     
44.3        17.398      151.088     4.457       36.279      34.228      22.28       19.861      22.31       26.797      24.76       1.017       23.562      31.694      1.212       2.368       34.207      144.088     
44.4        19.027      148.352     4.702       28.474      31.661      19.321      16.921      22.036      26.376      25.479      0.994       25.625      31.122      1.212       2.368       34.468      141.702     
44.5        25.479      149.58      4.865       27.125      31.787      18.477      15.568      21.943      26.936      26.201      0.991       26.438      30.668      1.212       2.37        35.831      140.064     
44.6        28.673      153.902     4.805       25.844      31.422      18.755      15.56       21.862      29.067      26.819      1.01        25.25       30.655      1.212       2.379       36.917      137.874     
44.7        27.5        148.876     4.777       23.629      29.773      20.006      16.673      22.573      33.06       27.453      1.035       23.125      30.852      1.212       2.384       37.656      136.416     
44.8        25.59       143.038     5.085       22.523      29.38       21.358      18.328      23.538      36.261      27.85       1.051       23.375      31.166      1.212       2.382       37.779      136.257     
44.9        31.781      143.45      5.467       24.306      32.125      22.825      19.763      25.275      36.605      28.399      1.054       25.5        31.496      1.212       2.375       37.917      136.105     
45.0        45.14       143.498     5.565       26.838      33.62       24.414      21.303      28.129      36.085      28.482      1.051       26.75       32.671      1.213       2.374       37.763      137.357     
45.1        48.077      143.571     5.256       27.723      32.697      26.666      23.999      30.775      37.619      28.493      1.05        26.25       35.53       1.214       2.378       37.445      138.391     
45.2        44.899      147.386     4.859       27.47       30.806      30.172      27.567      32.072      40.794      28.303      1.069       26.0        38.223      1.213       2.388       36.225      137.835     
45.3        40.042      144.826     4.49        30.697      31.913      34.546      31.219      32.909      44.729      27.875      1.099       22.75       39.183      1.212       2.399       35.384      137.573     
