~Version Information Section
VERS.                                         2.0:CWLS log ASCII Standart – VERSION 2.0
WRAP.                                          NO:One line per depth step
~Well Information Section
STRT.M                                        1.0:Начальная глубина
STOP.M                                      203.4:Конечная глубина
STEP.M                                          0:Шаг квантования по глубине
NULL.                                    -9999.25:Признак "Нет данных"
WELL.                                         3Мх:Скважина
~Parameter Information Section
~Curve Information Section
DEPTH.M                                          :Глубина
BK.Ohm*M                                         :BK
DS.mm                                            :DS  (ДС)
ГК.mcr/h                                         :GK          (ГК)
GZ1.Ohm*M                                        :GZ1   ГЗ1(A0.4M0.1N)
GZ2.Ohm*M                                        :GZ2   ГЗ2(A1.0M0.1N)
GZ3.Ohm*M                                        :GZ3   ГЗ3(A2.0M0.5N)
GZ4.Ohm*M                                        :GZ4   ГЗ4(A4.0M0.5N)
GZ5.Ohm*M                                        :GZ5   ГЗ5(A8.0M0.5N)
U2.mV                                            :U2
U3.mV                                            :U3
W.                                               :W
КП.%                                             :Кп
НГК.усл.ед                                       :ННКб
ННКМ.усл.ед                                      :ННКм
GZR.Ohm*M                                        :GZK   ГЗK(N0.5M2.0A)
ИК.Ohm*M                                         :IK
PS.mv                                            :PS       (ПС)
PZ.Ohm*M                                         :PZ    (КС)
RS.Ohm*M                                         :RS (Резистивиметр)
U1.mV                                            :U1
~ASCII LOG DATA
# ...
33.0        76.208      152.168     3.464       1.327       6.89        6.077       7.225       5.471       473.869     344.666     2.254       17.275      6.991       3.024       5.619       30.196      -9999.25    -9999.25    1.039       733.199     
33.1        78.524      151.81      3.285       1.269       6.842       6.077       7.225       5.371       469.212     347.955     2.282       16.9        7.256       3.05        5.619       31.972      -9999.25    -9999.25    1.039       727.843     
33.2        105.196     151.954     3.117       1.157       6.721       5.977       7.225       5.271       437.275     350.628     2.313       16.748      7.322       3.052       5.619       33.847      -9999.25    -9999.25    1.039       653.81      
33.3        135.207     152.093     3.047       1.09        6.6         5.977       7.225       5.271       398.157     356.757     2.34        17.303      7.383       3.117       5.619       35.133      -9999.25    -9999.25    1.034       551.152     
33.4        103.276     152.918     3.117       1.114       6.6         5.977       7.225       5.271       376.348     368.691     2.394       17.26       7.424       3.223       5.619       36.093      -9999.25    -9999.25    1.034       476.429     
33.5        92.257      153.681     3.228       1.293       6.6         5.977       7.225       5.271       376.125     383.475     2.41        16.357      7.497       3.19        5.619       37.069      -9999.25    -9999.25    1.03        448.907     
33.6        100.925     151.667     3.369       1.549       6.673       5.977       7.225       5.171       384.215     396.305     2.405       15.328      7.545       3.065       5.619       37.715      -9999.25    -9999.25    1.03        447.796     
33.7        187.499     152.025     3.556       1.839       6.866       5.877       7.225       5.171       386.005     404.169     2.325       15.14       7.457       3.014       5.619       38.341      -9999.25    -9999.25    1.03        443.906     
33.8        242.661     152.246     3.817       1.539       6.793       5.777       7.125       5.171       380.262     408.567     2.248       16.427      7.368       3.014       5.719       38.5        -9999.25    -9999.25    1.03        430.064     
33.9        123.027     151.684     3.904       1.37        6.745       5.777       7.025       5.171       375.677     419.788     2.18        18.357      6.777       3.011       5.619       38.782      -9999.25    -9999.25    1.03        413.148     
34.0        81.846      151.952     3.824       1.254       6.672       5.777       6.925       5.171       386.359     451.899     2.187       19.993      6.382       3.007       5.519       38.661      -9999.25    -9999.25    1.03        407.878     
34.1        77.983      151.888     3.54        1.288       6.624       5.777       6.825       5.171       429.298     518.566     2.264       20.4        6.568       3.032       5.419       38.5        -9999.25    -9999.25    1.03        434.189     
34.2        81.283      152.27      3.314       1.346       6.624       5.677       6.825       5.171       511.824     608.79      2.361       19.312      6.847       3.098       5.419       38.382      -9999.25    -9999.25    1.03        514.303     
34.3        92.683      151.871     3.151       1.259       6.552       5.577       6.725       5.171       627.125     697.324     2.417       17.954      7.364       3.164       5.319       37.91       -9999.25    -9999.25    1.03        658.563     
34.4        96.828      152.012     3.128       1.186       6.455       5.577       6.625       5.171       751.784     754.937     2.444       16.409      7.708       3.209       5.219       36.96       -9999.25    -9999.25    1.03        853.619     
34.5        116.95      152.133     3.151       1.153       6.431       5.477       6.625       5.171       856.742     772.04      2.433       14.963      7.643       3.16        5.219       36.313      -9999.25    -9999.25    1.03        1057.5      
34.6        162.555     152.475     3.223       1.235       6.286       5.477       6.525       5.171       905.5       745.707     2.393       14.937      7.545       2.992       5.219       35.814      -9999.25    -9999.25    1.03        1198.651    
34.7        144.212     152.669     3.332       1.389       6.286       5.377       6.525       5.171       867.505     675.511     2.329       16.665      6.55        2.814       5.219       35.267      -9999.25    -9999.25    1.03        1205.158    
34.8        110.918     152.528     3.539       1.632       6.648       5.277       6.525       5.171       747.553     571.811     2.271       19.323      5.554       2.658       5.219       34.607      -9999.25    -9999.25    1.03        1066.695    
34.9        80.538      153.096     3.798       1.655       6.673       5.177       6.525       5.171       602.162     465.717     2.224       21.507      5.331       2.557       5.219       34.096      -9999.25    -9999.25    1.03        869.108     
35.0        57.677      153.083     3.967       1.598       6.697       5.177       6.425       5.171       497.209     388.476     2.202       23.363      4.996       2.499       5.219       33.478      -9999.25    -9999.25    1.03        725.745     
35.1        46.666      152.955     3.938       1.544       6.648       5.177       6.325       5.171       447.137     340.728     2.186       26.17       4.521       2.427       5.219       32.535      -9999.25    -9999.25    1.03        673.285     
35.2        39.628      152.954     3.836       1.423       6.672       5.177       6.325       5.271       412.054     296.471     2.211       29.113      4.047       2.353       5.219       31.394      -9999.25    -9999.25    1.03        655.663     
35.3        40.179      153.044     3.814       1.399       6.672       5.177       6.325       5.271       357.561     239.516     2.267       32.028      4.028       2.357       5.219       30.195      -9999.25    -9999.25    1.03        613.588     
35.4        47.315      154.565     3.854       1.341       6.6         5.177       6.325       5.271       294.549     184.064     2.321       33.24       4.0         2.458       5.219       28.965      -9999.25    -9999.25    1.03        549.892     
35.5        43.652      155.421     3.762       1.303       6.6         5.177       6.325       5.271       255.463     156.049     2.356       33.101      3.907       2.459       5.119       27.915      -9999.25    -9999.25    1.03        500.498     
35.6        41.687      153.77      3.568       1.312       6.576       5.177       6.325       5.271       255.007     167.745     2.368       32.43       3.768       2.312       5.119       26.861      -9999.25    -9999.25    1.03        480.142     
35.7        56.494      154.01      3.379       1.278       6.552       5.177       6.325       5.271       283.339     214.27      2.365       33.202      3.672       2.225       5.019       26.101      -9999.25    -9999.25    1.03        474.958     
35.8        63.973      154.78      3.409       1.269       6.479       5.177       6.325       5.271       323.291     283.445     2.341       34.506      3.479       2.228       4.919       25.385      -9999.25    -9999.25    1.03        468.235     
35.9        39.628      155.906     3.572       1.264       6.503       5.177       6.325       5.271       355.672     353.159     2.312       35.094      3.453       2.212       4.919       24.799      -9999.25    -9999.25    1.03        450.215     
36.0        33.806      156.281     3.904       1.274       6.527       5.177       6.325       5.271       362.31      393.152     2.299       34.798      3.414       2.167       4.919       24.215      -9999.25    -9999.25    1.03        416.367     
36.1        35.237      155.116     4.21        1.259       6.503       5.177       6.325       5.271       337.169     384.068     2.292       35.172      3.388       2.139       4.919       23.418      -9999.25    -9999.25    1.03        371.279     
