~Version Information Section
VERS.                                         2.0:CWLS log ASCII Standart – VERSION 2.0
WRAP.                                          NO:One line per depth step
~Well Information Section
STRT.M                                        2.0:Начальная глубина
STOP.M                                      201.2:Конечная глубина
STEP.M                                          0:Шаг квантования по глубине
NULL.                                    -9999.25:Признак "Нет данных"
WELL.                                       126Мх:Скважина
~Parameter Information Section
~Curve Information Section
DEPTH.M                                          :Глубина
BK.ohmm                                          :BK
ПРОФ_СР.мм                                       :DS  (ДС)
W.g/cm3                                          :GGKp
ГК.мкР/час                                       :GK          (ГК)
ГЗ1.Омм                                          :GZ1   ГЗ1(A0.4M0.1N)
ГЗ2.Омм                                          :GZ2   ГЗ2(A1.0M0.1N)
ГЗ3.Омм                                          :GZ3   ГЗ3(A2.0M0.5N)
ГЗ4.Oмм                                          :GZ4   ГЗ4(A4.0M0.5N)
ГЗ5.Oмм                                          :GZ5   ГЗ5(A8.0M0.5N)
ГЗК.Омм                                          :GZK   ГЗK(N0.5M2.0A)
ИК.ohmm                                          :IK
НГК.усл.ед.                                      :NGK
ННКМ.усл.ед                                      :NNKm  (ННКм)
PS.мВ                                            :PS       (ПС)
PZ.Омм                                           :PZ    (КС)
RIS.Омм                                          :RS (Резистивиметр)
U1.мВ                                            :U1
U2.мВ                                            :U2
U3.mv                                            :U3
~ASCII LOG DATA
# ...
117.6       46.666      100.035     -9999.25    4.154       -9999.25    -9999.25    -9999.25    -9999.25    -9999.25    -9999.25    10.752      1.242       2.133       -9999.25    -9999.25    1.407       -9999.25    -9999.25    -9999.25    
117.7       45.29       100.015     -9999.25    4.2         -9999.25    -9999.25    -9999.25    -9999.25    -9999.25    -9999.25    10.555      1.193       2.171       -9999.25    -9999.25    1.399       -9999.25    -9999.25    -9999.25    
117.8       30.761      99.988      -9999.25    4.522       48.6        -9999.25    -9999.25    -9999.25    -9999.25    -9999.25    10.389      1.194       2.196       -9999.25    -9999.25    1.394       -9999.25    -9999.25    -9999.25    
117.9       22.387      99.954      -9999.25    5.23        48.6        -9999.25    -9999.25    -9999.25    -9999.25    -9999.25    10.312      1.205       2.206       -9999.25    -9999.25    1.391       -9999.25    -9999.25    -9999.25    
118.0       24.889      99.974      -9999.25    6.099       48.6        -9999.25    -9999.25    -9999.25    -9999.25    -9999.25    10.221      1.207       2.148       -9999.25    -9999.25    1.39        -9999.25    -9999.25    -9999.25    
118.1       39.264      99.969      -9999.25    6.859       49.68       36.04       122.001     48.536      29.334      36.986      10.084      1.153       2.104       -9999.25    -9999.25    1.39        -9999.25    -9999.25    -9999.25    
118.2       44.668      99.987      -9999.25    7.039       51.84       36.244      105.601     48.336      29.334      39.185      9.994       1.088       2.129       -9999.25    -9999.25    1.39        -9999.25    -9999.25    -9999.25    
118.3       26.607      100.019     -9999.25    7.075       54.0        37.264      82.001      46.536      29.534      44.586      9.908       1.066       2.103       -9999.25    -9999.25    1.391       -9999.25    -9999.25    -9999.25    
118.4       18.664      99.995      -9999.25    7.162       88.56       38.284      68.802      41.937      30.534      43.586      9.886       1.054       1.985       -9999.25    -9999.25    1.393       -9999.25    -9999.25    -9999.25    
118.5       17.022      99.979      -9999.25    7.172       87.48       39.304      57.602      39.536      31.734      41.786      9.88        1.037       1.92        -9999.25    -9999.25    1.395       -9999.25    -9999.25    -9999.25    
118.6       17.258      100.037     -9999.25    6.913       73.44       39.916      43.601      39.536      33.134      37.586      9.835       1.02        1.93        -9999.25    -9999.25    1.399       -9999.25    -9999.25    -9999.25    
118.7       17.989      100.017     -9999.25    6.572       68.04       38.896      37.601      39.536      31.534      36.586      9.737       1.008       1.926       -9999.25    -9999.25    1.401       -9999.25    -9999.25    -9999.25    
118.8       20.464      100.026     -9999.25    6.075       66.96       37.468      31.201      39.536      28.334      35.386      9.687       1.075       1.914       -9999.25    -9999.25    1.402       -9999.25    -9999.25    -9999.25    
118.9       24.66       100.025     -9999.25    5.745       64.8        34.816      24.401      39.136      28.334      33.186      9.624       1.177       1.968       -9999.25    -9999.25    1.403       -9999.25    -9999.25    -9999.25    
119.0       26.363      100.008     -9999.25    5.269       61.56       33.592      22.401      37.136      28.334      30.386      9.667       1.271       2.057       -9999.25    -9999.25    1.403       -9999.25    -9999.25    -9999.25    
119.1       29.923      100.022     -9999.25    5.149       60.48       31.96       20.801      35.536      28.334      28.586      9.844       1.283       2.227       -9999.25    -9999.25    1.403       -9999.25    -9999.25    -9999.25    
119.2       46.559      100.023     -9999.25    5.334       52.92       31.96       20.401      35.736      28.334      27.586      10.071      1.235       2.396       -9999.25    -9999.25    1.403       -9999.25    -9999.25    -9999.25    
119.3       61.094      100.005     -9999.25    5.551       52.92       31.96       18.801      36.736      28.334      26.586      10.311      1.217       2.395       -9999.25    -9999.25    1.403       -9999.25    -9999.25    -9999.25    
119.4       55.59       100.034     -9999.25    5.897       52.92       31.96       20.0        37.536      28.534      25.786      10.648      1.19        2.35        -9999.25    -9999.25    1.403       -9999.25    -9999.25    -9999.25    
119.5       34.754      100.063     -9999.25    5.744       54.0        31.96       25.2        37.536      29.534      25.786      10.91       1.184       2.253       -9999.25    -9999.25    1.403       -9999.25    -9999.25    -9999.25    
119.6       32.285      99.984      -9999.25    5.552       54.0        31.96       27.601      37.336      30.534      25.786      11.173      1.17        2.167       -9999.25    -9999.25    1.403       -9999.25    -9999.25    -9999.25    
119.7       31.046      100.009     -9999.25    5.335       55.08       32.164      32.0        36.336      31.534      25.986      11.365      1.171       2.137       -9999.25    -9999.25    1.403       -9999.25    -9999.25    -9999.25    
119.8       31.261      100.009     -9999.25    5.18        56.16       33.184      37.6        35.336      32.534      26.986      11.502      1.164       2.116       -9999.25    -9999.25    1.403       -9999.25    -9999.25    -9999.25    
119.9       36.559      100.009     -9999.25    4.889       56.16       34.0        41.6        34.336      33.534      27.986      11.592      1.139       2.129       -9999.25    -9999.25    1.403       -9999.25    -9999.25    -9999.25    
120.0       34.041      100.009     -9999.25    4.531       57.24       34.204      47.199      33.336      34.734      28.786      11.675      1.119       2.12        -9999.25    -9999.25    1.403       -9999.25    -9999.25    -9999.25    
120.1       40.644      100.009     -9999.25    4.325       58.32       35.224      56.001      32.736      36.534      29.186      11.816      1.143       2.078       -9999.25    -9999.25    1.403       -9999.25    -9999.25    -9999.25    
120.2       56.234      100.449     -9999.25    4.235       58.32       36.04       52.401      33.536      37.534      30.786      11.989      1.176       2.083       -9999.25    -9999.25    1.403       -9999.25    -9999.25    -9999.25    
120.3       64.863      99.655      -9999.25    4.179       60.48       36.448      50.401      33.536      38.934      31.186      12.149      1.226       2.134       -9999.25    -9999.25    1.403       -9999.25    -9999.25    -9999.25    
120.4       69.984      99.674      -9999.25    4.049       60.48       38.284      48.401      33.536      41.534      32.986      12.335      1.277       2.196       -9999.25    -9999.25    1.403       -9999.25    -9999.25    -9999.25    
120.5       70.958      99.687      -9999.25    4.085       64.8        39.304      46.001      33.536      42.534      33.986      12.534      1.316       2.257       -9999.25    -9999.25    1.404       -9999.25    -9999.25    -9999.25    
120.6       70.307      100.392     -9999.25    3.991       71.28       40.528      42.401      33.536      43.334      34.986      12.736      1.316       2.27        -9999.25    -9999.25    1.406       -9999.25    -9999.25    -9999.25    
120.7       72.277      101.923     -9999.25    4.035       71.28       42.568      41.201      33.536      43.534      36.186      12.912      1.304       2.261       -9999.25    -9999.25    1.408       -9999.25    -9999.25    -9999.25    
120.8       74.473      109.571     -9999.25    3.97        69.12       44.404      43.201      33.336      44.334      38.186      12.985      1.289       2.31        -9999.25    -9999.25    1.411       -9999.25    -9999.25    -9999.25    
120.9       73.79       117.829     -9999.25    4.152       66.96       45.628      45.2        32.336      44.334      39.986      13.17       1.277       2.371       -9999.25    -9999.25    1.414       -9999.25    -9999.25    -9999.25    
