~Version Information Section
VERS.                                         2.0:CWLS log ASCII Standart – VERSION 2.0
WRAP.                                          NO:One line per depth step
~Well Information Section
STRT.M                                        0.4:Начальная глубина
STOP.M                                      190.1:Конечная глубина
STEP.M                                          0:Шаг квантования по глубине
NULL.                                    -9999.25:Признак "Нет данных"
WELL.                                       135Мх:Скважина
~Parameter Information Section
~Curve Information Section
DEPTH.M                                          :Глубина
DS.mm                                            :DS  (ДС)
GGK.g/cm3                                        :GGKp
ГК.mcr/h                                         :GK          (ГК)
GZ1.Ohm*M                                        :GZ1   ГЗ1(A0.4M0.1N)
GZ2.Ohm*M                                        :GZ2   ГЗ2(A1.0M0.1N)
GZ3.Ohm*M                                        :GZ3   ГЗ3(A2.0M0.5N)
GZ4.Ohm*M                                        :GZ4   ГЗ4(A4.0M0.5N)
GZ5.Ohm*M                                        :GZ5   ГЗ5(A8.0M0.5N)
GZR.Ohm*M                                        :GZK   ГЗK(N0.5M2.0A)
ИК.Ohm*M                                         :IK
НГК.ue                                           :NGK     (НГК)
NNKM.                                            :NNKm  (ННКм)
PS.mv                                            :PS       (ПС)
PZ.Ohm*M                                         :PZ    (КС)
RS.Ohm*M                                         :RS (Резистивиметр)
U1.mV                                            :U1
U2.mV                                            :U2
U3.mV                                            :U3
BK.Ohm*M                                         :БК
ПОРИСТОСТЬ.                                      :Пористость ННК
~ASCII LOG DATA
# ...
141.2       126.362     2.344       8.788       42.309      27.382      31.65       29.445      24.138      26.41       22.189      1.432       2.212       417.334     15.796      1.4         170.667     79.09       101.926     20.283      29.816      
141.3       126.36      2.33        8.831       42.119      27.079      31.447      29.209      24.119      26.458      22.156      1.499       2.188       417.013     15.612      1.4         168.0       65.799      90.611      20.633      29.974      
141.4       126.358     2.321       8.614       41.773      26.898      31.277      29.118      24.119      26.571      22.12       1.559       2.154       416.697     15.483      1.4         160.0       63.023      94.727      20.039      30.971      
141.5       126.35      2.31        8.699       41.319      26.826      31.193      29.103      24.12       26.736      22.083      1.545       2.135       416.389     15.401      1.4         152.0       66.522      107.15      19.456      32.024      
141.6       126.277     2.298       8.823       40.809      26.815      31.177      29.123      24.125      26.888      22.044      1.501       2.134       416.145     15.359      1.4         144.0       70.021      119.576     19.479      32.538      
141.7       126.206     2.292       9.012       40.341      26.85       31.205      29.252      24.18       26.903      22.015      1.421       2.163       416.006     15.345      1.4         138.667     72.328      124.415     19.439      32.428      
141.8       126.203     2.281       9.08        39.96       26.979      31.337      29.621      24.336      26.662      22.002      1.412       2.186       416.018     15.343      1.4         136.0       73.09       125.081     19.306      31.909      
141.9       126.203     2.276       8.691       39.679      27.232      31.644      30.323      24.602      26.124      21.984      1.44        2.196       416.191     15.343      1.4         138.667     74.63       127.774     18.393      31.442      
142.0       126.179     2.283       8.269       39.497      27.649      32.157      31.364      24.941      25.32       21.973      1.524       2.21        416.521     15.345      1.4         144.0       75.408      129.8       18.992      30.143      
142.1       126.092     2.298       7.781       39.412      28.249      32.832      32.599      25.249      24.351      21.965      1.594       2.259       416.928     15.355      1.4         152.0       76.379      127.657     19.351      28.563      
142.2       126.031     2.318       7.738       39.398      28.908      33.511      33.768      25.414      23.35       21.958      1.646       2.309       417.392     15.375      1.4         160.0       76.571      123.489     19.414      27.561      
142.3       126.029     2.34        7.803       39.446      29.368      33.987      34.639      25.372      22.416      21.956      1.64        2.352       417.885     15.401      1.4         168.0       76.487      119.077     20.06       27.052      
142.4       126.029     2.353       7.959       39.583      29.456      34.114      35.05       25.144      21.624      21.953      1.602       2.363       418.358     15.432      1.4         170.667     73.534      115.347     22.748      27.687      
142.5       126.033     2.357       7.968       39.783      29.203      33.872      34.947      24.798      21.022      21.95       1.56        2.331       418.803     15.46       1.4         168.0       70.583      111.618     22.739      28.382      
142.6       126.044     2.365       8.183       40.054      28.776      33.362      34.425      24.401      20.594      21.941      1.57        2.318       419.189     15.484      1.4         159.419     68.111      107.141     20.887      28.813      
142.7       126.045     2.378       8.705       40.469      28.467      32.757      33.658      24.0        20.294      21.931      1.59        2.327       419.448     15.503      1.4         153.507     69.661      106.151     20.755      28.479      
142.8       126.038     2.379       9.0         41.046      28.387      32.209      32.851      23.629      20.071      21.915      1.564       2.326       419.525     15.516      1.4         155.131     79.448      111.393     21.583      28.174      
142.9       126.038     2.362       8.835       41.625      28.349      31.771      32.182      23.298      19.889      21.89       1.539       2.296       419.38      15.53       1.4         160.003     89.033      117.625     22.888      28.446      
143.0       126.05      2.347       8.546       41.951      28.266      31.415      31.71       23.011      19.743      21.844      1.491       2.23        419.043     15.549      1.4         163.394     93.364      120.026     20.85       29.005      
143.1       126.062     2.335       8.62        41.889      28.174      31.105      31.391      22.78       19.647      21.775      1.486       2.189       418.501     15.575      1.4         161.914     89.458      116.196     18.512      29.921      
143.2       126.063     2.328       8.956       41.508      28.052      30.827      31.158      22.586      19.6        21.668      1.525       2.175       417.837     15.612      1.4         155.286     78.974      107.818     18.208      30.635      
143.3       126.069     2.344       8.894       41.039      27.971      30.581      30.95       22.406      19.588      21.503      1.596       2.191       417.06      15.657      1.4         150.138     72.395      103.269     18.763      31.165      
143.4       126.094     2.36        8.536       40.694      27.946      30.356      30.738      22.254      19.586      21.301      1.609       2.223       416.199     15.7        1.4         148.538     70.221      101.377     18.735      31.529      
143.5       126.116     2.349       8.06        40.454      27.867      30.126      30.502      22.141      19.593      21.062      1.531       2.225       415.261     15.733      1.4         152.084     74.625      104.033     19.413      32.055      
143.6       126.132     2.322       8.006       40.181      27.676      29.861      30.216      22.062      19.626      20.805      1.463       2.21        414.303     15.753      1.4         161.373     83.312      111.142     19.464      32.29       
143.7       126.149     2.291       8.278       39.804      27.311      29.555      29.867      21.999      19.706      20.563      1.454       2.187       413.393     15.754      1.4         164.051     87.406      113.204     20.241      32.428      
143.8       125.976     2.267       8.692       39.346      26.762      29.231      29.472      21.918      19.848      20.355      1.469       2.155       412.563     15.736      1.4         166.665     91.375      115.156     20.284      32.764      
143.9       125.805     2.27        9.061       38.869      26.075      28.921      29.063      21.806      20.051      20.163      1.468       2.123       411.812     15.694      1.4         162.504     91.063      111.957     18.628      33.434      
144.0       125.805     2.282       9.319       38.397      25.306      28.628      28.658      21.684      20.311      19.984      1.469       2.116       411.181     15.614      1.4         161.406     91.775      111.146     17.671      34.006      
144.1       125.825     2.296       9.663       37.906      24.484      28.357      28.267      21.591      20.631      19.807      1.492       2.108       410.642     15.493      1.4         160.647     93.169      110.931     17.481      34.597      
144.2       125.837     2.307       9.845       37.337      23.641      28.134      27.906      21.548      20.951      19.611      1.488       2.094       410.236     15.307      1.4         166.438     103.262     116.032     17.512      34.765      
144.3       125.839     2.303       9.722       36.631      22.826      27.97       27.61       21.548      21.079      19.397      1.464       2.092       410.011     15.011      1.4         169.949     105.165     119.045     17.985      34.336      
