~Version Information Section
VERS.                                         2.0:CWLS log ASCII Standart – VERSION 2.0
WRAP.                                          NO:One line per depth step
~Well Information Section
STRT.M                                        0.6:Начальная глубина
STOP.M                                      202.6:Конечная глубина
STEP.M                                          0:Шаг квантования по глубине
NULL.                                    -9999.25:Признак "Нет данных"
WELL.                                       130Мх:Скважина
~Parameter Information Section
~Curve Information Section
DEPTH.M                                          :Глубина
БК.Омм                                           :BK     (БК)
DСР.мм                                           :DS  (ДС)
W.g/cm3                                          :GGKp
ГК.гамма                                         :GK          (ГК)
А0.4М0.1N.Омм.ohmm                               :GZ1   ГЗ1(A0.4M0.1N)
А1.0М0.1N.Омм.ohmm                               :GZ2   ГЗ2(A1.0M0.1N)
А2.0М0.5N.Омм.ohmm                               :GZ3   ГЗ3(A2.0M0.5N)
А4.0М0.5N.Oмм.ohmm                               :GZ4   ГЗ4(A4.0M0.5N)
А8.0М1.0N.Омм.ohmm                               :GZ5   ГЗ5(A8.0M0.5N)
N0.5M2.0A.Омм.ohmm                               :GZK   ГЗK(N0.5M2.0A)
ИК.мСм/м                                         :IK
НГК.усл.ед                                       :NNKb  (ННКб)
ННКМ.усл.ед                                      :NNKm  (ННКм)
ПС.мВ                                            :PS       (ПС)
КС.Омм                                           :PZ    (КС)
R.Омм                                            :RS (Резистивиметр)
U1.мВ                                            :U1
U2.mV                                            :U2
U3.мВ                                            :U3
КП.%                                             :Кп
~ASCII LOG DATA
# ...
106.2       72.575      131.474     2.312       3.833       63.326      45.038      21.818      20.541      13.976      57.691      29.413      3.497       2.014       311.912     79.488      1.08        2517.551    1862.417    1409.231    29.497      
106.3       61.202      132.014     2.312       3.573       68.201      51.649      23.425      21.169      14.515      57.395      29.975      3.391       1.966       312.239     80.96       1.08        2263.041    1567.236    1147.791    29.021      
106.4       68.096      132.167     2.308       3.888       71.576      54.838      24.403      21.373      14.832      55.645      30.189      3.373       1.966       312.728     82.304      1.08        2072.956    1288.259    899.648     28.467      
106.5       94.347      132.534     2.297       4.603       74.749      56.841      24.928      21.737      14.832      51.633      29.976      3.359       1.974       313.4       83.416      1.08        1860.837    1046.468    680.606     27.742      
106.6       81.601      132.371     2.282       5.05        78.913      60.204      25.509      22.908      14.832      45.804      29.631      3.22        1.964       314.253     84.128      1.08        1723.362    825.781     457.854     26.324      
106.7       47.839      132.174     2.263       5.004       83.535      65.095      26.28       24.353      14.799      39.154      29.307      2.991       1.952       315.265     84.4        1.08        1616.829    666.721     290.528     25.965      
106.8       54.845      132.155     2.252       4.553       88.659      70.167      27.155      25.075      14.479      33.187      28.983      2.933       1.933       316.394     84.4        1.08        1534.426    624.676     275.287     27.941      
106.9       71.752      132.02      2.255       4.253       94.767      74.917      27.879      25.123      14.479      28.596      28.838      2.846       1.917       317.579     84.248      1.08        1448.235    720.676     421.139     30.078      
107.0       76.746      132.135     2.267       4.062       97.141      74.84       28.361      24.437      14.479      25.013      28.753      2.89        1.912       318.744     83.752      1.08        1493.777    765.813     465.695     29.181      
107.1       87.492      132.279     2.284       4.025       93.406      69.811      29.559      23.077      14.49       22.306      28.576      2.958       1.911       319.813     82.992      1.08        1571.343    774.628     468.707     25.866      
107.2       115.388     132.861     2.304       3.631       89.716      67.861      31.992      21.876      14.732      20.471      28.047      2.95        1.93        320.706     82.096      1.08        1452.883    746.01      471.714     22.277      
107.3       131.257     138.7       2.316       3.385       88.33       72.207      35.417      21.4        16.248      19.572      27.186      2.937       1.94        321.302     81.064      1.08        1292.264    677.969     456.678     21.122      
107.4       94.717      135.225     2.32        3.396       86.135      77.417      38.984      21.619      17.55       19.288      26.014      2.918       1.923       321.567     79.88       1.08        1122.369    518.976     321.105     21.106      
107.5       42.479      132.192     2.323       3.912       82.332      80.128      41.749      21.985      18.859      18.885      24.611      2.9         1.88        321.567     78.56       1.08        1002.261    440.613     286.824     23.019      
107.6       23.486      132.048     2.326       4.34        77.128      81.076      43.572      21.459      20.391      18.203      23.471      2.892       1.803       321.567     77.16       1.08        877.586     431.905     308.36      26.514      
107.7       25.226      131.774     2.321       4.487       69.74       78.747      44.298      20.355      21.727      17.455      23.087      2.908       1.801       321.513     75.736      1.08        904.879     462.092     339.98      32.169      
107.8       48.58       132.058     2.315       4.211       64.059      74.512      44.324      19.286      22.334      17.301      23.081      3.063       1.933       321.192     74.376      1.08        933.06      499.098     354.203     38.335      
107.9       71.424      132.063     2.304       3.922       61.514      69.458      44.324      18.391      23.073      17.899      23.431      3.291       2.019       320.682     73.16       1.08        961.243     536.542     373.021     36.974      
108.0       53.1        132.607     2.284       3.947       58.952      63.553      44.632      18.106      23.711      18.699      23.752      3.289       2.005       320.117     72.136      1.08        909.328     559.027     391.839     30.416      
108.1       52.249      133.121     2.263       4.2         56.247      60.377      45.288      18.201      23.888      19.502      23.645      3.228       1.961       319.551     71.336      1.08        872.989     577.045     407.715     22.869      
108.2       42.142      133.346     2.253       4.671       53.163      58.881      46.399      18.818      25.147      20.988      23.097      3.001       1.876       318.995     70.792      1.08        840.297     584.57      424.276     21.343      
108.3       28.205      133.091     2.252       5.284       49.477      57.108      47.721      19.814      27.415      25.381      22.268      2.737       1.787       318.433     70.472      1.08        806.138     592.094     437.153     21.859      
108.4       22.114      132.783     2.26        6.315       45.566      56.079      48.901      20.63       30.57       34.762      21.342      2.518       1.692       317.826     70.392      1.08        771.981     605.916     479.944     21.57       
108.5       18.689      132.672     2.286       7.353       42.661      54.618      51.459      21.162      33.895      48.212      20.69       2.384       1.626       317.129     70.392      1.08        807.179     677.417     571.686     20.377      
108.6       17.137      132.205     2.313       8.095       41.653      53.142      56.846      21.751      37.235      60.75       20.466      2.583       1.606       316.32      70.392      1.08        892.407     783.035     684.588     19.521      
108.7       22.923      130.636     2.329       7.837       41.653      52.447      62.825      23.025      39.657      68.19       20.726      2.932       1.789       315.404     70.392      1.08        1054.098    891.3       756.072     21.463      
108.8       43.122      130.376     2.341       6.476       41.653      52.719      66.367      25.321      40.308      70.446      21.42       3.672       2.115       314.41      70.392      1.08        1186.939    938.672     764.632     24.538      
108.9       80.63       131.485     2.347       4.609       45.346      53.125      67.379      27.211      40.308      70.446      22.399      4.034       2.245       313.395     70.496      1.08        1319.783    975.388     741.656     25.853      
109.0       108.034     131.532     2.341       2.926       53.38       53.125      67.379      27.684      40.308      69.171      23.215      3.97        2.245       312.434     70.568      1.08        1341.621    939.973     669.73      24.605      
109.1       143.85      132.431     2.341       2.224       61.06       50.812      66.032      27.64       39.117      63.182      23.628      3.892       2.265       311.587     70.568      1.08        1170.199    807.318     587.589     23.11       
109.2       155.074     134.374     2.347       1.908       66.931      46.07       61.151      27.37       36.103      52.011      23.527      3.765       2.298       310.884     70.4        1.08        911.751     671.762     544.382     23.761      
109.3       130.168     130.955     2.354       2.34        71.548      43.125      52.075      26.497      31.465      41.035      22.974      3.661       2.238       310.328     69.816      1.08        700.766     597.092     597.711     23.125      
