~Version Information Section
VERS.                                         2.0:CWLS log ASCII Standart – VERSION 2.0
WRAP.                                          NO:One line per depth step
~Well Information Section
STRT.M                                       -0.5:Начальная глубина
STOP.M                                      184.3:Конечная глубина
STEP.M                                          0:Шаг квантования по глубине
NULL.                                    -9999.25:Признак "Нет данных"
WELL.                                       133Мх:Скважина
~Parameter Information Section
~Curve Information Section
DEPTH.M                                          :Глубина
DS.mm                                            :DS  (ДС)
GGK.g/cm3                                        :GGKp
ГК.mcr/h                                         :GK          (ГК)
GZ1.Ohm*M                                        :GZ1   ГЗ1(A0.4M0.1N)
GZ2.Ohm*M                                        :GZ2   ГЗ2(A1.0M0.1N)
GZ3.Ohm*M                                        :GZ3   ГЗ3(A2.0M0.5N)
GZ4.Ohm*M                                        :GZ4   ГЗ4(A4.0M0.5N)
GZ5.Ohm*M                                        :GZ5   ГЗ5(A8.0M0.5N)
GZR.Ohm*M                                        :GZK   ГЗK(N0.5M2.0A)
ИК.Ohm*M                                         :IK
НГК.ue                                           :NGK     (НГК)
NNKM.                                            :NNKm  (ННКм)
PS.mv                                            :PS       (ПС)
PZ.Ohm*M                                         :PZ    (КС)
RS.Ohm*M                                         :RS (Резистивиметр)
U1.mV                                            :U1
U2.mV                                            :U2
U3.mV                                            :U3
BK.Ohm*M                                         :БК
ПОРИСТОСТЬ.                                      :Пористость ННК
~ASCII LOG DATA
# ...
41.1        133.607     1.88        6.679       -9999.25    -9999.25    -9999.25    -9999.25    -9999.25    -9999.25    -9999.25    6.679       5.279       -9999.25    -9999.25    -9999.25    -9999.25    -9999.25    -9999.25    85.613      3.19        
41.2        133.715     1.914       6.462       -9999.25    -9999.25    -9999.25    -9999.25    -9999.25    -9999.25    -9999.25    6.731       5.268       -9999.25    -9999.25    -9999.25    -9999.25    -9999.25    -9999.25    102.347     2.979       
41.3        133.876     1.94        6.373       -9999.25    -9999.25    -9999.25    -9999.25    -9999.25    -9999.25    -9999.25    6.784       5.281       -9999.25    -9999.25    -9999.25    -9999.25    -9999.25    -9999.25    199013.188  2.813       
41.4        134.033     1.952       6.318       -9999.25    -9999.25    -9999.25    -9999.25    -9999.25    -9999.25    -9999.25    6.917       5.3         -9999.25    -9999.25    -9999.25    -9999.25    -9999.25    -9999.25    1698852.875 2.409       
41.5        134.076     1.942       6.078       -9999.25    -9999.25    -9999.25    -9999.25    -9999.25    -9999.25    -9999.25    7.133       5.354       -9999.25    -9999.25    -9999.25    527.496     1411.5      2216.063    1553157.5   1.945       
41.6        134.097     1.922       5.688       -9999.25    -9999.25    -9999.25    -9999.25    -9999.25    -9999.25    -9999.25    7.396       5.456       -9999.25    -9999.25    -9999.25    533.797     1425.0      2227.875    1104277.25  1.673       
41.7        134.227     1.916       5.531       -9999.25    -9999.25    -9999.25    -9999.25    -9999.25    -9999.25    -9999.25    7.705       5.52        -9999.25    -9999.25    -9999.25    542.117     1442.38     2244.007    131918.078  1.45        
41.8        134.333     1.939       6.144       -9999.25    -9999.25    -9999.25    -9999.25    -9999.25    -9999.25    -9999.25    7.96        5.541       -9999.25    -9999.25    -9999.25    547.53      1452.933    2255.397    142.865     1.432       
41.9        134.2       1.984       6.763       -9999.25    -9999.25    -9999.25    -9999.25    -9999.25    -9999.25    -9999.25    8.073       5.513       -9999.25    -9999.25    -9999.25    559.93      1464.084    2246.445    83.039      1.475       
42.0        133.942     2.037       7.34        -9999.25    -9999.25    -9999.25    -9999.25    -9999.25    -9999.25    -9999.25    8.064       5.467       -9999.25    -9999.25    1.234       585.796     1482.034    2205.379    85.851      1.506       
42.1        133.994     2.083       7.539       -9999.25    -9999.25    -9999.25    -9999.25    -9999.25    -9999.25    -9999.25    8.014       5.422       -9999.25    -9999.25    1.234       591.961     1481.401    2152.175    77.811      1.491       
42.2        134.286     2.1         7.688       -9999.25    -9999.25    -9999.25    -9999.25    -9999.25    -9999.25    -9999.25    8.069       5.415       -9999.25    -9999.25    1.234       542.915     1444.903    2116.883    71.507      1.394       
42.3        134.491     2.087       7.549       -9999.25    -9999.25    -9999.25    -9999.25    -9999.25    -9999.25    -9999.25    8.195       5.44        -9999.25    -9999.25    1.234       464.505     1401.304    2125.096    76.978      1.295       
42.4        134.428     2.063       7.047       -9999.25    -9999.25    -9999.25    -9999.25    -9999.25    -9999.25    -9999.25    8.271       5.472       -9999.25    -9999.25    1.234       451.783     1405.477    2176.096    79.421      1.266       
42.5        134.149     2.037       6.525       -9999.25    -9999.25    -9999.25    -9999.25    -9999.25    -9999.25    -9999.25    8.265       5.518       -9999.25    -9999.25    1.238       515.302     1453.587    2216.945    80.509      1.318       
42.6        134.036     2.014       6.087       -9999.25    -9999.25    -9999.25    -9999.25    -9999.25    -9999.25    -9999.25    8.138       5.545       -9999.25    -9999.25    1.242       534.756     1479.995    2207.862    96.245      1.393       
42.7        134.236     2.001       5.855       -9999.25    -9999.25    -9999.25    -9999.25    -9999.25    -9999.25    -9999.25    7.977       5.527       -9999.25    -9999.25    1.242       461.767     1452.087    2163.903    104.686     1.696       
42.8        134.39      1.986       5.585       -9999.25    -9999.25    -9999.25    -9999.25    -9999.25    -9999.25    -9999.25    7.778       5.458       -9999.25    -9999.25    1.246       394.922     1395.534    2142.363    107.824     2.013       
42.9        134.023     1.959       5.675       -9999.25    -9999.25    -9999.25    19.249      -9999.25    -9999.25    -9999.25    7.556       5.379       -9999.25    -9999.25    1.246       450.994     1378.318    2185.432    106.276     2.152       
43.0        133.401     1.951       5.95        -9999.25    -9999.25    -9999.25    17.416      -9999.25    -9999.25    -9999.25    7.289       5.349       -9999.25    -9999.25    1.246       559.525     1437.406    2238.011    99.914      2.082       
43.1        133.223     1.965       6.26        -9999.25    -9999.25    -9999.25    15.588      -9999.25    57.757      -9999.25    7.106       5.371       -9999.25    -9999.25    1.246       579.855     1493.154    2222.129    98.651      1.936       
43.2        133.666     1.974       6.091       -9999.25    -9999.25    -9999.25    13.725      -9999.25    55.465      -9999.25    7.141       5.402       -9999.25    -9999.25    1.246       525.749     1470.485    2150.871    1461.269    1.634       
43.3        134.305     1.968       5.97        -9999.25    -9999.25    -9999.25    12.157      -9999.25    53.433      -9999.25    7.391       5.424       -9999.25    -9999.25    1.246       485.44      1405.017    2112.447    1888.276    1.484       
43.4        134.621     1.95        5.922       -9999.25    20.162      -9999.25    11.568      32.304      51.569      -9999.25    7.59        5.42        -9999.25    -9999.25    1.246       511.346     1376.662    2177.882    2127.681    1.514       
43.5        134.474     1.919       5.814       -9999.25    30.895      -9999.25    11.568      25.852      49.925      -9999.25    7.681       5.395       -9999.25    -9999.25    1.246       560.668     1418.359    2269.86     1519.806    1.764       
43.6        134.115     1.886       5.727       -9999.25    41.901      -9999.25    11.472      9.081       48.873      -9999.25    7.676       5.375       -9999.25    -9999.25    1.246       586.276     1460.164    2275.885    52.737      1.945       
43.7        133.991     1.872       5.884       -9999.25    52.783      -9999.25    11.252      4.729       48.554      -9999.25    7.594       5.388       -9999.25    -9999.25    1.25        589.705     1451.953    2210.168    54.221      2.107       
43.8        134.092     1.872       5.964       77.701      61.462      3.809       11.129      4.083       48.554      -9999.25    7.449       5.386       -9999.25    -9999.25    1.25        583.672     1416.187    2158.431    52.105      2.075       
43.9        133.926     1.879       5.733       77.656      65.596      3.809       11.101      3.788       48.554      -9999.25    7.344       5.383       -9999.25    -9999.25    1.254       590.046     1391.262    2170.135    52.067      1.974       
44.0        133.345     1.886       5.46        77.907      67.108      3.828       10.518      3.455       48.733      -9999.25    7.412       5.413       -9999.25    -9999.25    1.254       605.024     1396.396    2190.293    53.623      1.761       
44.1        132.886     1.886       5.431       78.516      68.539      3.974       10.043      3.276       49.584      -9999.25    7.614       5.471       -9999.25    -9999.25    1.254       609.49      1396.868    2174.609    61.722      1.619       
44.2        132.973     1.895       5.775       107.433     70.893      4.482       10.332      3.727       51.531      -9999.25    7.877       5.525       181.796     31.345      1.262       590.445     1374.642    2149.328    69.615      1.436       
