~Version Information Section
VERS.                                         2.0:CWLS log ASCII Standart – VERSION 2.0
WRAP.                                          NO:One line per depth step
~Well Information Section
STRT.M                                        0.4:Начальная глубина
STOP.M                                      191.4:Конечная глубина
STEP.M                                          0:Шаг квантования по глубине
NULL.                                    -9999.25:Признак "Нет данных"
WELL.                                       113Мх:Скважина
~Parameter Information Section
~Curve Information Section
DEPTH.M                                          :Глубина
БК.Омм                                           :BK     (БК)
DСР.мм                                           :DS  (ДС)
GGKP.g/cm3                                       :GGKp
ГК.гамма                                         :GK          (ГК)
А0.4М0.1N.Омм                                    :GZ1   ГЗ1(A0.4M0.1N)
А1.0М0.1N.Омм                                    :GZ2   ГЗ2(A1.0M0.1N)
А2.0М0.5N.Омм                                    :GZ3   ГЗ3(A2.0M0.5N)
А4.0М0.5N.Oмм                                    :GZ4   ГЗ4(A4.0M0.5N)
А8.0М1.0N.Омм                                    :GZ5   ГЗ5(A8.0M0.5N)
N0.5M2.0A.Омм                                    :GZK   ГЗK(N0.5M2.0A)
ИК.мСм/м                                         :IK
НГК.усл.ед                                       :NNKb  (ННКб)
ННКМ.усл.ед                                      :NNKm  (ННКм)
ПС.мВ                                            :PS       (ПС)
PZ.Омм                                           :PZ    (КС)
R.Омм                                            :RS (Резистивиметр)
U1.мВ                                            :U1
U2.mV                                            :U2
U3.мВ                                            :U3
КП.%                                             :Кп
~ASCII LOG DATA
# ...
128.4       109.505     130.45      2.308       4.403       66.696      54.307      47.818      45.215      40.683      39.112      30.168      3.072       1.87        116.361     89.738      1.12        178.762     191.138     329.502     27.015      
128.6       64.7        130.774     2.317       4.821       66.331      54.319      47.753      44.709      41.881      37.812      28.96       2.928       1.791       117.426     89.774      1.12        128.428     182.566     375.571     28.151      
128.8       54.259      130.172     2.338       4.967       63.416      53.7        46.683      42.188      41.868      36.021      27.776      2.869       1.763       118.368     88.5        1.12        148.533     194.916     360.542     28.757      
129.0       56.301      131.332     2.355       4.943       58.688      51.922      43.566      37.902      40.426      33.236      26.668      2.879       1.839       119.315     85.65       1.12        185.699     216.332     305.961     28.761      
129.2       54.827      134.465     2.364       4.941       52.875      47.896      39.049      32.873      36.986      29.228      25.644      2.984       1.834       120.374     81.154      1.12        162.565     225.495     357.609     28.473      
129.4       48.464      132.715     2.365       5.294       46.819      42.934      35.451      28.872      33.456      25.933      24.565      2.85        1.806       121.58      75.823      1.12        158.872     203.338     295.327     28.53       
129.6       43.558      133.455     2.377       5.403       41.867      39.773      34.02       26.048      31.208      24.714      23.495      2.658       1.744       122.902     70.797      1.12        253.464     186.979     200.558     29.848      
129.8       40.996      135.001     2.388       5.736       38.173      38.426      33.751      23.733      30.18       24.526      22.708      2.559       1.673       124.305     66.942      1.12        388.073     213.263     131.043     30.641      
130.0       41.484      134.637     2.393       5.559       35.555      37.617      33.751      21.776      29.634      24.491      22.155      2.444       1.663       125.848     64.525      1.12        456.239     235.935     141.144     31.874      
130.2       39.167      136.628     2.387       5.862       33.879      35.976      33.901      20.108      29.262      24.491      21.793      2.379       1.623       127.707     63.29       1.12        367.558     226.444     252.659     32.07       
130.4       36.181      136.928     2.369       5.93        32.778      33.41       34.071      18.992      28.851      24.506      21.587      2.346       1.592       130.117     62.785      1.12        215.069     235.445     368.376     32.128      
130.6       34.062      138.08      2.35        5.922       31.593      30.76       34.068      18.531      28.077      24.676      21.537      2.376       1.613       133.24      62.648      1.12        171.008     220.301     413.126     33.116      
130.8       32.219      138.813     2.329       5.782       30.78       28.771      34.006      18.489      26.846      25.099      21.467      2.279       1.568       137.066     62.762      1.12        255.942     247.863     389.76      31.941      
131.0       30.915      137.788     2.31        5.803       30.703      27.847      33.834      18.503      25.51       25.763      21.431      2.317       1.576       141.371     63.084      1.12        491.033     310.901     325.785     31.889      
131.2       31.103      138.425     2.299       5.901       30.796      27.717      33.618      18.704      24.192      26.255      21.479      2.452       1.589       145.771     63.568      1.12        672.703     376.207     281.115     32.282      
131.4       33.819      137.463     2.3         6.0         31.827      27.744      33.123      19.082      22.817      26.318      21.706      2.424       1.573       149.864     64.024      1.12        703.606     411.458     374.466     31.643      
131.6       38.341      136.682     2.329       5.731       33.784      28.23       32.223      19.389      21.406      26.217      21.924      2.478       1.644       153.375     64.302      1.12        636.111     378.603     361.473     31.92       
131.8       40.982      134.515     2.365       5.467       34.569      28.74       30.979      19.553      20.244      25.795      21.979      2.587       1.714       156.228     64.252      1.12        542.66      353.847     367.189     31.921      
132.0       40.306      136.548     2.362       5.663       34.579      28.874      29.638      19.619      19.444      25.433      21.861      2.474       1.684       158.503     63.945      1.12        307.504     300.631     350.461     32.215      
132.2       38.701      136.888     2.344       5.997       33.618      28.802      28.566      19.715      18.944      25.284      21.466      2.363       1.634       160.312     63.538      1.12        228.429     246.611     339.295     33.01       
132.4       37.404      137.216     2.343       5.993       31.891      28.406      28.131      19.943      18.708      25.274      20.978      2.314       1.638       161.749     63.184      1.12        247.224     227.29      321.181     33.78       
132.6       37.49       137.951     2.356       5.865       30.84       28.303      28.125      20.449      18.668      25.302      20.638      2.285       1.608       162.928     62.993      1.12        316.309     245.58      284.841     33.917      
132.8       38.471      137.025     2.35        5.904       30.434      28.303      28.23       21.389      18.678      25.582      20.491      2.297       1.594       164.04      62.969      1.12        367.329     237.746     219.531     33.806      
133.0       39.181      136.668     2.343       6.056       30.151      28.354      28.908      22.767      18.835      26.259      20.239      2.273       1.616       165.322     63.12       1.12        379.909     233.164     191.089     32.621      
133.2       37.908      136.656     2.348       5.939       29.74       28.28       29.417      23.577      19.26       27.278      20.019      2.399       1.593       166.946     63.519      1.12        359.317     280.832     336.408     31.048      
133.4       36.486      138.117     2.341       5.754       28.425      27.503      29.412      23.6        19.659      28.487      19.834      2.539       1.603       168.916     64.311      1.12        376.918     342.858     465.661     30.129      
133.6       34.432      137.885     2.344       5.978       26.201      25.079      28.601      22.84       19.712      30.073      19.596      2.514       1.596       171.072     65.591      1.12        425.369     339.813     406.251     30.288      
133.8       29.755      137.855     2.351       6.034       24.366      21.648      26.455      21.03       19.41       31.844      19.041      2.42        1.601       173.186     67.336      1.12        402.416     263.999     257.453     31.438      
134.0       27.402      134.801     2.349       5.812       24.093      19.188      24.195      19.624      18.21       32.773      18.924      2.346       1.61        175.065     69.335      1.12        290.32      203.453     215.499     32.547      
134.2       30.084      134.341     2.342       5.746       24.168      18.538      22.645      19.053      16.569      32.847      19.689      2.285       1.577       176.591     71.192      1.12        180.509     180.346     315.176     33.609      
134.4       34.621      135.88      2.348       5.609       25.63       18.538      21.876      18.975      15.189      32.687      20.748      2.206       1.563       177.716     72.5        1.12        178.382     178.331     357.262     34.567      
134.6       37.361      140.13      2.36        5.399       28.556      19.099      21.59       18.975      14.473      32.339      21.655      2.189       1.558       178.437     73.157      1.12        225.683     188.493     313.823     33.856      
