~Version Information Section
VERS.                                         2.0:CWLS log ASCII Standart – VERSION 2.0
WRAP.                                          NO:One line per depth step
~Well Information Section
STRT.M                                        2.0:Начальная глубина
STOP.M                                      201.2:Конечная глубина
STEP.M                                          0:Шаг квантования по глубине
NULL.                                    -9999.25:Признак "Нет данных"
WELL.                                       126Мх:Скважина
~Parameter Information Section
~Curve Information Section
DEPTH.M                                          :Глубина
BK.ohmm                                          :BK
ПРОФ_СР.мм                                       :DS  (ДС)
W.g/cm3                                          :GGKp
ГК.мкР/час                                       :GK          (ГК)
ГЗ1.Омм                                          :GZ1   ГЗ1(A0.4M0.1N)
ГЗ2.Омм                                          :GZ2   ГЗ2(A1.0M0.1N)
ГЗ3.Омм                                          :GZ3   ГЗ3(A2.0M0.5N)
ГЗ4.Oмм                                          :GZ4   ГЗ4(A4.0M0.5N)
ГЗ5.Oмм                                          :GZ5   ГЗ5(A8.0M0.5N)
ГЗК.Омм                                          :GZK   ГЗK(N0.5M2.0A)
ИК.ohmm                                          :IK
НГК.усл.ед.                                      :NGK
ННКМ.усл.ед                                      :NNKm  (ННКм)
PS.мВ                                            :PS       (ПС)
PZ.Омм                                           :PZ    (КС)
RIS.Омм                                          :RS (Резистивиметр)
U1.мВ                                            :U1
U2.мВ                                            :U2
U3.mv                                            :U3
~ASCII LOG DATA
# ...
124.4       72.611      126.435     2.16        4.4         72.36       67.66       89.2        48.336      62.935      67.586      12.128      1.301       2.294       207.286     98.191      1.395       2422.177    2072.162    1822.728    
124.5       74.989      125.686     2.167       4.259       71.28       67.66       91.2        47.536      61.134      66.186      12.284      1.218       2.249       207.286     103.831     1.399       2715.936    2371.51     2120.709    
124.6       74.645      127.125     2.181       4.334       71.28       67.456      92.401      47.536      60.134      63.386      12.523      1.216       2.216       207.286     109.847     1.402       3137.305    2660.986    2304.982    
124.7       73.451      126.271     2.189       4.261       71.28       66.232      90.001      47.336      58.934      61.386      12.889      1.229       2.246       207.286     114.735     1.405       3279.505    2669.494    2210.777    
124.8       72.444      125.377     2.198       4.199       71.28       62.153      86.401      46.336      56.934      59.386      13.09       1.265       2.268       207.286     119.623     1.408       2968.498    2374.319    1930.507    
124.9       67.92       124.723     2.186       3.986       71.28       52.36       84.401      45.336      55.134      57.586      13.302      1.267       2.259       207.286     124.511     1.411       2376.755    1923.321    1592.058    
125.0       54.2        125.911     2.192       3.76        71.28       52.36       82.801      44.536      54.334      56.586      13.396      1.255       2.257       207.286     127.519     1.414       1946.01     1607.798    1368.694    
125.1       41.976      125.849     2.175       3.86        72.36       52.768      82.401      44.536      54.334      55.586      13.489      1.253       2.263       207.814     126.767     1.415       1727.563    1461.112    1279.711    
125.2       50.119      123.695     2.168       3.94        73.44       54.808      80.801      44.736      54.334      54.186      13.546      1.233       2.277       208.342     124.135     1.416       1621.464    1390.785    1237.918    
125.3       53.951      123.617     2.177       4.068       73.44       56.644      80.401      45.736      54.334      51.586      13.513      1.257       2.295       208.87      118.119     1.416       1616.259    1385.214    1231.475    
125.4       63.241      125.482     2.185       4.137       74.52       57.46       78.401      47.136      54.334      50.586      13.489      1.206       2.255       209.398     111.351     1.416       1845.401    1564.551    1367.955    
125.5       73.114      126.748     2.191       4.34        81.0        57.664      76.801      49.736      54.534      49.786      13.453      1.241       2.187       210.454     104.959     1.416       2253.723    1901.015    1641.47     
125.6       74.817      127.213     2.208       4.24        82.08       58.888      76.801      50.736      55.334      49.986      13.505      1.167       2.219       210.982     100.071     1.416       2819.089    2401.923    2081.925    
125.7       76.208      127.694     2.218       4.321       90.72       60.928      76.401      51.736      55.534      50.986      13.587      1.201       2.273       211.51      95.935      1.416       3406.608    2951.642    2590.763    
125.8       82.035      125.534     2.249       4.18        92.88       62.764      74.801      52.336      57.934      52.186      13.749      1.165       2.299       212.038     92.551      1.416       3733.822    3278.24     2909.864    
125.9       91.411      125.658     2.25        4.418       91.8        63.988      74.401      51.536      64.734      53.986      13.779      1.201       2.32        212.566     89.167      1.416       3734.761    3294.263    2937.046    
126.0       93.325      126.707     2.241       4.313       83.16       65.824      72.401      51.336      66.334      54.986      13.835      1.192       2.295       212.566     86.911      1.416       3410.898    2995.224    2663.327    
126.1       84.14       128.257     2.229       4.289       82.08       66.64       70.801      50.336      66.734      55.986      13.906      1.209       2.288       212.566     84.279      1.416       2991.517    2530.457    2182.779    
126.2       79.433      128.59      2.22        4.219       79.92       67.252      70.801      49.336      68.534      56.986      13.907      1.202       2.331       212.566     83.527      1.416       2639.432    2119.264    1744.831    
126.3       76.033      128.226     2.216       4.26        78.84       69.904      70.801      48.336      69.534      58.386      13.885      1.196       2.343       212.566     83.903      1.416       2389.781    1826.253    1431.183    
126.4       71.779      127.932     2.215       4.372       77.76       70.924      70.801      47.536      71.134      60.986      13.893      1.18        2.308       212.566     84.655      1.416       2266.13     1747.346    1381.993    
126.5       69.502      125.878     2.206       4.394       76.68       71.944      70.801      47.536      74.934      62.385      13.856      1.214       2.292       212.566     87.663      1.417       2120.473    1677.861    1363.979    
126.6       65.615      123.75      2.204       4.548       75.6        72.76       70.801      47.336      77.734      64.786      13.794      1.256       2.295       212.566     92.551      1.42        1894.166    1530.512    1274.695    
126.7       60.256      123.863     2.215       4.283       73.44       73.168      71.201      46.536      79.534      64.986      13.712      1.252       2.295       212.566     97.063      1.425       1680.879    1399.683    1209.684    
126.8       63.533      123.93      2.247       4.342       102.6       74.8        73.201      46.536      80.534      66.386      13.659      1.228       2.294       212.566     103.455     1.434       1580.317    1383.413    1262.83     
126.9       70.146      124.709     2.287       4.419       100.44      75.004      74.801      46.536      81.734      69.185      13.574      1.202       2.319       212.566     109.847     1.443       1565.501    1413.314    1333.07     
127.0       63.826      125.507     2.31        4.393       99.36       76.432      75.6        46.536      83.534      71.185      13.489      1.209       2.348       212.566     114.735     1.453       1517.551    1349.557    1264.085    
127.1       57.016      125.085     2.318       4.154       99.36       79.084      79.201      46.736      84.534      73.586      13.399      1.163       2.317       212.566     120.375     1.46        1393.89     1149.246    1012.46     
127.2       57.148      124.377     2.315       3.914       109.08      79.9        82.4        47.736      85.334      76.986      13.338      1.174       2.281       212.566     125.263     1.465       1204.977    896.174     719.35      
127.3       59.156      123.724     2.323       4.177       110.16      80.104      88.801      48.936      85.334      77.986      13.359      1.199       2.254       212.566     127.519     1.467       953.205     631.645     456.565     
127.4       66.374      123.135     2.329       4.167       114.48      80.92       88.801      50.136      85.134      78.786      13.362      1.22        2.24        212.566     129.399     1.467       737.032     441.221     293.561     
127.5       78.886      123.088     2.307       4.166       102.6       81.532      88.401      48.336      84.334      78.386      13.32       1.183       2.278       212.566     130.527     1.467       657.702     385.404     254.223     
127.6       76.033      123.853     2.276       4.225       99.36       84.184      86.401      47.536      83.934      74.986      13.289      1.17        2.28        212.038     129.775     1.467       651.26      406.43      289.106     
127.7       48.195      123.487     2.253       4.584       98.28       85.204      84.401      47.336      82.134      67.586      13.261      1.186       2.208       211.51      129.023     1.467       560.539     376.824     302.728     
