~Version Information Section
VERS.                                         2.0:CWLS log ASCII Standart – VERSION 2.0
WRAP.                                          NO:One line per depth step
~Well Information Section
STRT.M                                        1.0:Начальная глубина
STOP.M                                      151.7:Конечная глубина
STEP.M                                          0:Шаг квантования по глубине
NULL.                                    -9999.25:Признак "Нет данных"
WELL.                                       117Мх:Скважина
~Parameter Information Section
~Curve Information Section
DEPTH.M                                          :Глубина
DСР.мм                                           :Dср
ГК.гамма                                         :GK
ИК.мСм/м                                         :IK
N0.5M2.0A.Омм.                                   :N0.5M2.0A.Омм
R.Омм                                            :R
U1.                                              :U1
U2.                                              :U2
U3.                                              :U3
W.имп/1,25с                                      :W
А0.4М0.1N.Омм.                                   :А0.4М0.1N.Омм
А1.0М0.1N.Омм.                                   :А1.0М0.1N.Омм
А2.0М0.5N.Омм.                                   :А2.0М0.5N.Омм
А4.0М0.5N.Oмм.                                   :А4.0М0.5N.Oмм
А8.0М1.0N.Омм.                                   :А8.0М1.0N.Омм
БЗ.имп/мин                                       :БЗ
БК.Омм                                           :БК
КС.Омм                                           :КС
ПС.                                              :ПС
МЗ.имп/мин                                       :МЗ
НГК.имп/1,25с                                    :ННКб
ННКМ.имп/1,25с                                   :ННКм
ПЛОТНОСТЬГГК.г/см3                               :плотностьГГК
~ASCII LOG DATA
# ...
35.8        140.027     8.083       13.774      15.989      1.238       202.063     62.048      126.764     34.771      15.42       14.177      12.265      12.229      13.41       14280.0     13.796      17.161      179.242     6300.0      1.843       1.366       2.227       
35.9        140.048     8.161       13.77       15.998      1.237       176.074     52.93       109.791     34.305      17.034      15.88       13.236      12.837      13.489      14260.0     14.152      17.282      178.835     6220.0      1.919       1.396       2.224       
36.0        140.149     8.28        13.769      16.308      1.235       155.335     46.826      96.833      33.69       18.154      17.058      14.39       13.934      13.452      14160.0     14.47       17.383      178.427     6080.0      1.986       1.417       2.221       
36.1        139.878     8.403       13.805      16.821      1.235       139.307     42.761      87.507      33.122      17.68       16.49       16.346      14.536      13.443      14620.0     14.602      17.401      178.02      6040.0      2.031       1.419       2.219       
36.2        139.78      8.514       13.896      17.296      1.236       144.47      45.617      91.2        32.716      16.83       15.803      18.421      14.194      13.737      14700.0     14.487      17.327      177.612     5980.0      2.059       1.411       2.222       
36.3        139.728     8.58        13.965      17.844      1.236       161.206     50.634      100.816     32.49       16.767      15.875      19.59       13.583      14.41       14220.0     14.251      17.253      177.205     5820.0      2.071       1.394       2.229       
36.4        140.238     8.619       14.023      17.947      1.24        177.49      54.834      110.369     32.453      17.569      16.54       19.974      13.263      15.102      14080.0     14.043      17.271      176.798     5880.0      2.054       1.388       2.239       
36.5        139.517     8.664       14.092      17.55       1.25        193.335     59.582      119.536     32.471      18.251      17.549      19.37       13.783      15.641      14180.0     13.902      17.377      176.39      6060.0      2.012       1.383       2.246       
36.6        139.445     8.701       14.122      17.16       1.246       204.468     62.292      125.071     32.431      18.032      17.498      18.354      14.944      16.222      14380.0     13.796      17.553      175.986     6160.0      1.96        1.366       2.246       
36.7        139.5       8.689       14.125      17.038      1.242       205.713     60.718      125.105     32.304      16.749      16.38       17.553      16.113      16.722      14440.0     13.72       17.743      175.592     6380.0      1.913       1.355       2.243       
36.8        139.529     8.728       14.134      18.3        1.247       195.386     56.982      119.216     32.107      15.51       15.013      17.003      17.167      16.927      14800.0     13.895      17.858      175.212     6580.0      1.927       1.351       2.239       
36.9        139.488     8.86        14.157      21.327      1.24        185.059     53.247      113.328     31.89       15.121      14.273      17.209      18.05       17.033      14880.0     14.588      17.929      174.851     6680.0      2.01        1.366       2.228       
37.0        139.478     9.028       14.176      23.389      1.233       171.802     47.827      105.863     31.772      15.462      15.814      18.424      17.679      17.27       15040.0     15.478      17.976      174.512     6560.0      2.106       1.383       2.219       
37.1        139.466     9.245       14.217      23.697      1.233       158.545     42.407      98.398      31.719      17.793      19.674      19.809      17.061      17.554      15420.0     16.178      17.932      174.201     6460.0      2.158       1.402       2.21        
37.2        139.521     9.413       14.293      24.527      1.235       145.301     39.38       91.346      31.653      21.15       22.953      20.915      19.454      17.545      15540.0     16.773      17.866      173.922     6420.0      2.144       1.412       2.207       
37.3        139.579     9.449       14.408      24.507      1.248       132.056     36.352      84.293      31.506      20.545      21.298      21.64       20.67       17.04       15420.0     16.896      17.825      173.675     6360.0      2.099       1.431       2.21        
37.4        139.62      9.333       14.554      22.746      1.247       116.956     31.347      75.067      31.349      19.441      20.294      20.827      16.749      16.239      15340.0     16.085      17.807      173.459     6100.0      2.055       1.441       2.216       
37.5        139.557     8.979       14.674      20.935      1.243       105.225     27.478      67.805      31.263      21.354      21.341      19.177      14.527      15.408      14800.0     14.866      17.895      173.274     6000.0      2.055       1.423       2.223       
37.6        139.838     8.301       14.736      20.345      1.234       95.776      23.816      61.653      31.197      20.907      18.549      18.558      15.772      14.597      14380.0     13.954      18.033      173.12      5900.0      2.095       1.383       2.232       
37.7        140.688     7.729       14.73       20.358      1.233       96.204      22.046      60.591      31.124      18.624      15.438      18.223      16.022      13.943      13640.0     13.516      18.122      172.994     5760.0      2.122       1.349       2.241       
37.8        140.715     7.435       14.653      20.047      1.232       98.315      22.949      60.705      31.081      17.122      14.614      17.701      15.406      13.616      13260.0     13.637      18.197      172.888     5720.0      2.116       1.351       2.253       
37.9        140.208     7.272       14.559      19.472      1.231       102.283     25.83       62.991      31.228      18.505      16.913      17.45       15.49       13.491      13060.0     14.141      18.239      172.8       5780.0      2.116       1.375       2.261       
38.0        139.367     7.421       14.508      18.813      1.232       104.907     26.575      64.789      31.596      20.673      18.944      17.402      16.576      13.247      13080.0     14.598      18.286      172.724     5740.0      2.147       1.443       2.268       
38.1        139.328     7.819       14.517      18.266      1.248       105.249     27.112      65.477      31.957      20.333      17.676      17.222      16.452      12.807      13160.0     14.74       18.402      172.656     5720.0      2.159       1.502       2.272       
38.2        139.341     8.007       14.594      16.781      1.255       119.214     32.678      73.715      32.118      18.888      16.496      16.347      14.204      12.44       12800.0     14.365      18.542      172.592     5720.0      2.1         1.495       2.276       
38.3        139.372     7.923       14.686      14.785      1.243       131.494     35.571      80.777      32.297      17.972      16.374      15.104      12.939      12.324      12200.0     13.586      18.724      172.527     5640.0      2.019       1.431       2.28        
38.4        139.375     7.753       14.751      14.27       1.237       153.357     42.37       94.447      32.408      17.853      15.968      14.039      14.726      12.374      12260.0     12.933      18.943      172.46      5600.0      1.984       1.356       2.28        
38.5        139.496     7.407       14.763      15.616      1.244       176.562     51.306      108.605     32.365      16.931      14.477      13.612      17.251      12.476      12120.0     13.38       19.155      172.393     5600.0      2.012       1.328       2.277       
38.6        139.51      7.095       14.701      16.627      1.245       185.181     55.64       114.347     31.876      15.67       13.762      14.1        17.635      12.681      12140.0     14.659      19.334      172.327     5580.0      2.087       1.406       2.275       
