~Version Information Section
VERS.                                         2.0:CWLS log ASCII Standart – VERSION 2.0
WRAP.                                          NO:One line per depth step
~Well Information Section
STRT.M                                        1.0:Начальная глубина
STOP.M                                      192.9:Конечная глубина
STEP.M                                          0:Шаг квантования по глубине
NULL.                                    -9999.25:Признак "Нет данных"
WELL.                                       123Мх:Скважина
~Parameter Information Section
~Curve Information Section
DEPTH.M                                          :Глубина
BK.lgОмм                                         :BK     (БК)
ПРОФ_СР.мм                                       :DS  (ДС)
ГК.мкР/час                                       :GK          (ГК)
ГЗ1.Омм                                          :GZ1   ГЗ1(A0.4M0.1N)
ГЗ2.Омм                                          :GZ2   ГЗ2(A1.0M0.1N)
ГЗ3.Омм                                          :GZ3   ГЗ3(A2.0M0.5N)
ГЗ4.Oмм                                          :GZ4   ГЗ4(A4.0M0.5N)
ГЗ5.Oмм                                          :GZ5   ГЗ5(A8.0M0.5N)
ГЗК.Омм                                          :GZK   ГЗK(N0.5M2.0A)
ИК.мСм/м                                         :IK
НГК.усл.ед.                                      :NGK     (НГК)
PS.мВ                                            :PS       (ПС)
PZ.Омм                                           :PZ    (КС)
RIS.Омм                                          :RS (Резистивиметр)
U1.мВ                                            :U1
U2.мВ                                            :U2
U3.mv                                            :U3
W.                                               :W
П.%                                              :п
ННКМ.усл.ед                                      :ННКм
~ASCII LOG DATA
# ...
71.4        22.803      135.003     5.412       67.32       64.6        104.801     44.203      61.334      65.119      9.942       1.135       256.606     65.855      1.274       795.344     432.424     277.754     2.255       32.169      0.194       
71.5        21.677      134.595     5.429       66.96       64.26       102.801     43.869      61.334      64.786      9.637       1.113       256.606     65.103      1.274       881.741     466.905     291.756     2.287       32.064      0.194       
71.6        21.528      136.652     5.406       66.96       63.58       100.801     43.203      61.334      64.119      9.466       1.06        256.606     64.351      1.274       882.896     541.414     392.897     2.31        32.574      0.189       
71.7        20.797      135.059     5.377       66.96       62.9        99.468      42.536      61.334      63.119      9.325       1.038       256.606     63.599      1.274       835.939     633.247     542.999     2.312       32.61       0.187       
71.8        22.751      137.536     5.588       66.6        62.56       97.468      41.536      61.334      62.119      9.14        1.018       256.606     62.471      1.274       820.372     704.725     660.795     2.312       33.042      0.176       
71.9        26.122      135.4       5.517       66.24       62.22       95.468      40.536      61.334      61.119      8.996       1.012       256.606     61.343      1.274       834.094     756.988     747.912     2.324       32.258      0.177       
72.0        22.542      134.992     5.602       65.16       61.88       92.801      39.536      61.001      60.119      8.87        1.022       256.606     60.591      1.274       850.76      801.913     818.791     2.337       32.164      0.184       
72.1        19.77       136.202     5.928       64.08       61.54       91.468      38.536      60.001      59.119      8.668       1.064       256.606     59.463      1.274       871.54      840.263     873.787     2.344       31.529      0.184       
72.2        18.836      134.234     6.213       62.64       60.86       89.468      37.203      58.667      57.786      8.561       1.046       256.606     57.959      1.274       952.798     909.157     930.341     2.34        31.758      0.19        
72.3        18.239      134.134     6.564       61.56       59.5        87.468      35.869      57.334      56.453      8.464       1.019       256.606     56.831      1.274       1091.713    1015.639    1004.037    2.332       31.794      0.192       
72.4        19.543      135.205     6.619       60.48       57.8        84.801      34.536      56.334      55.119      8.372       0.984       256.606     55.703      1.274       1196.187    1079.764    1028.653    2.318       32.976      0.18        
72.5        21.827      134.868     6.953       59.04       56.1        82.801      33.536      55.334      53.786      8.309       0.969       256.606     54.575      1.275       1209.734    1064.71     987.399     2.307       33.381      0.17        
72.6        20.324      136.903     7.341       57.6        54.74       80.134      32.536      54.001      53.119      8.244       0.96        256.606     53.823      1.277       1132.345    970.465     880.262     2.309       33.532      0.173       
72.7        18.535      135.428     7.466       56.16       53.72       77.468      31.536      52.667      52.453      8.108       0.958       256.606     53.071      1.279       991.35      845.265     772.868     2.313       33.766      0.181       
72.8        17.061      135.047     7.439       55.08       52.02       75.468      30.536      51.001      51.453      7.984       0.991       256.606     51.943      1.282       786.74      689.099     665.204     2.303       34.578      0.184       
72.9        16.331      135.581     7.374       54.0        50.32       73.468      29.536      50.001      50.119      7.877       1.006       256.606     50.815      1.285       618.929     568.102     588.763     2.303       36.154      0.186       
73.0        15.524      135.626     7.232       52.92       48.28       71.468      28.203      49.001      48.119      7.797       1.004       256.606     49.687      1.288       551.527     513.236     543.81      2.289       37.319      0.18        
73.1        14.859      135.868     7.073       52.2        47.26       68.134      27.203      48.001      46.453      7.779       0.981       256.606     47.807      1.293       641.552     505.211     479.767     2.292       38.417      0.166       
73.2        14.825      136.117     6.922       51.48       46.24       65.468      25.869      46.334      44.453      7.814       0.987       256.606     45.927      1.3         788.582     477.897     365.156     2.302       38.046      0.159       
73.3        16.293      139.732     6.731       50.76       44.54       62.801      24.869      44.667      42.786      7.904       0.966       256.606     44.047      1.31        864.501     422.632     245.982     2.299       37.853      0.161       
73.4        16.596      142.928     6.721       50.04       42.84       60.801      23.536      43.001      41.119      7.998       1.018       256.229     42.167      1.322       812.296     358.707     172.82      2.307       36.925      0.169       
73.5        17.378      136.692     6.655       49.32       41.48       58.801      22.869      41.001      38.786      8.08        1.065       255.852     39.911      1.335       631.971     286.124     145.672     2.312       36.091      0.173       
73.6        18.03       136.846     6.833       48.6        40.8        55.468      22.536      39.001      36.786      8.106       1.11        255.475     38.031      1.345       639.439     379.449     264.429     2.316       35.083      0.17        
73.7        16.943      137.897     6.726       47.88       40.12       52.134      22.203      37.334      34.453      8.115       1.064       254.72      36.527      1.355       677.019     490.977     409.628     2.336       35.006      0.171       
73.8        15.849      136.674     6.75        47.52       38.42       48.801      21.869      35.667      32.453      8.11        0.983       253.589     35.023      1.363       744.715     620.718     581.284     2.342       34.584      0.177       
73.9        15.205      135.96      6.449       47.52       37.06       46.801      21.203      34.001      30.453      8.08        0.964       252.08      33.519      1.371       654.724     602.761     633.49      2.37        34.259      0.18        
74.0        15.524      135.091     6.22        47.52       35.36       44.801      20.536      31.667      28.786      8.127       0.983       250.572     32.015      1.38        558.004     569.092     678.568     2.374       33.538      0.174       
74.1        18.493      135.177     5.829       47.52       34.34       42.801      19.869      30.001      27.453      8.154       1.018       249.44      30.511      1.391       454.544     519.708     716.522     2.377       33.432      0.164       
74.2        21.478      137.085     5.689       47.52       32.98       41.468      19.536      27.667      25.453      8.214       1.021       247.932     29.007      1.402       432.134     474.796     683.236     2.386       32.979      0.16        
74.3        20.606      139.886     5.696       47.52       31.96       40.134      19.203      26.334      23.786      8.254       1.016       246.423     27.879      1.413       497.495     450.061     585.841     2.397       33.188      0.163       
74.4        21.086      140.358     5.754       47.52       30.94       39.468      18.869      25.334      22.453      8.305       1.033       244.915     27.127      1.421       650.628     445.506     424.338     2.409       32.649      0.178       
74.5        21.878      136.147     5.832       47.52       29.58       38.801      18.536      25.334      21.786      8.321       1.034       243.406     26.751      1.425       750.388     458.622     339.307     2.41        32.542      0.186       
