~Version Information Section
VERS.                                         2.0:CWLS log ASCII Standart – VERSION 2.0
WRAP.                                          NO:One line per depth step
~Well Information Section
STRT.M                                        0.6:Начальная глубина
STOP.M                                      143.2:Конечная глубина
STEP.M                                          0:Шаг квантования по глубине
NULL.                                    -9999.25:Признак "Нет данных"
WELL.                                       116Мх:Скважина
~Parameter Information Section
~Curve Information Section
DEPTH.M                                          :Глубина
BK.lgОмм                                         :BK     (БК)
ПРОФ_СР.мм                                       :DS  (ДС)
ГК.мкР/час                                       :GK          (ГК)
ГЗ1.Омм                                          :GZ1   ГЗ1(A0.4M0.1N)
ГЗ2.Омм                                          :GZ2   ГЗ2(A1.0M0.1N)
ГЗ3.Омм                                          :GZ3   ГЗ3(A2.0M0.5N)
ГЗ4.Oмм                                          :GZ4   ГЗ4(A4.0M0.5N)
ГЗ5.Oмм                                          :GZ5   ГЗ5(A8.0M0.5N)
ГЗК.Омм                                          :GZK   ГЗK(N0.5M2.0A)
ИК.мСм/м                                         :IK
НГК.усл.ед.                                      :NGK     (НГК)
ПС.мВ                                            :PS       (ПС)
PZ.Омм                                           :PZ    (КС)
RIS.Омм                                          :RS (Резистивиметр)
U1.мВ                                            :U1
U2.mV                                            :U2
U3.мВ                                            :U3
W.г/см3                                          :ГГКп
П.%                                              :п
ННКМ.усл.ед                                      :ННКм
~ASCII LOG DATA
# ...
99.8        31.117      159.384     6.557       34.794      44.905      45.899      43.152      27.868      83.222      16.068      1.059       466.107     102.8       1.125       660.298     810.0       778.239     2.406       31.302      2.169       
99.9        30.339      161.476     6.735       34.78       45.078      45.979      43.248      27.801      83.151      16.254      1.061       468.16      102.8       1.125       619.724     810.0       850.0       2.39        32.474      2.178       
100.0       26.977      160.811     6.86        34.736      45.308      46.059      43.338      27.744      83.086      16.293      1.023       470.213     102.8       1.125       585.925     758.302     860.0       2.38        33.639      2.168       
100.1       23.933      159.554     6.888       34.67       45.582      46.155      43.424      27.698      83.027      16.532      1.036       472.381     102.8       1.125       555.361     723.559     940.0       2.383       34.753      2.131       
100.2       23.659      160.408     7.019       34.595      45.884      46.283      43.51       27.665      82.973      16.762      1.06        474.776     102.8       1.125       521.626     707.317     940.0       2.393       35.219      2.071       
100.3       22.594      155.118     6.533       34.516      46.187      46.443      43.6        27.644      82.921      17.063      1.127       477.4       102.8       1.125       494.542     707.317     960.0       2.388       35.114      2.032       
100.4       24.434      152.621     5.766       34.437      46.503      46.635      43.699      27.634      82.873      17.186      1.154       480.024     102.8       1.125       600.0       728.125     960.0       2.399       35.642      2.018       
100.5       31.046      151.763     4.79        34.361      46.748      46.859      43.824      27.633      82.827      17.872      1.149       482.305     102.8       1.125       600.0       771.915     980.0       2.407       36.076      2.021       
100.6       48.084      151.677     4.216       34.292      46.95       47.083      43.968      27.633      82.787      18.583      1.126       484.13      102.8       1.125       610.0       836.454     1010.0      2.409       34.374      2.052       
100.7       130.317     151.638     3.875       34.232      47.137      47.275      44.125      27.633      82.754      18.789      1.141       485.385     102.8       1.125       610.0       730.0       1010.0      2.433       32.83       2.178       
100.8       179.887     151.744     3.44        34.179      47.339      47.451      44.291      27.633      82.729      19.513      1.163       486.184     102.8       1.125       630.0       730.0       1020.0      2.437       31.913      2.317       
100.9       176.198     152.112     3.33        34.135      47.526      47.595      44.454      27.641      82.712      19.78       1.173       486.526     102.8       1.125       630.0       740.0       1040.0      2.423       31.602      2.424       
101.0       171.002     152.475     3.5         34.098      47.742      47.723      44.598      27.656      82.702      20.879      1.14        486.64      102.8       1.125       660.0       740.0       1040.0      2.409       32.129      2.503       
101.1       154.525     153.567     3.942       34.067      47.958      47.851      44.726      27.676      82.698      21.623      1.125       486.64      102.8       1.125       660.0       740.0       1030.0      2.401       31.42       2.521       
101.2       136.458     154.16      4.091       34.042      48.145      47.995      44.842      27.701      82.696      21.869      1.125       486.64      102.8       1.125       690.0       740.0       1030.0      2.412       30.501      2.55        
101.3       142.233     154.76      4.326       34.02       48.275      48.123      44.938      27.727      82.696      22.791      1.147       486.64      102.8       1.125       690.0       740.0       1030.0      2.422       29.671      2.572       
101.4       117.49      154.523     4.686       34.0        48.361      48.251      45.018      27.75       82.696      23.469      1.206       486.64      102.8       1.125       720.0       740.0       1040.0      2.458       28.615      2.531       
101.5       97.724      154.088     5.14        33.98       48.404      48.347      45.085      27.769      82.696      23.649      1.263       486.64      102.8       1.125       730.0       760.0       1050.0      2.488       26.814      2.494       
101.6       106.414     153.921     5.179       33.96       48.419      48.411      45.133      27.783      82.696      24.273      1.332       486.64      102.8       1.125       750.0       770.0       1060.0      2.496       24.75       2.54        
101.7       142.233     153.955     5.013       33.937      48.419      48.459      45.152      27.792      82.698      24.797      1.346       486.526     102.815     1.125       750.0       770.0       1060.0      2.515       22.243      2.613       
101.8       199.526     153.572     4.931       33.913      48.419      48.523      45.152      27.798      82.702      24.905      1.414       486.184     102.874     1.125       750.0       780.0       1090.0      2.513       20.837      2.694       
101.9       266.072     153.338     4.85        33.888      48.404      48.603      45.152      27.802      82.712      24.919      1.468       485.385     103.007     1.125       750.0       790.0       1130.0      2.503       19.576      2.769       
102.0       426.58      153.363     4.923       33.864      48.361      48.731      45.139      27.806      82.729      24.81       1.556       484.244     103.2       1.125       750.0       790.0       1130.0      2.506       19.025      2.805       
102.1       364.754     153.74      5.321       33.844      48.289      48.907      45.088      27.814      82.754      24.572      1.611       482.762     103.407     1.125       750.0       820.0       1080.0      2.523       18.482      2.817       
102.2       263.633     154.338     5.811       33.828      48.174      49.115      44.992      27.828      82.786      24.399      1.684       481.279     103.585     1.125       750.0       820.0       1080.0      2.537       17.441      2.859       
102.3       368.129     154.688     5.776       33.816      48.015      49.323      44.854      27.851      82.825      24.121      1.687       479.681     103.733     1.125       730.0       840.0       1080.0      2.554       16.312      2.969       
102.4       501.187     154.876     5.19        33.808      47.828      49.531      44.685      27.883      82.866      23.806      1.663       478.199     103.852     1.125       730.0       860.0       1090.0      2.551       16.146      3.056       
102.5       381.944     155.058     4.769       33.804      47.641      49.707      44.496      27.924      82.904      22.874      1.627       476.716     103.941     1.125       730.0       860.0       1110.0      2.552       16.268      3.076       
102.6       99.083      155.005     4.819       33.801      47.439      49.851      44.301      27.967      82.936      22.222      1.612       475.347     103.985     1.125       730.0       860.0       1110.0      2.553       17.023      3.113       
102.7       39.719      155.309     5.327       33.8        47.238      49.947      44.109      27.994      82.957      21.638      1.539       473.864     103.985     1.125       740.0       860.0       1150.0      2.558       18.213      3.183       
102.8       32.434      155.369     6.145       33.8        47.036      50.011      43.917      27.995      82.964      20.359      1.445       472.153     103.985     1.125       760.0       850.0       1150.0      2.53        19.723      3.197       
102.9       26.977      155.403     6.734       33.799      46.835      50.043      43.718      27.995      82.964      19.699      1.356       470.441     103.926     1.125       770.0       850.0       1150.0      2.484       22.048      3.158       
