~Version Information Section
VERS.                                         2.0:CWLS log ASCII Standart – VERSION 2.0
WRAP.                                          NO:One line per depth step
~Well Information Section
STRT.M                                        0.4:Начальная глубина
STOP.M                                      190.1:Конечная глубина
STEP.M                                          0:Шаг квантования по глубине
NULL.                                    -9999.25:Признак "Нет данных"
WELL.                                       135Мх:Скважина
~Parameter Information Section
~Curve Information Section
DEPTH.M                                          :Глубина
DS.mm                                            :DS  (ДС)
GGK.g/cm3                                        :GGKp
ГК.mcr/h                                         :GK          (ГК)
GZ1.Ohm*M                                        :GZ1   ГЗ1(A0.4M0.1N)
GZ2.Ohm*M                                        :GZ2   ГЗ2(A1.0M0.1N)
GZ3.Ohm*M                                        :GZ3   ГЗ3(A2.0M0.5N)
GZ4.Ohm*M                                        :GZ4   ГЗ4(A4.0M0.5N)
GZ5.Ohm*M                                        :GZ5   ГЗ5(A8.0M0.5N)
GZR.Ohm*M                                        :GZK   ГЗK(N0.5M2.0A)
ИК.Ohm*M                                         :IK
НГК.ue                                           :NGK     (НГК)
NNKM.                                            :NNKm  (ННКм)
PS.mv                                            :PS       (ПС)
PZ.Ohm*M                                         :PZ    (КС)
RS.Ohm*M                                         :RS (Резистивиметр)
U1.mV                                            :U1
U2.mV                                            :U2
U3.mV                                            :U3
BK.Ohm*M                                         :БК
ПОРИСТОСТЬ.                                      :Пористость ННК
~ASCII LOG DATA
# ...
45.2        136.328     2.094       6.398       14.909      7.464       -30.292     -30.671     -31.589     5105.075    27.385      8.005       5.49        378.456     87.828      1.56        864.0       837.334     633.333     63.379      0.224       
45.3        136.07      2.049       5.301       14.004      7.504       -30.259     -30.67      -31.598     5611.171    28.091      8.155       5.554       381.866     85.908      1.56        842.667     818.666     678.667     70.964      0.014       
45.4        136.07      2.007       4.989       13.101      7.948       -30.266     -30.664     -31.606     6018.18     29.016      8.319       5.612       385.158     84.936      1.54        864.0       792.0       713.333     131.661     -0.09       
45.5        137.106     1.974       4.935       12.207      9.158       -30.39      -30.644     -31.611     6280.496    30.064      8.449       5.656       388.244     84.636      1.54        872.0       768.0       710.667     136.545     -0.119      
45.6        139.114     1.938       4.996       11.486      11.51       -30.719     -30.604     -31.612     6469.202    31.182      8.437       5.671       391.058     89.304      1.54        882.667     738.667     713.333     146.551     -0.068      
45.7        140.114     1.915       5.143       11.133      15.353      -31.151     -30.548     -31.612     6651.705    32.273      8.361       5.668       393.418     95.184      1.54        848.0       738.667     726.667     119.432     0.072       
45.8        140.012     1.923       5.258       11.015      19.852      -31.383     -30.48      -31.612     6780.165    33.242      8.263       5.621       395.101     102.888     1.54        874.667     749.334     729.333     109.618     0.21        
45.9        139.307     1.945       5.188       10.864      23.631      -31.428     -30.407     -31.612     6830.36     34.046      8.18        5.568       395.98      107.832     1.54        906.666     773.333     718.667     106.142     0.425       
46.0        138.782     1.979       4.89        10.662      26.046      -31.242     -30.351     -31.61      6721.98     34.648      8.165       5.556       395.892     110.772     1.54        952.0       658.664     702.667     106.066     0.545       
46.1        137.845     2.012       4.54        10.392      26.963      -30.655     -30.316     -31.61      6579.383    35.101      8.16        5.566       394.763     113.028     1.54        957.333     530.667     654.667     104.232     0.861       
46.2        136.584     2.041       4.211       10.112      27.042      -29.757     -30.298     -31.607     6477.208    35.427      8.047       5.617       392.52      115.236     1.54        821.336     397.333     561.335     106.153     1.547       
46.3        136.148     2.056       3.932       9.97        27.241      -28.493     -30.297     -31.597     6347.853    35.643      7.193       5.679       389.312     116.928     1.54        679.997     384.0       492.0       100.731     2.539       
46.4        136.025     2.047       3.989       9.94        28.388      -26.69      -30.303     -31.585     6200.306    35.779      5.593       5.48        385.347     117.864     1.54        536.0       376.0       462.666     93.527      5.747       
46.5        136.017     2.023       4.296       10.065      30.734      -24.129     -30.305     -31.571     5997.725    35.885      3.811       4.89        381.047     118.164     1.54        528.0       373.333     476.0       80.604      8.737       
46.6        135.899     2.013       4.37        10.422      33.237      -20.611     -30.307     -31.558     5701.768    35.914      2.675       4.143       376.699     118.2       1.52        520.0       373.333     460.0       89.872      15.388      
46.7        135.854     2.01        4.242       10.78       34.805      -16.337     -30.311     -31.55      5351.544    35.914      2.209       3.374       372.354     117.528     1.52        512.0       373.333     441.333     82.221      21.106      
46.8        135.854     2.015       4.24        11.034      34.939      -10.933     -30.313     -31.544     4920.646    35.914      2.055       2.782       368.098     115.728     1.52        506.667     362.667     433.333     87.45       23.718      
46.9        135.895     2.033       4.493       11.144      33.279      -3.445      -29.239     -31.54      4401.175    35.931      2.013       2.589       364.299     114.072     1.52        504.0       349.333     433.333     88.053      25.299      
47.0        135.483     2.052       4.659       11.058      30.028      7.204       -24.6       -31.538     3842.861    35.993      2.014       2.584       361.271     110.448     1.52        504.0       333.333     433.333     107.751     25.772      
47.1        135.15      2.066       4.816       10.989      26.14       18.951      -13.032     -31.536     3212.339    36.083      2.03        2.641       359.424     103.956     1.52        504.0       322.667     425.333     122.286     25.745      
47.2        135.15      2.072       4.949       11.012      22.546      27.252      7.184       -31.536     2587.334    36.189      2.058       2.658       359.116     97.308      1.52        504.0       314.667     412.0       122.83      25.415      
47.3        135.282     2.068       5.034       11.16       20.044      29.897      35.339      -31.536     2105.413    36.196      2.084       2.653       360.399     87.168      1.52        490.667     306.667     398.667     129.369     25.161      
47.4        135.263     2.064       4.996       11.501      19.067      25.855      66.926      -31.538     1797.084    36.153      2.065       2.63        363.011     56.256      1.52        482.667     296.0       382.667     103.061     25.021      
47.5        134.985     2.061       4.852       12.024      18.967      17.549      89.319      -31.541     1632.927    36.093      1.99        2.588       366.778     35.784      1.52        482.667     282.667     366.666     100.761     25.122      
47.6        134.985     2.056       4.824       13.006      20.911      8.1         96.761      -31.545     1552.114    36.037      1.949       2.559       371.266     29.772      1.52        496.0       274.667     366.667     112.371     25.309      
47.7        135.044     2.06        4.709       14.623      28.224      -2.006      88.622      -31.549     1498.056    35.996      1.921       2.544       376.007     27.372      1.52        504.0       269.333     372.0       124.233     25.677      
47.8        135.525     2.067       4.934       16.702      42.313      -11.169     64.053      -31.555     1469.551    35.951      1.893       2.536       380.926     25.836      1.5         506.667     266.667     377.333     120.57      25.872      
47.9        135.743     2.067       5.101       19.274      63.241      -18.54      35.361      -31.561     1467.958    35.864      1.842       2.529       386.14      24.6        1.5         506.667     266.667     366.667     108.424     25.636      
48.0        135.444     2.065       5.067       22.359      90.185      -23.436     10.841      -31.569     1492.311    35.721      1.851       2.53        391.847     23.064      1.5         501.333     288.0       356.0       105.102     24.805      
48.1        134.883     2.065       4.989       25.537      118.136     -25.327     -7.587      -31.574     1556.309    35.684      1.948       2.534       397.931     21.972      1.5         488.0       306.667     348.0       80.695      24.227      
48.2        134.554     2.061       5.016       28.149      140.57      -25.711     -16.583     -31.577     1705.979    35.672      2.028       2.533       404.174     20.292      1.5         474.667     320.0       340.0       92.71       23.975      
48.3        134.276     2.053       5.293       29.922      155.52      -25.78      -18.719     -31.577     2038.925    35.621      2.032       2.543       410.355     18.672      1.5         464.0       312.0       334.667     67.236      23.953      
