~Version Information Section
VERS.                                         2.0:CWLS log ASCII Standart – VERSION 2.0
WRAP.                                          NO:One line per depth step
~Well Information Section
STRT.M                                        0.4:Начальная глубина
STOP.M                                      191.4:Конечная глубина
STEP.M                                          0:Шаг квантования по глубине
NULL.                                    -9999.25:Признак "Нет данных"
WELL.                                       113Мх:Скважина
~Parameter Information Section
~Curve Information Section
DEPTH.M                                          :Глубина
БК.Омм                                           :BK     (БК)
DСР.мм                                           :DS  (ДС)
GGKP.g/cm3                                       :GGKp
ГК.гамма                                         :GK          (ГК)
А0.4М0.1N.Омм                                    :GZ1   ГЗ1(A0.4M0.1N)
А1.0М0.1N.Омм                                    :GZ2   ГЗ2(A1.0M0.1N)
А2.0М0.5N.Омм                                    :GZ3   ГЗ3(A2.0M0.5N)
А4.0М0.5N.Oмм                                    :GZ4   ГЗ4(A4.0M0.5N)
А8.0М1.0N.Омм                                    :GZ5   ГЗ5(A8.0M0.5N)
N0.5M2.0A.Омм                                    :GZK   ГЗK(N0.5M2.0A)
ИК.мСм/м                                         :IK
НГК.усл.ед                                       :NNKb  (ННКб)
ННКМ.усл.ед                                      :NNKm  (ННКм)
ПС.мВ                                            :PS       (ПС)
PZ.Омм                                           :PZ    (КС)
R.Омм                                            :RS (Резистивиметр)
U1.мВ                                            :U1
U2.mV                                            :U2
U3.мВ                                            :U3
КП.%                                             :Кп
~ASCII LOG DATA
# ...
154.0       297.483     125.708     2.463       5.109       131.517     97.199      55.504      51.099      71.355      48.997      19.183      4.982       2.451       146.286     113.279     1.12        288.678     279.962     438.639     19.177      
154.2       226.034     126.339     2.452       5.232       79.568      60.693      29.972      24.638      44.428      35.031      17.068      4.703       2.501       146.666     94.627      1.12        248.217     317.19      605.242     19.834      
154.4       64.079      126.371     2.434       6.044       38.676      28.465      12.129      7.998       20.804      18.863      14.802      3.753       2.145       147.412     78.042      1.12        336.762     340.644     583.532     23.033      
154.6       19.889      126.332     2.405       6.414       21.934      17.854      6.554       3.29        8.2         12.003      13.257      2.85        1.788       148.604     67.434      1.12        421.672     327.832     435.281     26.335      
154.8       17.737      126.354     2.381       6.15        17.646      17.153      5.588       2.309       4.209       11.201      12.406      2.624       1.7         150.284     62.402      1.12        360.071     272.431     362.325     29.819      
155.0       18.02       126.381     2.362       6.162       15.851      17.048      5.476       1.998       3.421       11.201      12.09       2.62        1.7         152.435     60.178      1.12        242.913     211.238     321.318     31.346      
155.2       18.719      126.341     2.341       6.623       15.4        16.922      5.476       1.902       3.224       11.667      11.996      2.426       1.682       154.988     58.715      1.12        168.32      162.174     244.313     31.42       
155.4       19.418      126.406     2.34        6.896       15.4        16.802      5.702       1.862       3.116       12.451      12.016      2.452       1.656       157.816     57.343      1.12        215.609     184.839     251.745     31.506      
155.6       20.187      126.369     2.354       6.316       15.426      16.465      6.655       1.835       2.98        13.187      12.068      2.511       1.633       160.734     56.01       1.12        272.329     244.387     342.438     30.487      
155.8       20.573      126.394     2.362       6.071       15.653      15.893      8.99        1.832       2.798       13.923      12.146      2.567       1.629       163.537     54.742      1.12        375.155     320.203     408.621     30.554      
156.0       21.312      126.328     2.369       6.148       16.055      15.307      12.901      1.835       2.642       14.5        12.272      2.682       1.676       166.036     53.582      1.12        492.912     358.094     390.89      30.412      
156.2       22.471      126.353     2.366       6.129       16.563      15.033      16.878      1.88        2.541       14.785      12.406      2.651       1.738       168.108     52.583      1.12        449.199     311.961     316.23      30.183      
156.4       22.032      126.394     2.36        6.207       16.943      14.949      18.767      1.954       2.475       14.83       12.437      2.651       1.744       169.705     51.814      1.12        403.515     263.112     245.191     30.404      
156.6       20.805      126.389     2.365       6.138       17.108      14.948      18.942      2.099       2.43        14.854      12.356      2.539       1.664       170.842     51.327      1.12        408.762     267.551     229.194     30.09       
156.8       20.426      126.396     2.366       6.055       17.167      14.977      18.691      2.355       2.407       14.88       12.335      2.496       1.643       171.594     51.097      1.12        457.699     276.461     226.656     30.516      
157.0       20.76       126.422     2.359       6.144       17.227      15.156      18.019      2.714       2.399       14.909      12.355      2.535       1.631       172.079     51.039      1.12        350.803     228.286     247.311     30.59       
157.2       21.127      126.5       2.353       6.357       17.307      15.455      17.5        3.118       2.388       15.017      12.405      2.615       1.655       172.446     51.089      1.12        385.466     277.824     340.562     29.922      
157.4       21.212      126.564     2.351       6.418       17.346      15.684      17.108      3.654       2.367       15.129      12.413      2.598       1.684       172.837     51.225      1.12        514.662     370.95      373.672     30.145      
157.6       20.674      126.637     2.354       6.646       17.34       15.759      16.869      4.516       2.343       15.23       12.361      2.549       1.662       173.353     51.44       1.12        597.656     389.514     305.69      31.057      
157.8       20.309      126.531     2.354       6.866       17.35       15.785      16.759      6.25        2.322       15.384      12.312      2.409       1.62        174.028     51.675      1.12        419.41      259.108     249.67      30.877      
158.0       20.432      126.551     2.335       6.562       17.305      15.72       16.684      9.524       2.305       15.587      12.291      2.531       1.649       174.82      51.859      1.12        302.408     248.427     325.579     30.821      
158.2       20.583      126.564     2.328       6.509       17.242      15.597      16.573      13.656      2.286       15.8        12.269      2.581       1.655       175.632     51.96       1.12        284.326     294.368     431.892     30.321      
158.4       20.498      126.606     2.343       6.555       17.133      15.413      16.372      16.406      2.267       16.022      12.269      2.585       1.641       176.366     51.994      1.12        409.372     352.389     415.451     30.689      
158.6       20.816      126.703     2.355       6.052       17.015      15.245      16.102      16.987      2.248       16.255      12.299      2.507       1.66        176.963     52.0        1.12        387.179     293.989     294.351     30.3        
158.8       20.683      126.676     2.346       6.114       16.918      15.156      15.848      16.901      2.226       16.471      12.29       2.591       1.699       177.426     51.999      1.12        329.644     275.303     311.706     30.732      
159.0       20.144      126.713     2.326       6.438       16.857      15.115      15.693      16.279      2.206       16.723      12.229      2.55        1.64        177.785     51.983      1.12        342.74      311.441     370.964     29.904      
159.2       19.85       126.733     2.322       6.527       16.843      15.08       15.597      15.719      2.192       17.151      12.208      2.486       1.612       178.063     51.92       1.12        386.023     309.525     355.654     30.785      
159.4       20.213      126.726     2.335       6.403       16.847      15.025      15.417      15.062      2.181       17.751      12.234      2.507       1.636       178.254     51.777      1.12        285.977     236.097     278.542     31.159      
159.6       20.607      126.769     2.358       6.319       16.91       14.935      15.105      14.282      2.162       18.392      12.289      2.534       1.667       178.338     51.56       1.12        224.684     147.999     158.006     30.797      
159.8       20.516      126.753     2.361       6.341       16.969      14.834      14.751      13.517      2.108       18.978      12.31       2.589       1.67        178.292     51.325      1.12        252.642     154.132     149.808     30.553      
160.0       20.375      126.729     2.346       6.044       16.978      14.75       14.458      12.931      1.993       19.327      12.304      2.562       1.673       178.096     51.141      1.12        410.537     242.967     214.446     30.402      
160.2       20.27       126.832     2.328       5.865       16.941      14.719      14.208      12.507      1.854       19.352      12.3        2.543       1.657       177.724     51.04       1.12        445.878     314.31      324.087     30.593      
