~Version Information Section
VERS.                                         2.0:CWLS log ASCII Standart – VERSION 2.0
WRAP.                                          NO:One line per depth step
~Well Information Section
STRT.M                                        1.0:Начальная глубина
STOP.M                                      208.3:Конечная глубина
STEP.M                                          0:Шаг квантования по глубине
NULL.                                    -9999.25:Признак "Нет данных"
WELL.                                       131Мх:Скважина
~Parameter Information Section
~Curve Information Section
DEPTH.M                                          :Глубина
БК.Омм                                           :BK     (БК)
DСР.мм                                           :DS  (ДС)
ГК.гамма                                         :GK          (ГК)
А0.4М0.1N.Омм.ohmm                               :GZ1   ГЗ1(A0.4M0.1N)
А1.0М0.1N.Омм.ohmm                               :GZ2   ГЗ2(A1.0M0.1N)
А2.0М0.5N.Омм.ohmm                               :GZ3   ГЗ3(A2.0M0.5N)
А4.0М0.5N.Oмм.ohmm                               :GZ4   ГЗ4(A4.0M0.5N)
А8.0М1.0N.Омм.ohmm                               :GZ5   ГЗ5(A8.0M0.5N)
N0.5M2.0A.Омм.ohmm                               :GZK   ГЗK(N0.5M2.0A)
ИК.мСм/м                                         :IK
НГК.усл.ед                                       :NGK     (НГК)
ПС.mv                                            :PS       (ПС)
П.%                                              :п
PZ.Омм                                           :PZ    (КС)
R.Омм                                            :RS (Резистивиметр)
U1.мВ                                            :U1
U2.mV                                            :U2
U3.мВ                                            :U3
W.г/см3                                          :ГГКп
~ASCII LOG DATA
# ...
137.4       184.076     129.319     3.957       -9999.25    -9999.25    -9999.25    -9999.25    -9999.25    -9999.25    40.053      1.462       54.063      21.421      149.368     1.12        1290.402    1311.427    1351.611    2.462       
137.45      -9999.25    -9999.25    -9999.25    97.078      75.464      40.656      31.521      50.257      54.368      -9999.25    -9999.25    -9999.25    -9999.25    -9999.25    -9999.25    -9999.25    -9999.25    -9999.25    -9999.25    
137.5       138.055     130.065     4.229       -9999.25    -9999.25    -9999.25    -9999.25    -9999.25    -9999.25    40.053      1.43        55.111      22.278      159.479     1.12        1287.81     1298.017    1326.791    2.465       
137.55      -9999.25    -9999.25    -9999.25    93.394      77.493      40.656      31.948      51.012      57.899      -9999.25    -9999.25    -9999.25    -9999.25    -9999.25    -9999.25    -9999.25    -9999.25    -9999.25    -9999.25    
137.6       78.288      130.656     4.441       -9999.25    -9999.25    -9999.25    -9999.25    -9999.25    -9999.25    39.895      1.428       56.549      23.193      167.021     1.12        1287.81     1298.017    1325.157    2.48        
137.65      -9999.25    -9999.25    -9999.25    93.394      80.031      41.008      33.584      52.526      63.038      -9999.25    -9999.25    -9999.25    -9999.25    -9999.25    -9999.25    -9999.25    -9999.25    -9999.25    -9999.25    
137.7       54.466      130.743     4.633       -9999.25    -9999.25    -9999.25    -9999.25    -9999.25    -9999.25    39.502      1.381       58.295      22.895      172.876     1.12        1311.361    1309.005    1325.157    2.486       
137.75      -9999.25    -9999.25    -9999.25    93.394      82.735      42.67       36.293      54.471      69.275      -9999.25    -9999.25    -9999.25    -9999.25    -9999.25    -9999.25    -9999.25    -9999.25    -9999.25    -9999.25    
137.8       55.905      130.412     4.869       -9999.25    -9999.25    -9999.25    -9999.25    -9999.25    -9999.25    38.911      1.353       60.285      22.145      177.267     1.12        1318.973    1326.225    1342.398    2.49        
137.85      -9999.25    -9999.25    -9999.25    93.394      85.863      45.398      39.913      56.22       74.878      -9999.25    -9999.25    -9999.25    -9999.25    -9999.25    -9999.25    -9999.25    -9999.25    -9999.25    -9999.25    
137.9       58.424      132.183     5.085       -9999.25    -9999.25    -9999.25    -9999.25    -9999.25    -9999.25    38.394      1.354       62.421      21.536      180.744     1.12        1318.973    1326.225    1337.688    2.506       
137.95      -9999.25    -9999.25    -9999.25    96.78       89.503      49.128      44.067      57.044      77.764      -9999.25    -9999.25    -9999.25    -9999.25    -9999.25    -9999.25    -9999.25    -9999.25    -9999.25    -9999.25    
138.0       54.363      132.117     5.049       -9999.25    -9999.25    -9999.25    -9999.25    -9999.25    -9999.25    38.03       1.342       64.572      20.812      183.674     1.12        1338.802    1327.384    1311.582    2.499       
138.05      -9999.25    -9999.25    -9999.25    107.065     94.473      53.696      47.76       57.15       77.764      -9999.25    -9999.25    -9999.25    -9999.25    -9999.25    -9999.25    -9999.25    -9999.25    -9999.25    -9999.25    
138.1       49.678      131.776     4.909       -9999.25    -9999.25    -9999.25    -9999.25    -9999.25    -9999.25    37.756      1.368       66.756      19.343      185.77      1.12        1427.093    1357.55     1311.582    2.479       
138.15      -9999.25    -9999.25    -9999.25    120.052     98.602      58.123      49.688      57.15       77.764      -9999.25    -9999.25    -9999.25    -9999.25    -9999.25    -9999.25    -9999.25    -9999.25    -9999.25    -9999.25    
138.2       92.432      131.747     4.697       -9999.25    -9999.25    -9999.25    -9999.25    -9999.25    -9999.25    37.483      1.432       69.081      17.926      186.721     1.12        1458.052    1383.191    1329.893    2.456       
138.25      -9999.25    -9999.25    -9999.25    129.804     100.846     60.981      49.688      56.414      77.138      -9999.25    -9999.25    -9999.25    -9999.25    -9999.25    -9999.25    -9999.25    -9999.25    -9999.25    -9999.25    
138.3       185.373     132.416     4.43        -9999.25    -9999.25    -9999.25    -9999.25    -9999.25    -9999.25    37.318      1.557       71.641      16.564      186.721     1.12        1458.052    1407.39     1378.064    2.439       
138.35      -9999.25    -9999.25    -9999.25    133.494     100.846     61.953      49.688      54.094      72.903      -9999.25    -9999.25    -9999.25    -9999.25    -9999.25    -9999.25    -9999.25    -9999.25    -9999.25    -9999.25    
138.4       236.467     133.112     4.225       -9999.25    -9999.25    -9999.25    -9999.25    -9999.25    -9999.25    37.426      1.686       74.506      15.354      186.721     1.12        1493.806    1439.967    1407.902    2.45        
138.45      -9999.25    -9999.25    -9999.25    133.494     100.846     61.953      49.294      50.272      65.528      -9999.25    -9999.25    -9999.25    -9999.25    -9999.25    -9999.25    -9999.25    -9999.25    -9999.25    -9999.25    
138.5       237.059     131.792     4.04        -9999.25    -9999.25    -9999.25    -9999.25    -9999.25    -9999.25    37.714      1.818       77.654      14.222      186.582     1.12        1564.07     1486.686    1433.213    2.461       
138.55      -9999.25    -9999.25    -9999.25    133.494     100.207     61.953      46.627      45.585      56.536      -9999.25    -9999.25    -9999.25    -9999.25    -9999.25    -9999.25    -9999.25    -9999.25    -9999.25    -9999.25    
138.6       275.007     133.213     3.86        -9999.25    -9999.25    -9999.25    -9999.25    -9999.25    -9999.25    38.064      1.916       80.89       13.876      185.303     1.12        1638.888    1547.893    1482.553    2.468       
138.65      -9999.25    -9999.25    -9999.25    129.68      96.47       60.568      42.01       40.735      48.073      -9999.25    -9999.25    -9999.25    -9999.25    -9999.25    -9999.25    -9999.25    -9999.25    -9999.25    -9999.25    
138.7       387.42      134.562     3.865       -9999.25    -9999.25    -9999.25    -9999.25    -9999.25    -9999.25    38.375      1.964       83.999      15.015      182.85      1.12        1636.121    1562.578    1513.607    2.502       
138.75      -9999.25    -9999.25    -9999.25    117.744     89.295      57.062      36.57       36.201      41.041      -9999.25    -9999.25    -9999.25    -9999.25    -9999.25    -9999.25    -9999.25    -9999.25    -9999.25    -9999.25    
138.8       436.096     131.652     3.939       -9999.25    -9999.25    -9999.25    -9999.25    -9999.25    -9999.25    38.472      1.934       86.808      16.227      179.748     1.12        1632.681    1542.176    1477.921    2.523       
138.85      -9999.25    -9999.25    -9999.25    101.165     81.24       52.646      31.759      32.306      35.88       -9999.25    -9999.25    -9999.25    -9999.25    -9999.25    -9999.25    -9999.25    -9999.25    -9999.25    -9999.25    
138.9       327.566     132.263     3.959       -9999.25    -9999.25    -9999.25    -9999.25    -9999.25    -9999.25    38.205      1.869       89.205      17.445      176.337     1.12        1621.028    1514.701    1437.003    2.526       
138.95      -9999.25    -9999.25    -9999.25    86.571      73.66       48.882      28.214      29.216      32.736      -9999.25    -9999.25    -9999.25    -9999.25    -9999.25    -9999.25    -9999.25    -9999.25    -9999.25    -9999.25    
139.0       173.902     133.956     4.271       -9999.25    -9999.25    -9999.25    -9999.25    -9999.25    -9999.25    37.596      1.776       91.25       18.814      172.782     1.12        1536.514    1480.181    1437.003    2.548       
139.05      -9999.25    -9999.25    -9999.25    75.905      68.048      46.156      26.032      26.892      31.191      -9999.25    -9999.25    -9999.25    -9999.25    -9999.25    -9999.25    -9999.25    -9999.25    -9999.25    -9999.25    
