~Version Information Section
VERS.                                         2.0:CWLS log ASCII Standart – VERSION 2.0
WRAP.                                          NO:One line per depth step
~Well Information Section
STRT.M                                        0.6:Начальная глубина
STOP.M                                      143.2:Конечная глубина
STEP.M                                          0:Шаг квантования по глубине
NULL.                                    -9999.25:Признак "Нет данных"
WELL.                                       116Мх:Скважина
~Parameter Information Section
~Curve Information Section
DEPTH.M                                          :Глубина
BK.lgОмм                                         :BK     (БК)
ПРОФ_СР.мм                                       :DS  (ДС)
ГК.мкР/час                                       :GK          (ГК)
ГЗ1.Омм                                          :GZ1   ГЗ1(A0.4M0.1N)
ГЗ2.Омм                                          :GZ2   ГЗ2(A1.0M0.1N)
ГЗ3.Омм                                          :GZ3   ГЗ3(A2.0M0.5N)
ГЗ4.Oмм                                          :GZ4   ГЗ4(A4.0M0.5N)
ГЗ5.Oмм                                          :GZ5   ГЗ5(A8.0M0.5N)
ГЗК.Омм                                          :GZK   ГЗK(N0.5M2.0A)
ИК.мСм/м                                         :IK
НГК.усл.ед.                                      :NGK     (НГК)
ПС.мВ                                            :PS       (ПС)
PZ.Омм                                           :PZ    (КС)
RIS.Омм                                          :RS (Резистивиметр)
U1.мВ                                            :U1
U2.mV                                            :U2
U3.мВ                                            :U3
W.г/см3                                          :ГГКп
П.%                                              :п
ННКМ.усл.ед                                      :ННКм
~ASCII LOG DATA
# ...
16.6        -9999.25    159.237     4.974       31.398      46.244      43.355      43.341      26.312      80.422      -9999.25    1.009       309.688     110.919     1.1         462.157     810.032     1072.659    2.174       39.942      1.99        
16.7        -9999.25    159.317     4.698       31.841      47.583      45.259      43.933      26.542      80.857      -9999.25    1.015       296.958     111.556     1.1         462.157     799.518     1072.659    2.184       39.364      1.927       
16.8        -9999.25    159.247     4.554       32.282      48.923      46.971      44.598      26.818      81.314      -9999.25    1.06        286.007     112.193     1.1         520.435     799.518     1001.848    2.224       39.055      1.899       
16.9        -9999.25    158.514     4.579       32.742      50.204      48.443      45.366      27.136      81.782      -9999.25    1.085       277.223     112.77      1.1         588.113     788.069     867.164     2.281       39.473      1.896       
17.0        -9999.25    158.862     4.844       33.251      51.443      49.659      46.259      27.487      82.253      -9999.25    1.069       270.629     113.274     1.1         617.344     784.232     786.838     2.298       39.309      1.917       
17.1        35.4        159.851     5.106       33.838      52.724      50.843      47.277      27.869      82.722      -9999.25    1.019       266.044     113.719     1.1         628.464     784.232     769.586     2.282       38.712      1.95        
17.2        30.2        160.065     4.934       34.526      53.977      52.091      48.397      28.285      83.193      -9999.25    0.97        262.804     114.133     1.1         645.302     796.667     769.586     2.268       37.586      1.974       
17.3        29.242      159.86      4.714       35.328      55.388      53.387      49.616      28.747      83.684      -9999.25    0.959       260.317     114.563     1.1         645.302     816.953     796.454     2.263       36.482      1.937       
17.4        30.549      160.762     4.674       36.241      57.001      54.811      50.925      29.274      84.21       -9999.25    0.964       258.127     115.052     1.1         649.899     834.749     808.326     2.266       37.603      1.895       
17.5        33.113      163.454     4.909       37.249      58.815      56.411      52.33       29.883      84.798      -9999.25    0.995       256.051     115.63      1.1         649.899     847.639     825.52      2.27        38.655      1.853       
17.6        30.69       165.642     5.185       38.328      60.803      58.043      53.85       30.579      85.472      -9999.25    1.045       254.02      116.237     1.1         649.245     847.639     834.512     2.284       38.923      1.831       
17.7        27.733      163.849     5.447       39.457      62.891      59.787      55.542      31.358      86.257      -9999.25    1.034       252.058     116.8       1.1         633.305     845.203     834.512     2.277       39.315      1.908       
17.8        26.002      161.566     5.619       40.634      64.763      61.691      57.434      32.203      87.158      -9999.25    1.039       250.256     117.259     1.1         610.824     826.416     826.023     2.274       39.56       1.945       
17.9        24.946      161.023     5.571       41.881      66.476      63.643      59.469      33.089      88.168      -9999.25    1.031       248.704     117.644     1.1         590.222     796.186     794.732     2.25        39.524      1.899       
18.0        25.177      160.486     5.353       43.243      68.046      65.659      61.584      33.996      89.258      -9999.25    1.037       247.472     118.0       1.1         551.909     757.798     756.596     2.261       39.077      1.856       
18.1        26.977      160.683     5.241       44.775      69.399      67.611      63.718      34.923      90.391      -9999.25    1.017       246.537     118.326     1.1         520.352     742.87      756.596     2.265       38.632      1.821       
18.2        28.314      160.602     5.223       46.517      70.638      69.451      65.757      35.871      91.518      -9999.25    1.022       245.807     118.578     1.1         520.352     742.87      758.553     2.274       38.339      1.796       
18.3        29.992      160.967     5.078       48.472      71.905      71.179      67.594      36.836      92.603      -9999.25    1.035       245.168     118.726     1.1         523.002     771.601     814.2       2.267       38.169      1.785       
18.4        31.623      161.603     4.843       50.582      73.143      72.811      69.21       37.795      93.618      13.133      1.062       244.575     118.785     1.1         550.549     830.942     914.41      2.258       38.199      1.822       
18.5        30.62       161.875     4.629       52.733      74.195      74.315      70.589      38.68       94.549      12.853      1.042       244.05      118.8       1.1         550.549     852.855     977.665     2.243       38.098      1.866       
18.6        27.669      161.965     4.766       54.762      75.102      75.787      71.706      39.302      95.365      12.715      1.035       243.685     118.8       1.1         551.354     852.855     977.665     2.241       38.501      1.882       
18.7        25.704      161.964     5.055       56.493      75.793      77.163      72.576      39.543      95.971      12.593      1.034       243.548     118.8       1.1         532.917     832.193     970.426     2.259       40.125      1.88        
18.8        25.235      162.057     5.323       57.682      75.793      78.251      73.232      39.543      96.227      12.517      1.033       243.548     118.8       1.1         507.076     791.564     911.784     2.288       40.42       1.849       
18.9        25.527      162.133     5.455       58.24       75.793      79.067      73.664      39.543      96.227      12.486      1.033       243.685     118.8       1.1         494.533     777.311     883.888     2.311       39.983      1.833       
19.0        27.164      162.226     5.405       58.24       75.779      79.547      73.85       39.338      96.227      12.469      1.023       244.073     118.8       1.1         490.983     774.383     883.888     2.304       39.997      1.837       
19.1        27.416      162.854     5.245       58.24       75.015      79.547      73.85       38.693      96.043      12.369      1.032       244.689     118.741     1.1         497.565     774.383     906.683     2.296       40.363      1.862       
19.2        27.606      166.887     5.189       58.172      73.575      79.547      73.85       37.685      95.358      12.204      1.043       245.487     118.519     1.11        497.565     794.461     946.024     2.275       41.241      1.883       
19.3        27.669      171.947     5.204       57.549      71.387      79.339      73.792      36.528      94.181      12.127      1.052       246.446     118.015     1.11        532.117     830.981     967.303     2.271       41.858      1.86        
19.4        25.763      172.599     5.229       56.479      68.406      78.443      73.482      35.37       92.635      11.984      1.059       247.564     117.259     1.11        581.109     870.092     969.606     2.263       41.245      1.838       
19.5        24.099      172.576     5.117       55.165      65.627      76.859      72.925      34.312      90.925      11.935      1.047       248.91      116.356     1.11        616.41      895.013     973.715     2.252       40.726      1.824       
19.6        24.266      173.029     5.11        53.707      63.121      74.571      72.163      33.397      89.208      11.876      1.04        250.575     115.422     1.11        616.41      895.013     971.413     2.261       41.534      1.809       
19.7        24.774      172.73      5.098       52.16       60.903      71.563      71.27       32.639      87.6        11.84       1.064       252.606     114.459     1.11        607.27      886.604     963.168     2.271       41.541      1.794       
