~Version Information Section
VERS.                                         2.0:CWLS log ASCII Standart – VERSION 2.0
WRAP.                                          NO:One line per depth step
~Well Information Section
STRT.M                                        0.1:Начальная глубина
STOP.M                                      202.9:Конечная глубина
STEP.M                                          0:Шаг квантования по глубине
NULL.                                    -9999.25:Признак "Нет данных"
WELL.                                       155Мх:Скважина
~Parameter Information Section
~Curve Information Section
DEPTH.M                                          :Глубина
BK.Ohm*M                                         :BK     (БК)
DS.mm                                            :DS  (ДС)
GGK.g/cm3                                        :GGKp
ГК.mcr/h                                         :GK          (ГК)
GZ1.Ohm*M                                        :GZ1   ГЗ1(A0.4M0.1N)
GZ2.Ohm*M                                        :GZ2   ГЗ2(A1.0M0.1N)
GZ3.Ohm*M                                        :GZ3   ГЗ3(A2.0M0.5N)
GZ4.Ohm*M                                        :GZ4   ГЗ4(A4.0M0.5N)
GZ5.Ohm*M                                        :GZ5   ГЗ5(A8.0M0.5N)
GZR.                                             :GZR   ГЗK(N0.5M2.0A)
ИК.Ohm*M                                         :IK
НГК.ue                                           :NGK     (НГК)
NNKM.                                            :NNKm  (ННКм)
PS.mv                                            :PS       (ПС)
PZ.Ohm*M                                         :PZ    (КС)
RS.Ohm*M                                         :RS (Резистивиметр)
W.%                                              :W
~ASCII LOG DATA
# ...
144.4       30.611      171.838     2.19        7.161       56.527      48.743      34.145      39.299      24.541      22.999      33.34       0.95        1.159       67.219      58.541      1.22        27.141      
144.5       31.832      174.846     2.188       7.145       53.015      53.2        34.174      38.33       24.324      22.664      33.016      0.915       1.123       67.71       55.694      1.216       28.211      
144.6       32.452      174.502     2.187       7.149       51.041      55.474      34.866      39.249      24.232      22.461      32.681      0.895       1.118       68.085      53.717      1.215       29.301      
144.7       32.923      173.327     2.188       7.217       50.72       55.273      36.042      39.339      24.396      22.335      32.218      0.889       1.145       68.496      51.698      1.212       29.476      
144.8       33.218      173.597     2.189       7.332       51.072      53.684      37.314      39.816      24.44       22.588      32.009      0.886       1.168       68.903      50.04       1.212       29.078      
144.9       33.365      173.519     2.191       7.448       51.699      52.497      38.499      42.276      24.429      23.3        31.994      0.883       1.161       69.282      49.415      1.212       28.342      
145.0       34.246      173.536     2.195       7.523       52.46       53.012      39.917      45.123      24.68       23.877      31.865      0.887       1.158       69.471      49.339      1.212       26.902      
145.1       37.229      173.997     2.198       7.516       56.506      55.346      41.743      47.09       25.844      24.199      31.551      0.909       1.168       69.638      49.796      1.213       25.595      
145.2       41.583      174.346     2.2         7.428       59.905      54.481      44.465      48.023      28.236      24.651      31.383      0.949       1.185       69.653      50.512      1.213       25.329      
145.3       39.701      174.605     2.202       7.32        57.204      50.134      48.321      48.88       31.504      25.764      31.127      0.989       1.191       69.708      51.19       1.213       25.783      
145.4       34.286      175.36      2.204       7.246       54.051      49.466      53.687      52.156      34.191      28.793      30.624      1.016       1.176       69.57       50.937      1.214       26.667      
145.5       33.11       176.048     2.206       7.187       54.678      56.349      61.666      59.217      35.628      33.144      30.143      1.029       1.153       69.526      50.183      1.214       27.022      
145.6       36.26       176.91      2.21        7.1         62.306      72.049      71.207      66.969      35.841      36.409      29.574      1.044       1.16        69.422      50.184      1.218       26.458      
145.7       49.423      176.826     2.214       7.004       76.178      84.84       79.688      71.894      35.297      37.707      28.941      1.066       1.196       69.433      51.207      1.22        26.114      
145.8       63.375      176.345     2.217       6.965       81.331      81.384      84.306      72.466      34.998      36.574      28.284      1.09        1.283       69.471      52.919      1.215       26.238      
145.9       52.483      175.672     2.218       7.025       79.373      72.458      79.567      67.079      35.267      34.198      27.79       1.097       1.358       69.606      53.587      1.213       26.632      
146.0       38.857      177.13      2.218       7.191       77.428      63.096      68.013      58.268      35.605      31.305      27.343      1.08        1.373       69.968      50.67       1.214       28.045      
146.1       24.152      183.276     2.219       7.435       66.896      51.308      59.101      50.43       34.588      29.062      26.81       1.046       1.327       70.354      45.5        1.218       29.97       
146.2       17.603      185.071     2.223       7.687       52.374      42.804      52.874      44.777      32.471      29.868      26.236      1.014       1.227       70.817      41.327      1.229       31.37       
146.3       18.615      181.513     2.231       7.846       45.465      41.634      47.982      41.085      29.649      31.55       25.412      1.0         1.157       71.049      37.947      1.228       31.794      
146.4       21.867      173.784     2.24        7.851       44.956      44.391      44.908      38.854      26.255      31.877      24.294      1.002       1.116       71.234      36.023      1.218       31.454      
146.5       23.74       170.182     2.246       7.738       42.163      41.403      42.304      37.447      24.528      30.838      23.187      1.0         1.118       71.045      35.573      1.212       31.052      
146.6       22.502      170.595     2.247       7.606       36.187      34.345      38.843      35.521      24.006      28.647      22.532      0.972       1.13        70.253      34.168      1.207       30.961      
146.7       20.365      171.206     2.242       7.534       32.522      30.178      33.979      32.349      24.329      26.005      22.104      0.921       1.125       68.587      30.909      1.206       30.865      
146.8       19.575      172.608     2.232       7.542       32.137      29.083      29.973      29.506      24.729      24.012      21.903      0.873       1.092       66.568      27.792      1.206       31.012      
146.9       19.533      176.277     2.222       7.61        32.106      27.916      27.681      28.082      24.855      23.361      21.87       0.841       1.053       65.022      26.339      1.207       31.678      
147.0       20.419      176.006     2.212       7.712       31.444      26.107      26.586      27.467      24.683      23.506      21.911      0.822       1.021       64.733      26.11       1.207       32.217      
147.1       21.829      174.818     2.204       7.827       30.995      24.389      26.008      27.245      24.928      23.823      21.9        0.822       1.005       65.551      26.682      1.206       31.959      
147.2       23.199      174.112     2.2         7.932       31.523      23.623      25.359      27.251      25.404      24.031      21.974      0.857       1.001       66.851      27.52       1.206       31.401      
147.3       23.835      174.645     2.199       8.017       32.67       23.909      24.917      27.507      27.544      24.148      22.101      0.903       0.993       67.854      28.168      1.206       30.631      
147.4       23.992      177.041     2.198       8.086       34.011      24.836      24.804      27.892      29.27       24.131      22.298      0.923       0.999       68.292      28.445      1.206       29.594      
147.5       24.095      178.253     2.197       8.132       34.891      25.871      24.726      28.018      29.429      23.66       22.548      0.914       1.019       68.463      28.757      1.206       28.554      
147.6       24.497      178.232     2.195       8.144       35.447      26.728      24.594      27.999      28.304      22.627      22.982      0.905       1.049       68.458      29.253      1.206       28.008      
147.7       25.089      179.324     2.192       8.142       36.006      27.201      24.568      28.07       26.896      21.352      23.358      0.914       1.068       68.772      29.881      1.206       27.625      
147.8       25.514      179.214     2.187       8.166       36.699      27.435      24.958      28.536      26.737      20.445      23.536      0.924       1.062       69.293      30.549      1.206       27.454      
147.9       25.52       179.269     2.184       8.228       37.156      27.643      26.008      29.772      27.693      20.156      23.795      0.922       1.044       70.196      31.068      1.206       27.647      
148.0       25.472      178.207     2.181       8.287       37.648      28.333      27.148      30.77       30.12       20.124      24.0        0.908       1.035       70.798      31.431      1.206       27.863      
