~Version Information Section
VERS.                                         2.0:CWLS log ASCII Standart – VERSION 2.0
WRAP.                                          NO:One line per depth step
~Well Information Section
STRT.M                                        0.4:Начальная глубина
STOP.M                                      203.0:Конечная глубина
STEP.M                                          0:Шаг квантования по глубине
NULL.                                    -9999.25:Признак "Нет данных"
WELL.                                       128Мх:Скважина
~Parameter Information Section
~Curve Information Section
DEPTH.M                                          :Глубина
BK.Ohm*M                                         :BK     (БК)
DS.mm                                            :DS  (ДС)
GGK.g/cm3                                        :GGKp
ГК.mcr/h                                         :GK          (ГК)
ИК.Ohm*M                                         :IK
НГК.mcR/H                                        :NGK
NNKM.                                            :NNKm  (ННКм)
PS.mv                                            :PS       (ПС)
PZ.Ohm*M                                         :PZ    (КС)
RS.Ohm*M                                         :RS (Резистивиметр)
U1.mV                                            :U1
U2.mV                                            :U2
U3.mV                                            :U3
W.%                                              :W
~ASCII LOG DATA
# ...
126.4       52.36       124.603     2.135       4.684       23.58       1.258       2.348       180.907     33.25       1.06        197.161     365.667     244.197     36.995      
126.6       39.902      123.746     2.129       4.67        25.302      1.349       2.247       174.772     33.707      1.06        173.613     327.583     232.918     30.147      
126.8       50.466      123.494     2.113       4.39        27.44       1.205       2.31        166.837     34.126      1.06        246.867     365.745     224.0       29.297      
127.0       66.527      123.726     2.101       4.858       29.87       1.244       2.427       157.573     34.546      1.06        218.061     424.0       226.667     33.441      
127.2       67.764      125.28      2.122       4.649       31.115      1.263       2.443       147.643     34.989      1.06        309.987     416.0       242.667     33.473      
127.4       68.234      125.407     2.165       4.053       33.094      1.506       2.465       137.91      35.435      1.06        302.169     421.333     234.667     32.374      
127.6       72.277      124.52      2.168       3.972       34.275      1.366       2.512       129.532     35.822      1.06        328.0       408.0       237.333     32.269      
127.8       69.984      124.539     2.14        4.341       35.938      1.311       2.542       122.88      36.103      1.06        336.0       426.667     245.333     32.164      
128.0       73.79       124.229     2.146       4.548       36.734      1.274       2.478       117.336     36.267      1.06        336.0       426.666     240.0       31.74       
128.2       67.92       124.559     2.158       4.373       37.399      1.296       2.453       112.531     36.319      1.06        272.823     405.333     248.0       33.02       
128.4       68.865      124.105     2.154       4.461       37.521      1.382       2.494       108.736     36.319      1.06        147.05      384.001     242.667     32.346      
128.6       69.343      124.276     2.144       4.238       37.902      1.316       2.527       106.593     36.265      1.06        180.714     376.0       220.366     32.246      
128.8       70.146      124.516     2.161       4.438       37.746      1.304       2.495       106.124     36.117      1.06        109.115     386.667     168.222     31.79       
129.0       72.778      124.64      2.196       4.18        37.663      1.285       2.522       106.124     35.915      1.06        157.792     368.072     147.352     27.98       
129.2       81.846      124.849     2.156       4.061       37.48       1.432       2.653       106.469     35.715      1.06        268.081     327.175     118.568     30.338      
129.4       68.234      124.798     2.101       3.919       37.591      1.225       2.689       107.972     35.582      1.06        298.693     312.473     86.961      36.742      
129.6       56.754      125.156     2.087       3.823       37.096      1.269       2.453       110.018     35.539      1.06        327.827     336.049     113.481     36.971      
129.8       62.517      126.523     2.105       4.225       36.693      1.269       2.425       111.841     35.539      1.06        216.032     345.108     197.243     34.891      
130.0       56.105      125.509     2.127       4.062       35.976      1.195       2.337       113.073     35.555      1.06        250.235     388.422     227.754     32.89       
130.2       59.841      124.995     2.18        4.552       35.5        1.375       2.338       113.492     35.658      1.068       241.726     371.366     203.002     30.934      
130.4       62.517      124.073     2.183       4.63        35.364      1.404       2.441       113.492     35.833      1.084       232.479     315.45      122.362     29.315      
130.6       75.336      123.775     2.202       3.898       35.191      1.236       2.534       112.974     35.974      1.096       177.22      275.25      87.499      31.041      
130.8       90.782      124.109     2.218       3.72        35.095      1.245       2.546       111.447     35.982      1.1         184.097     299.283     117.882     32.693      
131.0       60.395      124.785     2.202       4.125       35.057      1.246       2.457       109.204     35.938      1.1         175.868     302.172     129.661     32.393      
131.2       52.966      125.43      2.182       4.688       35.057      1.165       2.445       106.987     35.68       1.1         174.336     329.645     187.298     36.525      
131.4       37.931      126.841     2.143       4.597       35.057      1.207       2.32        105.41      35.259      1.1         241.003     343.24      166.004     33.984      
131.6       49.091      127.531     2.057       4.165       34.478      1.245       2.3         104.35      34.731      1.1         317.103     388.758     181.398     33.364      
131.8       55.847      126.842     2.136       4.74        33.613      1.402       2.338       102.897     34.157      1.1         199.075     345.196     210.307     32.611      
132.0       58.345      126.881     2.115       4.901       33.047      1.243       2.438       100.679     33.631      1.1         105.891     277.408     159.056     32.286      
132.2       58.21       126.854     2.107       4.754       33.897      1.263       2.435       98.215      33.242      1.1         112.968     281.964     154.126     32.659      
132.4       52.119      126.93      2.112       4.45        34.44       1.244       2.38        96.293      32.999      1.1         90.303      269.541     153.575     34.889      
132.6       79.068      126.935     2.093       4.368       35.191      1.204       2.422       94.864      32.826      1.1         141.898     314.297     186.036     37.001      
132.8       70.632      126.446     2.103       4.659       35.326      1.263       2.366       93.731      32.653      1.1         229.881     375.022     220.097     38.953      
133.0       41.687      126.435     2.11        4.748       36.015      1.274       2.276       92.893      32.472      1.1         214.151     378.963     259.73      33.392      
133.2       74.817      127.158     2.085       4.125       36.443      1.208       2.279       92.499      32.324      1.1         158.727     348.513     255.184     35.195      
133.4       72.778      126.546     2.1         4.545       36.299      1.27        2.352       92.4        32.238      1.1         188.965     304.427     132.06      34.501      
133.6       59.979      126.962     2.124       4.188       36.299      1.137       2.333       92.4        32.207      1.1         257.608     328.843     123.514     35.011      
133.8       47.753      125.38      2.102       4.496       36.773      1.241       2.263       92.4        32.201      1.1         235.859     375.891     256.269     35.157      
134.0       72.611      126.051     2.097       4.391       37.287      1.346       2.338       92.4        32.201      1.1         132.144     339.581     295.065     34.941      
134.2       63.68       126.725     2.115       4.363       36.482      1.297       2.274       92.4        32.201      1.1         100.521     274.462     157.812     38.722      
134.4       56.754      126.848     2.128       4.75        36.299      1.213       2.246       92.4        32.205      1.1         177.845     273.949     124.71      34.233      
134.6       59.841      126.094     2.147       4.906       36.734      1.225       2.318       92.4        32.224      1.1         375.67      348.854     120.386     36.164      
134.8       51.05       125.563     2.136       4.695       36.734      1.431       2.33        92.4        32.277      1.1         379.794     397.277     167.679     32.744      
135.0       51.88       124.298     2.141       4.106       36.693      1.269       2.306       92.4        32.375      1.1         363.648     352.258     114.941     31.149      
135.2       75.162      124.04      2.169       4.068       36.693      1.155       2.401       92.4        32.514      1.1         348.845     405.524     206.415     29.183      
