~Version Information Section
VERS.                                         2.0:CWLS log ASCII Standart – VERSION 2.0
WRAP.                                          NO:One line per depth step
~Well Information Section
STRT.M                                        0.0:Начальная глубина
STOP.M                                      211.0:Конечная глубина
STEP.M                                          0:Шаг квантования по глубине
NULL.                                    -9999.25:Признак "Нет данных"
WELL.                                       125Мх:Скважина
~Parameter Information Section
~Curve Information Section
DEPTH.M                                          :Глубина
BK.lgОмм                                         :BK
D.                                               :D sr
GGKP.g/sm3                                       :GGKp
ГК.гамма                                         :GK
ИК.мСм/м                                         :IK
KP.%                                             :Kp
PS.                                              :PS       (ПС)
PZ.Омм                                           :PZ
RIS.Омм                                          :RIS
U1.                                              :U1
U2.                                              :U2
U3.                                              :U3
БЗ.                                              :БЗ (ГГК-1)
ГЗ1.Омм                                          :ГЗ1
ГЗ2.Омм                                          :ГЗ2
ГЗ3.Омм                                          :ГЗ3
ГЗ4.Oмм                                          :ГЗ4
ГЗ5.Oмм                                          :ГЗ5
ГЗК.Омм                                          :ГЗК
ИКБ.мСм/м                                        :ИКБ
МЗ.                                              :МЗ жесткий (ГГК-4)
ННКМ.усл.ед                                      :ННКм
ИКМ.мСм/м                                        :ИКМ
НГК.усл.ед                                       :ННКб
~ASCII LOG DATA
# ...
153.9       76.033      130.919     2.507       4.485       28.814      23.107      133.194     62.402      1.107       288.968     91.854      196.541     8892.0      100.26      87.431      63.103      65.223      58.179      40.398      27.591      16380.0     1.312       20.939      3.43        
154.0       65.464      131.252     2.493       4.675       28.281      23.564      134.107     58.572      1.106       286.32      91.056      196.079     9245.714    91.917      81.719      59.311      57.839      54.562      38.803      27.706      16628.572   1.279       20.939      3.242       
154.1       42.56       132.13      2.473       5.164       27.682      24.158      134.956     54.91       1.106       293.546     92.611      201.448     9665.0      82.029      74.574      55.289      51.403      51.52       37.049      27.821      16907.5     1.176       21.341      2.793       
154.2       26.363      130.309     2.453       5.335       27.056      25.255      135.728     51.5        1.106       309.929     95.394      207.456     10112.308   69.306      64.973      51.528      46.463      48.789      35.26       27.936      16786.154   1.113       21.341      2.626       
154.3       21.478      130.855     2.435       5.429       26.373      26.384      136.416     48.404      1.106       332.973     100.862     214.745     10148.75    56.215      55.91       48.493      43.359      46.329      33.6        28.051      16658.75    1.077       21.341      2.381       
154.4       25.061      133.239     2.419       5.687       25.69       27.435      137.018     45.679      1.106       360.832     107.967     223.95      10532.728   48.095      51.182      46.082      41.729      44.207      32.207      28.166      16636.363   1.069       21.341      2.335       
154.5       29.58       133.568     2.403       5.879       25.087      28.173      137.537     43.381      1.106       389.52      114.991     236.287     10645.0     45.192      49.509      44.514      40.91       42.673      31.016      28.286      16581.25    1.082       21.759      2.33        
154.6       31.696      133.106     2.389       5.768       24.552      28.736      137.982     41.566      1.106       409.513     119.661     245.681     10795.385   43.949      48.086      43.784      40.205      41.897      29.998      28.406      16460.0     1.083       21.759      2.304       
154.7       29.923      133.791     2.377       5.798       24.106      28.662      138.364     40.246      1.106       421.94      123.348     254.91      11304.0     42.809      46.296      43.271      39.424      41.596      29.226      28.526      16649.334   1.048       22.194      2.27        
154.8       28.054      133.984     2.37        5.948       23.705      28.22       138.694     39.326      1.106       421.216     122.071     259.947     11444.0     41.951      44.554      42.675      38.775      41.533      28.741      28.645      16782.666   1.031       22.194      2.305       
154.9       26.977      134.594     2.372       6.092       23.358      27.759      138.985     38.61       1.106       411.1       117.432     259.606     11602.667   41.29       43.021      42.186      38.388      41.518      28.348      28.891      16738.666   0.998       22.194      2.331       
155.0       26.977      133.931     2.382       6.072       23.08       27.319      139.249     37.973      1.106       395.694     111.458     254.491     11657.143   40.529      41.775      41.937      38.264      41.583      28.034      29.016      17284.285   0.999       22.194      2.301       
155.1       27.164      134.172     2.395       6.2         22.867      26.956      139.495     37.382      1.106       386.003     108.48      247.574     11372.857   39.856      41.154      41.916      38.337      41.741      27.84       29.141      17432.857   1.002       21.759      2.274       
155.2       26.792      134.415     2.409       6.244       22.717      26.737      139.733     36.825      1.106       383.586     106.673     241.399     11088.0     39.37       40.822      42.087      38.479      41.964      27.666      29.266      17425.334   0.987       21.759      2.258       
155.3       26.546      134.897     2.417       6.165       22.601      26.929      139.966     36.291      1.106       394.302     108.691     244.272     10962.857   38.878      40.44       42.44       38.56       42.235      27.439      29.391      17398.572   0.972       21.341      2.247       
155.4       26.485      134.385     2.417       6.01        22.464      27.169      140.198     35.765      1.106       409.603     112.435     253.437     10870.667   38.393      40.132      42.809      38.58       42.566      27.228      29.391      17197.334   0.984       20.552      2.231       
155.5       27.04       134.235     2.415       5.925       22.309      27.607      140.428     35.244      1.106       422.934     116.976     262.602     10808.0     37.92       39.843      43.092      38.552      42.93       27.109      29.391      16956.0     0.994       20.552      2.21        
155.6       27.416      133.214     2.41        5.808       22.135      27.95       140.654     34.744      1.106       427.035     118.522     265.426     10912.857   37.402      39.49       43.248      38.483      43.26       27.076      29.391      17044.285   1.014       20.178      2.158       
155.7       26.73       132.876     2.404       5.939       21.994      27.923      140.874     34.296      1.106       422.688     118.97      264.062     10837.333   36.81       38.845      43.187      38.45       43.611      27.115      29.391      16978.666   1.013       19.818      2.203       
155.8       24.774      132.295     2.399       5.988       21.909      27.853      141.082     33.939      1.106       411.199     116.911     257.529     11016.25    36.061      37.799      42.873      38.538      43.959      27.201      29.391      16968.75    0.982       19.818      2.279       
155.9       23.121      132.57      2.395       5.922       21.819      27.793      141.275     33.693      1.106       396.427     111.971     248.591     11096.923   35.416      36.592      42.351      38.896      44.205      27.342      29.391      17101.539   0.987       19.818      2.261       
156.0       22.542      132.432     2.389       5.874       21.73       27.15       141.445     33.569      1.106       383.626     106.176     240.57      11054.117   35.023      35.504      41.751      39.465      44.38       27.554      29.391      16934.117   1.009       19.471      2.264       
156.1       23.281      132.53      2.385       5.89        21.645      26.427      141.59      33.565      1.107       375.806     100.383     241.418     10984.286   35.108      34.775      41.237      40.252      44.46       27.826      29.146      16634.285   1.003       18.812      2.348       
156.2       24.21       133.523     2.383       5.701       21.587      26.178      141.706     33.679      1.107       373.861     97.42       245.711     10788.571   35.693      34.37       40.837      41.045      44.568      28.118      28.901      16272.857   0.994       18.812      2.413       
156.3       25.645      133.779     2.384       5.663       21.549      26.023      141.79      33.911      1.107       375.74      97.623      246.45      10765.333   36.769      34.258      40.506      41.721      44.773      28.411      28.656      16308.0     1.003       18.499      2.421       
156.4       27.29       133.257     2.391       5.714       21.575      26.257      141.842     34.243      1.106       380.9       100.708     246.764     10732.0     38.208      34.391      40.179      42.304      44.997      28.731      28.411      16225.333   1.017       18.499      2.387       
156.5       29.377      133.819     2.403       5.72        21.616      26.84       141.861     34.637      1.106       383.545     103.841     246.388     10374.286   39.562      34.474      39.801      42.729      45.219      29.099      28.051      16045.714   1.052       18.196      2.28        
