~Version Information Section
VERS.                                         2.0:CWLS log ASCII Standart – VERSION 2.0
WRAP.                                          NO:One line per depth step
~Well Information Section
STRT.M                                        0.7:Начальная глубина
STOP.M                                      200.1:Конечная глубина
STEP.M                                          0:Шаг квантования по глубине
NULL.                                    -9999.25:Признак "Нет данных"
WELL.                                       111Мх:Скважина
~Parameter Information Section
~Curve Information Section
DEPTH.M                                          :Глубина
DСР.mm                                           :Dср
ГК.1/min                                         :GK
ИК.mSim/m                                        :IK
N0.5M2.0A.Омм                                    :N0
НГК.усл.ед                                       :NGK
PZ.Ohm*M                                         :PZ
R.Ohm*M                                          :R
PS.mV                                            :ПС
U1.mV                                            :U1
U2.                                              :U2
U3.mV                                            :U3
А0.4М0.1N.Омм                                    :А0
А1.0М0.1N.Омм                                    :А1
А2.0М0.5N.Омм                                    :А2
А4.0М0.5N.Oмм                                    :А4
А8.0М1.0N.Омм                                    :А8
BK.Ohm*M                                         :БК
ГГК.1/min                                        :ГГК
КП.%                                             :Кп
ННКМ.усл.ед                                      :ННКм
~ASCII LOG DATA
# ...
179.9       123.154     3.11        64.906      150.098     1.647       357.0       1.06        260.322     1742.002    2358.001    2203.599    340.878     248.762     209.641     121.431     99.504      178.187     2.118       32.51       2.382       
180.0       123.28      3.238       64.507      148.286     1.529       357.8       1.06        262.662     1710.8      2334.0      2200.8      345.683     249.687     210.341     121.876     99.744      175.507     2.12        32.66       2.369       
180.1       123.613     3.264       64.201      146.513     1.586       358.4       1.06        264.88      1691.599    2303.998    2183.998    348.479     248.775     210.756     122.006     99.853      181.473     2.112       32.781      2.347       
180.2       123.475     3.878       64.313      144.974     1.714       358.8       1.06        266.974     1677.2      2268.001    2167.201    348.308     247.99      210.763     122.006     99.831      244.552     2.104       32.992      2.318       
180.3       123.317     3.584       64.445      143.508     1.675       359.0       1.06        268.699     1674.8      2243.999    2167.2      347.61      247.962     210.539     122.167     99.727      276.379     2.095       33.294      2.296       
180.4       123.391     2.995       64.425      142.13      1.456       359.3       1.06        269.808     1684.399    2226.001    2167.198    346.877     249.041     210.105     122.327     99.313      222.117     2.091       33.5        2.314       
180.5       123.327     3.61        64.251      141.094     1.468       359.6       1.06        270.547     1696.4      2235.0      2164.4      347.367     251.175     209.51      122.327     98.43       184.29      2.1         33.668      2.342       
180.6       123.461     4.224       64.078      140.301     1.533       360.1       1.06        270.917     1706.001    2259.002    2153.198    348.853     252.23      209.128     122.29      97.161      171.438     2.112       33.802      2.367       
180.7       123.676     3.456       64.078      139.221     1.552       360.8       1.06        271.04      1708.4      2288.999    2108.403    349.115     252.23      208.542     121.719     95.7        164.251     2.132       33.556      2.383       
180.8       123.693     3.072       64.098      137.57      1.571       362.0       1.06        271.04      1701.2      2313.001    2032.797    348.888     250.971     206.555     120.118     94.055      160.341     2.157       33.075      2.388       
180.9       123.72      3.398       63.947      135.127     1.696       363.8       1.06        271.04      1682.002    2331.0      1951.605    346.631     246.286     203.315     117.568     91.944      166.653     2.178       32.314      2.444       
181.0       123.4       3.437       63.558      132.053     1.504       365.9       1.06        270.794     1655.6      2319.0      1892.8      343.536     239.51      199.788     114.505     89.122      169.206     2.187       31.877      2.51        
181.1       123.538     3.514       62.96       128.773     1.719       368.3       1.06        270.301     1624.398    2294.998    1850.799    341.034     232.994     196.179     111.966     85.624      157.258     2.179       31.562      2.495       
181.2       124.039     3.408       62.477      125.638     1.78        370.7       1.06        269.438     1598.001    2253.001    1856.399    338.82      226.016     193.247     110.775     81.712      152.174     2.161       31.122      2.456       
181.3       123.471     3.302       62.331      122.938     1.632       372.6       1.06        268.206     1578.8      2207.998    1884.401    337.506     219.646     191.968     110.545     77.814      161.902     2.141       30.721      2.417       
181.4       123.55      3.507       62.084      120.687     1.612       373.6       1.06        266.482     1566.8      2154.003    1920.797    337.23      215.794     191.782     110.545     74.411      171.871     2.134       30.779      2.377       
181.5       123.65      3.61        61.755      118.444     1.707       373.6       1.06        264.387     1566.8      2103.0      1943.2      337.492     212.87      191.782     110.545     71.825      172.601     2.135       30.653      2.355       
181.6       123.737     3.936       61.633      116.16      1.748       373.6       1.06        261.923     1574.001    2051.997    1943.199    335.848     209.462     191.782     110.777     70.02       171.143     2.147       30.199      2.382       
181.7       123.797     3.853       61.474      114.069     1.635       373.6       1.06        259.213     1578.8      2013.001    1920.802    334.203     206.138     191.772     111.139     68.707      173.689     2.159       29.896      2.436       
181.8       123.35      3.437       61.096      111.5       1.56        373.6       1.06        256.01      1574.0      1970.999    1895.599    333.891     202.019     191.57      111.392     67.586      176.977     2.171       29.725      2.492       
181.9       123.258     3.341       60.602      108.229     1.56        373.6       1.06        251.821     1586.0      1929.003    1873.201    331.674     197.327     191.377     111.554     66.475      169.378     2.179       29.777      2.527       
182.0       122.994     3.149       60.23       105.137     1.584       371.0       1.06        247.016     1595.6      1890.0      1856.4      327.658     193.395     191.377     111.593     65.293      150.992     2.186       29.807      2.511       
182.1       122.446     3.507       59.924      101.609     1.565       368.0       1.06        241.472     1617.202    1853.998    1853.6      324.065     190.367     191.29      111.486     63.885      141.088     2.187       28.83       2.485       
182.2       122.366     3.686       59.395      97.309      1.336       364.2       1.06        234.696     1645.999    1857.0      1845.201    320.253     187.624     190.564     110.963     62.123      144.674     2.183       28.266      2.454       
182.3       122.481     3.254       59.018      93.557      1.675       359.6       1.06        226.934     1691.601    1887.002    1822.799    316.682     185.605     189.066     109.971     60.115      147.939     2.175       28.524      2.472       
182.4       122.369     3.168       58.74       90.782      1.597       354.1       1.06        219.173     1725.198    1949.994    1803.201    314.105     184.595     187.387     109.142     57.993      148.62      2.172       28.537      2.513       
182.5       122.358     3.664       58.32       88.322      1.6         348.5       1.06        211.288     1768.4      2028.0      1792.0      310.427     183.572     185.666     108.551     55.793      150.107     2.171       28.317      2.522       
182.6       122.316     3.763       58.052      85.943      1.576       342.6       1.06        203.28      1799.602    2112.004    1794.801    305.464     182.636     183.077     107.581     53.725      145.18      2.172       27.795      2.535       
182.7       122.176     3.552       57.419      83.738      1.549       336.2       1.06        195.888     1833.199    2162.999    1822.799    299.905     181.214     178.751     106.065     52.068      138.639     2.176       27.213      2.568       
182.8       122.263     3.354       56.365      81.544      1.472       328.7       1.06        189.112     1854.801    2199.0      1867.601    293.608     178.928     172.972     104.184     50.866      137.771     2.178       27.679      2.611       
182.9       122.186     2.957       55.446      78.874      1.621       321.2       1.06        182.706     1854.801    2211.0      1898.398    286.421     175.919     166.186     102.06      50.053      134.253     2.179       27.864      2.651       
183.0       121.997     3.264       54.484      75.668      1.632       316.9       1.06        176.422     1828.4      2205.0      1920.8      279.671     172.209     159.072     99.778      49.583      129.383     2.185       27.213      2.635       
