~Version Information Section
VERS.                                         2.0:CWLS log ASCII Standart – VERSION 2.0
WRAP.                                          NO:One line per depth step
~Well Information Section
STRT.M                                        1.2:Начальная глубина
STOP.M                                      208.4:Конечная глубина
STEP.M                                          0:Шаг квантования по глубине
NULL.                                    -9999.25:Признак "Нет данных"
WELL.                                       109Мх:Скважина
~Parameter Information Section
~Curve Information Section
DEPTH.M                                          :Глубина
BK.Ohm*M                                         :BK     (БК)
DS.mm                                            :DS  (ДС)
GGK.g/cm3                                        :GGKp
ГК.mcr/h                                         :GK          (ГК)
GZ1.Ohm*M                                        :GZ1   ГЗ1(A0.4M0.1N)
GZ2.Ohm*M                                        :GZ2   ГЗ2(A1.0M0.1N)
GZ3.Ohm*M                                        :GZ3   ГЗ3(A2.0M0.5N)
GZ4.Ohm*M                                        :GZ4   ГЗ4(A4.0M0.5N)
GZ5.Ohm*M                                        :GZ5   ГЗ5(A8.0M0.5N)
GZR.Ohm*M                                        :GZK   ГЗK(N0.5M2.0A)
ИК.Ohm*M                                         :IK
НГК.u.e.                                         :NGK
NNKM.                                            :NNKm  (ННКм)
U1.mV                                            :U1
U2.mV                                            :U2
U3.mV                                            :U3
КП.%                                             :Кп
PS.mv                                            :PS       (ПС)
PZ.Ohm*M                                         :PZ    (КС)
RS.Ohm*M                                         :RS (Резистивиметр)
~ASCII LOG DATA
# ...
142.0       35.563      131.799     2.236       5.821       96.57       42.194      59.062      17.183      16.43       63.88       12.839      1.08        2.013       1308.879    1082.588    1075.33     29.776      1082.52     36.377      1.0         
142.1       32.961      132.053     2.253       5.997       96.57       42.194      59.062      16.943      16.43       62.84       12.744      1.081       1.95        1279.288    999.191     958.704     29.943      1082.696    36.377      1.0         
142.2       28.576      131.634     2.273       6.175       96.57       42.194      59.062      16.943      16.43       61.8        12.656      1.103       1.903       1330.377    957.48      852.401     30.004      1082.847    36.449      1.0         
142.3       28.576      131.109     2.253       6.232       96.99       42.194      59.062      16.823      16.43       61.8        12.656      1.126       1.861       1255.344    896.898     804.541     30.141      1082.981    36.593      1.0         
142.4       26.915      131.167     2.246       5.797       96.99       42.194      59.062      16.823      16.43       61.8        12.568      1.107       1.918       1147.725    864.47      826.93      30.364      1083.099    36.81       1.0         
142.5       24.378      131.339     2.274       5.247       96.99       42.194      59.062      16.823      16.43       61.8        12.614      1.112       2.03        1236.561    949.895     905.038     29.09       1083.199    37.026      1.0         
142.6       32.359      131.453     2.292       4.855       97.41       42.714      59.062      16.823      16.43       62.84       12.656      1.13        2.183       1538.092    1144.716    1011.108    25.953      1083.283    37.242      1.0         
142.7       57.28       131.429     2.364       4.756       97.41       43.234      59.062      16.823      16.43       63.88       12.767      1.147       2.398       1813.22     1338.549    1129.634    22.995      1083.35     37.459      1.0         
142.8       57.28       131.434     2.427       4.308       97.83       43.754      59.502      16.823      16.43       63.88       12.773      1.247       2.492       1847.89     1403.358    1201.521    22.659      1083.4      37.747      1.0         
142.9       95.499      131.542     2.496       3.825       97.83       44.274      59.942      16.823      16.43       63.88       12.773      1.329       2.459       1675.657    1313.66     1164.414    24.068      1083.442    37.963      1.0         
143.0       90.157      132.465     2.529       3.773       97.83       44.794      59.942      16.943      16.43       63.88       12.839      1.334       2.465       1466.253    1160.622    1052.66     23.872      1083.476    38.18       1.0         
143.1       78.343      132.395     2.465       4.242       97.83       44.794      60.382      16.943      16.43       62.84       12.844      1.274       2.596       1328.459    1052.356    968.808     22.542      1083.501    38.396      1.0         
143.2       158.855     131.967     2.401       4.683       97.41       44.794      60.822      17.063      16.43       62.84       12.815      1.21        2.7         1300.985    1041.262    971.581     21.347      1083.518    38.612      1.0         
143.3       158.855     131.725     2.32        5.143       96.99       44.794      60.382      17.303      16.57       60.76       12.796      1.182       2.517       1354.868    1069.603    988.964     21.481      1083.526    38.757      1.0         
143.4       159.956     132.011     2.296       5.452       96.57       45.314      60.382      17.303      16.57       59.72       12.796      1.132       2.335       1433.43     1056.058    928.073     22.461      1083.526    38.901      1.0         
143.5       82.224      132.52      2.279       5.712       96.15       45.314      59.942      17.303      16.57       59.72       12.702      1.07        2.214       1453.495    975.584     795.752     23.959      1083.526    38.973      1.0         
143.6       49.888      132.315     2.261       5.958       95.73       44.274      59.502      17.303      16.57       57.64       12.61       1.066       2.093       1337.132    842.952     657.561     25.779      1083.526    39.045      1.0         
143.7       49.888      131.884     2.258       6.036       95.73       43.754      59.062      17.063      16.57       57.64       12.518      1.038       2.084       1118.283    717.689     589.645     27.112      1083.526    39.117      1.0         
143.8       39.446      131.922     2.249       6.138       95.31       43.754      58.622      17.063      16.57       56.6        12.428      1.058       2.068       911.199     646.199     603.381     28.098      1083.526    39.189      1.0         
143.9       38.994      132.279     2.232       5.752       94.89       42.714      58.622      16.823      16.57       56.6        12.428      1.055       2.035       776.864     606.302     626.527     29.242      1083.526    39.189      1.0         
144.0       35.563      132.656     2.235       5.433       94.89       41.674      58.182      16.703      16.57       56.6        12.291      1.045       1.981       671.977     536.13      580.182     30.18       1083.526    39.189      1.0         
144.1       30.479      132.505     2.242       5.197       94.89       41.674      57.302      16.703      16.57       55.56       12.226      1.019       1.959       565.584     426.62      466.879     29.989      1083.518    39.189      1.0         
144.2       30.479      132.885     2.254       5.218       94.89       41.674      57.302      16.463      16.57       54.52       12.14       1.049       1.972       477.139     330.113     363.349     29.318      1083.501    39.045      1.0         
144.3       31.117      132.691     2.254       5.298       94.89       41.674      56.862      16.463      16.57       54.52       12.059      1.095       2.027       427.691     286.582     323.891     27.52       1083.476    38.829      1.0         
144.4       36.813      133.499     2.257       5.36        94.89       41.674      56.862      16.463      16.43       54.52       12.059      1.148       2.143       445.531     310.743     351.776     26.547      1083.442    38.684      1.0         
144.5       41.783      133.655     2.339       5.631       94.89       41.674      56.422      16.463      16.29       54.52       11.976      1.106       2.212       535.849     394.78      428.672     26.602      1083.4      38.468      1.0         
144.6       41.783      133.277     2.433       5.737       94.89       41.674      56.422      16.463      16.29       53.48       11.931      1.082       2.163       618.565     468.022     492.73      27.885      1083.35     38.252      1.0         
144.7       57.81       133.326     2.532       5.768       95.31       41.674      55.982      16.463      16.43       53.48       11.832      1.059       2.114       606.506     456.206     481.547     27.4        1083.291    38.036      1.0         
144.8       32.359      132.642     2.544       5.277       95.31       41.674      55.982      16.463      16.43       53.48       11.832      1.066       2.217       539.696     388.429     415.924     25.508      1083.224    37.819      1.0         
144.9       32.359      133.997     2.496       5.139       95.31       41.674      55.982      16.463      16.43       53.48       11.755      1.094       2.346       524.815     357.724     385.013     22.642      1083.141    37.603      1.0         
145.0       32.659      134.706     2.432       5.306       95.73       41.674      55.982      16.463      16.43       53.48       11.65       1.119       2.35        542.748     378.812     468.865     21.033      1083.04     37.387      1.0         
145.1       74.817      134.115     2.371       5.872       95.73       41.674      55.982      16.463      16.43       53.48       11.531      1.145       2.323       504.729     393.909     645.28      21.002      1082.923    37.098      1.0         
