~Version Information Section
VERS.                                         2.0:CWLS log ASCII Standart – VERSION 2.0
WRAP.                                          NO:One line per depth step
~Well Information Section
STRT.M                                        1.0:Начальная глубина
STOP.M                                      192.9:Конечная глубина
STEP.M                                          0:Шаг квантования по глубине
NULL.                                    -9999.25:Признак "Нет данных"
WELL.                                       123Мх:Скважина
~Parameter Information Section
~Curve Information Section
DEPTH.M                                          :Глубина
BK.lgОмм                                         :BK     (БК)
ПРОФ_СР.мм                                       :DS  (ДС)
ГК.мкР/час                                       :GK          (ГК)
ГЗ1.Омм                                          :GZ1   ГЗ1(A0.4M0.1N)
ГЗ2.Омм                                          :GZ2   ГЗ2(A1.0M0.1N)
ГЗ3.Омм                                          :GZ3   ГЗ3(A2.0M0.5N)
ГЗ4.Oмм                                          :GZ4   ГЗ4(A4.0M0.5N)
ГЗ5.Oмм                                          :GZ5   ГЗ5(A8.0M0.5N)
ГЗК.Омм                                          :GZK   ГЗK(N0.5M2.0A)
ИК.мСм/м                                         :IK
НГК.усл.ед.                                      :NGK     (НГК)
PS.мВ                                            :PS       (ПС)
PZ.Омм                                           :PZ    (КС)
RIS.Омм                                          :RS (Резистивиметр)
U1.мВ                                            :U1
U2.мВ                                            :U2
U3.mv                                            :U3
W.                                               :W
П.%                                              :п
ННКМ.усл.ед                                      :ННКм
~ASCII LOG DATA
# ...
81.0        19.679      134.02      5.811       43.56       14.62       18.801      19.346      16.334      18.263      8.101       1.022       250.949     4.191       1.335       588.137     340.622     242.909     2.389       32.7        0.176       
81.1        19.32       135.495     5.831       43.92       14.62       16.801      18.224      16.334      18.732      7.92        1.013       249.063     4.191       1.339       460.866     257.738     200.478     2.385       31.703      0.164       
81.2        16.181      135.363     5.952       44.28       14.62       14.801      17.102      16.334      19.201      7.823       0.984       247.555     4.191       1.343       361.107     254.062     262.79      2.366       31.028      0.164       
81.3        14.689      136.043     6.351       45.0        14.62       12.801      17.189      16.001      20.242      7.788       0.92        245.669     4.191       1.35        303.422     255.719     301.353     2.342       30.433      0.174       
81.4        14.388      134.53      6.665       46.08       14.62       10.801      17.858      15.001      21.337      7.779       0.887       243.783     4.191       1.356       287.815     262.711     316.165     2.322       30.095      0.173       
81.5        14.689      133.536     6.623       47.88       14.62       9.468       18.526      13.667      22.433      7.768       0.87        241.897     4.567       1.364       350.346     317.475     357.91      2.31        30.343      0.161       
81.6        14.555      137.913     6.331       48.96       14.62       8.134       19.397      12.334      23.557      7.805       0.867       240.389     4.943       1.372       448.949     414.688     450.346     2.323       31.499      0.156       
81.7        14.997      136.878     6.135       50.4        15.64       7.468       19.831      11.334      24.177      7.913       0.917       238.503     5.695       1.38        517.453     493.336     541.404     2.336       33.402      0.158       
81.8        15.453      135.111     6.693       51.48       16.66       6.134       20.733      10.667      24.9        8.0         0.979       236.617     6.447       1.387       519.808     510.992     580.41      2.342       34.63       0.159       
81.9        15.596      136.835     6.92        52.92       16.66       4.801       21.493      10.334      25.059      8.108       1.019       234.355     7.575       1.392       456.01      467.65      567.361     2.343       35.526      0.159       
82.0        15.631      134.48      7.027       53.64       14.96       2.801       22.253      10.334      25.218      8.175       1.068       232.469     8.327       1.397       454.039     411.753     486.386     2.349       35.005      0.165       
82.1        16.866      133.898     6.826       54.0        12.92       0.801       22.75       10.334      25.313      8.224       1.064       230.583     9.079       1.4         513.9       343.292     337.472     2.354       34.343      0.174       
82.2        17.1        133.454     6.644       54.0        11.9        -0.532      22.845      10.334      25.099      8.271       1.06        228.697     9.455       1.402       550.796     294.077     219.46      2.358       32.581      0.18        
82.3        15.205      133.665     6.601       54.0        11.56       -1.199      22.649      10.334      24.395      8.313       1.038       226.812     9.831       1.403       502.91      276.656     200.256     2.364       31.793      0.181       
82.4        15.241      133.481     6.124       54.0        11.9        -1.199      22.246      10.334      23.652      8.446       0.995       225.303     9.831       1.404       414.33      308.526     306.396     2.367       31.754      0.179       
82.5        15.849      133.091     6.057       54.0        12.24       -1.199      21.316      10.334      22.759      8.519       0.951       224.172     9.831       1.405       369.843     357.868     439.007     2.356       33.217      0.175       
82.6        16.711      133.67      5.782       54.0        12.92       -1.199      19.98       10.667      21.943      8.593       0.927       223.04      9.831       1.408       401.465     390.37      488.172     2.348       35.205      0.171       
82.7        18.281      133.223     5.616       54.0        13.6        -0.532      18.644      11.667      21.127      8.744       0.981       221.909     10.207      1.411       465.731     387.858     425.194     2.341       37.216      0.169       
82.8        18.578      133.704     5.38        54.0        14.28       0.801       17.809      12.667      20.119      8.824       1.066       221.155     10.583      1.413       517.074     354.083     302.117     2.337       38.384      0.169       
82.9        19.055      133.883     5.222       54.0        14.96       2.134       18.339      13.334      19.092      8.951       1.098       220.777     10.959      1.415       521.605     323.515     231.007     2.333       38.187      0.17        
83.0        23.442      133.195     5.198       54.0        15.3        3.468       18.869      13.334      18.065      9.128       1.078       220.4       11.335      1.415       478.696     296.828     214.022     2.327       36.931      0.175       
83.1        26.182      133.155     5.458       54.36       15.98       4.801       19.869      13.334      17.387      9.236       1.054       220.023     11.711      1.414       415.262     287.345     282.109     2.324       34.97       0.181       
83.2        26.607      132.537     5.95        56.16       16.32       6.134       20.536      13.334      17.1        9.338       1.037       219.646     11.711      1.41        331.784     296.196     439.348     2.323       32.657      0.181       
83.3        25.41       131.891     6.37        57.6        16.66       7.468       21.203      13.001      16.813      9.387       1.04        219.646     12.087      1.404       288.62      314.812     549.566     2.339       30.902      0.187       
83.4        21.777      131.563     6.384       58.32       16.66       8.801       21.536      12.667      17.297      9.413       1.016       219.646     12.839      1.395       310.393     325.293     516.354     2.351       30.766      0.197       
83.5        19.409      129.883     6.331       57.24       16.66       10.134      21.536      12.334      18.481      9.389       0.982       219.646     13.967      1.386       347.56      311.976     391.652     2.356       31.33       0.195       
83.6        17.179      129.928     6.239       56.52       16.66       11.468      21.536      12.334      19.664      9.225       0.965       219.646     15.095      1.378       333.444     281.645     318.839     2.358       32.624      0.189       
83.7        15.311      131.558     6.024       56.52       16.66       12.134      21.536      12.667      20.961      9.225       0.97        219.646     16.223      1.371       262.078     235.151     311.395     2.357       33.702      0.189       
83.8        16.827      132.095     5.727       57.24       16.66       14.134      21.869      13.334      22.128      9.224       0.967       219.646     17.727      1.364       268.456     225.601     300.096     2.34        34.687      0.186       
83.9        19.999      132.053     5.258       58.32       16.66       15.468      22.203      14.001      23.296      9.273       0.952       219.646     19.607      1.359       372.64      261.113     275.929     2.33        34.173      0.179       
84.0        25.003      133.19      5.188       59.04       16.66       17.468      22.536      14.667      23.825      9.376       1.006       219.646     21.111      1.355       488.345     290.564     227.792     2.326       33.376      0.176       
84.1        29.58       133.131     4.831       59.76       16.66       19.468      22.536      15.334      23.825      9.53        1.062       219.646     23.743      1.352       514.986     265.43      164.61      2.315       31.918      0.17        
