~Version Information Section
VERS.                                         2.0:CWLS log ASCII Standart – VERSION 2.0
WRAP.                                          NO:One line per depth step
~Well Information Section
STRT.M                                        1.2:Начальная глубина
STOP.M                                      169.4:Конечная глубина
STEP.M                                          0:Шаг квантования по глубине
NULL.                                    -9999.25:Признак "Нет данных"
WELL.                                       114Мх:Скважина
~Parameter Information Section
~Curve Information Section
DEPTH.M                                          :Глубина
BK.Ohm*M                                         :BK     (БК)
DS.mm                                            :DS  (ДС)
GGK.g/cm3                                        :GGKp
ГК.mcr/h                                         :GK          (ГК)
GZ1.Ohm*M                                        :GZ1   ГЗ1(A0.4M0.1N)
GZ2.Ohm*M                                        :GZ2   ГЗ2(A1.0M0.1N)
GZ3.Ohm*M                                        :GZ3   ГЗ3(A2.0M0.5N)
GZ4.Ohm*M                                        :GZ4   ГЗ4(A4.0M0.5N)
GZ5.Ohm*M                                        :GZ5   ГЗ5(A8.0M0.5N)
GZR.Ohm*M                                        :GZK   ГЗK(N0.5M2.0A)
ИК.Ohm*M                                         :IK
НГК.ue                                           :NGK     (НГК)
NNKM.                                            :NNKm  (ННКм)
PS.mv                                            :PS       (ПС)
PZ.Ohm*M                                         :PZ    (КС)
U1.mV                                            :U1
U2.mV                                            :U2
U3.mV                                            :U3
КП.%                                             :Кп
~ASCII LOG DATA
# ...
123.6       19.907      133.987     2.317       7.403       2.479       6.31        5.577       6.625       5.271       5.719       18.078      0.961       1.182       1101.431    14.104      127.447     234.982     460.353     30.438      
123.7       19.364      134.335     2.248       7.514       2.642       6.382       5.577       6.525       5.271       5.719       18.012      0.991       1.145       1101.251    14.275      249.05      233.537     506.691     32.145      
123.8       19.861      134.483     2.215       7.88        2.739       6.479       5.577       6.525       5.271       5.719       17.938      1.029       1.112       1101.082    14.446      445.946     241.254     490.972     35.598      
123.9       20.512      134.865     2.206       8.177       2.778       6.407       5.577       6.525       5.271       5.719       17.872      1.028       1.114       1100.779    14.616      620.105     313.979     485.361     38.242      
124.0       21.577      134.947     2.216       8.281       2.884       6.431       5.577       6.525       5.271       5.719       17.823      1.064       1.123       1100.491    14.787      681.079     432.315     483.497     36.621      
124.1       22.182      134.572     2.229       7.939       2.938       6.358       5.577       6.525       5.271       5.719       17.799      1.043       1.127       1100.032    14.787      619.382     524.718     464.561     33.177      
124.2       21.281      134.858     2.239       7.335       3.083       6.382       5.577       6.625       5.271       5.719       17.735      1.082       1.129       1099.157    14.616      520.918     538.592     424.727     32.048      
124.3       21.878      134.043     2.238       6.871       3.232       6.407       5.677       6.625       5.371       5.719       17.716      1.041       1.115       1098.906    14.446      427.03      485.566     380.522     34.874      
124.4       23.714      134.623     2.236       6.532       3.343       6.503       5.877       6.725       5.371       5.819       17.595      1.094       1.1         1098.836    14.275      375.162     423.015     344.575     37.129      
124.5       25.942      134.732     2.245       6.459       3.629       6.576       5.877       6.825       5.371       5.919       17.533      1.041       1.141       1098.508    13.933      358.628     356.804     299.25      36.558      
124.6       27.227      133.806     2.255       6.435       3.909       6.745       5.977       6.925       5.371       6.119       17.401      1.065       1.182       1098.357    13.591      349.502     304.852     249.89      36.202      
124.7       21.135      134.016     2.262       6.62        3.765       6.793       6.077       7.025       5.471       6.119       17.317      1.012       1.21        1097.666    13.249      368.067     287.906     235.851     36.34       
124.8       17.906      133.652     2.258       6.547       3.518       6.89        6.277       7.125       5.471       6.119       17.239      0.998       1.235       1097.109    12.907      452.038     303.069     270.881     36.166      
124.9       17.418      133.416     2.257       6.426       3.272       7.132       6.277       7.725       5.771       6.619       17.124      1.019       1.224       1096.898    12.566      583.958     342.545     327.453     35.823      
125.0       16.482      134.384     2.254       6.164       3.126       7.422       6.277       8.125       5.871       5.785       16.967      1.024       1.217       1096.969    12.053      710.878     388.828     349.295     35.75       
125.1       15.776      133.741     2.26        6.605       3.064       7.761       6.277       8.225       5.971       5.978       16.721      1.018       1.228       1096.951    11.54       796.906     430.231     333.487     35.57       
125.2       15.668      133.085     2.267       7.194       2.953       8.22        6.477       8.125       6.171       6.172       16.394      1.016       1.215       1096.875    11.198      870.465     444.119     286.982     34.695      
125.3       16.788      133.442     2.262       7.474       2.899       8.39        6.577       8.025       6.271       6.438       16.052      1.049       1.163       1096.865    11.027      923.11      442.09      248.155     33.837      
125.4       17.1        134.209     2.251       7.34        2.788       8.341       6.677       8.025       6.571       6.63        15.815      1.105       1.142       1095.998    10.856      891.132     461.413     244.885     33.71       
125.5       15.959      134.342     2.247       7.272       2.681       8.269       6.977       7.825       6.771       6.607       15.47       1.109       1.168       1094.272    10.686      763.578     501.238     272.047     33.769      
125.6       16.827      134.13      2.259       7.658       2.506       8.196       7.077       7.825       6.171       6.486       15.256      1.091       1.184       1091.341    10.515      687.436     514.532     299.037     33.322      
125.7       18.365      134.154     2.272       7.604       2.415       8.172       7.177       7.825       6.171       6.511       15.057      1.075       1.182       1087.145    10.344      760.067     475.716     300.89      32.495      
125.8       18.197      134.372     2.259       7.387       2.362       8.1         7.177       7.825       6.071       6.583       14.935      1.062       1.175       1082.551    10.173      856.732     475.148     332.134     32.061      
125.9       17.579      135.625     2.241       7.185       2.328       8.075       7.177       7.825       5.971       6.511       14.847      1.065       1.16        1077.323    10.002      869.182     555.321     405.39      32.55       
126.0       16.672      134.993     2.253       7.228       2.27        7.93        7.177       7.825       5.871       6.196       14.808      1.047       1.156       1071.381    9.66        729.661     618.475     445.973     33.55       
126.1       15.776      133.454     2.266       7.652       2.14        7.809       7.077       7.825       5.871       6.051       14.651      1.067       1.161       1065.259    9.318       532.768     595.373     409.546     34.281      
126.2       15.311      134.141     2.279       7.783       2.111       7.833       6.977       7.825       5.871       5.978       14.581      1.101       1.158       1059.807    8.976       407.439     483.116     342.719     34.162      
126.3       15.812      133.607     2.256       7.826       2.057       7.809       6.877       7.825       5.771       6.027       14.467      1.085       1.15        1055.416    8.635       512.673     388.97      369.164     33.882      
126.4       16.293      133.158     2.239       7.375       1.994       7.833       6.877       7.825       5.671       6.147       14.332      1.038       1.156       1051.696    8.293       749.359     371.352     466.425     34.013      
126.5       16.032      133.533     2.232       6.834       1.966       7.809       6.777       7.825       5.671       6.341       14.2        0.993       1.167       1048.311    7.951       866.467     481.36      567.265     34.809      
126.6       15.776      133.56      2.228       6.708       1.893       7.809       6.677       7.825       5.771       6.413       14.178      1.029       1.163       1045.93     7.609       851.635     638.853     612.849     35.638      
126.7       15.596      134.055     2.231       6.921       1.806       7.712       6.677       7.925       5.871       6.317       14.113      1.059       1.154       1045.067    7.267       938.221     718.691     616.33      35.64       
126.8       15.382      133.875     2.229       7.151       1.747       7.64        6.577       7.925       5.871       6.148       14.085      1.125       1.161       1045.121    6.926       1248.264    733.316     636.458     35.02       
126.9       15.031      133.139     2.237       6.852       1.656       7.615       6.577       7.925       5.971       5.978       14.07       1.108       1.174       1045.719    6.584       1557.363    816.254     714.29      34.279      
