~Version Information Section
VERS.                                         2.0:CWLS log ASCII Standart – VERSION 2.0
WRAP.                                          NO:One line per depth step
~Well Information Section
STRT.M                                        0.4:Начальная глубина
STOP.M                                      206.4:Конечная глубина
STEP.M                                          0:Шаг квантования по глубине
NULL.                                    -9999.25:Признак "Нет данных"
WELL.                                       157Мх:Скважина
~Parameter Information Section
~Curve Information Section
DEPTH.M                                          :Глубина
BK.Ohm*M                                         :BK     (БК)
DS.mm                                            :DS  (ДС)
GGK.g/cm3                                        :GGKp
ГК.mcr/h                                         :GK          (ГК)
GZ1.Ohm*M                                        :GZ1   ГЗ1(A0.4M0.1N)
GZ2.Ohm*M                                        :GZ2   ГЗ2(A1.0M0.1N)
GZ3.Ohm*M                                        :GZ3   ГЗ3(A2.0M0.5N)
GZ4.Ohm*M                                        :GZ4   ГЗ4(A4.0M0.5N)
GZ5.Ohm*M                                        :GZ5   ГЗ5(A8.0M0.5N)
GZR.                                             :GZR   ГЗK(N0.5M2.0A)
ИК.Ohm*M                                         :IK
НГК.ue                                           :NGK     (НГК)
NNKM.                                            :NNKm  (ННКм)
PS.mv                                            :PS       (ПС)
PZ.Ohm*M                                         :PZ    (КС)
RS.Ohm*M                                         :RS (Резистивиметр)
W.%                                              :W
~ASCII LOG DATA
# ...
133.6       82.092      151.968     2.451       6.618       31.9        50.495      84.286      78.856      192.777     163.62      57.47       1.82        2.595       111.832     72.46       1.113       21.401      
133.7       237.753     151.58      2.474       6.019       39.634      56.634      93.135      92.958      210.463     163.352     61.424      1.935       2.77        99.246      78.912      1.111       19.3        
133.8       292.597     150.815     2.492       5.405       52.672      61.988      99.726      106.759     224.358     160.825     64.691      2.035       2.92        88.848      87.523      1.11        18.118      
133.9       239.996     150.506     2.5         5.085       74.794      67.142      102.673     116.413     230.222     153.238     66.989      2.122       2.989       80.58       102.971     1.112       17.844      
134.0       139.105     150.323     2.497       4.993       100.411     69.704      102.74      119.269     231.146     144.628     68.916      2.139       2.981       74.581      124.75      1.112       17.972      
134.1       84.731      150.797     2.483       5.139       120.07      71.478      102.285     118.914     226.566     136.625     69.611      2.18        2.955       70.901      147.655     1.112       18.275      
134.2       100.704     151.224     2.472       5.271       128.267     73.652      99.846      116.773     215.586     128.403     70.526      2.202       2.915       69.006      164.628     1.112       18.619      
134.3       144.758     151.55      2.466       5.301       130.273     76.95       96.868      113.307     201.935     121.047     70.628      2.116       2.893       68.413      174.119     1.111       18.394      
134.4       164.572     152.021     2.463       5.43        131.472     86.262      94.386      110.451     188.296     114.207     70.228      2.005       2.91        68.413      179.089     1.113       17.471      
134.5       190.057     151.726     2.456       5.582       138.806     112.536     91.984      107.617     175.867     106.958     69.833      1.947       2.948       68.413      180.972     1.115       16.352      
134.6       180.27      151.674     2.454       5.718       150.754     152.976     89.265      104.395     163.992     99.287      68.036      2.005       2.958       68.472      181.353     1.118       15.697      
134.7       131.426     151.779     2.447       5.781       157.88      191.413     85.447      100.269     152.044     92.082      66.536      2.07        2.93        68.913      181.088     1.119       16.396      
134.8       104.869     151.832     2.437       5.848       157.642     209.61      80.871      94.944      140.044     85.325      64.37       2.092       2.853       69.995      179.469     1.12        18.043      
134.9       89.667      151.499     2.424       6.068       154.599     212.481     76.199      88.625      128.739     79.275      62.993      2.091       2.802       71.38       176.343     1.123       19.608      
135.0       83.79       151.882     2.413       6.327       144.73      215.065     72.259      82.64       118.858     74.56       62.28       2.039       2.783       72.986      171.492     1.121       20.217      
135.1       105.067     152.275     2.409       6.217       138.345     216.637     69.303      78.078      109.955     71.445      61.013      1.987       2.803       74.631      164.601     1.125       19.427      
135.2       122.668     152.373     2.409       5.85        136.712     219.501     67.025      74.507      102.122     68.998      60.12       1.968       2.829       76.95       154.948     1.127       18.12       
135.3       109.343     152.516     2.409       5.823       134.62      218.917     65.287      70.995      95.643      66.386      58.141      1.985       2.83        80.605      145.003     1.127       17.943      
135.4       75.801      151.949     2.411       6.188       128.249     215.175     64.14       67.247      90.228      63.498      56.112      2.052       2.757       85.892      137.332     1.129       19.383      
135.5       68.873      151.858     2.416       6.519       121.019     206.693     64.064      63.104      85.21       60.028      53.859      2.095       2.675       92.789      132.948     1.126       20.782      
135.6       80.879      152.557     2.424       6.414       114.446     194.394     64.918      58.803      80.164      55.582      51.758      2.072       2.629       101.356     127.936     1.125       20.455      
135.7       92.044      153.073     2.423       6.186       111.648     188.688     70.311      54.74       75.241      50.5        50.144      2.005       2.656       110.415     120.583     1.124       19.434      
135.8       74.489      153.429     2.415       6.108       107.521     175.418     80.319      50.89       70.574      45.494      48.563      1.886       2.61        118.583     112.229     1.126       19.566      
135.9       53.479      152.734     2.395       6.13        100.204     156.102     89.751      47.042      66.424      41.387      47.662      1.82        2.516       125.117     105.672     1.125       21.368      
136.0       40.426      151.655     2.372       6.482       88.189      133.618     94.1        42.304      62.978      38.212      46.383      1.742       2.371       129.879     102.119     1.123       23.629      
136.1       41.309      151.523     2.349       7.019       78.431      119.024     94.207      37.318      59.922      36.256      45.8        1.728       2.306       132.825     99.895      1.121       25.192      
136.2       48.459      152.098     2.329       7.193       70.249      109.209     94.184      33.345      57.065      35.221      45.362      1.733       2.278       134.626     98.431      1.12        25.685      
136.3       51.524      152.027     2.311       6.969       66.025      103.852     93.218      31.051      54.785      34.797      45.045      1.742       2.299       136.068     97.168      1.121       25.07       
136.4       55.8        152.219     2.297       6.668       63.212      99.338      93.155      30.125      53.567      34.921      44.507      1.732       2.318       137.642     95.396      1.122       24.355      
136.5       48.595      154.518     2.285       6.695       61.789      93.875      93.447      29.095      53.162      35.747      43.796      1.693       2.311       139.894     92.999      1.125       24.933      
136.6       35.018      153.181     2.28        6.982       58.964      85.253      93.812      27.971      52.741      37.588      43.391      1.661       2.262       143.083     90.735      1.125       26.844      
136.7       30.457      153.311     2.283       7.145       57.259      79.441      94.059      26.928      51.995      39.905      43.482      1.625       2.215       147.489     88.974      1.126       28.338      
136.8       44.027      153.501     2.291       6.877       56.537      76.587      94.395      26.853      51.076      40.881      43.845      1.602       2.268       153.479     86.906      1.123       28.049      
136.9       68.27       153.718     2.293       6.502       56.912      75.194      94.316      26.993      50.678      40.653      43.915      1.642       2.363       161.161     84.16       1.119       26.301      
137.0       67.708      154.045     2.286       6.575       58.525      74.546      93.522      27.54       50.629      39.203      43.157      1.703       2.445       169.352     80.634      1.12        24.922      
137.1       54.907      154.158     2.275       6.943       58.981      72.822      90.575      27.481      51.484      36.468      42.024      1.739       2.423       176.609     77.459      1.12        25.051      
137.2       42.314      154.117     2.265       7.078       58.56       66.03       85.162      27.085      53.558      34.07       40.914      1.709       2.356       181.554     75.663      1.119       26.349      
