~Version Information Section
VERS.                                         2.0:CWLS log ASCII Standart – VERSION 2.0
WRAP.                                          NO:One line per depth step
~Well Information Section
STRT.M                                        0.6:Начальная глубина
STOP.M                                      209.2:Конечная глубина
STEP.M                                          0:Шаг квантования по глубине
NULL.                                    -9999.25:Признак "Нет данных"
WELL.                                       107Мх:Скважина
~Parameter Information Section
~Curve Information Section
DEPTH.M                                          :Глубина
PS.mv                                            :PS       (ПС)
PZ.Ohm*M                                         :PZ    (КС)
RS.Ohm*M                                         :RS (Резистивиметр)
U1.mV                                            :U1
U2.mV                                            :U2
U3.mV                                            :U3
КП.%                                             :Кп
BK.Ohm*M                                         :BK     (БК)
DS.mm                                            :DS  (ДС)
GGK.g/cm3                                        :GGKp
ГК.mcr/h                                         :GK          (ГК)
GZ1.Ohm*M                                        :GZ1   ГЗ1(A0.4M0.1N)
GZ2.Ohm*M                                        :GZ2   ГЗ2(A1.0M0.1N)
GZ3.Ohm*M                                        :GZ3   ГЗ3(A2.0M0.5N)
GZ4.Ohm*M                                        :GZ4   ГЗ4(A4.0M0.5N)
GZ5.Ohm*M                                        :GZ5   ГЗ5(A8.0M0.5N)
GZR.Ohm*M                                        :GZK   ГЗK(N0.5M2.0A)
ИК.Ohm*M                                         :IK
НГК.u.e.                                         :NGK
NNKM.                                            :NNKm  (ННКм)
~ASCII LOG DATA
# ...
160.6       1072.237    28.255      1.026       585.157     394.471     396.451     27.528      21.184      151.371     2.286       6.784       89.85       27.114      46.742      13.103      12.79       38.92       9.153       1.087       14.775      
160.7       1071.985    28.631      1.026       527.529     357.163     375.58      28.017      23.388      151.3       2.326       6.76        89.85       27.114      46.742      13.103      12.79       38.92       9.069       1.058       14.792      
160.8       1071.684    28.631      1.026       495.829     340.951     372.803     29.144      23.227      151.073     2.376       6.871       89.43       27.114      46.742      13.103      12.79       38.92       8.974       1.058       14.81       
160.9       1071.332    28.631      1.026       499.288     347.194     383.744     31.202      23.227      151.043     2.43        6.886       89.01       27.114      46.742      13.103      12.79       38.92       8.974       1.099       15.359      
161.0       1070.929    28.631      1.026       543.108     374.543     402.382     33.459      23.496      151.12      2.424       6.923       89.01       27.634      47.182      13.103      12.79       38.92       8.893       1.082       15.909      
161.1       1070.477    28.255      1.026       617.23      410.174     416.623     34.642      25.177      150.999     2.36        6.86        88.59       27.634      47.182      13.103      12.79       38.92       8.767       1.097       16.025      
161.2       1069.974    27.127      1.026       706.0       436.31      410.448     33.522      24.491      151.009     2.315       6.825       88.59       28.154      47.182      13.103      12.79       38.92       8.692       1.037       16.17       
161.3       1069.446    25.623      1.026       807.701     457.67      390.087     31.503      19.454      151.073     2.304       7.113       88.59       28.154      47.182      13.223      12.79       38.92       8.595       1.061       15.563      
161.4       1068.918    23.743      1.026       910.387     482.811     373.337     29.481      17.579      151.029     2.314       7.612       88.59       28.154      47.182      13.343      12.93       38.92       8.54        1.036       14.504      
161.5       1068.415    21.863      1.026       975.919     501.679     367.698     28.905      18.072      151.185     2.289       7.834       88.59       28.154      47.182      13.343      12.93       38.92       8.468       1.053       14.074      
161.6       1067.937    20.735      1.026       983.307     505.889     369.952     28.262      17.1        151.822     2.273       7.017       89.01       28.154      47.182      13.463      12.93       38.92       8.415       1.036       14.064      
161.7       1067.485    20.735      1.026       950.869     506.97      383.767     28.181      17.1        151.646     2.292       6.523       89.85       28.154      47.182      13.463      12.93       38.92       8.415       1.024       14.315      
161.8       1067.057    21.111      1.026       925.713     527.216     418.708     28.382      17.742      151.572     2.331       6.274       90.27       28.674      47.182      14.063      12.93       39.96       8.343       1.033       14.74       
161.9       1066.655    21.863      1.026       921.382     558.632     460.198     28.737      17.539      151.423     2.37        6.781       91.95       29.194      47.182      14.183      12.93       41.0        8.295       1.045       14.901      
162.0       1066.253    22.991      1.026       911.084     571.58      480.747     28.924      16.827      151.148     2.381       6.897       92.79       30.234      47.182      14.423      13.07       41.0        8.236       1.059       14.869      
162.1       1065.876    23.743      1.026       907.13      572.165     484.508     28.732      18.923      151.422     2.356       6.727       93.63       30.234      47.182      14.423      13.21       42.04       8.177       1.105       14.846      
162.2       1065.524    24.119      1.026       890.586     561.139     491.43      28.291      19.543      151.947     2.37        6.364       94.05       31.274      47.182      14.663      13.35       43.08       8.12        1.109       14.851      
162.3       1065.197    24.495      1.026       810.856     519.461     505.731     27.86       19.543      152.111     2.346       6.155       94.47       31.274      47.182      14.783      13.35       43.08       8.051       1.123       14.845      
162.4       1064.895    25.247      1.026       715.38      475.669     524.608     27.843      18.793      152.175     2.354       6.396       95.31       31.794      47.622      15.263      13.63       43.08       8.007       1.096       14.798      
162.5       1064.619    25.623      1.026       704.858     491.712     566.296     28.983      17.338      151.993     2.336       6.542       95.31       32.314      48.062      15.503      13.77       43.08       8.007       1.126       14.76       
162.6       1064.367    25.999      1.026       742.071     546.65      626.585     30.194      16.711      151.453     2.337       6.647       98.25       32.314      48.942      15.743      13.91       43.08       7.958       1.128       14.895      
162.7       1064.166    26.375      1.026       790.303     609.013     681.418     30.93       16.904      150.976     2.336       6.597       98.67       32.834      49.382      16.463      14.05       45.16       7.913       1.11        15.074      
162.8       1063.99     26.375      1.026       899.052     697.535     725.412     30.669      16.943      150.976     2.338       6.775       99.09       33.354      50.262      16.943      14.19       46.2        7.877       1.072       15.053      
162.9       1063.814    25.999      1.026       1059.87     814.307     781.395     30.718      16.52       151.018     2.351       6.964       99.51       33.874      52.022      17.063      14.33       46.2        7.859       1.038       14.944      
163.0       1063.613    25.623      1.026       1218.958    935.493     860.711     30.941      16.52       151.076     2.372       7.139       99.51       35.954      53.342      17.423      14.75       47.24       7.832       1.028       14.838      
163.1       1063.361    25.247      1.026       1377.433    1056.87     949.73      30.311      16.218      151.207     2.356       7.175       99.51       36.474      54.662      18.863      15.03       48.28       7.832       0.987       14.716      
163.2       1063.06     24.871      1.026       1544.925    1175.677    1029.353    29.261      15.849      151.12      2.334       7.183       99.51       37.514      56.862      19.343      15.17       49.32       7.823       0.973       14.662      
163.3       1062.708    24.871      1.026       1676.905    1252.139    1066.097    28.456      15.382      151.167     2.316       7.133       99.93       40.634      58.182      19.583      15.31       53.48       7.834       0.949       14.689      
163.4       1062.305    24.871      1.026       1724.335    1250.641    1036.576    28.664      15.382      151.187     2.277       7.125       100.35      42.194      59.942      20.303      15.45       56.6        7.879       0.969       14.662      
163.5       1061.878    25.999      1.026       1671.806    1178.095    958.584     28.763      15.241      151.27      2.248       7.116       100.35      45.834      62.142      20.663      16.15       60.76       7.933       0.987       14.425      
163.6       1061.4      27.503      1.026       1559.588    1075.134    868.272     28.171      15.631      151.647     2.23        6.733       100.77      48.954      65.222      21.023      16.99       68.04       8.007       1.027       14.235      
163.7       1060.897    32.391      1.026       1439.745    979.751     793.454     27.444      16.144      151.584     2.248       6.454       101.19      53.634      68.302      21.983      17.27       74.28       8.089       1.064       14.522      
