~Version Information Section
VERS.                                         2.0:CWLS log ASCII Standart – VERSION 2.0
WRAP.                                          NO:One line per depth step
~Well Information Section
STRT.M                                        0.8:Начальная глубина
STOP.M                                      209.6:Конечная глубина
STEP.M                                          0:Шаг квантования по глубине
NULL.                                    -9999.25:Признак "Нет данных"
WELL.                                         5Мх:Скважина
~Parameter Information Section
~Curve Information Section
DEPTH.M                                          :Глубина
BK.Ohm*M                                         :BK     (БК)
DS.mm                                            :DS  (ДС)
ГК.mcr/h                                         :GK          (ГК)
GZ1.Ohm*M                                        :GZ1   ГЗ1(A0.4M0.1N)
GZ2.Ohm*M                                        :GZ2   ГЗ2(A1.0M0.1N)
GZ3.Ohm*M                                        :GZ3   ГЗ3(A2.0M0.5N)
GZ4.Ohm*M                                        :GZ4   ГЗ4(A4.0M0.5N)
GZ5.Ohm*M                                        :GZ5   ГЗ5(A8.0M0.5N)
GZR.Ohm*M                                        :GZK   ГЗK(N0.5M2.0A)
ИК.Ohm*M                                         :IK
НГК.                                             :NNKb  (ННКб)
NNKM.                                            :NNKm  (ННКм)
PS.mv                                            :PS       (ПС)
PZ.Ohm*M                                         :PZ    (КС)
RS.Ohm*M                                         :RS (Резистивиметр)
W.%                                              :W
ГГК.g/cm3                                        :ГГК
SGDT1.1/min                                      :ПЛ1
SGDT2.1/min                                      :ПЛ2
SGDT3.1/min                                      :ПЛ3
SGDT4.1/min                                      :ПЛ4
~ASCII LOG DATA
# ...
149.6       26.363      166.052     7.206       3.702       10.575      4.894       4.004       18.502      4.365       21.642      2.781       1.921       963.294     22.26       0.869       35.107      2.221       13432.479   18868.008   13821.924   3525.029    
149.8       25.468      166.034     6.887       3.755       10.687      5.254       4.084       18.502      4.515       21.584      2.916       1.939       964.51      21.331      0.869       33.338      2.216       14233.193   19214.355   14190.371   3625.586    
150.0       26.122      165.809     6.818       3.71        10.911      5.614       4.164       18.502      4.776       21.454      2.896       1.953       963.98      21.102      0.869       33.631      2.226       13684.975   19117.656   13917.075   3699.58     
150.2       26.546      165.762     7.08        3.702       10.91       5.614       4.324       18.502      4.627       21.461      2.871       1.973       963.98      21.212      0.869       34.372      2.223       13519.234   18806.387   13633.755   3773.594    
150.4       23.281      165.344     6.904       3.651       10.929      5.614       4.324       18.502      4.235       21.27       2.932       1.94        963.849     21.303      0.869       32.904      2.217       13936.725   19101.563   13523.442   3892.012    
150.6       24.66       164.232     6.294       3.9         11.004      5.614       4.324       18.682      4.328       21.022      2.986       1.932       959.98      21.967      0.869       32.033      2.23        14091.654   19815.918   13250.947   3774.395    
150.8       24.889      164.179     6.277       3.654       10.854      5.434       4.084       18.682      4.477       20.817      2.937       1.963       958.224     22.994      0.869       33.441      2.254       13395.752   19744.082   12991.353   3835.615    
151.0       24.434      164.143     6.893       3.575       10.78       5.434       3.924       18.682      4.571       20.707      2.843       1.966       959.418     22.48       0.869       34.567      2.263       12882.123   19599.717   13159.922   3708.828    
151.2       24.547      164.057     6.899       3.993       10.873      5.254       3.684       18.682      4.962       20.417      2.827       1.93        961.024     21.304      0.869       34.561      2.258       13020.778   19550.391   13770.791   3597.256    
151.4       22.961      163.633     6.478       3.527       10.724      5.254       3.604       18.682      5.784       20.4        2.743       1.893       961.984     19.437      0.869       35.113      2.242       13282.781   19206.064   13710.449   3627.949    
151.6       22.699      163.612     6.721       3.572       10.705      5.254       3.524       18.502      9.44        20.069      2.628       1.904       961.723     17.426      0.869       37.08       2.212       13511.557   19751.914   13642.822   3638.018    
151.8       21.727      163.132     6.696       3.698       10.724      5.254       3.444       18.322      10.075      19.966      2.556       1.87        962.323     16.281      0.869       37.769      2.205       15075.84    20068.291   13759.58    4001.563    
152.0       20.893      162.833     7.083       3.512       10.612      5.434       3.444       18.142      9.011       19.848      2.464       1.819       961.916     16.236      0.869       38.283      2.234       15471.706   20577.578   14063.906   4037.578    
152.2       21.878      162.639     6.838       3.423       10.481      5.254       3.444       18.322      6.269       19.648      2.396       1.838       962.595     18.203      0.869       39.087      2.243       13694.566   21035.156   14604.385   4028.828    
152.4       20.464      162.268     6.029       3.363       10.5        4.894       3.364       18.142      5.969       19.549      2.773       1.823       961.861     24.563      0.869       33.796      2.243       13667.204   20614.414   14302.021   3833.994    
152.6       23.442      161.748     5.643       3.356       10.313      4.534       3.604       17.782      6.137       19.631      2.974       1.909       964.055     25.837      0.869       32.109      2.272       13907.926   19552.012   13232.251   3324.023    
152.8       25.527      162.121     6.408       3.224       9.772       4.534       3.844       17.782      5.969       19.681      2.944       2.063       966.038     24.011      0.869       35.555      2.294       11846.445   19048.828   12716.436   3879.58     
153.0       21.577      162.433     6.999       4.008       9.362       4.714       4.004       17.962      5.448       19.47       2.727       1.989       968.042     19.48       0.869       37.868      2.262       12454.326   19337.598   13032.974   4130.391    
153.2       19.011      162.837     7.115       3.3         10.089      4.534       3.604       17.602      4.72        19.23       2.574       1.917       968.656     17.455      0.869       38.694      2.218       13709.972   19670.391   13555.195   4240.801    
153.4       20.606      163.201     6.696       3.217       10.146      4.714       3.604       17.242      4.123       19.104      2.527       1.888       966.46      17.402      0.869       38.64       2.204       14754.174   20101.602   13482.002   3940.0      
153.6       20.091      163.299     6.407       3.232       10.071      4.714       3.604       16.522      3.825       19.135      2.583       1.859       962.53      17.484      0.869       37.137      2.201       14232.145   20520.0     13237.832   3613.145    
153.8       19.231      163.999     6.114       3.277       10.052      4.714       3.604       16.882      3.563       19.183      2.58        1.858       960.957     17.337      0.869       36.993      2.201       13910.215   19957.715   13206.055   3355.313    
154.0       20.701      164.516     6.871       3.214       10.071      4.714       3.604       17.242      3.247       19.12       2.553       1.853       960.66      17.299      0.866       37.151      2.203       14384.91    19967.5     13199.629   3348.184    
154.2       21.135      164.726     7.356       3.094       10.313      4.714       3.604       17.422      2.779       19.213      2.637       1.881       962.263     17.542      0.863       36.17       2.213       13859.409   19471.816   13431.709   3403.164    
154.4       21.086      164.838     6.859       3.195       10.313      4.534       3.604       17.422      2.555       19.23       2.695       1.851       965.751     18.044      0.863       34.542      2.217       13563.26    19584.063   13426.533   3512.246    
154.6       21.777      165.318     6.458       3.269       10.257      4.534       3.684       16.882      2.351       19.261      2.812       1.854       966.917     18.728      0.863       33.233      2.223       13413.985   18903.613   12896.748   3560.938    
154.8       22.387      165.997     6.878       3.299       10.164      4.894       3.764       16.882      2.221       19.34       2.663       1.934       967.347     18.816      0.863       36.496      2.233       13347.598   18743.828   13043.174   3657.734    
155.0       21.677      166.391     6.843       3.538       10.164      5.254       3.764       17.242      2.183       19.308      2.568       1.879       963.818     18.474      0.863       37.722      2.239       13208.333   19426.602   13108.398   3707.266    
155.2       20.417      166.716     6.055       3.59        10.183      5.434       3.844       17.602      2.053       19.215      2.714       1.883       964.788     17.978      0.862       35.526      2.246       13045.368   18941.797   12973.232   3851.68     
155.4       21.928      166.758     6.289       3.617       10.183      5.974       3.924       17.962      1.921       19.103      2.768       1.918       964.901     17.761      0.856       35.113      2.246       13010.599   19173.984   13134.59    3560.0      
155.6       20.654      167.198     6.949       3.855       10.146      6.514       4.004       18.322      1.716       19.042      2.77        1.902       965.39      18.26       0.851       34.496      2.258       12968.721   19048.125   13088.799   3461.074    
