~Version Information Section
VERS.                                         2.0:CWLS log ASCII Standart – VERSION 2.0
WRAP.                                          NO:One line per depth step
~Well Information Section
STRT.M                                       -0.1:Начальная глубина
STOP.M                                      197.8:Конечная глубина
STEP.M                                          0:Шаг квантования по глубине
NULL.                                    -9999.25:Признак "Нет данных"
WELL.                                       134Мх:Скважина
~Parameter Information Section
~Curve Information Section
DEPTH.M                                          :Глубина
BK.Ohm*M                                         :BK     (БК)
DS.mm                                            :DS  (ДС)
GGK.g/cm3                                        :GGKp
ГК.mcr/h                                         :GK          (ГК)
GZ1.Ohm*M                                        :GZ1   ГЗ1(A0.4M0.1N)
GZ2.Ohm*M                                        :GZ2   ГЗ2(A1.0M0.1N)
GZ3.Ohm*M                                        :GZ3   ГЗ3(A2.0M0.5N)
GZ4.Ohm*M                                        :GZ4   ГЗ4(A4.0M0.5N)
GZ5.Ohm*M                                        :GZ5   ГЗ5(A8.0M0.5N)
GZR.Ohm*M                                        :GZK   ГЗK(N0.5M2.0A)
ИК.Ohm*M                                         :IK
КП.%                                             :Кп
НГК.ue                                           :NGK     (НГК)
NNKM.                                            :NNKm  (ННКм)
PS.mv                                            :PS       (ПС)
PZ.Ohm*M                                         :PZ    (КС)
RS.Ohm*M                                         :RS (Резистивиметр)
U1.mV                                            :U1
U2.mV                                            :U2
U3.mV                                            :U3
~ASCII LOG DATA
# ...
140.7       38.817      132.766     2.225       5.253       31.488      30.702      32.028      24.305      17.638      23.392      24.248      36.079      1.166       1.977       325.512     55.704      1.06        190.004     214.936     362.595     
140.8       35.664      132.775     2.218       5.653       31.463      30.313      31.66       23.969      17.642      23.068      24.175      37.236      1.149       1.963       327.787     55.248      1.06        166.338     230.921     364.603     
140.9       35.466      132.689     2.215       5.813       31.463      30.161      31.522      23.87       17.676      22.958      24.195      37.03       1.116       1.937       329.981     54.88       1.06        147.309     237.141     342.649     
141.0       39.151      132.643     2.223       5.904       31.463      30.161      31.508      23.87       17.786      22.958      24.316      36.629      1.164       1.94        332.09      54.584      1.06        243.641     265.516     388.824     
141.1       44.367      132.301     2.236       5.895       31.529      30.07       31.508      23.87       18.024      22.958      24.509      36.349      1.189       1.999       334.11      54.36       1.06        286.784     274.102     385.161     
141.2       49.707      131.997     2.251       5.633       31.763      29.859      31.508      23.989      18.418      23.024      24.663      36.088      1.206       2.064       336.045     54.192      1.06        276.763     262.907     335.187     
141.3       50.512      132.09      2.256       5.523       32.165      29.68       31.649      24.345      18.935      23.365      24.632      34.353      1.199       2.102       337.907     54.088      1.06        297.109     257.048     238.878     
141.4       44.719      132.501     2.256       5.439       32.674      29.648      32.071      24.906      19.505      24.103      24.446      33.076      1.203       2.084       339.706     54.032      1.06        347.834     256.534     212.019     
141.5       40.333      132.737     2.256       5.504       33.231      29.732      32.665      25.595      20.076      25.111      24.372      33.445      1.174       2.017       341.437     54.008      1.06        285.536     221.279     182.942     
141.6       40.409      132.663     2.263       5.676       33.79       29.789      33.244      26.24       20.602      26.14       24.416      34.815      1.16        1.986       343.074     54.0        1.06        268.5       211.276     167.92      
141.7       43.063      132.47      2.28        5.489       34.434      29.778      33.739      26.657      21.032      26.992      24.571      34.81       1.164       2.004       344.59      54.0        1.06        293.543     226.11      169.181     
141.8       51.139      132.305     2.301       5.121       35.315      29.543      34.091      26.872      21.35       27.664      24.759      33.485      1.192       2.051       345.962     54.0        1.06        282.725     232.369     196.013     
141.9       56.456      132.299     2.324       4.799       36.351      29.134      34.25       26.986      21.597      28.181      25.207      32.709      1.207       2.118       347.171     54.0        1.06        266.843     249.085     232.134     
142.0       57.848      131.646     2.343       4.719       37.32       28.813      34.291      27.048      21.842      28.559      25.564      31.252      1.185       2.182       348.219     54.0        1.06        278.555     284.414     288.825     
142.1       61.314      131.003     2.353       4.964       38.306      28.677      34.297      27.097      22.133      28.893      25.789      29.553      1.193       2.234       349.138     54.008      1.06        310.023     322.232     356.82      
142.2       61.449      130.982     2.358       4.94        39.334      28.734      34.298      27.122      22.497      29.287      26.075      28.537      1.23        2.265       349.958     54.032      1.06        364.45      362.97      398.417     
142.3       64.966      131.034     2.354       4.951       40.191      28.79       34.32       27.159      22.968      29.851      26.208      28.944      1.293       2.274       350.709     54.08       1.06        380.388     373.604     402.342     
142.4       86.853      130.986     2.34        4.751       41.04       28.875      34.453      27.368      23.549      30.819      26.141      28.933      1.304       2.275       351.408     54.16       1.06        378.684     363.359     355.611     
142.5       90.064      131.017     2.322       4.7         42.132      29.329      34.882      27.978      24.182      32.417      25.922      29.348      1.269       2.232       352.064     54.28       1.06        359.334     332.227     308.234     
142.6       61.9        131.349     2.309       5.007       43.261      30.435      35.718      29.079      24.829      34.427      25.676      32.154      1.194       2.15        352.661     54.424      1.06        310.299     292.99      260.191     
142.7       45.702      131.753     2.305       5.033       44.22       31.99       36.621      30.33       25.489      36.234      25.487      33.806      1.176       2.09        353.19      54.584      1.06        231.562     245.634     254.138     
142.8       51.981      131.566     2.309       5.013       45.032      33.423      37.09       31.348      26.086      37.217      25.413      32.781      1.164       2.069       353.661     54.752      1.06        209.684     241.005     277.746     
142.9       89.746      131.285     2.316       4.599       45.735      34.508      37.173      31.844      26.462      37.439      25.459      30.375      1.168       2.118       354.091     54.896      1.06        193.04      250.853     344.02      
143.0       100.796     131.426     2.324       4.613       46.316      35.275      37.173      31.911      26.583      37.439      25.55       30.255      1.18        2.195       354.507     54.96       1.06        178.097     258.522     423.28      
143.1       70.715      131.482     2.332       4.584       46.681      35.571      36.824      31.911      26.594      36.987      25.553      30.965      1.196       2.208       354.941     54.96       1.06        184.742     267.355     450.253     
143.2       89.044      131.657     2.336       4.538       46.8        35.571      35.623      31.479      26.483      35.467      25.4        30.516      1.256       2.212       355.413     54.96       1.06        207.773     277.127     411.93      
143.3       123.447     131.938     2.335       4.529       46.733      35.341      33.523      30.252      25.997      33.139      25.039      29.515      1.268       2.268       355.922     54.912      1.06        222.068     270.007     327.409     
143.4       99.856      132.1       2.336       4.659       46.666      34.602      31.095      28.627      24.954      30.747      24.679      29.581      1.308       2.286       356.451     54.712      1.06        214.631     249.761     262.004     
143.5       59.44       131.897     2.333       4.948       46.193      33.502      28.976      26.91       23.421      28.71       24.173      31.533      1.283       2.23        356.966     54.336      1.06        188.985     233.037     278.764     
143.6       47.314      131.528     2.331       5.164       44.96       32.301      27.263      25.151      21.641      27.09       23.662      33.488      1.284       2.181       357.381     53.784      1.06        183.249     229.473     358.587     
143.7       46.751      131.292     2.328       5.38        43.162      31.041      25.848      23.493      19.86       25.861      23.257      34.756      1.279       2.166       357.581     53.096      1.06        202.625     239.298     414.343     
143.8       46.984      131.134     2.334       5.313       40.888      29.989      24.649      21.989      18.243      24.943      22.973      33.404      1.27        2.172       357.581     52.296      1.06        196.711     238.918     383.009     
