~Version Information Section
VERS.                                         2.0:CWLS log ASCII Standart – VERSION 2.0
WRAP.                                          NO:One line per depth step
~Well Information Section
STRT.M                                        1.2:Начальная глубина
STOP.M                                      169.4:Конечная глубина
STEP.M                                          0:Шаг квантования по глубине
NULL.                                    -9999.25:Признак "Нет данных"
WELL.                                       114Мх:Скважина
~Parameter Information Section
~Curve Information Section
DEPTH.M                                          :Глубина
BK.Ohm*M                                         :BK     (БК)
DS.mm                                            :DS  (ДС)
GGK.g/cm3                                        :GGKp
ГК.mcr/h                                         :GK          (ГК)
GZ1.Ohm*M                                        :GZ1   ГЗ1(A0.4M0.1N)
GZ2.Ohm*M                                        :GZ2   ГЗ2(A1.0M0.1N)
GZ3.Ohm*M                                        :GZ3   ГЗ3(A2.0M0.5N)
GZ4.Ohm*M                                        :GZ4   ГЗ4(A4.0M0.5N)
GZ5.Ohm*M                                        :GZ5   ГЗ5(A8.0M0.5N)
GZR.Ohm*M                                        :GZK   ГЗK(N0.5M2.0A)
ИК.Ohm*M                                         :IK
НГК.ue                                           :NGK     (НГК)
NNKM.                                            :NNKm  (ННКм)
PS.mv                                            :PS       (ПС)
PZ.Ohm*M                                         :PZ    (КС)
U1.mV                                            :U1
U2.mV                                            :U2
U3.mV                                            :U3
КП.%                                             :Кп
~ASCII LOG DATA
# ...
147.4       137.404     124.634     2.156       3.892       57.141      66.764      67.077      65.025      58.371      64.619      47.34       1.253       1.481       1073.644    233.038     671.071     680.274     668.624     29.421      
147.5       133.968     124.382     2.152       3.955       56.184      68.949      67.377      68.625      59.271      64.719      47.378      1.29        1.49        1075.576    235.26      656.754     613.181     622.276     29.605      
147.6       131.522     124.185     2.15        3.883       54.307      69.731      67.677      67.925      62.071      65.319      47.34       1.322       1.486       1076.564    236.969     536.716     601.175     556.235     29.496      
147.7       135.207     124.037     2.15        3.738       53.582      70.221      67.977      67.225      64.371      65.519      47.54       1.29        1.483       1076.931    238.849     418.362     558.346     477.661     29.572      
147.8       139.316     123.849     2.15        3.67        53.75       70.535      67.877      67.125      67.471      66.719      47.578      1.272       1.481       1075.504    240.216     356.346     464.876     401.377     29.845      
147.9       138.357     124.317     2.151       3.902       54.423      71.438      67.277      65.225      66.271      67.219      47.418      1.244       1.479       1073.706    241.071     363.662     375.987     335.959     30.241      
148.0       137.088     124.78      2.15        3.995       51.351      66.943      66.777      63.825      65.971      67.219      47.384      1.249       1.468       1071.247    242.096     435.202     319.082     283.754     30.429      
148.1       135.831     124.406     2.148       3.923       45.206      58.872      64.477      63.725      65.471      67.119      47.344      1.244       1.458       1069.654    243.122     566.523     349.121     338.173     30.436      
148.2       133.66      124.379     2.14        3.64        44.319      57.869      63.177      63.225      63.271      65.919      46.948      1.266       1.464       1069.431    243.976     708.928     448.071     465.104     30.253      
148.3       133.352     124.681     2.12        3.553       45.996      59.247      61.577      60.125      61.271      64.719      46.933      1.263       1.461       1068.717    243.976     845.784     594.324     625.243     29.955      
148.4       131.522     124.404     2.111       3.681       46.246      58.365      59.277      58.925      46.371      64.619      47.101      1.229       1.438       1067.449    243.635     981.158     712.631     716.77      29.852      
148.5       128.825     123.97      2.112       3.756       43.397      55.379      56.377      53.925      44.871      63.419      46.92       1.2         1.432       1067.016    242.78      1042.002    749.05      691.486     30.02       
148.6       126.183     123.958     2.122       3.798       42.893      54.933      56.077      53.825      44.371      63.219      46.854      1.178       1.458       1066.947    240.558     1001.371    699.743     555.959     30.415      
148.7       122.744     124.34      2.129       3.623       42.628      55.475      47.177      53.725      43.971      62.919      46.995      1.202       1.472       1067.009    237.824     965.09      633.796     436.672     30.848      
148.8       120.504     124.396     2.147       3.557       41.718      54.896      41.577      53.225      43.771      61.619      46.902      1.217       1.464       1067.206    234.235     1042.731    637.943     459.593     31.255      
148.9       118.85      123.988     2.171       3.439       39.185      52.637      39.577      46.125      42.971      61.219      46.507      1.231       1.467       1068.886    230.475     1149.442    743.652     613.242     31.689      
149.0       114.551     123.757     2.188       3.427       36.984      49.865      37.777      44.825      42.971      60.119      46.251      1.241       1.482       1070.806    226.373     1144.557    883.89      755.774     31.049      
149.1       109.648     123.998     2.19        3.713       36.834      49.975      31.877      43.625      41.671      59.819      46.328      1.227       1.466       1072.966    222.1       991.498     956.143     791.852     29.64       
149.2       108.393     124.044     2.18        3.742       37.556      49.36       29.777      37.725      34.671      38.419      46.094      1.233       1.43        1075.126    217.486     880.059     930.696     751.135     28.414      
149.3       109.396     124.079     2.167       3.802       38.436      48.259      24.477      35.225      30.171      35.719      45.935      1.234       1.424       1077.046    211.91      865.681     805.479     648.984     28.182      
149.4       109.396     124.061     2.159       3.465       38.165      46.75       23.277      33.825      26.171      32.819      45.612      1.256       1.435       1078.966    206.808     931.254     679.652     530.041     28.85       
149.5       109.144     123.927     2.153       3.418       31.411      34.194      21.877      33.125      23.871      29.919      45.771      1.267       1.46        1080.406    200.767     995.927     583.036     408.361     29.18       
149.6       110.154     123.588     2.143       3.404       22.522      26.092      20.977      32.525      18.871      23.919      45.771      1.297       1.484       1081.126    194.23      1020.527    592.194     397.361     29.025      
149.7       111.429     123.703     2.142       3.453       22.796      25.536      20.077      30.425      17.671      22.619      45.401      1.322       1.485       1081.846    187.522     1018.308    701.773     525.545     28.705      
149.8       112.72      124.066     2.164       3.571       22.759      24.076      18.377      27.925      17.071      22.219      44.994      1.347       1.487       1082.566    180.269     1023.222    816.081     671.154     29.492      
149.9       110.408     123.744     2.191       3.613       24.771      22.916      17.077      25.925      16.371      18.119      44.932      1.311       1.502       1083.526    172.413     1059.503    840.33      695.896     30.551      
150.0       107.895     123.645     2.203       3.762       25.518      21.349      16.277      24.625      15.771      17.219      44.869      1.272       1.52        1084.726    163.227     1085.31     835.976     685.002     30.905      
150.1       107.647     124.031     2.207       3.881       24.707      18.759      17.377      15.725      15.071      17.319      44.541      1.259       1.536       1086.166    153.463     1063.924    906.496     780.314     29.996      
150.2       104.713     124.188     2.218       3.829       21.458      15.497      18.277      15.925      14.971      17.419      44.218      1.29        1.55        1087.366    143.098     990.1       987.168     897.845     28.868      
150.3       102.565     124.091     2.242       3.789       22.105      15.3        18.577      18.925      15.071      17.819      43.771      1.37        1.554       1088.806    132.841     993.653     986.568     910.037     28.587      
150.4       103.514     124.447     2.259       3.875       26.067      19.079      18.877      19.425      15.271      18.219      43.51       1.411       1.574       1090.486    123.835     1090.597    890.846     797.387     28.918      
150.5       105.925     124.807     2.26        3.926       28.755      26.479      20.577      22.225      15.871      18.419      43.169      1.41        1.616       1092.406    115.295     1145.563    855.78      733.083     29.625      
150.6       105.925     124.335     2.244       3.928       30.819      30.192      20.877      24.325      17.671      18.619      42.812      1.392       1.626       1094.326    107.773     1062.801    901.637     740.275     30.054      
150.7       97.051      124.423     2.234       3.89        30.771      32.132      21.277      28.125      17.971      19.019      42.484      1.34        1.601       1096.246    101.289     905.45      913.728     724.822     29.617      
