~Version Information Section
VERS.                                         2.0:CWLS log ASCII Standart – VERSION 2.0
WRAP.                                          NO:One line per depth step
~Well Information Section
STRT.M                                        1.0:Начальная глубина
STOP.M                                      151.7:Конечная глубина
STEP.M                                          0:Шаг квантования по глубине
NULL.                                    -9999.25:Признак "Нет данных"
WELL.                                       117Мх:Скважина
~Parameter Information Section
~Curve Information Section
DEPTH.M                                          :Глубина
DСР.мм                                           :Dср
ГК.гамма                                         :GK
ИК.мСм/м                                         :IK
N0.5M2.0A.Омм.                                   :N0.5M2.0A.Омм
R.Омм                                            :R
U1.                                              :U1
U2.                                              :U2
U3.                                              :U3
W.имп/1,25с                                      :W
А0.4М0.1N.Омм.                                   :А0.4М0.1N.Омм
А1.0М0.1N.Омм.                                   :А1.0М0.1N.Омм
А2.0М0.5N.Омм.                                   :А2.0М0.5N.Омм
А4.0М0.5N.Oмм.                                   :А4.0М0.5N.Oмм
А8.0М1.0N.Омм.                                   :А8.0М1.0N.Омм
БЗ.имп/мин                                       :БЗ
БК.Омм                                           :БК
КС.Омм                                           :КС
ПС.                                              :ПС
МЗ.имп/мин                                       :МЗ
НГК.имп/1,25с                                    :ННКб
ННКМ.имп/1,25с                                   :ННКм
ПЛОТНОСТЬГГК.г/см3                               :плотностьГГК
~ASCII LOG DATA
# ...
70.6        126.706     5.277       34.519      72.662      1.292       255.091     123.242     181.287     26.872      212.568     94.132      47.472      40.52       21.083      13300.0     136.82      71.953      77.501      6080.0      3.132       1.789       2.267       
70.7        126.247     5.516       34.531      73.546      1.325       260.84      133.203     190.028     26.918      222.191     99.786      48.715      31.131      19.537      13240.0     118.56      68.676      77.847      6000.0      3.11        1.778       2.263       
70.8        124.241     5.926       34.511      69.057      1.334       261.621     132.605     190.634     26.999      222.776     102.958     49.047      22.98       18.054      13060.0     93.441      65.7        77.744      6020.0      3.07        1.8         2.26        
70.9        124.28      6.413       34.479      63.951      1.339       260.217     128.137     186.632     27.207      209.043     102.109     48.309      21.503      17.7        13640.0     63.721      63.313      77.183      6240.0      2.999       1.776       2.256       
71.0        125.114     6.715       34.41       61.229      1.343       254.273     122.29      179.906     27.423      130.62      99.761      47.684      30.082      18.088      14000.0     42.07       61.536      76.198      6200.0      2.896       1.738       2.254       
71.1        125.8       6.653       34.128      58.368      1.347       247.205     115.332     173.544     27.591      57.773      78.715      47.006      40.767      18.244      14780.0     36.353      60.557      74.866      6320.0      2.799       1.687       2.253       
71.2        124.25      6.455       33.574      56.674      1.354       243.897     110.352     169.3       27.652      48.219      57.813      45.237      50.142      17.965      14800.0     39.449      60.891      73.285      6280.0      2.777       1.69        2.257       
71.3        123.632     6.06        33.087      56.888      1.351       240.759     107.434     165.299     27.659      44.521      57.729      44.063      58.883      17.711      14600.0     45.627      62.556      71.562      6480.0      2.825       1.694       2.261       
71.4        123.688     5.611       32.883      60.081      1.347       239.807     108.386     165.907     27.606      46.294      59.239      46.594      65.2        17.834      14480.0     52.991      64.887      69.829      6300.0      2.88        1.71        2.267       
71.5        122.806     5.351       33.043      63.668      1.348       240.234     107.007     166.011     27.487      48.951      60.117      51.577      63.66       18.288      13920.0     62.968      67.227      68.213      6260.0      2.918       1.735       2.271       
71.6        123.147     5.379       33.406      65.838      1.348       241.785     106.738     165.749     27.262      53.595      61.237      55.842      55.674      18.882      13380.0     74.104      69.361      66.817      6080.0      2.965       1.759       2.276       
71.7        123.088     5.399       33.932      66.344      1.328       243.335     106.47      165.488     27.017      59.782      63.319      59.599      48.947      19.693      12880.0     81.616      71.272      65.732      5920.0      3.026       1.795       2.277       
71.8        122.98      5.408       34.726      65.524      1.329       237.684     101.209     160.793     26.818      71.75       68.529      62.112      44.996      20.751      12920.0     86.16       72.739      65.014      5760.0      3.099       1.819       2.275       
71.9        123.071     5.419       35.485      66.266      1.337       232.031     95.947      156.097     26.707      82.063      71.329      64.654      43.297      21.905      12600.0     90.508      73.718      64.663      5700.0      3.185       1.844       2.276       
72.0        123.144     5.391       35.986      67.467      1.336       233.716     96.13       157.252     26.758      82.868      69.582      67.384      39.305      23.401      12480.0     89.443      74.223      64.632      5760.0      3.252       1.845       2.275       
72.1        123.743     5.297       36.172      66.094      1.331       235.401     96.313      158.408     26.891      83.083      70.429      68.095      30.944      25.089      13060.0     80.758      74.208      64.853      5940.0      3.258       1.849       2.275       
72.2        124.121     5.276       36.156      63.861      1.333       232.874     94.458      157.913     26.99       117.502     74.785      68.093      28.04       26.219      13200.0     72.367      73.783      65.278      6020.0      3.199       1.855       2.272       
72.3        124.005     5.428       36.051      62.646      1.335       237.378     95.532      161.607     26.976      116.885     76.9        68.183      32.972      26.892      13500.0     66.804      73.259      65.858      6020.0      3.083       1.85        2.276       
72.4        124.105     5.571       35.866      61.977      1.327       229.308     96.399      156.647     26.957      80.139      77.231      68.158      37.677      27.596      13240.0     61.081      72.813      66.532      6160.0      2.951       1.802       2.275       
72.5        125.307     5.657       35.561      63.118      1.311       212.524     94.153      146.341     27.042      76.218      78.921      68.063      41.259      28.533      13620.0     56.621      72.237      67.243      6000.0      2.92        1.752       2.277       
72.6        125.928     5.718       35.139      65.266      1.314       210.351     109.985     152.703     27.24       76.059      81.826      69.294      43.99       29.256      13520.0     56.013      71.269      67.98       6100.0      3.015       1.74        2.275       
72.7        124.991     5.763       34.938      67.227      1.309       212.39      127.856     160.715     27.408      76.797      82.589      72.16       44.596      29.0        13700.0     56.77       70.016      68.777      6160.0      3.133       1.769       2.279       
72.8        124.168     5.741       34.757      67.575      1.304       212.292     129.333     160.355     27.449      76.081      83.69       73.98       43.352      28.596      13340.0     56.028      68.775      69.631      6300.0      3.112       1.801       2.277       
72.9        123.709     5.761       34.391      64.89       1.307       224.768     131.018     168.651     27.541      90.368      91.747      74.223      43.219      29.771      13760.0     53.786      67.556      70.504      6180.0      2.98        1.806       2.278       
73.0        124.354     5.899       34.118      62.363      1.313       229.589     128.149     171.17      27.942      93.516      93.928      74.44       44.01       33.298      13420.0     51.494      66.219      71.377      6160.0      2.879       1.791       2.273       
73.1        123.005     6.09        33.86       59.674      1.321       219.8       107.202     157.022     28.552      77.7        84.623      73.305      43.471      38.204      13580.0     48.912      64.775      72.264      6180.0      2.846       1.753       2.272       
73.2        123.095     6.297       33.598      56.044      1.324       210.864     84.131      141.71      28.994      70.547      76.71       70.503      42.028      43.223      13400.0     45.586      63.639      73.202      6140.0      2.803       1.716       2.268       
73.3        123.31      6.497       33.255      53.667      1.315       204.065     77.454      134.769     29.065      68.398      74.512      67.271      41.542      48.087      13700.0     43.174      63.074      74.221      6080.0      2.698       1.7         2.264       
73.4        123.367     6.639       32.739      52.962      1.305       197.266     70.776      127.828     28.858      66.146      71.973      63.805      44.622      52.132      13640.0     42.89       62.791      75.346      6140.0      2.642       1.705       2.261       
