~Version Information Section
VERS.                                         2.0:CWLS log ASCII Standart – VERSION 2.0
WRAP.                                          NO:One line per depth step
~Well Information Section
STRT.M                                        1.2:Начальная глубина
STOP.M                                      208.4:Конечная глубина
STEP.M                                          0:Шаг квантования по глубине
NULL.                                    -9999.25:Признак "Нет данных"
WELL.                                       109Мх:Скважина
~Parameter Information Section
~Curve Information Section
DEPTH.M                                          :Глубина
BK.Ohm*M                                         :BK     (БК)
DS.mm                                            :DS  (ДС)
GGK.g/cm3                                        :GGKp
ГК.mcr/h                                         :GK          (ГК)
GZ1.Ohm*M                                        :GZ1   ГЗ1(A0.4M0.1N)
GZ2.Ohm*M                                        :GZ2   ГЗ2(A1.0M0.1N)
GZ3.Ohm*M                                        :GZ3   ГЗ3(A2.0M0.5N)
GZ4.Ohm*M                                        :GZ4   ГЗ4(A4.0M0.5N)
GZ5.Ohm*M                                        :GZ5   ГЗ5(A8.0M0.5N)
GZR.Ohm*M                                        :GZK   ГЗK(N0.5M2.0A)
ИК.Ohm*M                                         :IK
НГК.u.e.                                         :NGK
NNKM.                                            :NNKm  (ННКм)
U1.mV                                            :U1
U2.mV                                            :U2
U3.mV                                            :U3
КП.%                                             :Кп
PS.mv                                            :PS       (ПС)
PZ.Ohm*M                                         :PZ    (КС)
RS.Ohm*M                                         :RS (Резистивиметр)
~ASCII LOG DATA
# ...
167.6       14.421      125.932     2.326       6.959       88.17       31.274      44.982      13.223      13.77       39.96       6.615       1.075       1.955       849.965     634.958     629.459     26.792      1041.521    16.982      1.037       
167.7       13.804      125.967     2.337       7.007       87.75       30.754      44.982      13.103      13.77       36.84       6.615       1.089       1.94        1026.718    702.379     620.272     28.113      1041.437    16.188      1.038       
167.8       13.804      125.996     2.381       6.856       87.75       30.234      44.982      12.983      13.77       35.8        6.615       1.048       1.942       1015.297    652.33      552.261     28.785      1041.378    15.395      1.041       
167.9       14.093      125.979     2.442       6.456       87.33       29.714      44.982      12.863      13.63       33.72       6.647       1.012       1.961       810.323     506.425     455.617     28.608      1041.336    14.746      1.043       
168.0       14.093      125.946     2.486       6.192       87.33       30.754      45.422      12.743      13.63       33.72       6.68        0.997       1.976       647.204     383.116     374.353     27.574      1041.311    14.17       1.045       
168.1       14.555      125.951     2.439       6.215       87.33       31.274      46.742      12.743      13.63       33.72       6.713       1.055       1.988       716.791     374.087     336.169     26.672      1041.294    13.593      1.047       
168.2       14.757      125.968     2.405       6.649       87.33       31.794      46.742      12.503      13.35       33.72       6.747       1.098       1.998       914.021     444.955     347.441     25.559      1041.286    13.088      1.049       
168.3       15.668      126.635     2.346       7.077       87.33       29.714      46.742      12.503      13.35       32.68       6.747       1.076       1.979       1016.519    494.602     386.684     25.348      1041.286    12.8        1.051       
168.4       15.241      126.313     2.343       7.326       87.33       29.194      46.742      12.503      13.35       32.68       6.781       1.054       1.959       1006.673    510.749     444.899     26.12       1041.286    12.583      1.052       
168.5       14.521      125.94      2.322       7.409       86.91       29.194      46.742      12.503      13.35       32.68       6.815       1.047       1.928       997.157     530.462     506.723     27.644      1041.286    12.583      1.052       
168.6       14.521      125.902     2.319       7.171       86.91       28.154      46.742      12.503      13.35       32.68       6.815       1.059       1.896       992.973     552.622     538.33      28.647      1041.286    12.656      1.052       
168.7       14.723      125.906     2.328       7.162       86.91       28.154      46.742      12.623      13.35       32.68       6.815       1.034       1.927       916.264     541.537     553.491     28.076      1041.286    12.8        1.053       
168.8       15.205      125.922     2.359       7.19        86.91       27.634      46.742      12.743      13.35       31.64       6.815       1.045       1.965       806.478     512.361     564.654     27.556      1041.286    13.088      1.054       
168.9       14.928      125.916     2.353       7.605       86.91       27.114      46.742      12.743      13.35       31.64       6.815       1.061       1.959       720.698     478.787     596.707     28.519      1041.286    13.377      1.056       
169.0       14.555      125.907     2.363       7.546       86.91       26.594      46.742      12.863      13.35       31.64       6.815       1.081       1.937       707.939     463.966     618.825     29.958      1041.286    13.665      1.058       
169.1       14.791      125.888     2.344       7.337       86.91       26.074      46.302      12.983      13.35       31.64       6.815       1.061       1.942       667.753     440.785     578.83      30.361      1041.286    13.881      1.06        
169.2       14.825      125.954     2.328       6.964       86.91       26.074      46.302      13.103      13.35       31.64       6.815       1.036       1.98        607.998     430.85      537.505     29.802      1041.286    14.098      1.062       
169.3       14.588      126.206     2.304       6.632       86.49       25.034      45.862      13.103      13.21       31.64       6.815       0.992       1.998       542.357     436.965     525.864     29.011      1041.286    14.17       1.064       
169.4       14.588      126.452     2.296       6.716       86.49       25.034      45.422      13.103      13.07       31.64       6.815       0.971       1.974       536.421     469.942     584.535     28.667      1041.286    13.953      1.066       
169.5       14.894      126.636     2.324       6.588       86.49       25.034      44.982      13.223      13.07       30.6        6.815       0.978       1.955       599.512     519.855     629.677     28.777      1041.286    13.737      1.068       
169.6       14.655      126.656     2.333       6.789       86.49       25.034      44.982      13.223      13.07       30.6        6.815       1.002       1.943       742.206     592.335     640.124     29.354      1041.286    13.521      1.069       
169.7       14.093      126.617     2.343       6.842       86.49       25.034      44.982      13.223      13.07       29.56       6.815       1.044       1.931       955.587     686.543     629.211     29.572      1041.286    13.304      1.07        
169.8       14.158      126.708     2.352       6.967       86.49       25.034      44.982      13.343      13.07       29.56       6.781       1.048       1.906       1182.538    784.959     644.888     29.117      1041.286    13.16       1.07        
169.9       14.158      126.867     2.352       6.97        86.49       24.514      44.982      13.343      13.07       29.56       6.781       1.083       1.875       1356.359    862.138     676.908     29.16       1041.286    13.088      1.07        
170.0       14.093      127.18      2.344       6.946       86.07       23.994      44.982      13.343      13.07       29.56       6.781       1.111       1.899       1280.754    842.857     721.67      30.608      1041.286    13.088      1.071       
170.1       13.804      127.664     2.36        7.083       86.07       23.994      44.982      13.343      13.07       29.56       6.781       1.129       1.949       1032.559    764.355     777.078     31.999      1041.286    13.16       1.073       
170.2       12.942      128.231     2.39        7.044       86.07       23.994      44.982      13.343      13.07       29.56       6.781       1.092       1.973       716.91      638.006     790.399     32.379      1041.286    13.304      1.075       
170.3       13.964      128.947     2.408       6.679       86.07       23.994      44.982      13.343      13.21       29.56       6.781       1.057       1.981       556.053     535.385     723.137     31.6        1041.286    13.377      1.077       
170.4       14.028      129.191     2.356       6.29        86.07       23.994      44.982      13.343      13.21       29.56       6.781       1.065       1.989       534.049     472.23      604.542     30.649      1041.286    13.449      1.079       
170.5       13.804      129.019     2.308       6.17        86.07       23.994      44.982      13.343      13.21       29.56       6.781       1.115       1.997       623.573     486.733     539.799     30.088      1041.286    13.521      1.082       
170.6       13.804      129.007     2.292       6.484       85.65       23.994      44.982      13.343      13.07       29.56       6.781       1.083       1.996       730.456     543.616     553.713     30.436      1041.286    13.521      1.084       
170.7       15.596      128.986     2.348       7.189       85.65       23.994      45.422      13.343      13.07       29.56       6.781       1.044       1.97        737.525     555.985     581.65      31.233      1041.286    13.521      1.085       
