~Version Information Section
VERS.                                         2.0:CWLS log ASCII Standart – VERSION 2.0
WRAP.                                          NO:One line per depth step
~Well Information Section
STRT.M                                        1.6:Начальная глубина
STOP.M                                      212.2:Конечная глубина
STEP.M                                          0:Шаг квантования по глубине
NULL.                                    -9999.25:Признак "Нет данных"
WELL.                                       139Мх:Скважина
~Parameter Information Section
~Curve Information Section
DEPTH.M                                          :Глубина
BK.Ohm*M                                         :BK     (БК)
DS.mm                                            :DS  (ДС)
GGK.g/cm3                                        :GGKp
ГК.mcr/h                                         :GK          (ГК)
GZ1.Ohm*M                                        :GZ1   ГЗ1(A0.4M0.1N)
GZ2.Ohm*M                                        :GZ2   ГЗ2(A1.0M0.1N)
GZ3.Ohm*M                                        :GZ3   ГЗ3(A2.0M0.5N)
GZ4.Ohm*M                                        :GZ4   ГЗ4(A4.0M0.5N)
GZ5.Ohm*M                                        :GZ5   ГЗ5(A8.0M0.5N)
GZR.Ohm*M                                        :GZK   ГЗK(N0.5M2.0A)
ИК.Ohm*M                                         :IK
НГК.ue                                           :NGK     (НГК)
NNKM.                                            :NNKm  (ННКм)
PS.mv                                            :PS       (ПС)
PZ.Ohm*M                                         :PZ    (КС)
U1.mV                                            :U1
U2.mV                                            :U2
U3.mV                                            :U3
КП.%                                             :Кп
~ASCII LOG DATA
# ...
205.6       46.53       124.163     2.096       3.973       -9999.25    -9999.25    57.018      -9999.25    13.879      -9999.25    20.826      1.31        2.583       209.8       47.8        256.417     286.716     308.032     30.493      
205.7       45.199      124.153     2.106       3.924       -9999.25    -9999.25    56.906      -9999.25    13.972      -9999.25    20.984      1.34        2.696       210.12      47.0        292.471     333.652     348.785     28.792      
205.8       44.602      123.644     2.12        3.518       -9999.25    -9999.25    56.82       -9999.25    14.033      -9999.25    21.164      1.404       2.815       210.36      46.2        293.646     358.744     393.627     27.559      
205.9       48.477      123.257     2.146       3.093       -9999.25    -9999.25    56.771      -9999.25    14.051      -9999.25    21.28       1.45        2.91        210.6       45.5        311.017     374.826     419.377     26.749      
206.0       54.786      122.89      2.181       2.98        -9999.25    -9999.25    56.741      -9999.25    14.051      -9999.25    21.33       1.473       3.031       210.76      44.9        328.94      368.035     403.14      26.169      
206.1       53.99       122.805     2.213       3.271       -9999.25    -9999.25    56.693      -9999.25    -9999.25    -9999.25    21.292      1.521       3.116       210.92      44.1        296.323     324.438     355.191     26.773      
206.2       48.868      122.168     2.213       3.434       -9999.25    -9999.25    56.709      -9999.25    -9999.25    -9999.25    21.18       1.564       3.039       211.08      43.3        229.495     266.928     317.535     28.543      
206.3       43.702      121.629     2.219       3.414       -9999.25    -9999.25    -9999.25    -9999.25    -9999.25    -9999.25    20.989      1.54        2.885       211.24      42.2        215.478     257.974     313.197     31.122      
206.4       37.471      121.05      2.208       3.343       -9999.25    -9999.25    -9999.25    -9999.25    -9999.25    -9999.25    20.831      1.523       2.7         211.32      41.0        272.657     296.111     327.232     33.416      
206.5       33.392      119.235     2.162       3.387       -9999.25    -9999.25    -9999.25    -9999.25    -9999.25    -9999.25    20.689      1.524       2.561       211.4       39.7        314.003     318.865     326.321     36.251      
206.6       32.434      117.621     2.145       3.436       -9999.25    -9999.25    -9999.25    -9999.25    -9999.25    -9999.25    20.619      1.53        2.554       211.4       38.7        318.829     314.847     310.916     37.368      
206.7       32.657      117.005     2.132       3.442       -9999.25    -9999.25    -9999.25    -9999.25    -9999.25    -9999.25    20.643      1.431       2.559       211.4       37.8        325.613     330.146     335.477     36.182      
206.8       33.957      117.07      2.119       3.58        -9999.25    -9999.25    -9999.25    -9999.25    -9999.25    -9999.25    20.723      1.359       2.571       211.4       37.3        335.109     345.739     358.092     32.733      
206.9       35.572      117.519     2.123       3.62        -9999.25    -9999.25    -9999.25    -9999.25    -9999.25    -9999.25    20.839      1.283       2.687       211.16      36.6        308.843     315.539     324.294     29.568      
207.0       37.451      117.626     2.14        3.544       -9999.25    -9999.25    -9999.25    -9999.25    -9999.25    -9999.25    20.959      1.31        2.819       210.92      35.7        259.942     254.64      250.975     28.256      
207.1       40.275      119.093     2.149       3.371       -9999.25    -9999.25    -9999.25    -9999.25    -9999.25    -9999.25    21.0        1.341       2.887       210.6       34.7        238.277     262.612     306.821     27.436      
207.2       40.379      120.657     2.163       3.713       -9999.25    -9999.25    -9999.25    -9999.25    -9999.25    -9999.25    20.959      1.445       2.912       210.2       33.6        230.743     299.066     416.993     27.303      
207.3       37.566      120.887     2.179       4.022       -9999.25    -9999.25    -9999.25    -9999.25    -9999.25    -9999.25    20.857      1.483       2.867       209.64      32.4        201.575     318.227     525.128     27.647      
207.4       34.672      121.0       2.179       4.509       -9999.25    -9999.25    -9999.25    -9999.25    -9999.25    -9999.25    20.709      1.491       2.805       209.32      31.4        158.318     283.632     521.006     30.826      
207.5       33.008      121.0       2.182       4.282       -9999.25    -9999.25    -9999.25    -9999.25    -9999.25    -9999.25    20.554      1.463       2.736       209.0       30.7        184.789     301.465     520.309     34.322      
207.6       30.71       121.0       2.175       4.309       -9999.25    -9999.25    -9999.25    -9999.25    -9999.25    -9999.25    20.428      1.477       2.609       208.68      29.9        173.773     282.623     488.903     37.734      
207.7       28.89       120.5       2.161       4.102       -9999.25    -9999.25    -9999.25    -9999.25    -9999.25    -9999.25    20.38       1.391       2.516       208.44      29.2        162.763     261.741     403.333     37.276      
207.8       28.472      120.5       2.132       4.105       -9999.25    -9999.25    -9999.25    -9999.25    -9999.25    -9999.25    20.377      1.35        2.541       208.36      28.5        151.607     203.668     262.199     36.172      
207.9       29.12       120.5       2.103       4.185       -9999.25    -9999.25    -9999.25    -9999.25    -9999.25    -9999.25    20.417      1.29        2.603       208.28      27.9        196.18      187.216     153.861     32.643      
208.0       32.131      120.5       2.095       4.08        -9999.25    -9999.25    -9999.25    -9999.25    -9999.25    -9999.25    20.485      1.299       2.685       208.2       27.2        189.418     160.449     113.505     30.407      
208.1       35.374      120.0       2.104       4.153       -9999.25    -9999.25    -9999.25    -9999.25    -9999.25    -9999.25    20.554      1.303       2.764       208.2       26.7        134.685     132.63      129.796     28.893      
208.2       36.732      120.0       2.135       3.883       -9999.25    -9999.25    -9999.25    -9999.25    -9999.25    -9999.25    20.563      1.346       2.812       208.2       26.1        85.436      114.075     134.729     29.622      
208.3       35.317      121.0       2.139       3.754       -9999.25    -9999.25    -9999.25    -9999.25    -9999.25    -9999.25    20.545      1.415       2.71        208.2       25.6        88.571      106.286     123.628     30.546      
208.4       32.057      121.0       2.125       3.747       -9999.25    -9999.25    -9999.25    -9999.25    -9999.25    -9999.25    20.531      1.463       2.6         208.28      25.3        90.654      100.005     107.852     31.142      
208.5       30.355      121.0       2.115       3.625       -9999.25    -9999.25    -9999.25    -9999.25    -9999.25    -9999.25    20.583      1.468       2.605       208.36      25.1        90.646      96.822      103.431     31.574      
208.6       30.169      121.5       2.106       4.05        -9999.25    -9999.25    -9999.25    -9999.25    -9999.25    -9999.25    20.637      1.438       2.629       208.44      25.1        121.015     136.176     153.994     31.177      
208.7       30.129      120.75      2.108       4.014       -9999.25    -9999.25    -9999.25    -9999.25    -9999.25    -9999.25    20.726      1.412       2.674       208.52      25.1        163.532     188.275     217.958     30.719      
208.8       30.063      120.759     2.139       4.073       -9999.25    -9999.25    -9999.25    -9999.25    -9999.25    -9999.25    20.835      1.353       2.742       208.68      25.1        200.506     234.804     276.333     30.576      
208.9       30.025      120.753     2.163       3.693       -9999.25    -9999.25    -9999.25    -9999.25    -9999.25    -9999.25    20.958      1.359       2.793       208.76      25.1        -9999.25    -9999.25    -9999.25    31.286      
