~Version Information Section
VERS.                                         2.0:CWLS log ASCII Standart – VERSION 2.0
WRAP.                                          NO:One line per depth step
~Well Information Section
STRT.M                                        0.1:Начальная глубина
STOP.M                                      202.9:Конечная глубина
STEP.M                                          0:Шаг квантования по глубине
NULL.                                    -9999.25:Признак "Нет данных"
WELL.                                       155Мх:Скважина
~Parameter Information Section
~Curve Information Section
DEPTH.M                                          :Глубина
BK.Ohm*M                                         :BK     (БК)
DS.mm                                            :DS  (ДС)
GGK.g/cm3                                        :GGKp
ГК.mcr/h                                         :GK          (ГК)
GZ1.Ohm*M                                        :GZ1   ГЗ1(A0.4M0.1N)
GZ2.Ohm*M                                        :GZ2   ГЗ2(A1.0M0.1N)
GZ3.Ohm*M                                        :GZ3   ГЗ3(A2.0M0.5N)
GZ4.Ohm*M                                        :GZ4   ГЗ4(A4.0M0.5N)
GZ5.Ohm*M                                        :GZ5   ГЗ5(A8.0M0.5N)
GZR.                                             :GZR   ГЗK(N0.5M2.0A)
ИК.Ohm*M                                         :IK
НГК.ue                                           :NGK     (НГК)
NNKM.                                            :NNKm  (ННКм)
PS.mv                                            :PS       (ПС)
PZ.Ohm*M                                         :PZ    (КС)
RS.Ohm*M                                         :RS (Резистивиметр)
W.%                                              :W
~ASCII LOG DATA
# ...
96.3        18.488      177.646     2.248       7.172       30.195      19.352      19.085      20.911      20.24       20.811      16.676      0.958       1.183       101.786     19.276      1.206       28.258      
96.4        16.243      176.681     2.24        7.169       26.11       14.071      17.041      18.298      19.459      19.466      16.642      0.934       1.151       102.404     18.965      1.206       30.224      
96.5        13.497      175.913     2.234       7.046       22.349      12.974      14.902      15.795      18.324      18.974      16.545      0.916       1.109       103.047     18.308      1.206       31.864      
96.6        13.067      175.489     2.228       6.869       22.057      13.437      14.043      14.053      17.696      18.927      16.378      0.928       1.055       103.557     17.827      1.206       33.303      
96.7        14.588      175.23      2.221       6.699       23.357      14.936      14.878      14.009      16.848      19.213      16.106      0.951       1.027       104.17      18.367      1.206       33.603      
96.8        16.825      175.044     2.212       6.586       24.656      17.422      15.832      14.98       15.559      19.266      15.895      0.947       1.033       104.585     19.471      1.206       32.284      
96.9        18.801      175.461     2.2         6.58        25.736      19.279      16.727      16.09       15.69       19.052      15.651      0.915       1.065       104.428     20.539      1.206       30.937      
97.0        19.117      175.965     2.186       6.689       27.391      21.018      17.829      16.941      16.141      18.534      15.542      0.881       1.094       103.322     21.337      1.206       30.055      
97.1        20.105      177.162     2.173       6.857       29.673      22.602      18.529      17.392      16.361      18.044      15.47       0.874       1.097       101.409     21.487      1.206       29.668      
97.2        20.309      179.254     2.164       6.994       31.384      23.237      18.895      17.48       16.19       17.085      15.483      0.894       1.085       98.679      21.038      1.206       29.861      
97.3        20.667      178.587     2.165       7.053       32.356      24.195      18.73       17.146      15.916      15.597      15.436      0.923       1.074       94.845      20.758      1.206       30.088      
97.4        20.834      169.731     2.175       7.057       33.992      24.472      18.245      16.354      15.13       13.345      15.328      0.937       1.084       90.127      20.769      1.206       30.247      
97.5        20.174      165.11      2.192       7.053       34.059      22.136      17.188      15.298      14.307      10.335      15.161      0.931       1.11        85.414      20.879      1.206       30.414      
97.6        17.355      164.744     2.211       7.081       31.185      19.134      15.829      14.211      13.718      8.563       14.995      0.92        1.137       81.744      20.773      1.206       30.681      
97.7        14.477      164.193     2.225       7.163       27.66       17.03       14.273      12.949      13.161      6.821       14.794      0.904       1.135       79.171      20.11       1.206       31.509      
97.8        13.25       164.431     2.231       7.337       24.908      15.497      12.878      11.615      12.55       5.073       14.544      0.879       1.099       77.345      19.134      1.206       32.544      
97.9        12.656      164.912     2.23        7.591       22.486      14.825      12.099      10.525      11.953      4.456       14.353      0.852       1.054       76.058      18.339      1.206       33.639      
98.0        12.203      165.22      2.226       7.868       20.031      14.223      11.498      9.757       11.052      4.139       14.165      0.836       1.021       75.369      17.808      1.206       34.672      
98.1        12.007      165.342     2.223       8.109       18.26       13.847      11.217      9.431       10.85       4.156       13.963      0.838       1.015       75.362      17.479      1.206       35.42       
98.2        11.859      166.034     2.226       8.283       17.057      13.514      11.169      9.268       10.968      4.306       13.82       0.852       1.004       76.465      17.223      1.206       35.527      
98.3        11.767      171.553     2.235       8.35        16.234      13.171      11.126      9.161       12.383      4.59        13.792      0.858       0.996       79.393      17.04       1.206       35.368      
98.4        11.885      174.518     2.249       8.295       15.776      12.689      11.101      9.289       18.155      5.174       13.811      0.841       0.997       84.381      16.778      1.206       34.974      
98.5        12.05       175.825     2.263       8.131       15.363      12.172      11.526      10.153      25.567      6.373       14.027      0.81        0.998       90.265      16.537      1.206       34.272      
98.6        12.152      176.933     2.274       7.841       15.045      11.567      15.093      12.823      30.674      8.911       14.286      0.786       0.975       95.168      16.508      1.206       33.056      
98.7        12.172      177.237     2.28        7.435       14.794      11.553      20.935      19.492      36.023      15.086      14.492      0.789       0.95        97.929      16.636      1.206       30.993      
98.8        12.372      179.229     2.28        6.948       15.644      18.002      26.285      29.155      42.571      23.731      14.874      0.818       0.941       98.83       16.996      1.206       28.971      
98.9        16.057      180.227     2.273       6.461       20.704      29.607      32.892      37.984      48.397      30.557      15.203      0.867       0.977       99.116      17.677      1.206       27.598      
99.0        35.375      177.687     2.262       6.022       29.53       34.521      38.189      45.402      55.283      35.558      15.692      0.926       1.074       99.509      18.474      1.206       26.616      
99.1        59.914      174.968     2.249       5.7         35.05       27.294      40.117      50.175      62.738      39.58       16.246      0.97        1.164       99.961      19.509      1.206       26.115      
99.2        31.597      174.079     2.238       5.493       35.459      21.193      39.88       50.484      69.9        41.205      16.944      0.995       1.231       99.997      20.138      1.206       26.412      
99.3        30.219      174.587     2.233       5.355       51.156      23.416      38.219      49.408      76.548      40.821      17.658      1.007       1.237       99.251      19.746      1.206       26.329      
99.4        48.802      175.475     2.234       5.245       71.16       24.716      38.497      50.05       79.325      41.181      18.206      1.025       1.254       97.519      20.292      1.207       25.64       
99.5        66.951      174.113     2.243       5.178       81.181      25.098      40.489      51.579      76.998      42.209      18.67       1.044       1.278       94.621      25.788      1.221       24.725      
99.6        70.725      170.9       2.258       5.173       96.847      27.737      42.274      52.313      72.063      42.793      18.854      1.053       1.322       90.677      36.172      1.224       23.894      
99.7        75.304      166.649     2.276       5.249       122.367     33.242      42.62       51.426      68.265      42.823      18.942      1.056       1.353       86.482      48.818      1.213       23.464      
99.8        66.27       166.94      2.293       5.466       154.286     44.097      40.42       47.773      61.555      39.436      18.793      1.067       1.375       82.907      57.956      1.229       23.797      
99.9        58.413      166.938     2.304       5.83        163.613     54.261      34.671      42.729      55.105      34.754      18.466      1.086       1.37        80.64       61.106      1.247       25.633      
