~Version Information Section
VERS.                                         2.0:CWLS log ASCII Standart – VERSION 2.0
WRAP.                                          NO:One line per depth step
~Well Information Section
STRT.M                                        1.2:Начальная глубина
STOP.M                                      169.4:Конечная глубина
STEP.M                                          0:Шаг квантования по глубине
NULL.                                    -9999.25:Признак "Нет данных"
WELL.                                       114Мх:Скважина
~Parameter Information Section
~Curve Information Section
DEPTH.M                                          :Глубина
BK.Ohm*M                                         :BK     (БК)
DS.mm                                            :DS  (ДС)
GGK.g/cm3                                        :GGKp
ГК.mcr/h                                         :GK          (ГК)
GZ1.Ohm*M                                        :GZ1   ГЗ1(A0.4M0.1N)
GZ2.Ohm*M                                        :GZ2   ГЗ2(A1.0M0.1N)
GZ3.Ohm*M                                        :GZ3   ГЗ3(A2.0M0.5N)
GZ4.Ohm*M                                        :GZ4   ГЗ4(A4.0M0.5N)
GZ5.Ohm*M                                        :GZ5   ГЗ5(A8.0M0.5N)
GZR.Ohm*M                                        :GZK   ГЗK(N0.5M2.0A)
ИК.Ohm*M                                         :IK
НГК.ue                                           :NGK     (НГК)
NNKM.                                            :NNKm  (ННКм)
PS.mv                                            :PS       (ПС)
PZ.Ohm*M                                         :PZ    (КС)
U1.mV                                            :U1
U2.mV                                            :U2
U3.mV                                            :U3
КП.%                                             :Кп
~ASCII LOG DATA
# ...
130.4       181.134     135.836     2.404       7.184       6.556       9.599       3.777       8.625       7.071       7.819       20.742      1.115       1.366       1118.593    11.381      928.243     614.899     538.17      19.481      
130.5       358.096     133.601     2.375       6.994       3.914       8.728       3.977       8.125       6.371       7.719       19.957      1.044       1.303       1112.633    11.33       676.23      698.526     532.695     22.798      
130.6       214.783     132.781     2.347       7.036       2.44        7.906       5.077       8.025       6.271       7.319       19.189      1.033       1.283       1106.728    11.279      473.867     644.95      458.566     26.686      
130.7       40.087      133.143     2.313       6.67        1.884       7.422       5.777       7.925       6.171       7.119       18.423      1.052       1.245       1101.927    11.207      566.289     476.241     354.022     28.974      
130.8       16.331      133.505     2.267       7.308       1.748       7.108       6.677       7.625       6.071       7.019       17.615      1.031       1.206       1098.345    11.179      810.648     335.043     268.502     30.263      
130.9       12.618      133.445     2.238       7.206       1.685       6.987       6.577       7.625       5.971       6.919       16.967      1.015       1.212       1096.366    11.115      912.405     333.076     228.558     30.757      
131.0       11.885      133.68      2.237       7.857       1.56        6.866       6.577       7.425       5.671       6.819       15.969      1.001       1.23        1095.161    11.062      876.227     426.146     245.176     31.298      
131.1       11.776      131.571     2.272       7.172       1.429       6.793       6.477       7.225       5.671       6.619       14.919      1.039       1.215       1094.247    10.986      866.711     475.498     284.953     31.436      
131.2       11.668      124.451     2.319       7.484       1.375       6.769       6.277       7.025       5.671       6.519       13.922      1.047       1.217       1093.661    10.952      883.863     482.991     344.553     31.43       
131.3       11.695      124.61      2.33        7.04        1.327       6.914       6.177       7.025       5.671       6.419       13.074      1.045       1.249       1093.824    10.933      794.354     502.706     415.274     31.446      
131.4       11.668      124.42      2.332       7.361       1.298       7.084       6.077       6.925       5.571       6.319       12.456      0.996       1.25        1093.977    10.916      678.155     534.645     441.548     31.725      
131.5       11.858      124.461     2.342       7.286       1.226       7.083       5.977       6.825       5.671       6.219       12.148      0.962       1.237       1094.516    10.895      575.316     517.693     456.71      32.76       
131.6       12.106      124.427     2.365       7.427       1.211       7.011       5.977       6.725       5.771       6.219       11.788      0.992       1.231       1094.971    10.88       592.467     488.514     460.762     33.627      
131.7       12.445      124.409     2.361       7.042       1.197       6.938       5.877       6.725       5.771       6.219       11.637      1.032       1.225       1095.808    10.861      542.701     447.122     498.142     33.417      
131.8       12.078      124.711     2.349       6.698       1.211       6.89        5.777       6.725       5.771       6.119       11.496      1.075       1.216       1096.514    10.842      485.91      442.392     535.528     32.361      
131.9       12.023      124.815     2.336       6.486       1.192       6.793       5.677       6.825       5.671       6.119       11.411      1.033       1.207       1096.622    10.809      403.563     411.251     477.521     31.994      
132.0       12.246      124.528     2.323       6.389       1.197       6.745       5.577       6.925       5.671       6.019       11.367      0.99        1.237       1096.371    10.785      400.057     403.455     436.715     32.396      
132.1       12.388      124.8       2.296       6.184       1.197       6.673       5.477       6.925       5.571       5.919       11.284      0.962       1.267       1096.452    10.767      460.189     405.638     409.879     31.863      
132.2       12.794      124.792     2.284       6.257       1.177       6.624       5.377       6.925       5.471       5.919       11.23       1.035       1.268       1096.62     10.787      602.473     442.372     491.962     30.502      
132.3       13.305      124.833     2.283       6.515       1.173       6.6         5.377       6.925       5.471       5.919       11.189      1.04        1.269       1097.11     10.807      829.397     490.15      536.597     29.788      
132.4       13.709      124.972     2.288       6.786       1.168       6.552       5.277       6.925       5.471       5.819       11.189      1.047       1.273       1097.055    10.791      1056.369    562.335     546.975     29.846      
132.5       14.093      124.83      2.284       6.945       1.192       6.503       5.277       6.925       5.471       5.719       11.215      0.974       1.27        1097.371    10.775      1283.293    660.739     523.543     28.586      
132.6       14.028      125.388     2.271       7.109       1.206       6.479       5.277       6.825       5.371       5.719       11.256      1.009       1.229       1097.637    10.773      1178.231    759.164     544.553     27.176      
132.7       13.49       125.284     2.258       7.273       1.231       6.455       5.277       6.825       5.371       5.719       11.297      1.002       1.202       1098.049    10.781      925.255     857.568     576.669     27.169      
132.8       12.912      125.529     2.256       7.368       1.308       6.431       5.277       6.725       5.271       5.519       11.353      0.994       1.228       1098.265    10.746      554.394     823.276     619.26      28.741      
132.9       13.122      125.427     2.265       7.496       1.313       6.479       5.277       6.725       5.271       5.519       11.379      0.98        1.247       1098.521    10.739      410.666     750.092     685.906     30.617      
133.0       13.397      125.237     2.275       7.292       1.298       6.455       5.277       6.725       5.371       5.519       11.395      0.987       1.241       1099.239    10.739      386.954     604.835     706.368     31.412      
133.1       13.274      125.552     2.269       7.183       1.288       6.479       5.277       6.725       5.371       5.519       11.367      1.072       1.236       1100.061    10.752      493.893     505.639     635.977     31.895      
133.2       13.152      124.825     2.263       7.145       1.313       6.455       5.477       6.725       5.411       5.519       11.355      1.087       1.232       1100.47     10.771      622.719     431.071     494.289     31.961      
133.3       13.183      125.038     2.254       7.078       1.337       6.479       5.577       6.725       5.411       5.519       11.284      1.115       1.23        1100.49     10.789      636.281     452.478     425.714     32.268      
133.4       13.092      125.24      2.263       6.72        1.366       6.479       5.677       6.725       5.411       5.519       11.313      1.061       1.231       1100.345    10.787      493.978     526.743     454.191     33.017      
133.5       13.243      124.703     2.285       6.365       1.375       6.503       5.777       6.825       5.471       5.419       11.285      1.022       1.24        1100.391    10.825      360.532     545.216     488.671     34.231      
133.6       13.366      125.141     2.295       6.545       1.404       6.455       5.877       6.825       5.471       5.419       11.244      0.977       1.262       1100.35     10.829      351.946     469.732     488.26      34.809      
133.7       13.772      124.81      2.289       6.96        1.414       6.431       5.977       6.825       5.471       5.319       11.242      0.969       1.265       1100.254    10.839      428.416     385.812     459.106     34.439      
