~Version Information Section
VERS.                                         2.0:CWLS log ASCII Standart – VERSION 2.0
WRAP.                                          NO:One line per depth step
~Well Information Section
STRT.M                                        1.0:Начальная глубина
STOP.M                                      199.5:Конечная глубина
STEP.M                                          0:Шаг квантования по глубине
NULL.                                    -9999.25:Признак "Нет данных"
WELL.                                       122Мх:Скважина
~Parameter Information Section
~Curve Information Section
DEPTH.M                                          :Глубина
БК.Омм                                           :BK     (БК)
DСР.мм                                           :DS  (ДС)
ГК.гамма                                         :GK          (ГК)
А0.4М0.1N.Омм.ohmm                               :GZ1   ГЗ1(A0.4M0.1N)
А1.0М0.1N.Омм.ohmm                               :GZ2   ГЗ2(A1.0M0.1N)
А2.0М0.5N.Омм.ohmm                               :GZ3   ГЗ3(A2.0M0.5N)
А4.0М0.5N.Oмм.ohmm                               :GZ4   ГЗ4(A4.0M0.5N)
А8.0М1.0N.Омм.ohmm                               :GZ5   ГЗ5(A8.0M0.5N)
N0.5M2.0A.Омм.ohmm                               :GZK   ГЗK(N0.5M2.0A)
ИК.мСм/м                                         :IK
НГК.усл.ед                                       :NGK     (НГК)
ПС.mv                                            :PS       (ПС)
КС.Омм                                           :PZ    (КС)
R.Омм                                            :RS (Резистивиметр)
ПЛОТНОСТЬ.г/см3                                  :ГГКп
П.                                               :п
ННКМ.усл.ед                                      :ННКм
~ASCII LOG DATA
# ...
163.8       13.955      166.627     8.681       17.391      16.354      19.165      7.209       3.222       14.264      12.586      1.148       93.75       17.389      1.211       2.476       39.865      134.816     
163.9       14.193      166.875     8.859       17.515      16.266      18.658      7.687       3.153       14.341      12.631      1.118       93.75       17.325      1.211       2.485       39.927      134.606     
164.0       14.578      166.966     9.19        17.478      16.131      18.136      8.557       3.113       14.441      12.644      1.113       93.875      17.301      1.211       2.49        39.949      134.912     
164.1       14.732      167.069     9.426       17.309      16.008      17.68       9.797       3.119       14.541      12.631      1.136       94.0        17.316      1.211       2.488       40.171      135.546     
164.2       14.678      167.197     9.366       17.127      15.966      17.343      11.475      3.097       14.617      12.64       1.172       94.25       17.339      1.211       2.478       40.924      135.482     
164.3       14.507      167.266     9.096       16.836      15.894      17.126      13.483      3.084       14.64       12.659      1.202       94.625      17.33       1.211       2.466       41.889      136.159     
164.4       14.117      167.331     8.791       16.703      16.025      17.0        15.77       3.062       14.652      12.67       1.217       95.25       17.315      1.211       2.459       42.505      137.015     
164.5       13.821      167.436     8.518       16.886      16.252      16.959      19.344      3.051       14.701      12.692      1.225       96.5        17.286      1.211       2.458       42.838      136.97      
164.6       13.948      167.481     8.474       17.202      16.344      16.941      23.226      3.017       14.752      12.707      1.226       97.25       17.243      1.211       2.46        42.997      136.612     
164.7       14.039      167.531     8.623       17.476      16.368      16.859      24.92       3.028       14.805      12.719      1.226       97.375      17.241      1.211       2.463       43.11       136.182     
164.8       14.048      167.56      8.863       17.553      16.294      16.649      24.819      3.028       14.854      12.773      1.226       97.5        17.231      1.211       2.466       42.805      135.773     
164.9       14.008      167.703     9.01        17.337      16.081      16.366      24.209      3.016       14.945      12.803      1.221       97.75       17.197      1.211       2.465       41.757      134.706     
165.0       14.051      167.548     8.981       17.178      15.964      16.148      23.389      3.005       15.054      12.81       1.192       98.25       17.207      1.211       2.462       40.582      133.377     
165.1       14.248      167.486     8.912       17.127      15.974      15.948      22.573      2.992       15.118      12.804      1.138       98.25       17.313      1.211       2.459       39.087      133.377     
165.2       14.539      167.489     8.898       16.938      15.975      15.844      21.901      2.958       15.192      12.845      1.102       98.125      17.439      1.211       2.458       37.492      133.396     
165.3       14.719      167.489     8.922       16.881      15.939      15.859      21.406      2.959       15.298      12.859      1.11        98.25       17.525      1.211       2.464       35.941      133.561     
165.4       14.711      167.353     8.958       17.135      15.944      15.834      21.059      2.958       15.401      12.877      1.148       98.125      17.588      1.211       2.476       34.898      133.517     
165.5       14.944      167.137     8.951       17.436      15.89       15.813      20.787      2.923       15.492      12.877      1.177       97.875      17.571      1.211       2.498       34.276      133.182     
165.6       15.314      167.103     8.861       17.706      15.77       15.845      20.553      2.947       15.571      12.866      1.18        97.5        17.47       1.211       2.521       34.105      133.761     
165.7       14.755      166.938     8.782       18.238      15.896      15.866      20.265      2.958       15.573      12.853      1.167       97.0        17.41       1.211       2.538       34.099      133.824     
165.8       14.089      166.942     8.805       18.617      16.304      15.931      19.879      2.959       15.497      12.844      1.145       96.625      17.429      1.211       2.539       34.141      133.981     
165.9       14.093      166.98      8.913       18.248      16.328      16.047      19.43       2.925       15.437      12.855      1.128       96.5        17.458      1.211       2.52        34.214      134.293     
166.0       14.145      166.983     9.031       17.841      16.068      16.085      18.937      2.924       15.373      12.862      1.118       96.5        17.458      1.211       2.49        33.991      135.719     
166.1       14.154      167.024     9.07        17.828      16.145      16.05       18.408      2.923       15.326      12.874      1.106       96.375      17.425      1.211       2.457       33.288      136.897     
166.2       14.21       167.024     9.046       17.764      16.21       15.97       18.02       2.878       15.391      12.872      1.085       96.5        17.381      1.211       2.439       32.388      137.498     
166.3       14.348      167.068     8.978       17.443      16.091      15.787      17.821      2.867       15.483      12.899      1.053       96.75       17.356      1.211       2.435       31.515      137.305     
166.4       14.524      166.914     8.964       17.295      16.094      15.554      17.616      2.855       15.508      12.909      1.03        96.5        17.394      1.211       2.444       30.711      137.558     
166.5       14.423      166.841     9.045       17.452      16.229      15.446      17.348      2.822       15.515      12.927      1.032       96.0        17.482      1.211       2.457       30.55       136.041     
166.6       14.368      166.708     9.222       17.416      16.104      15.428      17.147      2.736       15.566      12.905      1.054       96.0        17.552      1.211       2.468       31.072      135.373     
166.7       14.862      166.516     9.418       17.229      15.979      15.394      17.049      2.786       15.663      12.885      1.075       96.125      17.574      1.211       2.474       32.114      134.589     
166.8       15.163      166.397     9.495       17.411      16.308      15.332      16.906      3.358       15.692      12.875      1.086       95.875      17.569      1.211       2.47        33.696      133.553     
166.9       14.986      166.334     9.364       17.987      16.641      15.346      16.726      3.496       15.601      12.864      1.093       95.75       17.568      1.211       2.459       35.266      132.899     
167.0       14.692      166.169     9.082       18.217      16.564      15.387      16.632      3.559       15.496      12.8        1.102       95.75       17.591      1.211       2.442       37.204      132.417     
167.1       14.63       165.934     8.684       18.069      16.321      15.296      16.463      3.658       15.347      12.78       1.117       95.75       17.647      1.211       2.426       38.987      133.264     
167.2       14.489      165.925     8.458       18.061      16.17       15.128      16.176      3.781       15.157      12.77       1.136       95.75       17.702      1.211       2.416       39.884      133.695     
167.3       14.31       165.764     8.454       18.092      16.069      15.033      15.904      3.852       15.046      12.758      1.152       95.625      17.725      1.211       2.413       40.23       134.06      
167.4       14.409      165.617     8.741       18.002      15.991      15.02       15.705      3.99        15.069      12.737      1.16        95.5        17.722      1.211       2.419       40.062      134.208     
