~Version Information Section
VERS.                                         2.0:CWLS log ASCII Standart – VERSION 2.0
WRAP.                                          NO:One line per depth step
~Well Information Section
STRT.M                                        0.1:Начальная глубина
STOP.M                                      153.3:Конечная глубина
STEP.M                                          0:Шаг квантования по глубине
NULL.                                    -9999.25:Признак "Нет данных"
WELL.                                        144К:Скважина
~Parameter Information Section
~Curve Information Section
DEPTH.M                                          :Глубина
БК.Омм                                           :BK     (БК)
DСР.мм                                           :DS  (ДС)
ПЛОТНОСТЬ.г/см^3                                 :GGKp
ГК.мкР/ч                                         :GK          (ГК)
А0.4М0.1N.Омм                                    :GZ1   ГЗ1(A0.4M0.1N)
А1.0М0.1N.Омм                                    :GZ2   ГЗ2(A1.0M0.1N)
А2.0М0.5N.Омм                                    :GZ3   ГЗ3(A2.0M0.5N)
А4.0М0.5N.Oмм                                    :GZ4   ГЗ4(A4.0M0.5N)
А8.0М1.0N.Омм                                    :GZ5   ГЗ5(A8.0M0.5N)
N0.5M2.0A.Омм                                    :GZR   ГЗK(N0.5M2.0A)
ИК.мСм/м                                         :IK
БЗ.ue                                            :NNKb  (ННКб)
МЗ.ue                                            :NNKm  (ННКм)
ПС.mv                                            :PS       (ПС)
N11.0M0.5A.Омм                                   :PZ    (КС)
R.Омм                                            :RS (Резистивиметр)
ПОРИСТОСТЬ.                                      :W
~ASCII LOG DATA
# ...
114.8       97.001      150.54      2.109       3.26        90.062      168.488     196.86      113.512     37.463      207.816     54.227      4.658       2.159       25.25       144.675     1.114       21.559      
114.9       88.482      150.535     2.096       3.173       90.1        168.538     202.723     126.406     37.965      207.858     54.434      4.648       2.169       25.115      144.298     1.114       21.274      
115.0       96.613      150.535     2.087       3.043       90.596      167.997     206.498     137.127     38.308      205.803     54.996      4.727       2.173       25.047      144.395     1.114       21.052      
115.1       104.792     150.519     2.082       2.996       92.167      167.406     207.222     143.938     38.555      200.667     55.8        4.89        2.201       25.037      145.136     1.114       20.931      
115.2       134.742     150.58      2.084       3.074       93.818      164.853     206.042     147.08      38.854      194.823     56.446      5.054       2.226       25.08       146.658     1.114       20.837      
115.3       121.545     150.522     2.098       3.221       94.912      160.145     202.785     148.213     38.854      189.307     56.316      5.124       2.255       25.156      149.264     1.115       20.807      
115.4       113.59      150.497     2.126       3.352       96.823      157.991     198.93      149.193     38.87       185.529     56.233      5.032       2.254       25.247      152.942     1.115       20.799      
115.5       117.336     150.492     2.159       3.431       100.465     158.981     196.077     151.225     38.801      183.717     55.979      4.906       2.237       25.342      157.344     1.114       20.934      
115.6       126.116     150.503     2.187       3.432       104.532     161.65      194.186     154.686     38.519      182.506     55.953      4.825       2.227       25.426      161.753     1.114       21.119      
115.7       136.175     150.523     2.203       3.368       107.287     164.589     192.679     158.302     38.401      181.698     56.17       4.818       2.232       25.496      165.372     1.115       21.303      
115.8       135.429     150.503     2.21        3.265       108.507     167.224     190.971     161.744     38.239      180.624     55.985      4.852       2.245       25.553      167.796     1.117       21.393      
115.9       128.599     150.51      2.207       3.232       109.652     171.91      189.261     165.085     38.058      179.032     55.648      4.851       2.245       25.596      169.113     1.117       21.451      
116.0       126.249     150.53      2.2         3.295       111.351     178.686     187.819     167.869     37.791      177.028     55.188      4.847       2.236       25.637      169.721     1.117       21.544      
116.1       128.115     150.549     2.191       3.421       112.15      183.946     186.62      169.252     37.593      175.174     55.182      4.831       2.214       25.677      169.87      1.117       21.788      
116.2       131.078     150.574     2.185       3.549       112.603     186.754     185.35      168.813     37.12       174.119     54.975      4.815       2.216       25.718      169.927     1.118       22.103      
116.3       123.071     150.603     2.182       3.623       113.406     189.013     183.201     167.209     36.533      173.817     54.717      4.771       2.234       25.769      169.988     1.122       22.495      
116.4       111.55      150.669     2.185       3.649       113.757     190.405     180.009     164.607     35.929      174.42      54.386      4.697       2.24        25.834      169.953     1.127       22.966      
116.5       115.978     150.669     2.194       3.632       114.59      191.7       176.417     162.264     35.032      175.699     54.031      4.589       2.238       25.912      169.691     1.13        23.502      
116.6       127.298     150.66      2.203       3.586       115.424     192.851     173.284     160.284     34.32       177.813     54.256      4.483       2.226       26.004      169.234     1.132       24.062      
116.7       129.163     150.702     2.212       3.524       115.324     191.348     170.334     158.558     33.201      182.591     54.083      4.369       2.219       26.099      168.552     1.133       24.629      
116.8       119.701     150.677     2.22        3.468       113.974     186.574     167.581     157.636     31.768      189.925     53.761      4.19        2.208       26.194      167.711     1.136       25.21       
116.9       105.485     150.71      2.227       3.444       110.658     181.333     166.037     157.367     29.773      198.125     53.946      4.046       2.189       26.277      167.087     1.141       25.802      
117.0       98.713      150.816     2.232       3.446       108.592     179.363     165.699     158.405     27.752      204.672     53.987      3.898       2.158       26.348      167.085     1.14        26.358      
117.1       101.48      150.996     2.237       3.484       109.832     180.967     167.373     160.979     26.157      209.422     54.113      3.875       2.095       26.404      168.724     1.139       26.773      
117.2       128.419     151.178     2.241       3.522       113.475     183.333     171.818     164.075     25.148      213.767     54.371      3.826       2.059       26.448      172.246     1.139       27.101      
117.3       161.569     151.015     2.242       3.58        118.683     184.167     178.008     166.672     24.71       216.893     54.948      3.761       2.055       26.477      177.581     1.14        27.387      
117.4       151.505     151.022     2.237       3.577       122.593     184.934     183.679     168.538     24.634      220.053     55.559      3.712       2.071       26.494      183.797     1.14        27.676      
117.5       126.656     151.083     2.23        3.518       124.571     185.629     187.144     169.919     24.634      223.549     56.173      3.708       2.082       26.496      189.425     1.14        27.845      
117.6       122.105     151.079     2.223       3.395       126.762     187.054     188.517     171.32      24.649      226.879     56.747      3.73        2.07        26.496      193.686     1.141       27.892      
117.7       133.845     151.101     2.218       3.268       129.909     190.439     189.151     172.456     24.732      229.089     57.068      3.705       2.057       26.496      196.61      1.142       27.979      
117.8       141.244     151.071     2.211       3.202       133.448     194.72      189.748     172.739     24.857      229.679     57.212      3.636       2.057       26.507      199.155     1.144       28.301      
117.9       161.638     151.047     2.199       3.247       135.547     197.933     189.874     172.742     25.157      229.86      57.813      3.58        2.071       26.531      201.543     1.145       28.767      
118.0       129.519     151.047     2.183       3.401       135.598     197.409     189.681     172.663     25.577      229.453     58.258      3.531       2.067       26.569      204.068     1.143       29.32       
118.1       150.624     151.119     2.164       3.606       134.512     194.708     188.831     172.581     26.2        228.923     58.421      3.423       2.031       26.621      207.017     1.143       29.871      
118.2       156.834     151.085     2.149       3.803       133.079     194.383     188.175     172.659     26.796      228.8       58.384      3.288       1.969       26.685      210.12      1.142       30.408      
118.3       144.407     151.22      2.14        3.928       131.086     195.339     188.214     173.004     27.501      229.042     58.428      3.134       1.931       26.764      211.989     1.14        30.943      
118.4       149.033     151.738     2.136       3.975       129.779     197.941     188.789     173.352     28.474      229.153     58.483      3.075       1.911       26.856      212.844     1.14        31.259      
