~Version Information Section
VERS.                                         2.0:CWLS log ASCII Standart – VERSION 2.0
WRAP.                                          NO:One line per depth step
~Well Information Section
STRT.M                                        1.0:Начальная глубина
STOP.M                                      199.5:Конечная глубина
STEP.M                                          0:Шаг квантования по глубине
NULL.                                    -9999.25:Признак "Нет данных"
WELL.                                       122Мх:Скважина
~Parameter Information Section
~Curve Information Section
DEPTH.M                                          :Глубина
БК.Омм                                           :BK     (БК)
DСР.мм                                           :DS  (ДС)
ГК.гамма                                         :GK          (ГК)
А0.4М0.1N.Омм.ohmm                               :GZ1   ГЗ1(A0.4M0.1N)
А1.0М0.1N.Омм.ohmm                               :GZ2   ГЗ2(A1.0M0.1N)
А2.0М0.5N.Омм.ohmm                               :GZ3   ГЗ3(A2.0M0.5N)
А4.0М0.5N.Oмм.ohmm                               :GZ4   ГЗ4(A4.0M0.5N)
А8.0М1.0N.Омм.ohmm                               :GZ5   ГЗ5(A8.0M0.5N)
N0.5M2.0A.Омм.ohmm                               :GZK   ГЗK(N0.5M2.0A)
ИК.мСм/м                                         :IK
НГК.усл.ед                                       :NGK     (НГК)
ПС.mv                                            :PS       (ПС)
КС.Омм                                           :PZ    (КС)
R.Омм                                            :RS (Резистивиметр)
ПЛОТНОСТЬ.г/см3                                  :ГГКп
П.                                               :п
ННКМ.усл.ед                                      :ННКм
~ASCII LOG DATA
# ...
89.8        19.078      161.229     7.522       17.444      20.367      15.42       15.932      21.765      22.18       17.48       1.031       79.125      21.127      1.212       2.287       36.704      118.42      
89.9        19.07       159.718     7.339       18.619      21.39       16.126      16.125      21.603      23.383      17.457      1.034       75.625      21.299      1.212       2.319       36.9        117.131     
90.0        19.15       159.224     7.11        18.203      20.976      17.29       16.765      21.755      24.623      17.378      1.061       69.875      21.691      1.212       2.344       36.715      117.512     
90.1        20.738      154.164     6.924       18.469      21.172      18.871      17.338      22.518      25.173      17.308      1.084       65.875      22.354      1.212       2.353       36.283      119.079     
90.2        21.221      150.141     6.92        20.016      22.018      20.773      17.605      23.472      25.409      17.259      1.087       66.25       22.832      1.212       2.345       35.718      120.765     
90.3        18.925      155.329     7.097       21.741      22.09       22.4        18.216      24.034      25.898      17.186      1.068       68.5        22.878      1.212       2.327       34.538      122.663     
90.4        18.41       155.919     7.42        22.63       22.379      23.448      19.185      24.286      26.05       17.11       1.041       73.25       22.708      1.212       2.311       33.757      124.405     
90.5        16.818      158.07      7.629       24.27       23.711      24.063      19.823      24.478      25.769      17.109      1.024       78.5        22.528      1.212       2.301       33.33       124.18      
90.6        14.736      162.476     7.588       26.459      24.339      24.516      20.155      24.538      25.344      17.141      1.024       76.75       22.19       1.212       2.306       32.967      124.736     
90.7        13.608      169.154     7.513       26.617      23.817      24.847      20.427      24.143      24.566      17.279      1.022       72.375      21.704      1.212       2.316       32.97       125.463     
90.8        13.251      180.736     7.734       26.538      23.983      24.359      20.296      23.61       23.169      17.515      0.987       66.375      21.351      1.212       2.33        33.265      126.017     
90.9        12.983      178.756     8.034       26.95       24.151      23.142      19.495      22.939      21.402      17.932      0.934       61.25       20.995      1.212       2.331       33.969      126.914     
91.0        12.572      185.468     8.203       25.972      23.011      21.924      18.233      21.863      19.391      18.502      0.902       60.75       20.626      1.212       2.327       35.059      127.172     
91.1        12.78       177.052     8.119       23.664      21.462      20.616      16.803      20.664      17.801      19.038      0.906       61.375      20.496      1.212       2.311       36.119      127.611     
91.2        14.078      178.533     7.973       21.499      20.198      19.109      15.337      19.576      16.868      19.598      0.938       61.25       20.564      1.212       2.297       37.647      125.521     
91.3        16.782      159.966     7.807       19.516      18.613      17.731      14.039      18.64       16.266      20.075      0.979       66.875      20.818      1.212       2.288       39.682      122.675     
91.4        18.523      158.042     7.568       17.263      16.581      16.679      13.202      18.1        16.255      20.365      1.011       76.875      21.103      1.212       2.294       41.675      119.7       
91.5        19.132      157.509     7.324       15.551      15.613      15.914      12.848      17.693      16.752      20.722      1.029       81.25       21.426      1.212       2.308       43.506      115.082     
91.6        20.982      155.138     7.102       14.999      16.176      15.76       12.863      17.798      17.506      20.957      1.042       81.625      21.836      1.211       2.328       45.116      112.101     
91.7        23.513      150.776     6.946       15.43       17.398      16.102      13.295      18.438      18.455      21.037      1.068       81.875      22.394      1.212       2.349       45.923      113.451     
91.8        23.833      148.136     6.885       16.249      18.34       16.868      14.001      19.257      19.282      20.998      1.096       81.625      23.193      1.212       2.366       46.088      115.294     
91.9        24.002      147.061     6.88        17.058      18.81       18.118      15.015      20.528      20.272      20.816      1.114       81.25       24.276      1.212       2.374       45.152      118.132     
92.0        25.708      142.006     6.86        18.487      20.144      19.444      16.653      21.985      21.56       20.691      1.109       81.375      25.486      1.212       2.374       43.521      122.731     
92.1        27.592      143.295     6.695       22.099      22.364      21.085      18.778      23.365      22.711      20.47       1.076       81.75       26.263      1.212       2.372       41.538      126.18      
92.2        27.556      142.299     6.459       25.159      23.246      22.965      21.503      24.802      24.226      20.163      1.028       80.625      26.946      1.212       2.369       39.866      129.563     
92.3        24.538      141.998     6.16        26.424      24.123      24.671      24.718      26.087      25.991      19.795      1.011       74.0        27.711      1.212       2.367       38.082      131.598     
92.4        24.4        142.357     6.069       28.61       25.443      26.217      27.295      27.308      26.899      19.45       1.042       64.875      28.202      1.213       2.364       36.797      134.054     
92.5        24.885      143.742     6.433       31.65       27.732      27.664      28.703      28.09       26.954      19.114      1.082       60.125      28.725      1.213       2.364       35.766      134.998     
92.6        25.731      144.655     7.115       34.982      29.48       28.837      29.437      28.791      26.753      18.588      1.096       55.875      29.27       1.214       2.37        35.057      134.392     
92.7        25.79       142.154     7.506       35.716      28.895      29.795      29.929      29.208      26.17       18.057      1.097       52.75       29.594      1.213       2.387       34.257      134.383     
92.8        22.746      142.855     7.23        35.628      29.415      30.359      30.409      29.138      25.37       17.717      1.12        52.5        29.515      1.213       2.409       33.308      134.558     
92.9        18.263      145.846     6.888       36.562      30.781      30.48       30.787      28.355      24.421      17.493      1.144       51.75       28.512      1.213       2.427       32.171      134.684     
93.0        17.335      150.492     7.075       38.841      32.675      30.395      30.859      27.733      23.333      17.335      1.145       51.75       26.962      1.213       2.43        30.928      134.715     
93.1        19.913      143.284     7.574       41.847      34.617      29.452      29.949      26.365      21.992      17.142      1.124       52.5        26.154      1.214       2.417       29.809      135.608     
93.2        21.538      141.51      8.033       40.977      33.764      27.832      28.075      25.86       20.711      16.905      1.111       53.25       26.263      1.213       2.398       28.712      135.321     
93.3        22.048      141.456     8.185       36.411      29.59       25.724      26.103      25.505      19.943      16.529      1.114       53.75       26.494      1.212       2.38        28.473      134.632     
93.4        20.925      142.458     8.309       31.082      26.28       23.796      24.349      24.682      19.513      16.052      1.12        53.688      26.405      1.212       2.365       28.82       132.796     
