~Version Information Section
VERS.                                         2.0:CWLS log ASCII Standart – VERSION 2.0
WRAP.                                          NO:One line per depth step
~Well Information Section
STRT.M                                        0.4:Начальная глубина
STOP.M                                      206.4:Конечная глубина
STEP.M                                          0:Шаг квантования по глубине
NULL.                                    -9999.25:Признак "Нет данных"
WELL.                                       157Мх:Скважина
~Parameter Information Section
~Curve Information Section
DEPTH.M                                          :Глубина
BK.Ohm*M                                         :BK     (БК)
DS.mm                                            :DS  (ДС)
GGK.g/cm3                                        :GGKp
ГК.mcr/h                                         :GK          (ГК)
GZ1.Ohm*M                                        :GZ1   ГЗ1(A0.4M0.1N)
GZ2.Ohm*M                                        :GZ2   ГЗ2(A1.0M0.1N)
GZ3.Ohm*M                                        :GZ3   ГЗ3(A2.0M0.5N)
GZ4.Ohm*M                                        :GZ4   ГЗ4(A4.0M0.5N)
GZ5.Ohm*M                                        :GZ5   ГЗ5(A8.0M0.5N)
GZR.                                             :GZR   ГЗK(N0.5M2.0A)
ИК.Ohm*M                                         :IK
НГК.ue                                           :NGK     (НГК)
NNKM.                                            :NNKm  (ННКм)
PS.mv                                            :PS       (ПС)
PZ.Ohm*M                                         :PZ    (КС)
RS.Ohm*M                                         :RS (Резистивиметр)
W.%                                              :W
~ASCII LOG DATA
# ...
11.5        -9999.25    161.167     2.118       3.923       -9999.25    -9999.25    -9999.25    52.621      -9999.25    42.036      -9999.25    1.726       2.438       -9999.25    -9999.25    1.131       29.069      
11.6        -9999.25    161.762     2.136       3.788       -9999.25    -9999.25    -9999.25    54.745      -9999.25    39.47       -9999.25    1.753       2.449       -9999.25    -9999.25    1.133       28.569      
11.7        -9999.25    162.466     2.155       3.673       -9999.25    -9999.25    -9999.25    58.474      -9999.25    37.107      -9999.25    1.75        2.461       -9999.25    -9999.25    1.134       28.655      
11.8        -9999.25    162.302     2.173       3.681       -9999.25    -9999.25    -9999.25    62.311      -9999.25    34.841      -9999.25    1.732       2.461       -9999.25    -9999.25    1.134       29.635      
11.9        -9999.25    162.435     2.185       3.666       -9999.25    -9999.25    -9999.25    64.079      -9999.25    32.611      -9999.25    1.711       2.433       -9999.25    -9999.25    1.134       30.884      
12.0        -9999.25    162.479     2.182       3.549       -9999.25    -9999.25    -9999.25    64.028      -9999.25    30.558      -9999.25    1.616       2.392       -9999.25    -9999.25    1.137       31.586      
12.1        -9999.25    162.607     2.174       3.063       -9999.25    -9999.25    -9999.25    63.18       -9999.25    28.812      -9999.25    1.535       2.341       -9999.25    -9999.25    1.138       31.591      
12.2        -9999.25    162.822     2.164       2.681       -9999.25    -9999.25    -9999.25    59.513      -9999.25    26.703      -9999.25    1.495       2.298       -9999.25    -9999.25    1.136       31.144      
12.3        -9999.25    162.938     2.158       2.444       -9999.25    -9999.25    -9999.25    53.539      -9999.25    24.237      -9999.25    1.515       2.265       -9999.25    -9999.25    1.136       30.651      
12.4        -9999.25    163.792     2.15        2.649       -9999.25    -9999.25    -9999.25    45.734      -9999.25    22.304      -9999.25    1.481       2.243       -9999.25    -9999.25    1.136       31.168      
12.5        -9999.25    165.05      2.154       3.13        -9999.25    -9999.25    -9999.25    38.6        -9999.25    21.439      -9999.25    1.426       2.182       -9999.25    -9999.25    1.136       32.798      
12.6        -9999.25    165.333     2.17        3.539       -9999.25    -9999.25    -9999.25    32.778      -9999.25    21.487      -9999.25    1.408       2.111       -9999.25    -9999.25    1.137       33.696      
12.7        -9999.25    164.789     2.198       3.912       -9999.25    -9999.25    -9999.25    28.351      -9999.25    21.672      -9999.25    1.435       2.098       -9999.25    -9999.25    1.136       32.506      
12.8        -9999.25    163.187     2.232       3.954       -9999.25    -9999.25    -9999.25    25.154      -9999.25    21.612      -9999.25    1.445       2.147       -9999.25    -9999.25    1.135       31.101      
12.9        -9999.25    163.115     2.261       3.93        -9999.25    -9999.25    -9999.25    23.39       -9999.25    21.34       -9999.25    1.435       2.18        -9999.25    -9999.25    1.136       31.924      
13.0        -9999.25    163.424     2.276       4.085       -9999.25    -9999.25    -9999.25    22.425      -9999.25    20.253      -9999.25    1.429       2.146       -9999.25    -9999.25    1.135       33.81       
13.1        -9999.25    163.49      2.272       4.4         -9999.25    -9999.25    -9999.25    21.746      -9999.25    17.906      -9999.25    1.406       2.094       -9999.25    -9999.25    1.136       34.24       
13.2        -9999.25    161.478     2.254       4.748       -9999.25    -9999.25    -9999.25    21.566      -9999.25    15.628      -9999.25    1.369       2.076       198.15      -9999.25    1.133       33.641      
13.3        -9999.25    161.367     2.226       4.869       -9999.25    -9999.25    -9999.25    21.696      -9999.25    14.131      -9999.25    1.324       2.071       224.715     -9999.25    1.132       33.859      
13.4        -9999.25    162.033     2.184       4.869       -9999.25    -9999.25    -9999.25    22.493      -9999.25    13.446      -9999.25    1.299       2.07        210.236     -9999.25    1.136       35.086      
13.5        -9999.25    163.121     2.138       4.869       -9999.25    -9999.25    -9999.25    23.979      -9999.25    12.923      -9999.25    1.34        2.044       204.543     -9999.25    1.137       36.187      
13.6        -9999.25    161.254     2.094       4.493       18.193      -9999.25    -9999.25    25.961      -9999.25    12.343      -9999.25    1.395       2.015       230.921     36.926      1.137       36.043      
13.7        -9999.25    161.348     2.07        4.14        18.563      -9999.25    -9999.25    28.172      -9999.25    12.004      -9999.25    1.442       2.023       213.793     37.487      1.136       34.872      
13.8        -9999.25    161.485     2.07        3.911       22.516      -9999.25    -9999.25    30.002      -9999.25    11.878      -9999.25    1.44        2.058       213.969     37.244      1.135       33.306      
13.9        -9999.25    161.546     2.102       4.08        24.868      -9999.25    -9999.25    30.391      -9999.25    11.777      -9999.25    1.438       2.131       214.002     37.084      1.134       32.25       
14.0        -9999.25    161.893     2.155       4.295       25.68       -9999.25    -9999.25    30.163      -9999.25    11.552      -9999.25    1.443       2.169       214.185     36.196      1.135       31.377      
14.1        -9999.25    162.179     2.207       4.386       25.312      -9999.25    -9999.25    28.771      -9999.25    11.249      -9999.25    1.435       2.213       214.394     34.976      1.136       30.384      
14.2        -9999.25    162.454     2.238       4.612       23.275      29.991      -9999.25    26.317      -9999.25    10.925      -9999.25    1.424       2.213       214.453     34.018      1.137       31.064      
14.3        -9999.25    163.008     2.241       5.054       20.402      25.477      -9999.25    23.77       -9999.25    10.943      -9999.25    1.423       2.144       214.767     33.731      1.137       33.562      
14.4        -9999.25    163.577     2.226       5.586       17.758      20.355      -9999.25    21.722      -9999.25    11.178      -9999.25    1.449       2.07        215.151     33.79       1.136       36.357      
14.5        -9999.25    164.936     2.207       6.177       17.155      18.308      -9999.25    20.836      -9999.25    12.139      -9999.25    1.484       2.03        215.527     34.025      1.135       37.424      
14.6        -9999.25    163.784     2.198       6.533       16.867      18.205      -9999.25    20.947      -9999.25    13.871      -9999.25    1.518       2.07        215.798     34.0        1.133       35.908      
14.7        -9999.25    163.095     2.196       7.077       16.688      18.0        -9999.25    22.017      -9999.25    16.834      -9999.25    1.539       2.143       215.934     33.823      1.137       33.406      
14.8        -9999.25    162.868     2.204       7.495       16.439      18.082      -9999.25    26.099      -9999.25    22.515      -9999.25    1.517       2.184       215.934     33.44       1.136       31.491      
14.9        -9999.25    162.855     2.208       7.389       16.599      18.888      -9999.25    35.08       -9999.25    32.996      -9999.25    1.479       2.179       215.896     33.097      1.135       31.243      
15.0        -9999.25    163.059     2.213       6.982       17.378      22.489      -9999.25    49.659      -9999.25    47.427      -9999.25    1.503       2.157       215.655     32.815      1.136       32.234      
15.1        -9999.25    162.865     2.222       6.261       21.51       32.627      -9999.25    68.44       -9999.25    62.717      -9999.25    1.564       2.205       215.181     32.264      1.14        32.073      
