~Version Information Section
VERS.                                         2.0:CWLS log ASCII Standart – VERSION 2.0
WRAP.                                          NO:One line per depth step
~Well Information Section
STRT.M                                        0.5:Начальная глубина
STOP.M                                      201.9:Конечная глубина
STEP.M                                          0:Шаг квантования по глубине
NULL.                                    -9999.25:Признак "Нет данных"
WELL.                                       138Мх:Скважина
~Parameter Information Section
~Curve Information Section
DEPTH.M                                          :Глубина
БК.Омм                                           :BK     (БК)
DСР.мм                                           :DS  (ДС)
W.g/cm3                                          :GGKp
ГК.гамма                                         :GK          (ГК)
А0.4М0.1N.Омм.ohmm                               :GZ1   ГЗ1(A0.4M0.1N)
А1.0М0.1N.Омм.ohmm                               :GZ2   ГЗ2(A1.0M0.1N)
А2.0М0.5N.Омм.ohmm                               :GZ3   ГЗ3(A2.0M0.5N)
А4.0М0.5N.Oмм.ohmm                               :GZ4   ГЗ4(A4.0M0.5N)
А8.0М1.0N.Омм.ohmm                               :GZ5   ГЗ5(A8.0M0.5N)
N0.5M2.0A.Омм.ohmm                               :GZK   ГЗK(N0.5M2.0A)
ИК.мСм/м                                         :IK
ННКМ.усл.ед                                      :NNKm  (ННКм)
ПС.мВ                                            :PS       (ПС)
КС.Омм                                           :PZ    (КС)
R.Омм                                            :RS (Резистивиметр)
U1.мВ                                            :U1
U2.mV                                            :U2
U3.мВ                                            :U3
КП.%                                             :Кп
НГК.усл.ед                                       :NGK
~ASCII LOG DATA
# ...
58.1        26.602      150.002     2.077       4.045       17.934      13.239      12.506      15.758      10.704      45.636      18.602      1.732       260.504     49.598      1.08        2172.538    1528.379    1036.168    30.666      1.063       
58.2        27.684      149.037     2.054       4.205       18.664      14.252      13.893      18.942      12.563      55.685      19.182      1.831       260.408     49.872      1.08        2278.926    1454.514    898.938     27.043      1.196       
58.3        29.647      147.848     2.02        4.272       20.396      16.078      16.142      22.79       14.76       67.829      19.927      1.956       260.28      50.224      1.08        2263.958    1362.743    771.646     22.785      1.362       
58.4        32.333      144.505     1.983       4.327       23.601      18.776      19.284      26.335      17.135      80.504      20.728      2.094       260.12      50.646      1.08        2133.178    1337.321    751.447     19.476      1.461       
58.5        36.719      143.176     1.946       3.825       28.919      22.368      23.099      28.514      19.486      91.075      21.576      2.172       259.992     51.149      1.08        1935.676    1339.216    790.359     17.909      1.696       
58.6        39.844      142.653     1.914       3.685       37.035      26.658      27.094      29.169      21.566      97.227      22.475      2.144       259.896     51.77       1.08        1840.677    1345.156    875.724     19.917      1.856       
58.7        43.984      141.682     1.898       3.425       47.803      31.082      30.479      28.92       23.076      99.037      23.43       2.08        259.848     52.571      1.08        1832.54     1387.932    1010.683    22.715      1.937       
58.8        64.177      141.498     1.899       3.396       59.514      34.954      32.564      27.769      23.864      98.415      24.577      2.006       259.848     53.642      1.08        1815.625    1369.797    1033.839    26.726      1.834       
58.9        104.663     141.472     1.912       3.458       69.761      38.003      33.225      25.638      23.943      95.479      25.741      1.953       259.848     55.077      1.08        1732.652    1324.392    1010.541    28.564      1.675       
59.0        130.628     141.485     1.934       3.431       76.45       40.319      33.11       23.398      23.943      90.096      26.73       1.919       259.848     56.947      1.08        1633.498    1237.045    937.653     29.494      1.503       
59.1        126.53      141.508     1.959       3.542       78.666      41.974      32.281      21.863      23.453      84.629      27.676      1.836       259.864     59.286      1.08        1551.264    1158.613    874.228     29.515      1.39        
59.2        123.981     141.562     1.98        3.513       78.481      43.229      30.548      21.191      22.622      81.026      28.525      1.759       259.96      62.093      1.08        1535.088    1046.407    713.737     31.869      1.292       
59.3        115.091     141.585     1.996       3.508       76.62       44.564      28.654      21.041      21.781      79.62       29.13       1.732       260.104     65.31       1.08        1582.038    906.183     515.461     34.602      1.262       
59.4        101.844     141.691     2.003       3.608       73.007      46.202      27.199      21.041      21.148      79.419      29.435      1.704       260.296     68.85       1.08        1563.213    770.114     360.241     36.951      1.244       
59.5        87.982      141.547     2.006       3.648       70.022      48.072      26.405      21.041      20.759      79.419      29.667      1.702       260.52      72.621      1.08        1462.382    659.507     291.287     36.119      1.255       
59.6        69.531      141.563     2.004       3.627       68.972      50.302      26.191      21.041      20.615      79.419      29.651      1.71        260.744     76.509      1.08        1314.608    582.031     260.126     34.486      1.227       
59.7        45.491      141.616     1.998       3.396       68.972      53.048      26.191      21.063      20.615      79.419      29.439      1.74        260.936     80.384      1.08        1232.603    550.499     249.333     32.386      1.181       
59.8        32.211      141.459     1.996       3.305       68.972      56.128      26.191      21.134      20.615      79.795      29.24       1.752       261.144     84.146      1.08        1254.488    586.189     279.644     30.496      1.166       
59.9        38.196      141.377     1.996       3.332       68.972      59.134      26.191      21.261      20.615      80.646      29.206      1.736       261.384     87.706      1.08        1282.97     671.871     351.909     31.379      1.211       
60.0        56.277      141.236     1.997       3.427       69.33       61.767      26.244      21.366      20.615      81.553      29.379      1.735       261.64      90.973      1.08        1311.453    763.299     421.871     33.892      1.207       
60.1        59.871      141.206     1.997       3.19        71.227      63.932      26.526      21.395      20.67       82.232      29.69       1.751       261.944     93.915      1.08        1318.051    819.033     453.601     37.649      1.193       
60.2        62.334      141.202     1.994       3.103       74.511      65.556      27.093      21.405      20.845      82.478      30.225      1.755       262.312     96.549      1.08        1347.762    829.594     443.377     39.745      1.128       
60.3        71.112      141.173     1.986       3.119       77.906      66.704      27.93       21.417      21.067      82.47       30.741      1.746       262.664     98.891      1.08        1336.149    835.713     435.459     38.996      1.088       
60.4        76.511      141.184     1.976       3.176       80.866      67.593      29.147      21.423      21.309      82.289      31.164      1.745       262.984     100.97      1.08        1324.538    851.562     483.02      37.265      1.134       
60.5        73.776      141.209     1.964       3.516       83.197      68.361      30.957      21.444      21.522      81.901      31.508      1.748       263.288     102.829     1.08        1283.215    907.099     602.653     34.847      1.183       
60.6        69.513      141.248     1.955       3.396       84.852      69.098      33.649      21.48       21.691      81.368      31.813      1.76        263.528     104.482     1.08        1314.704    986.61      713.811     33.876      1.296       
60.7        70.129      141.293     1.952       3.438       85.99       69.97       37.427      21.557      21.809      80.565      32.014      1.775       263.704     105.912     1.08        1357.333    1056.395    777.413     32.511      1.298       
60.8        70.121      141.288     1.948       3.164       86.949      71.227      42.311      21.676      21.9        79.41       32.17       1.789       263.816     107.112     1.08        1467.459    1090.535    768.946     32.544      1.341       
60.9        65.799      141.272     1.949       3.01        87.913      72.996      48.024      21.793      22.02       77.858      32.307      1.796       263.864     108.085     1.08        1723.093    1174.839    791.481     35.204      1.327       
61.0        65.156      141.287     1.95        2.98        88.904      75.137      53.979      21.874      22.214      75.959      32.395      1.761       263.864     108.838     1.08        1900.861    1246.086    823.657     37.492      1.318       
61.1        70.631      141.274     1.951       3.022       89.874      77.317      59.494      21.901      22.487      73.947      32.485      1.733       263.864     109.403     1.08        1983.168    1308.466    855.831     36.789      1.272       
61.2        74.565      141.286     1.951       3.293       90.862      79.187      64.025      21.876      22.833      72.03       32.674      1.741       263.864     109.83      1.08        1888.473    1295.403    865.471     34.212      1.225       
