~Version Information Section
VERS.                                         2.0:CWLS log ASCII Standart – VERSION 2.0
WRAP.                                          NO:One line per depth step
~Well Information Section
STRT.M                                        0.0:Начальная глубина
STOP.M                                      180.0:Конечная глубина
STEP.M                                          0:Шаг квантования по глубине
NULL.                                    -9999.25:Признак "Нет данных"
WELL.                                       120Мх:Скважина
~Parameter Information Section
~Curve Information Section
DEPTH.M                                          :Глубина
BK.Ohm*M                                         :BK     (БК)
DS.mm                                            :DS  (ДС)
GGK.g/cm3                                        :GGKp
ГК.mcr/h                                         :GK          (ГК)
GZ1.Ohm*M                                        :GZ1   ГЗ1(A0.4M0.1N)
GZ2.Ohm*M                                        :GZ2   ГЗ2(A1.0M0.1N)
GZ3.Ohm*M                                        :GZ3   ГЗ3(A2.0M0.5N)
GZ4.Ohm*M                                        :GZ4   ГЗ4(A4.0M0.5N)
GZ5.Ohm*M                                        :GZ5   ГЗ5(A8.0M0.5N)
GZR.Ohm*M                                        :GZK   ГЗK(N0.5M2.0A)
ИК.Ohm*M                                         :IK
НГК.u.e.                                         :NGK
NNKM.                                            :NNKm  (ННКм)
PS.mv                                            :PS       (ПС)
PZ.Ohm*M                                         :PZ    (КС)
RS.Ohm*M                                         :RS (Резистивиметр)
U1.mV                                            :U1
U2.mV                                            :U2
U3.mV                                            :U3
КП.%                                             :Кп
~ASCII LOG DATA
# ...
115.2       31.915      131.859     2.349       6.463       48.722      44.125      36.071      78.974      57.287      26.958      10.517      0.982       2.094       610.649     53.823      1.119       861.156     414.882     224.972     33.932      
115.4       30.2        132.271     2.294       5.938       45.636      40.792      30.737      71.952      58.266      29.18       10.329      1.077       2.052       608.288     55.703      1.125       1330.851    357.667     110.923     35.501      
115.6       33.343      132.363     2.266       5.834       41.839      37.458      27.404      66.871      59.62       25.297      10.177      1.172       2.107       605.686     54.324      1.146       1056.705    311.221     156.549     29.822      
115.8       32.734      132.428     2.219       6.771       40.4        34.125      28.071      68.059      55.314      25.898      10.088      1.164       2.035       603.363     46.052      1.181       385.832     331.8       348.5       31.84       
116.0       24.322      132.674     2.263       6.742       35.482      30.792      29.404      67.389      55.7        27.101      9.9         1.126       1.977       601.846     38.908      1.204       465.826     435.691     480.05      32.035      
116.2       25.061      132.296     2.315       6.093       33.733      30.125      28.071      71.077      55.628      32.186      9.802       1.131       1.964       601.164     37.78       1.205       498.35      348.825     294.626     30.147      
116.4       26.363      132.824     2.272       6.522       35.203      30.125      22.737      70.177      52.865      32.966      9.677       1.064       1.949       602.086     42.794      1.201       904.564     550.532     361.825     33.574      
116.6       18.45       132.484     2.281       6.601       38.014      29.728      19.404      69.38       57.307      33.177      9.571       1.037       1.93        603.728     45.551      1.2         719.546     444.766     310.052     33.371      
116.8       24.378      132.958     2.309       6.703       38.702      26.723      19.404      70.033      56.41       33.067      9.571       1.021       1.951       605.206     44.799      1.2         888.304     694.775     591.121     32.793      
117.0       26.607      133.461     2.349       6.354       39.314      27.223      19.404      70.484      52.591      32.843      9.774       1.06        1.996       606.368     43.796      1.2         579.735     459.779     415.936     32.819      
117.2       27.669      133.729     2.342       6.543       40.793      29.571      20.071      71.008      57.391      33.314      9.9         1.054       2.021       606.694     45.802      1.2         876.95      643.753     514.228     31.622      
117.4       27.29       133.039     2.291       6.624       43.602      32.386      22.071      67.89       58.436      32.638      10.044      1.055       1.995       605.206     46.679      1.209       1038.905    806.723     670.987     30.335      
117.6       28.119      132.902     2.316       6.458       43.212      31.692      26.737      65.666      61.29       29.15       10.102      1.063       1.955       603.728     44.799      1.229       584.167     521.501     557.277     35.67       
117.8       30.2        133.958     2.371       6.289       42.15       31.843      30.613      61.666      63.45       33.144      10.147      1.105       2.14        601.846     43.671      1.241       222.53      225.74      334.674     30.254      
118.0       31.261      133.573     2.359       6.218       44.504      36.143      32.873      67.628      62.684      34.797      10.176      1.162       2.1         599.926     43.671      1.242       376.048     276.433     277.271     28.971      
118.2       26.062      135.083     2.37        6.273       46.179      35.75       33.102      63.686      61.48       35.189      10.177      1.157       2.011       598.246     42.042      1.24        605.905     382.895     278.802     36.289      
118.4       28.249      134.188     2.372       6.061       41.656      27.621      30.044      60.742      60.404      33.062      10.102      1.123       2.085       597.728     37.028      1.24        567.443     402.484     334.181     32.192      
118.6       30.269      134.38      2.365       5.644       37.874      27.754      27.42       56.034      58.18       30.219      10.073      1.15        2.177       597.766     35.023      1.24        606.342     532.598     542.606     27.098      
118.8       28.907      134.505     2.313       5.853       39.427      26.572      27.016      58.664      55.597      28.897      10.015      1.131       2.113       597.766     36.151      1.244       768.303     596.56      538.544     30.183      
119.0       23.988      134.557     2.304       6.489       38.73       24.172      27.753      58.72       54.081      29.377      9.9         1.149       2.017       597.766     36.276      1.253       330.279     295.155     419.11      35.001      
119.2       25.119      133.814     2.292       7.051       39.632      26.548      28.055      53.673      52.248      29.623      9.886       1.097       1.994       597.766     37.53       1.259       465.552     454.586     551.05      39.199      
119.4       26.122      133.24      2.275       6.669       37.938      27.26       26.022      52.739      49.52       29.235      9.9         1.022       2.018       597.728     38.783      1.26        605.432     495.38      468.971     36.96       
119.6       25.586      133.1       2.307       6.203       38.795      29.86       23.151      52.193      52.698      27.978      9.887       1.09        2.02        597.286     40.788      1.26        764.976     674.386     667.988     31.253      
119.8       26.062      133.684     2.253       6.528       40.63       29.884      27.835      51.726      51.432      26.634      9.87        1.101       2.014       596.566     43.295      1.26        611.256     595.969     650.969     29.364      
120.0       26.424      133.488     2.273       6.719       41.481      30.548      27.082      51.729      49.202      26.239      9.87        1.024       1.988       595.606     44.924      1.259       330.248     274.56      288.123     34.598      
120.2       28.576      133.359     2.264       6.826       42.068      31.819      25.256      52.102      49.046      26.491      9.868       1.05        2.063       594.646     44.172      1.26        502.302     437.32      438.843     34.877      
120.4       28.973      132.242     2.228       6.665       39.873      32.079      26.188      52.174      50.289      26.413      9.835       1.138       2.129       593.686     43.671      1.269       678.449     624.014     635.468     30.042      
120.6       25.351      131.731     2.267       6.117       37.503      30.744      28.622      52.556      51.755      26.316      9.741       1.128       1.996       593.004     43.671      1.277       683.347     637.734     663.246     32.314      
120.8       24.831      132.648     2.357       6.582       40.403      28.834      31.17       52.907      50.062      26.002      9.627       1.063       2.029       593.004     43.671      1.28        721.364     548.565     473.623     28.318      
121.0       25.061      132.27      2.38        6.484       38.168      26.282      29.772      52.231      49.121      25.104      9.564       1.074       1.997       593.484     43.42       1.28        660.952     398.946     291.641     32.125      
121.2       24.946      132.487     2.365       6.417       36.736      27.536      27.823      50.686      49.492      24.031      9.469       1.078       2.015       594.406     40.036      1.28        559.49      405.273     396.315     32.615      
121.4       25.527      133.013     2.355       7.065       36.167      26.891      27.272      49.947      49.495      24.164      9.382       1.076       2.04        595.366     36.402      1.28        698.498     255.409     145.827     31.801      
