~Version Information Section
VERS.                                         2.0:CWLS log ASCII Standart – VERSION 2.0
WRAP.                                          NO:One line per depth step
~Well Information Section
STRT.M                                        1.0:Начальная глубина
STOP.M                                      151.7:Конечная глубина
STEP.M                                          0:Шаг квантования по глубине
NULL.                                    -9999.25:Признак "Нет данных"
WELL.                                       117Мх:Скважина
~Parameter Information Section
~Curve Information Section
DEPTH.M                                          :Глубина
DСР.мм                                           :Dср
ГК.гамма                                         :GK
ИК.мСм/м                                         :IK
N0.5M2.0A.Омм.                                   :N0.5M2.0A.Омм
R.Омм                                            :R
U1.                                              :U1
U2.                                              :U2
U3.                                              :U3
W.имп/1,25с                                      :W
А0.4М0.1N.Омм.                                   :А0.4М0.1N.Омм
А1.0М0.1N.Омм.                                   :А1.0М0.1N.Омм
А2.0М0.5N.Омм.                                   :А2.0М0.5N.Омм
А4.0М0.5N.Oмм.                                   :А4.0М0.5N.Oмм
А8.0М1.0N.Омм.                                   :А8.0М1.0N.Омм
БЗ.имп/мин                                       :БЗ
БК.Омм                                           :БК
КС.Омм                                           :КС
ПС.                                              :ПС
МЗ.имп/мин                                       :МЗ
НГК.имп/1,25с                                    :ННКб
ННКМ.имп/1,25с                                   :ННКм
ПЛОТНОСТЬГГК.г/см3                               :плотностьГГК
~ASCII LOG DATA
# ...
44.5        135.922     8.772       13.693      11.146      1.267       269.922     105.359     180.382     35.33       17.742      14.028      12.315      13.22       10.595      17220.0     13.153      17.107      161.191     7400.0      1.842       1.469       2.285       
44.6        136.396     8.674       13.946      10.459      1.259       270.093     105.444     181.218     34.61       15.399      10.878      10.877      12.561      10.705      15680.0     12.452      17.721      160.96      6760.0      1.784       1.377       2.307       
44.7        137.166     8.452       14.173      11.458      1.254       269.507     105.64      181.99      33.662      13.948      9.14        9.754       12.099      11.148      14120.0     12.206      18.31       160.635     6000.0      1.836       1.297       2.326       
44.8        146.661     7.991       14.32       14.605      1.246       268.921     105.835     182.762     32.5        13.259      8.941       9.635       13.509      12.79       12640.0     13.534      18.814      160.137     5880.0      2.012       1.331       2.345       
44.9        140.018     7.489       14.431      17.55       1.238       268.921     105.835     182.762     31.323      13.253      9.847       10.476      16.573      15.703      11560.0     16.663      19.26       159.378     5980.0      2.259       1.415       2.367       
45.0        134.49      7.144       14.61       17.965      1.246       268.921     105.835     182.762     30.229      14.881      14.127      12.094      20.478      18.66       11540.0     20.105      19.712      158.283     6240.0      2.482       1.573       2.381       
45.1        133.349     7.001       14.996      17.367      1.287       267.078     105.823     181.662     29.452      18.163      19.178      14.229      25.119      21.472      11700.0     22.626      20.214      156.813     6220.0      2.627       1.669       2.385       
45.2        133.075     6.999       15.553      18.042      1.324       265.235     105.811     180.561     28.765      20.435      20.715      15.64       26.53       24.745      11860.0     23.776      21.059      154.953     6160.0      2.718       1.744       2.386       
45.3        133.065     7.318       16.188      19.129      1.354       261.731     102.905     177.43      28.018      20.345      19.457      15.183      22.309      28.449      11800.0     22.962      22.381      152.703     6160.0      2.738       1.717       2.391       
45.4        133.048     7.598       16.904      21.669      1.385       258.228     100.0       174.299     27.237      20.905      17.628      14.218      17.978      32.124      11480.0     20.723      23.923      150.116     6040.0      2.765       1.669       2.39        
45.5        133.062     7.46        17.688      29.057      1.395       253.955     98.621      171.053     26.586      21.43       14.331      15.244      20.035      35.251      10940.0     20.722      25.651      147.315     5880.0      2.827       1.613       2.388       
45.6        134.573     6.981       18.309      33.461      1.38        251.526     97.254      168.907     26.158      19.995      11.551      17.408      26.502      37.839      10640.0     26.015      27.632      144.465     5720.0      2.98        1.573       2.382       
45.7        133.466     6.397       18.578      29.061      1.347       257.227     102.588     171.225     25.895      22.264      15.595      19.831      44.402      39.925      10660.0     37.215      30.403      141.735     5840.0      3.188       1.692       2.375       
45.8        131.722     5.637       18.703      24.488      1.32        264.588     110.816     175.573     25.922      28.16       22.795      24.965      88.42       40.631      10660.0     55.687      34.166      139.285     5900.0      3.366       1.848       2.363       
45.9        131.512     4.962       18.905      26.062      1.307       268.14      114.624     178.004     26.324      29.666      25.479      30.872      126.428     38.95       11380.0     79.754      38.403      137.277     5900.0      3.464       2.028       2.346       
46.0        131.393     4.573       19.144      31.137      1.277       272.461     116.907     180.551     27.293      31.905      31.054      34.941      119.827     35.302      11500.0     100.318     42.423      135.868     5840.0      3.478       2.06        2.327       
46.1        131.411     4.442       19.381      36.349      1.236       275.598     117.603     182.463     28.451      50.384      40.273      37.0        81.161      31.237      11640.0     110.548     45.578      135.162     5820.0      3.417       2.075       2.315       
46.2        131.339     4.548       19.639      39.635      1.23        270.606     111.597     179.911     29.705      89.206      46.767      37.213      51.277      27.545      11880.0     111.083     47.424      135.181     5920.0      3.278       2.045       2.312       
46.3        131.233     4.933       19.817      40.686      1.233       264.881     104.663     176.22      30.613      119.667     47.854      36.152      42.297      23.622      12440.0     102.708     48.109      135.867     5960.0      3.067       2.012       2.305       
46.4        131.081     5.442       19.812      40.795      1.243       262.964     102.148     174.445     31.273      124.826     43.908      33.73       37.342      19.709      12980.0     86.49       47.55       137.127     5980.0      2.829       1.934       2.3         
46.5        131.162     6.202       19.611      35.975      1.236       261.048     99.634      172.671     31.503      123.018     40.177      30.07       32.387      17.171      12840.0     67.454      45.517      138.801     5900.0      2.629       1.879       2.297       
46.6        131.436     6.943       19.225      23.997      1.235       261.805     98.279      172.124     31.439      127.246     39.913      24.955      27.432      15.695      13020.0     50.943      42.208      140.586     6000.0      2.484       1.752       2.295       
46.7        131.697     7.576       18.59       15.628      1.248       262.561     96.924      171.577     31.06       125.06      36.867      19.461      22.477      14.151      12720.0     38.135      38.18       142.132     6220.0      2.423       1.646       2.286       
46.8        133.305     8.086       17.729      14.059      1.23        268.811     98.852      175.283     30.498      85.556      28.762      15.903      20.43       12.976      13080.0     27.889      34.496      143.157     6140.0      2.415       1.54        2.273       
46.9        134.961     8.631       16.895      12.493      1.226       275.061     100.781     178.988     29.832      42.26       26.034      13.215      19.958      13.562      13160.0     20.058      31.555      143.445     6200.0      2.446       1.505       2.257       
47.0        133.644     9.075       16.226      13.894      1.229       280.64      103.98      183.418     29.373      31.525      30.842      10.408      18.152      16.148      13880.0     15.925      29.035      142.868     6440.0      2.477       1.5         2.252       
47.1        132.269     9.78        15.627      17.776      1.233       284.729     107.605     187.256     29.208      31.734      35.811      10.346      16.345      20.016      15020.0     15.14       26.667      141.366     6780.0      2.447       1.491       2.25        
47.2        132.406     11.121      15.177      19.236      1.267       289.563     110.218     191.308     29.228      26.616      32.78       12.241      14.539      24.781      15560.0     15.345      24.551      138.992     6580.0      2.37        1.485       2.257       
47.3        133.687     12.429      14.976      17.577      1.298       289.637     110.474     192.249     29.05       24.326      35.499      13.243      12.733      29.384      15880.0     14.875      22.764      136.039     6400.0      2.291       1.477       2.28        
