~Version Information Section
VERS.                                         2.0:CWLS log ASCII Standart – VERSION 2.0
WRAP.                                          NO:One line per depth step
~Well Information Section
STRT.M                                        0.8:Начальная глубина
STOP.M                                      209.6:Конечная глубина
STEP.M                                          0:Шаг квантования по глубине
NULL.                                    -9999.25:Признак "Нет данных"
WELL.                                         5Мх:Скважина
~Parameter Information Section
~Curve Information Section
DEPTH.M                                          :Глубина
BK.Ohm*M                                         :BK     (БК)
DS.mm                                            :DS  (ДС)
ГК.mcr/h                                         :GK          (ГК)
GZ1.Ohm*M                                        :GZ1   ГЗ1(A0.4M0.1N)
GZ2.Ohm*M                                        :GZ2   ГЗ2(A1.0M0.1N)
GZ3.Ohm*M                                        :GZ3   ГЗ3(A2.0M0.5N)
GZ4.Ohm*M                                        :GZ4   ГЗ4(A4.0M0.5N)
GZ5.Ohm*M                                        :GZ5   ГЗ5(A8.0M0.5N)
GZR.Ohm*M                                        :GZK   ГЗK(N0.5M2.0A)
ИК.Ohm*M                                         :IK
НГК.                                             :NNKb  (ННКб)
NNKM.                                            :NNKm  (ННКм)
PS.mv                                            :PS       (ПС)
PZ.Ohm*M                                         :PZ    (КС)
RS.Ohm*M                                         :RS (Резистивиметр)
W.%                                              :W
ГГК.g/cm3                                        :ГГК
SGDT1.1/min                                      :ПЛ1
SGDT2.1/min                                      :ПЛ2
SGDT3.1/min                                      :ПЛ3
SGDT4.1/min                                      :ПЛ4
~ASCII LOG DATA
# ...
81.4        17.906      170.753     5.095       2.612       10.258      3.454       3.364       15.982      2.908       17.01       2.584       1.876       918.521     13.893      0.871       37.284      2.19        17659.414   22480.0     16524.326   5315.938    
81.6        17.1        168.084     5.301       2.646       10.239      3.454       3.364       15.982      2.647       17.11       2.701       1.91        919.257     14.831      0.873       36.481      2.21        17410.619   22696.289   16391.777   5207.207    
81.8        19.679      161.665     5.58        2.768       10.239      3.454       3.444       16.162      2.461       17.0        2.714       1.97        920.57      15.551      0.875       36.892      2.25        17623.34    23165.586   16004.2     5268.906    
82.0        17.824      162.962     5.583       2.828       10.165      3.454       3.764       16.162      2.535       16.839      2.763       1.977       924.088     15.487      0.875       36.566      2.265       17011.016   23433.906   17150.381   5790.449    
82.2        15.56       170.746     5.688       2.892       10.183      3.454       3.844       15.982      2.684       16.819      2.597       1.891       930.317     14.945      0.876       38.239      2.243       17243.383   25558.477   18843.564   5737.539    
82.4        15.776      171.885     5.48        2.869       10.276      3.634       3.684       15.982      2.665       16.591      2.425       1.862       930.914     13.895      0.879       40.444      2.216       18206.289   25567.148   18449.531   5372.012    
82.6        13.964      175.899     5.711       2.798       10.295      3.634       3.604       15.982      2.591       16.346      2.401       1.849       929.334     13.06       0.881       40.068      2.207       17483.936   24303.926   17442.344   5119.219    
82.8        12.764      168.762     5.89        2.776       10.276      3.274       3.444       16.162      2.627       16.135      2.436       1.8         928.016     13.086      0.881       38.442      2.199       17226.387   23391.953   16725.986   5175.977    
83.0        16.181      167.229     6.025       2.765       10.37       3.094       3.364       16.162      2.759       16.205      2.422       1.842       930.424     13.096      0.882       40.743      2.199       17596.836   22644.746   16520.059   5101.602    
83.2        15.453      173.757     5.939       2.649       10.258      3.094       3.444       16.162      2.74        16.314      2.273       1.896       934.67      12.909      0.887       43.149      2.197       18012.762   22628.047   17527.207   5085.605    
83.4        14.421      173.962     6.074       2.69        10.183      3.094       3.444       15.982      2.685       16.143      2.505       1.773       933.306     12.551      0.891       36.958      2.192       17957.598   23250.41    17794.395   5240.0      
83.6        15.031      165.075     5.861       2.739       10.314      3.094       3.364       15.982      2.647       15.916      2.512       1.796       930.842     12.587      0.893       36.38       2.187       17840.004   23400.0     16700.0     5160.0      
83.8        17.701      174.175     5.623       2.69        10.295      2.914       3.284       15.982      2.629       15.865      2.512       1.845       930.799     12.853      0.893       38.378      2.2         17960.0     23180.0     16720.0     5260.0      
84.0        16.634      177.141     6.29        2.694       10.295      3.094       3.364       15.982      2.61        15.585      2.359       1.815       930.376     12.926      0.893       38.829      2.21        17280.0     23200.0     16460.0     5380.0      
84.2        14.555      175.964     6.41        2.724       10.258      3.274       3.364       15.982      2.61        15.361      2.575       1.777       929.692     12.466      0.896       36.401      2.202       16200.014   22520.0     15660.0     5020.0      
84.4        15.171      177.753     6.153       2.769       10.332      3.274       3.364       15.982      2.759       15.221      2.26        1.789       928.235     12.246      0.902       41.231      2.186       17240.0     22440.0     15519.999   4840.0      
84.6        12.853      184.447     6.353       2.72        10.314      3.274       3.284       15.982      2.87        15.026      2.117       1.76        931.764     12.353      0.905       44.741      2.184       17040.023   22580.0     15780.0     5260.0      
84.8        12.764      178.701     6.339       2.787       10.314      3.634       3.284       15.982      2.833       14.974      2.106       1.714       934.725     12.477      0.905       42.393      2.182       16360.0     22260.0     15100.0     5280.0      
85.0        13.092      177.604     6.253       2.675       10.276      3.634       3.284       15.982      2.74        14.955      2.442       1.679       937.331     12.788      0.905       35.256      2.178       16560.0     21540.0     14840.0     4960.0      
85.2        14.125      178.713     6.015       2.616       10.183      3.634       3.284       16.162      2.759       15.135      2.483       1.783       938.235     13.023      0.905       36.797      2.173       16399.982   21400.0     15340.0     4960.0      
85.4        15.488      183.302     5.995       2.575       10.127      3.634       3.284       16.162      2.685       15.188      2.314       1.835       938.858     13.385      0.907       41.209      2.165       16600.0     20720.0     15500.001   4860.0      
85.6        14.158      180.007     6.27        2.62        10.015      3.634       3.284       16.162      2.834       15.3        2.397       1.771       938.215     13.584      0.91        38.88       2.16        16240.021   20620.0     15240.0     4740.0      
85.8        13.677      176.161     6.445       2.668       10.09       3.634       3.284       16.162      3.076       15.414      2.334       1.718       937.156     13.363      0.91        37.589      2.163       16640.0     20360.0     14960.0     4500.0      
86.0        13.213      173.865     6.298       2.653       10.071      3.634       3.204       16.162      3.318       15.503      2.368       1.681       932.8       13.173      0.91        36.569      2.161       16600.0     19460.0     15000.0     4620.0      
86.2        14.093      173.863     6.647       2.649       10.071      3.634       3.204       16.162      3.467       15.544      2.354       1.684       923.557     12.391      0.91        35.888      2.149       17720.012   21560.0     15600.0     4820.0      
86.4        13.552      160.931     6.715       2.593       10.053      3.634       3.284       16.162      3.523       15.737      2.564       1.739       916.739     12.878      0.91        35.515      2.156       18640.0     22600.0     16020.0     5040.0      
86.6        17.298      166.923     5.974       2.589       10.071      3.634       3.444       16.162      3.281       16.278      2.445       1.868       914.103     13.504      0.91        38.79       2.179       17840.014   22920.0     15699.999   5120.0      
86.8        15.996      163.852     5.872       2.526       9.922       3.454       3.444       16.162      2.815       16.475      2.56        1.911       914.708     14.258      0.91        39.147      2.184       17080.0     22280.0     16500.0     5000.0      
87.0        17.906      163.888     5.735       2.683       9.997       3.454       3.364       16.162      2.536       16.346      2.476       1.889       915.417     14.635      0.91        40.246      2.17        17640.0     22500.0     16900.0     5100.0      
87.2        20.23       168.411     5.383       2.586       9.978       3.454       3.364       16.162      2.442       16.166      2.439       1.897       919.338     14.44       0.91        41.038      2.159       18240.014   23380.0     16280.001   5060.0      
87.4        16.144      173.193     6.316       2.679       9.997       3.454       3.364       16.162      2.461       15.787      2.468       1.918       926.72      13.83       0.91        40.55       2.144       18040.0     23240.0     15980.001   5060.0      
