~Version Information Section
VERS.                                         2.0:CWLS log ASCII Standart – VERSION 2.0
WRAP.                                          NO:One line per depth step
~Well Information Section
STRT.M                                        1.6:Начальная глубина
STOP.M                                      212.2:Конечная глубина
STEP.M                                          0:Шаг квантования по глубине
NULL.                                    -9999.25:Признак "Нет данных"
WELL.                                       139Мх:Скважина
~Parameter Information Section
~Curve Information Section
DEPTH.M                                          :Глубина
BK.Ohm*M                                         :BK     (БК)
DS.mm                                            :DS  (ДС)
GGK.g/cm3                                        :GGKp
ГК.mcr/h                                         :GK          (ГК)
GZ1.Ohm*M                                        :GZ1   ГЗ1(A0.4M0.1N)
GZ2.Ohm*M                                        :GZ2   ГЗ2(A1.0M0.1N)
GZ3.Ohm*M                                        :GZ3   ГЗ3(A2.0M0.5N)
GZ4.Ohm*M                                        :GZ4   ГЗ4(A4.0M0.5N)
GZ5.Ohm*M                                        :GZ5   ГЗ5(A8.0M0.5N)
GZR.Ohm*M                                        :GZK   ГЗK(N0.5M2.0A)
ИК.Ohm*M                                         :IK
НГК.ue                                           :NGK     (НГК)
NNKM.                                            :NNKm  (ННКм)
PS.mv                                            :PS       (ПС)
PZ.Ohm*M                                         :PZ    (КС)
U1.mV                                            :U1
U2.mV                                            :U2
U3.mV                                            :U3
КП.%                                             :Кп
~ASCII LOG DATA
# ...
93.4        65.054      143.299     2.175       5.431       17.389      13.186      58.03       9.229       6.257       16.798      16.269      0.999       1.801       116.069     173.986     87.228      157.35      250.804     45.819      
93.5        57.579      142.152     2.132       5.378       17.034      13.16       56.752      9.54        6.22        16.546      16.405      0.949       1.755       115.988     172.455     73.4        147.968     245.019     47.228      
93.6        47.946      143.831     2.16        5.445       16.773      13.154      55.666      10.055      6.216       16.431      16.602      0.949       1.757       115.937     171.433     82.398      147.862     219.362     45.58       
93.7        60.259      147.966     2.195       5.014       16.627      13.154      54.789      10.739      6.216       16.399      16.81       1.007       1.796       115.915     170.92      85.303      154.857     244.598     43.743      
93.8        75.458      152.905     2.202       5.082       16.578      13.158      54.141      11.645      6.257       16.399      17.118      1.018       1.792       115.915     170.904     80.662      158.045     290.927     44.048      
93.9        107.951     153.575     2.212       5.122       16.578      13.191      53.738      12.783      6.461       16.405      17.472      1.051       1.771       115.915     170.904     76.022      150.326     287.583     45.775      
94.0        123.593     151.995     2.115       5.313       16.588      13.282      53.578      14.075      6.897       16.457      17.846      1.039       1.779       115.915     170.904     78.928      135.558     221.93      45.039      
94.1        114.032     149.428     2.076       5.129       16.685      13.427      53.578      15.523      7.564       16.636      18.257      1.031       1.823       115.924     170.904     125.954     135.084     143.656     41.775      
94.2        106.611     149.923     2.059       4.784       17.031      13.678      53.578      17.186      8.359       16.99       18.769      1.047       2.009       115.968     171.331     214.879     155.95      115.053     39.538      
94.3        122.95      146.71      2.024       4.571       17.768      14.105      53.599      18.872      9.178       17.565      19.211      1.138       2.15        116.055     172.115     301.584     203.137     141.785     39.08       
94.4        114.694     154.225     2.123       4.616       19.006      14.738      53.777      20.141      10.016      18.438      19.669      1.215       2.106       116.197     173.165     338.263     193.429     124.665     38.788      
94.5        105.468     150.172     2.19        4.839       20.822      15.65       54.337      20.782      10.811      19.661      20.028      1.222       2.08        116.414     173.985     331.589     173.286     107.54      38.424      
94.6        157.913     153.473     2.17        4.801       23.281      16.906      55.355      20.9        11.446      21.141      20.186      1.182       2.089       116.729     173.985     336.918     154.148     77.001      38.373      
94.7        298.095     162.235     2.128       4.667       26.309      18.418      56.9        20.856      11.858      22.744      20.251      1.161       2.084       117.172     173.985     334.464     198.662     132.226     38.998      
94.8        349.237     144.679     2.103       4.531       29.726      20.077      58.996      20.478      12.082      24.263      20.297      1.188       2.073       117.78      173.895     307.085     233.047     187.802     38.454      
94.9        291.297     130.319     2.098       4.278       33.347      21.754      61.559      19.344      12.134      25.352      20.237      1.207       2.191       118.588     172.235     268.472     235.306     198.699     36.279      
95.0        388.116     130.087     2.131       4.216       36.868      23.28       64.389      17.647      12.132      25.766      20.203      1.19        2.308       119.621     168.404     262.816     215.568     164.564     34.186      
95.1        435.235     134.211     2.175       4.131       39.658      24.437      67.183      15.92       12.092      25.765      20.032      1.18        2.298       120.887     162.003     278.712     205.961     130.081     33.796      
95.2        304.311     138.079     2.18        4.262       41.158      25.189      69.564      14.499      11.915      25.718      19.762      1.281       2.27        122.384     153.322     271.967     205.922     133.281     36.573      
95.3        246.425     139.427     2.172       4.413       41.619      25.549      71.173      13.531      11.569      25.38       19.387      1.354       2.208       124.09      143.079     233.708     215.404     174.518     38.998      
95.4        250.684     138.885     2.16        4.404       41.588      25.628      71.891      13.014      11.161      24.44       18.936      1.331       2.134       125.972     132.214     186.577     224.837     234.92      41.045      
95.5        246.534     139.091     2.129       4.367       41.274      25.612      72.003      12.768      10.726      23.061      18.539      1.23        2.084       128.002     121.692     162.085     218.308     261.589     41.201      
95.6        278.881     139.291     2.109       4.22        40.059      25.483      71.968      12.639      10.251      21.559      18.168      1.168       2.071       130.152     112.433     152.705     195.867     235.353     40.512      
95.7        311.323     138.444     2.115       4.22        37.615      25.101      71.678      12.52       9.752       20.214      17.797      1.18        2.074       132.377     104.91      158.434     173.475     189.95      39.821      
95.8        216.052     139.022     2.105       4.404       34.535      24.492      70.846      12.366      9.284       19.092      17.386      1.142       2.104       134.642     99.189      205.811     196.08      184.671     39.384      
95.9        159.547     139.853     2.124       4.516       31.455      23.7        69.662      12.134      8.832       18.22       17.072      1.13        2.112       136.908     95.034      263.582     243.171     224.989     38.474      
96.0        99.232      140.4       2.152       4.699       28.471      22.802      68.433      11.888      8.393       17.597      16.766      1.147       2.047       139.118     92.078      290.103     269.754     251.616     37.094      
96.1        112.202     140.284     2.171       5.272       25.748      21.85       67.313      11.659      8.036       17.158      16.41       1.187       1.98        141.22      89.829      272.501     257.987     244.81      37.421      
96.2        127.1       139.83      2.193       5.84        23.425      20.854      66.313      11.492      7.755       16.842      16.112      1.202       1.932       143.177     87.947      239.163     228.381     218.265     39.163      
96.3        102.67      140.091     2.205       6.341       21.449      19.857      65.396      11.426      7.54        16.624      15.861      1.164       1.896       144.961     86.22       234.213     210.384     164.171     41.654      
96.4        94.463      139.866     2.207       6.164       19.796      18.914      64.539      11.426      7.389       16.493      15.592      1.114       1.878       146.55      84.5        259.73      186.767     116.504     42.807      
96.5        96.717      139.368     2.195       6.073       18.579      18.071      63.74       11.433      7.291       16.446      15.384      1.067       1.841       147.954     82.681      236.365     157.527     79.353      44.334      
96.6        109.366     139.072     2.184       5.809       17.806      17.362      63.026      11.487      7.203       16.446      15.272      1.03        1.805       149.194     80.705      213.001     137.193     87.54       45.885      
96.7        133.56      137.096     2.185       5.747       17.42       16.79       62.45       11.65       7.122       16.451      15.214      1.009       1.812       150.302     78.541      161.701     144.478     134.345     47.525      
