~Version Information Section
VERS.                                         2.0:CWLS log ASCII Standart – VERSION 2.0
WRAP.                                          NO:One line per depth step
~Well Information Section
STRT.M                                        0.7:Начальная глубина
STOP.M                                      200.1:Конечная глубина
STEP.M                                          0:Шаг квантования по глубине
NULL.                                    -9999.25:Признак "Нет данных"
WELL.                                       111Мх:Скважина
~Parameter Information Section
~Curve Information Section
DEPTH.M                                          :Глубина
DСР.mm                                           :Dср
ГК.1/min                                         :GK
ИК.mSim/m                                        :IK
N0.5M2.0A.Омм                                    :N0
НГК.усл.ед                                       :NGK
PZ.Ohm*M                                         :PZ
R.Ohm*M                                          :R
PS.mV                                            :ПС
U1.mV                                            :U1
U2.                                              :U2
U3.mV                                            :U3
А0.4М0.1N.Омм                                    :А0
А1.0М0.1N.Омм                                    :А1
А2.0М0.5N.Омм                                    :А2
А4.0М0.5N.Oмм                                    :А4
А8.0М1.0N.Омм                                    :А8
BK.Ohm*M                                         :БК
ГГК.1/min                                        :ГГК
КП.%                                             :Кп
ННКМ.усл.ед                                      :ННКм
~ASCII LOG DATA
# ...
141.5       133.263     5.944       23.936      39.201      1.373       61.4        1.06        252.93      1164.0      1267.479    1239.757    40.637      30.967      30.948      19.073      13.611      45.336      2.284       33.45       2.029       
141.6       133.219     5.805       24.083      38.819      1.224       61.7        1.06        252.93      1151.999    1236.473    1215.991    40.94       32.122      31.51       19.001      13.531      46.519      2.27        32.948      2.03        
141.7       133.385     5.165       24.203      38.429      1.334       62.0        1.06        252.93      1134.0      1219.346    1185.673    41.299      33.136      31.803      18.927      13.519      48.944      2.255       32.457      2.028       
141.8       133.311     5.578       24.305      38.067      1.312       62.3        1.06        252.93      1118.0      1207.114    1155.349    41.708      33.871      31.943      18.863      13.519      49.976      2.245       31.771      2.041       
141.9       133.649     5.99        24.438      37.675      1.438       62.5        1.06        253.422     1104.001    1212.415    1138.286    42.292      34.563      32.046      18.754      13.585      50.046      2.247       30.827      2.06        
142.0       135.178     5.632       24.584      37.015      1.444       62.6        1.06        254.901     1084.0      1226.717    1152.954    43.069      35.359      32.139      18.662      13.866      49.842      2.255       29.617      2.076       
142.1       133.914     5.453       24.72       36.021      1.347       62.7        1.06        257.242     1065.999    1242.665    1184.808    44.121      36.25       32.379      18.69       14.356      49.775      2.271       29.072      2.087       
142.2       133.479     5.437       24.893      34.763      1.387       62.9        1.06        260.322     1054.0      1257.603    1220.412    45.41       37.186      32.836      18.774      14.911      50.561      2.278       28.901      2.076       
142.3       133.223     5.434       25.093      33.323      1.491       63.1        1.06        264.018     1046.0      1267.94     1248.119    46.799      38.09       33.48       18.837      15.545      51.667      2.283       28.929      2.068       
142.4       133.185     5.434       25.246      31.827      1.557       63.3        1.06        268.576     1044.0      1273.796    1245.196    48.155      38.923      34.173      18.871      16.33       51.619      2.28        29.109      2.097       
142.5       133.34      5.476       25.349      30.59       1.24        63.4        1.06        273.627     1050.0      1276.216    1211.761    49.295      39.541      34.778      18.931      17.139      50.23       2.269       29.516      2.111       
142.6       133.011     5.645       25.423      29.791      1.381       63.6        1.06        278.925     1054.0      1274.553    1167.67     50.009      39.869      35.249      19.178      17.806      48.741      2.255       29.909      2.077       
142.7       133.694     5.628       25.498      29.307      1.464       63.8        1.06        284.346     1056.0      1266.33     1121.828    50.274      40.129      35.576      19.676      18.355      48.201      2.247       30.173      2.061       
142.8       133.29      5.606       25.527      29.05       1.52        64.2        1.06        289.52      1058.0      1251.53     1083.882    50.362      40.424      35.806      20.325      18.822      48.221      2.251       30.405      2.072       
142.9       133.511     6.144       25.465      28.961      1.427       64.6        1.06        294.325     1054.0      1232.886    1067.04     50.406      40.717      36.021      21.039      19.153      48.083      2.263       30.731      2.085       
143.0       133.746     6.413       25.382      28.961      1.4         65.0        1.06        298.76      1046.0      1214.575    1063.507    50.444      41.048      36.298      21.84       19.367      47.737      2.274       30.857      2.094       
143.1       133.82      5.805       25.336      28.961      1.476       65.4        1.06        302.579     1033.999    1200.811    1066.683    50.46       41.512      36.665      22.727      19.544      47.368      2.28        30.781      2.104       
143.2       133.695     5.826       25.254      29.067      1.389       65.7        1.06        305.906     1022.0      1200.436    1071.926    50.508      42.157      37.169      23.845      19.691      47.162      2.281       30.656      2.115       
143.3       133.014     6.182       25.025      29.296      1.473       65.9        1.06        308.493     1010.0      1207.61     1077.169    50.556      42.972      37.851      25.173      19.752      47.495      2.283       30.494      2.12        
143.4       132.402     5.978       24.717      29.444      1.541       66.0        1.06        309.725     1000.001    1218.629    1077.162    50.564      43.956      38.727      26.584      19.712      48.472      2.28        31.109      2.122       
143.5       132.792     5.568       24.473      29.469      1.384       66.1        1.06        309.725     992.0       1230.065    1075.791    50.469      44.753      39.836      28.003      19.642      49.481      2.28        31.847      2.121       
143.6       132.953     5.635       24.257      29.469      1.357       66.1        1.06        309.725     990.0       1238.775    1073.398    50.354      45.032      40.845      29.112      19.614      50.744      2.276       31.691      2.135       
143.7       133.021     5.702       23.999      29.404      1.438       66.1        1.06        309.725     992.0       1239.587    1078.429    50.34       45.032      41.387      29.591      19.61       50.756      2.273       31.52       2.156       
143.8       133.478     5.43        23.693      29.313      1.371       66.1        1.06        308.739     998.0       1237.968    1087.12     50.219      44.98       41.643      29.686      19.597      48.404      2.288       31.525      2.195       
143.9       134.042     5.376       23.315      29.341      1.416       66.1        1.06        307.014     1003.999    1236.349    1099.728    49.723      44.57       41.943      29.864      19.517      46.67       2.318       31.55       2.233       
144.0       133.353     5.491       22.929      29.436      1.448       66.1        1.06        305.043     1010.0      1228.577    1110.271    48.7        44.031      42.376      30.235      19.319      44.8        2.357       31.515      2.191       
144.1       132.203     5.51        22.522      29.476      1.484       66.1        1.06        303.442     1020.0      1213.081    1117.006    47.284      43.598      42.823      30.631      19.136      40.644      2.378       31.217      2.129       
144.2       132.688     5.606       22.099      29.476      1.525       66.1        1.06        302.21      1028.0      1196.49     1116.009    45.832      43.101      43.1        30.782      19.069      37.682      2.375       30.979      2.093       
144.3       133.732     5.737       21.799      29.63       1.504       66.0        1.06        301.347     1032.0      1181.123    1112.727    44.578      42.673      43.049      30.628      19.024      37.951      2.348       31.057      2.052       
144.4       133.164     6.259       21.551      30.165      1.424       66.0        1.06        300.485     1034.0      1167.836    1109.445    43.621      42.09       42.663      30.227      18.928      39.218      2.306       31.074      2.009       
144.5       132.951     6.307       21.279      31.007      1.539       66.0        1.06        299.499     1036.0      1162.219    1108.837    42.975      41.396      42.082      29.759      18.815      40.07       2.275       30.626      2.031       
144.6       132.475     6.355       21.087      31.799      1.344       66.0        1.06        298.267     1028.0      1167.26     1110.847    41.369      40.133      41.549      29.223      18.698      38.726      2.262       30.417      2.102       
