~Version Information Section
VERS.                                         2.0:CWLS log ASCII Standart – VERSION 2.0
WRAP.                                          NO:One line per depth step
~Well Information Section
STRT.M                                        1.2:Начальная глубина
STOP.M                                      169.4:Конечная глубина
STEP.M                                          0:Шаг квантования по глубине
NULL.                                    -9999.25:Признак "Нет данных"
WELL.                                       114Мх:Скважина
~Parameter Information Section
~Curve Information Section
DEPTH.M                                          :Глубина
BK.Ohm*M                                         :BK     (БК)
DS.mm                                            :DS  (ДС)
GGK.g/cm3                                        :GGKp
ГК.mcr/h                                         :GK          (ГК)
GZ1.Ohm*M                                        :GZ1   ГЗ1(A0.4M0.1N)
GZ2.Ohm*M                                        :GZ2   ГЗ2(A1.0M0.1N)
GZ3.Ohm*M                                        :GZ3   ГЗ3(A2.0M0.5N)
GZ4.Ohm*M                                        :GZ4   ГЗ4(A4.0M0.5N)
GZ5.Ohm*M                                        :GZ5   ГЗ5(A8.0M0.5N)
GZR.Ohm*M                                        :GZK   ГЗK(N0.5M2.0A)
ИК.Ohm*M                                         :IK
НГК.ue                                           :NGK     (НГК)
NNKM.                                            :NNKm  (ННКм)
PS.mv                                            :PS       (ПС)
PZ.Ohm*M                                         :PZ    (КС)
U1.mV                                            :U1
U2.mV                                            :U2
U3.mV                                            :U3
КП.%                                             :Кп
~ASCII LOG DATA
# ...
55.6        60.117      137.192     2.177       6.44        3.255       8.606       6.177       7.625       6.071       5.819       28.336      1.084       1.128       1002.063    11.142      876.82      746.36      630.69      40.79       
55.7        49.774      136.915     2.175       5.944       3.134       8.485       6.077       7.625       5.971       5.819       28.265      1.068       1.155       999.153     10.887      858.248     673.32      513.501     40.636      
55.8        39.628      136.074     2.159       5.966       2.971       8.315       5.977       7.525       5.971       5.819       28.36       1.023       1.189       995.973     10.608      881.747     532.58      342.355     40.056      
55.9        38.726      136.667     2.149       6.008       2.327       7.808       5.977       7.525       5.871       5.819       28.345      0.977       1.176       992.625     10.174      789.681     502.807     302.376     38.07       
56.0        38.371      135.362     2.159       6.229       1.945       7.494       5.877       7.525       5.771       5.919       28.148      0.941       1.114       989.336     9.77        582.059     583.993     393.557     36.094      
56.1        38.019      135.243     2.183       6.617       1.651       7.325       5.777       7.525       5.671       5.919       27.483      0.921       1.085       986.813     9.318       403.809     572.618     420.859     35.455      
56.2        39.811      137.079     2.202       7.297       1.52        7.107       5.677       7.425       5.571       6.019       26.939      0.951       1.089       984.798     9.147       370.511     468.684     384.281     36.21       
56.3        42.073      138.399     2.213       7.543       1.486       6.987       5.577       7.425       5.571       5.919       26.221      0.984       1.075       983.409     8.976       447.61      353.491     316.186     36.876      
56.4        40.179      136.724     2.217       7.307       1.573       6.818       5.477       7.325       5.571       5.819       25.525      1.021       1.048       981.872     8.635       490.163     319.611     280.46      36.955      
56.5        36.813      136.609     2.22        6.675       1.418       6.793       5.477       7.225       5.371       5.819       25.15       1.028       1.023       979.943     8.293       463.936     350.904     276.26      36.662      
56.6        36.392      137.746     2.215       5.798       1.269       6.6         5.377       7.225       5.371       5.719       24.509      1.048       1.005       978.607     7.951       403.475     366.063     271.222     35.961      
56.7        40.272      140.302     2.22        5.707       1.249       6.455       5.277       7.225       5.371       5.619       23.824      1.077       1.023       978.44      7.438       308.785     353.185     271.3       35.554      
56.8        40.087      137.295     2.213       5.695       1.24        6.31        5.277       7.025       5.271       5.519       23.043      1.163       1.055       979.953     6.755       265.585     328.404     277.333     35.744      
56.9        34.594      135.856     2.183       6.058       1.215       6.044       5.277       6.925       5.271       5.519       22.427      1.164       1.117       981.581     6.071       273.878     291.723     289.322     36.145      
57.0        27.542      134.692     2.142       5.835       1.351       5.827       5.177       6.925       5.071       5.419       21.872      1.117       1.167       982.424     5.558       391.855     264.745     275.605     37.969      
57.1        20.941      135.567     2.117       5.691       1.53        5.779       5.077       6.825       4.971       5.319       21.415      1.039       1.181       982.978     5.046       568.034     247.469     236.182     39.016      
57.2        16.982      134.416     2.121       5.923       1.756       5.803       5.077       6.725       4.871       5.219       20.952      1.048       1.195       982.993     4.533       764.104     295.805     228.902     38.794      
57.3        15.74       134.669     2.143       6.32        1.96        5.875       4.977       6.625       4.771       5.119       20.353      1.053       1.201       982.26      4.02        921.879     400.053     279.47      37.245      
57.4        14.622      135.502     2.2         6.801       2.162       5.996       4.977       6.625       4.671       5.019       19.555      0.997       1.207       981.249     3.507       1041.363    492.532     326.33      35.685      
57.5        14.894      135.194     2.254       6.957       2.323       6.213       4.777       6.625       4.671       5.019       18.816      0.945       1.19        980.51      2.995       995.68      517.342     311.64      35.608      
57.6        15.959      135.119     2.271       7.057       2.386       6.31        4.777       6.625       4.571       5.019       18.114      0.935       1.165       980.434     2.482       784.827     474.477     235.395     35.999      
57.7        19.679      135.115     2.236       7.118       2.424       6.358       4.677       6.625       4.571       5.019       17.784      0.921       1.138       981.171     1.969       584.941     452.574     247.978     36.855      
57.8        21.232      136.088     2.205       7.01        2.443       6.455       4.677       6.625       4.571       5.019       17.401      0.911       1.114       982.403     1.456       561.167     451.629     349.389     38.27       
57.9        20.941      135.303     2.184       7.142       2.491       6.479       4.677       6.625       4.571       5.019       17.207      0.94        1.078       983.288     1.115       637.552     458.597     429.785     39.153      
58.0        19.724      136.499     2.149       7.432       2.525       6.503       4.777       6.525       4.571       5.019       17.079      1.024       1.042       984.442     0.773       637.973     452.518     400.347     39.762      
58.1        19.679      137.054     2.122       7.429       2.55        6.552       4.777       6.525       4.571       5.019       17.017      1.029       1.022       986.418     0.431       630.72      442.418     323.308     39.634      
58.2        18.072      137.613     2.138       6.816       2.584       6.673       4.977       6.525       4.571       5.019       16.936      1.032       1.018       988.884     0.089       691.76      441.343     308.509     39.627      
58.3        17.458      138.609     2.194       5.984       2.603       6.769       5.077       6.525       4.571       5.019       16.861      1.046       1.038       991.507     -0.253      821.09      441.751     319.628     38.9        
58.4        18.197      136.129     2.256       5.397       2.623       6.842       5.177       6.525       4.571       5.119       16.679      1.113       1.062       995.163     -0.594      841.412     434.617     294.426     37.644      
58.5        18.072      135.706     2.297       4.894       2.636       6.938       5.277       6.525       4.571       5.219       16.453      1.125       1.082       998.944     -0.936      752.724     419.942     232.904     37.327      
58.6        18.03       136.604     2.321       4.6         2.642       7.035       5.377       6.525       4.571       5.319       16.268      1.12        1.146       1002.914    -1.107      732.825     448.633     283.832     38.447      
58.7        17.947      135.566     2.332       4.428       2.641       7.083       5.477       6.525       4.571       5.419       15.979      1.146       1.24        1005.94     -1.278      890.732     520.689     447.204     38.262      
58.8        17.989      135.071     2.342       4.66        2.604       7.108       5.577       6.525       4.571       5.519       15.788      1.175       1.318       1008.256    -1.449      1021.722    575.269     544.534     36.37       
58.9        18.88       136.148     2.342       4.944       2.575       7.083       5.677       6.525       4.571       5.519       15.651      1.152       1.379       1010.251    -1.449      947.984     569.0       463.36      34.107      
