~Version Information Section
VERS.                                         2.0:CWLS log ASCII Standart – VERSION 2.0
WRAP.                                          NO:One line per depth step
~Well Information Section
STRT.M                                        1.6:Начальная глубина
STOP.M                                      212.2:Конечная глубина
STEP.M                                          0:Шаг квантования по глубине
NULL.                                    -9999.25:Признак "Нет данных"
WELL.                                       139Мх:Скважина
~Parameter Information Section
~Curve Information Section
DEPTH.M                                          :Глубина
BK.Ohm*M                                         :BK     (БК)
DS.mm                                            :DS  (ДС)
GGK.g/cm3                                        :GGKp
ГК.mcr/h                                         :GK          (ГК)
GZ1.Ohm*M                                        :GZ1   ГЗ1(A0.4M0.1N)
GZ2.Ohm*M                                        :GZ2   ГЗ2(A1.0M0.1N)
GZ3.Ohm*M                                        :GZ3   ГЗ3(A2.0M0.5N)
GZ4.Ohm*M                                        :GZ4   ГЗ4(A4.0M0.5N)
GZ5.Ohm*M                                        :GZ5   ГЗ5(A8.0M0.5N)
GZR.Ohm*M                                        :GZK   ГЗK(N0.5M2.0A)
ИК.Ohm*M                                         :IK
НГК.ue                                           :NGK     (НГК)
NNKM.                                            :NNKm  (ННКм)
PS.mv                                            :PS       (ПС)
PZ.Ohm*M                                         :PZ    (КС)
U1.mV                                            :U1
U2.mV                                            :U2
U3.mV                                            :U3
КП.%                                             :Кп
~ASCII LOG DATA
# ...
188.6       43.617      126.88      2.43        3.507       62.415      60.296      83.812      50.894      15.578      12.556      18.394      2.124       2.981       183.578     27.01       726.57      560.748     581.517     23.415      
188.7       44.435      126.744     2.441       3.587       54.419      53.048      82.098      44.829      14.087      11.696      17.606      2.025       2.913       183.881     25.657      713.993     586.166     560.972     23.367      
188.8       48.086      126.612     2.41        3.658       46.217      45.754      80.568      39.377      12.822      11.125      16.717      1.896       2.922       184.204     24.451      654.254     611.582     547.276     24.37       
188.9       43.174      126.79      2.39        4.011       38.851      39.397      79.319      34.954      11.798      10.817      15.88       1.727       2.83        184.567     23.378      610.244     611.582     560.971     27.865      
189.0       26.626      126.693     2.363       4.495       33.232      34.724      78.404      31.849      10.994      10.698      15.154      1.654       2.607       184.986     22.429      594.523     600.285     567.82      30.793      
189.1       20.694      126.714     2.322       4.872       29.28       31.498      77.811      30.058      10.369      10.658      14.492      1.593       2.456       185.476     21.594      600.808     580.519     571.245     31.869      
189.2       22.639      126.775     2.299       4.915       26.863      29.444      77.487      29.198      9.892       10.623      13.872      1.588       2.396       186.044     20.863      603.953     555.102     547.276     31.548      
189.3       25.476      126.91      2.279       4.915       25.667      28.272      77.355      28.701      9.534       10.599      13.391      1.511       2.407       186.684     20.227      572.512     529.685     530.155     31.5        
189.4       23.881      127.034     2.271       5.0         24.836      27.134      77.318      28.27       9.259       10.585      13.008      1.437       2.442       187.382     19.674      550.506     504.271     509.613     31.065      
189.5       23.38       126.961     2.275       5.187       23.779      25.553      77.281      27.82       9.022       10.509      12.767      1.336       2.435       188.126     19.197      531.64      487.325     495.915     29.311      
189.6       29.052      126.692     2.272       5.051       22.717      23.748      77.146      27.228      8.774       10.283      12.562      1.297       2.521       188.901     18.789      519.065     473.206     482.221     25.983      
189.7       41.628      126.739     2.281       4.98        21.75       21.85       76.797      26.28       8.468       9.889       12.312      1.3         2.746       189.699     18.445      515.921     467.558     475.372     24.506      
189.8       49.473      126.585     2.301       5.079       20.638      19.641      76.132      24.827      8.064       9.388       11.96       1.391       2.832       190.515     18.165      512.777     461.91      513.039     24.323      
189.9       40.46       126.511     2.323       5.312       19.198      17.284      75.086      22.731      7.556       8.878       11.527      1.451       2.767       191.353     17.944      531.639     470.381     564.392     26.039      
190.0       26.448      126.633     2.371       5.463       17.503      15.166      73.693      20.163      6.984       8.471       11.088      1.5         2.574       192.212     17.779      569.372     484.503     608.908     30.048      
190.1       19.407      126.825     2.398       5.538       15.496      13.315      72.104      17.499      6.426       8.298       10.637      1.502       2.369       193.095     17.663      572.514     478.855     605.485     31.795      
190.2       17.121      126.869     2.402       5.653       13.338      11.812      70.566      15.216      5.967       8.298       10.183      1.478       2.22        194.0       17.586      553.649     464.734     584.94      30.954      
190.3       15.076      126.665     2.416       5.56        11.501      10.876      69.295      13.651      5.668       8.301       9.876       1.404       2.105       194.922     17.541      519.065     444.966     571.243     29.711      
190.4       12.361      126.675     2.458       5.524       10.285      10.434      68.403      12.879      5.553       8.346       9.742       1.281       2.103       195.846     17.517      500.202     433.671     571.243     31.066      
190.5       12.297      126.701     2.457       5.588       9.621       10.186      67.898      12.663      5.536       8.562       9.765       1.187       2.047       196.754     17.51       468.759     408.252     468.516     36.202      
190.6       14.23       126.849     2.435       5.964       9.412       10.039      67.714      12.663      5.536       9.049       9.905       1.119       1.938       197.623     17.51       434.178     377.191     362.389     38.668      
190.7       15.623      127.14      2.388       6.526       9.412       9.951       67.695      12.668      5.573       9.69        10.077      1.092       1.93        198.436     17.51       409.025     357.422     249.388     39.17       
190.8       17.255      127.329     2.315       6.996       9.419       9.872       67.695      12.724      5.763       10.394      10.25       1.087       2.001       199.186     17.51       393.304     351.774     206.621     37.888      
190.9       18.774      127.286     2.266       7.06        9.484       9.81        67.7        12.934      6.162       11.054      10.415      1.102       2.097       199.884     17.514      361.867     348.95      145.816     37.648      
191.0       19.441      127.268     2.239       6.674       9.712       9.756       67.734      13.335      6.741       11.61       10.541      1.119       2.173       200.555     17.529      330.423     340.477     84.997      37.752      
191.1       20.237      127.155     2.233       6.41        10.104      9.683       67.803      13.838      7.444       12.069      10.613      1.104       2.185       201.231     17.557      289.555     326.359     106.01      37.366      
191.2       20.753      127.36      2.235       6.388       10.548      9.614       67.839      14.419      8.189       12.463      10.643      1.093       2.181       201.937     17.601      267.545     315.062     154.588     36.873      
191.3       20.304      128.306     2.257       6.287       10.976      9.563       67.843      15.03       8.891       12.829      10.643      1.142       2.16        202.68      17.664      258.113     306.59      166.762     37.721      
191.4       20.083      127.952     2.242       6.171       11.33       9.545       67.838      15.666      9.477       13.188      10.636      1.183       2.139       203.445     17.744      239.25      286.824     134.715     39.263      
191.5       20.258      126.926     2.234       6.216       11.609      9.545       67.796      16.326      9.895       13.477      10.608      1.147       2.13        204.196     17.84       220.385     230.342     94.832      39.413      
191.6       20.784      126.955     2.229       6.433       11.824      9.546       67.672      16.954      10.12       13.589      10.568      1.106       2.154       204.877     17.947      195.233     176.683     91.351      38.318      
191.7       21.058      126.655     2.208       6.758       11.96       9.549       67.467      17.411      10.185      13.582      10.543      1.09        2.188       205.435     18.059      185.244     148.625     106.496     35.697      
191.8       21.112      126.588     2.203       6.882       12.006      9.552       67.204      17.588      10.191      13.5        10.522      1.156       2.212       205.796     18.177      159.546     158.281     140.272     33.959      
191.9       21.011      126.827     2.218       6.991       11.998      9.547       66.898      17.584      10.163      13.15       10.508      1.186       2.217       205.943     18.3        121.29      164.476     198.715     34.364      
