~Version Information Section
VERS.                                         2.0:CWLS log ASCII Standart – VERSION 2.0
WRAP.                                          NO:One line per depth step
~Well Information Section
STRT.M                                        0.6:Начальная глубина
STOP.M                                      205.9:Конечная глубина
STEP.M                                          0:Шаг квантования по глубине
NULL.                                    -9999.25:Признак "Нет данных"
WELL.                                       106Мх:Скважина
~Parameter Information Section
~Curve Information Section
DEPTH.M                                          :Глубина
BK.Ohm*M                                         :BK     (БК)
DS.mm                                            :DS  (ДС)
GGK.g/cm3                                        :GGKp
ГК.mcr/h                                         :GK          (ГК)
GZ1.Ohm*M                                        :GZ1   ГЗ1(A0.4M0.1N)
GZ2.Ohm*M                                        :GZ2   ГЗ2(A1.0M0.1N)
GZ3.Ohm*M                                        :GZ3   ГЗ3(A2.0M0.5N)
U2.mV                                            :U2
U3.mV                                            :U3
КП.%                                             :Кп
GZ4.Ohm*M                                        :GZ4   ГЗ4(A4.0M0.5N)
GZ5.Ohm*M                                        :GZ5   ГЗ5(A8.0M0.5N)
GZR.Ohm*M                                        :GZK   ГЗK(N0.5M2.0A)
ИК.Ohm*M                                         :IK
НГК.u.e.                                         :NGK
NNKM.                                            :NNKm  (ННКм)
PS.mv                                            :PS       (ПС)
PZ.Ohm*M                                         :PZ    (КС)
RS.Ohm*M                                         :RS (Резистивиметр)
U1.mV                                            :U1
~ASCII LOG DATA
# ...
45.4        -9999.25    97.971      -9999.25    5.944       -9999.25    -9999.25    -9999.25    -9999.25    -9999.25    36.472      6.713       -9999.25    0.194       -9999.25    0.88        1.528       441.124     -9999.25    1.1         -9999.25    
45.5        -9999.25    98.021      -9999.25    6.053       -9999.25    -9999.25    -9999.25    -9999.25    -9999.25    36.748      6.717       -9999.25    0.185       -9999.25    0.902       1.589       445.916     -9999.25    1.1         -9999.25    
45.6        -9999.25    98.002      -9999.25    6.013       -9999.25    -9999.25    -9999.25    -9999.25    -9999.25    36.011      6.742       -9999.25    0.18        -9999.25    0.927       1.68        450.364     -9999.25    1.1         -9999.25    
45.7        -9999.25    98.038      -9999.25    5.651       -9999.25    -9999.25    -9999.25    -9999.25    -9999.25    32.411      6.75        -9999.25    0.18        -9999.25    1.036       1.806       455.498     -9999.25    1.1         -9999.25    
45.8        -9999.25    98.027      -9999.25    5.278       -9999.25    -9999.25    -9999.25    -9999.25    -9999.25    28.296      6.729       -9999.25    0.176       -9999.25    1.135       1.955       460.289     -9999.25    1.1         -9999.25    
45.9        -9999.25    98.038      -9999.25    5.064       0.056       -9999.25    -9999.25    -9999.25    -9999.25    25.181      6.717       -9999.25    0.176       -9999.25    1.166       2.101       464.738     -9999.25    1.1         -9999.25    
46.0        -9999.25    98.027      -9999.25    5.256       0.058       -9999.25    -9999.25    -9999.25    -9999.25    24.567      6.713       -9999.25    0.171       -9999.25    1.169       2.032       467.133     -9999.25    1.1         -9999.25    
46.1        -9999.25    98.048      -9999.25    5.433       0.058       -9999.25    -9999.25    -9999.25    -9999.25    27.148      6.706       -9999.25    0.169       -9999.25    1.158       1.819       467.818     -9999.25    1.1         -9999.25    
46.2        -9999.25    98.04       -9999.25    5.658       0.058       -9999.25    -9999.25    -9999.25    -9999.25    29.796      6.702       -9999.25    0.164       -9999.25    1.112       1.71        467.818     -9999.25    1.1         -9999.25    
46.3        -9999.25    98.034      -9999.25    6.146       0.058       -9999.25    -9999.25    -9999.25    -9999.25    31.435      6.705       -9999.25    0.159       -9999.25    1.051       1.653       467.133     -9999.25    1.1         -9999.25    
46.4        -9999.25    98.09       -9999.25    6.482       0.057       -9999.25    -9999.25    -9999.25    -9999.25    30.993      6.72        -9999.25    0.157       -9999.25    0.984       1.624       465.764     -9999.25    1.1         -9999.25    
46.5        -9999.25    98.095      -9999.25    6.477       0.057       0.131       -9999.25    -9999.25    -9999.25    31.409      6.743       -9999.25    0.15        -9999.25    1.008       1.612       464.053     -9999.25    1.1         -9999.25    
46.6        -9999.25    98.08       -9999.25    6.145       0.057       0.15        -9999.25    -9999.25    -9999.25    32.655      6.778       -9999.25    0.145       -9999.25    1.059       1.6         461.316     -9999.25    1.1         -9999.25    
46.7        -9999.25    98.077      -9999.25    6.009       0.057       0.146       -9999.25    -9999.25    -9999.25    34.319      6.836       -9999.25    0.141       -9999.25    1.05        1.588       457.209     0.0         1.1         -9999.25    
46.8        -9999.25    98.118      -9999.25    6.319       0.057       0.15        -9999.25    -9999.25    -9999.25    34.581      6.866       -9999.25    0.138       -9999.25    1.005       1.641       451.049     0.0         1.1         -9999.25    
46.9        -9999.25    98.103      -9999.25    6.114       0.057       0.15        -9999.25    -9999.25    -9999.25    34.473      6.85        -9999.25    0.131       -9999.25    0.976       1.701       444.204     0.0         1.1         -9999.25    
47.0        -9999.25    98.056      -9999.25    5.674       0.057       0.155       -9999.25    -9999.25    -9999.25    33.287      6.838       -9999.25    0.129       -9999.25    1.0         1.72        438.387     0.0         1.1         -9999.25    
47.1        -9999.25    98.061      -9999.25    5.333       0.058       0.15        -9999.25    -9999.25    -9999.25    30.606      6.83        -9999.25    0.129       -9999.25    0.98        1.734       435.307     0.0         1.1         -9999.25    
47.2        -9999.25    98.055      -9999.25    5.485       0.058       0.148       -9999.25    -9999.25    -9999.25    29.97       6.799       -9999.25    0.124       -9999.25    0.921       1.719       434.28      0.0         1.1         -9999.25    
47.3        -9999.25    98.077      -9999.25    5.911       0.058       0.148       -9999.25    -9999.25    -9999.25    31.65       6.79        -9999.25    0.122       -9999.25    0.896       1.666       434.28      0.0         1.1         -9999.25    
47.4        -9999.25    98.111      -9999.25    6.142       0.058       0.152       -9999.25    -9999.25    -9999.25    35.008      6.809       -9999.25    0.122       -9999.25    0.918       1.545       434.622     0.0         1.1         -9999.25    
47.5        -9999.25    98.093      -9999.25    6.649       0.058       0.15        -9999.25    -9999.25    -9999.25    36.696      6.811       3.701       0.122       -9999.25    0.882       1.443       435.991     0.0         1.1         -9999.25    
47.6        -9999.25    98.075      -9999.25    6.916       0.057       0.152       -9999.25    -9999.25    -9999.25    37.408      6.79        3.707       0.119       -9999.25    0.828       1.393       439.071     0.0         1.1         -9999.25    
47.7        -9999.25    98.1        -9999.25    7.122       0.058       0.15        0.281       -9999.25    -9999.25    38.111      6.78        3.716       0.122       -9999.25    0.811       1.367       444.547     0.0         1.1         -9999.25    
47.8        -9999.25    98.105      -9999.25    7.14        0.058       0.148       0.269       -9999.25    -9999.25    39.172      6.787       3.728       0.122       -9999.25    0.812       1.371       451.733     0.0         1.1         -9999.25    
47.9        -9999.25    98.1        -9999.25    6.919       0.058       0.148       0.27        -9999.25    -9999.25    40.08       6.797       3.739       0.117       -9999.25    0.86        1.386       459.604     0.0         1.1         -9999.25    
48.0        -9999.25    98.075      -9999.25    6.662       0.058       0.143       0.255       -9999.25    -9999.25    41.338      6.805       3.745       0.122       -9999.25    0.848       1.403       466.791     0.0         1.1         -9999.25    
48.1        -9999.25    98.013      -9999.25    6.237       0.059       0.143       0.255       -9999.25    -9999.25    40.963      6.813       3.748       0.129       -9999.25    0.901       1.459       473.293     0.0         1.1         -9999.25    
48.2        -9999.25    97.932      -9999.25    6.111       0.06        0.138       0.248       -9999.25    -9999.25    39.235      6.812       3.747       0.136       -9999.25    0.951       1.568       479.453     0.0         1.1         -9999.25    
48.3        -9999.25    97.911      -9999.25    5.814       0.061       0.138       0.225       -9999.25    -9999.25    36.359      6.792       3.742       0.136       -9999.25    1.002       1.696       485.613     0.0         1.1         -9999.25    
48.4        2.198       97.88       2.152       5.325       0.061       0.131       0.23        -9999.25    -9999.25    34.38       6.767       3.733       0.141       -9999.25    1.014       1.808       491.773     0.0         1.1         -9999.25    
48.5        2.004       97.825      2.166       4.805       0.061       0.141       0.234       -9999.25    -9999.25    32.081      6.754       3.722       0.141       -9999.25    0.995       1.887       498.618     0.0         1.1         -9999.25    
