~Version Information Section
VERS.                                         2.0:CWLS log ASCII Standart – VERSION 2.0
WRAP.                                          NO:One line per depth step
~Well Information Section
STRT.M                                        0.1:Начальная глубина
STOP.M                                      153.3:Конечная глубина
STEP.M                                          0:Шаг квантования по глубине
NULL.                                    -9999.25:Признак "Нет данных"
WELL.                                        144К:Скважина
~Parameter Information Section
~Curve Information Section
DEPTH.M                                          :Глубина
БК.Омм                                           :BK     (БК)
DСР.мм                                           :DS  (ДС)
ПЛОТНОСТЬ.г/см^3                                 :GGKp
ГК.мкР/ч                                         :GK          (ГК)
А0.4М0.1N.Омм                                    :GZ1   ГЗ1(A0.4M0.1N)
А1.0М0.1N.Омм                                    :GZ2   ГЗ2(A1.0M0.1N)
А2.0М0.5N.Омм                                    :GZ3   ГЗ3(A2.0M0.5N)
А4.0М0.5N.Oмм                                    :GZ4   ГЗ4(A4.0M0.5N)
А8.0М1.0N.Омм                                    :GZ5   ГЗ5(A8.0M0.5N)
N0.5M2.0A.Омм                                    :GZR   ГЗK(N0.5M2.0A)
ИК.мСм/м                                         :IK
БЗ.ue                                            :NNKb  (ННКб)
МЗ.ue                                            :NNKm  (ННКм)
ПС.mv                                            :PS       (ПС)
N11.0M0.5A.Омм                                   :PZ    (КС)
R.Омм                                            :RS (Резистивиметр)
ПОРИСТОСТЬ.                                      :W
~ASCII LOG DATA
# ...
51.9        26.841      218.503     2.401       4.207       33.301      31.481      32.247      33.471      6.802       42.324      19.92       3.009       1.827       83.845      38.927      1.101       31.258      
52.0        25.922      218.416     2.419       4.135       34.104      33.419      34.5        36.222      7.134       46.307      20.053      2.994       1.789       83.829      39.405      1.101       31.747      
52.1        27.175      218.738     2.431       3.966       36.058      37.523      36.421      38.582      7.481       49.067      20.354      2.965       1.768       83.752      39.686      1.101       32.182      
52.2        31.693      218.894     2.438       3.725       38.607      39.987      37.113      39.436      7.973       50.064      20.665      2.929       1.777       83.607      39.717      1.102       32.551      
52.3        37.677      219.248     2.44        3.455       40.005      40.282      36.674      39.337      8.753       50.464      20.952      2.877       1.808       83.385      39.552      1.104       32.954      
52.4        37.801      218.663     2.435       3.258       39.671      38.304      35.084      38.425      9.938       50.847      21.347      2.861       1.841       83.083      39.476      1.103       33.255      
52.5        35.077      219.557     2.428       3.219       38.995      34.214      33.214      37.613      11.513      51.961      21.229      2.857       1.857       82.693      39.985      1.103       33.383      
52.6        28.945      220.189     2.424       3.373       37.646      31.979      32.495      37.912      13.119      56.646      21.055      2.84        1.852       82.223      41.288      1.101       33.183      
52.7        27.862      220.502     2.426       3.596       36.641      31.856      33.401      40.204      14.504      66.28       20.93       2.834       1.809       81.69       43.265      1.101       32.637      
52.8        29.116      220.676     2.43        3.761       37.196      34.259      36.637      45.678      15.562      79.462      20.833      2.868       1.785       81.118      45.503      1.101       31.913      
52.9        30.496      221.941     2.436       3.751       40.55       41.485      41.739      51.962      16.468      92.033      20.962      2.99        1.785       80.541      47.279      1.101       31.02       
53.0        36.821      223.119     2.445       3.64        46.528      50.48       46.348      55.454      17.244      99.385      21.433      3.185       1.84        80.0        48.04       1.101       30.139      
53.1        51.391      219.047     2.454       3.528       52.814      56.969      48.182      56.143      17.633      101.374     21.997      3.392       1.929       79.54       47.876      1.101       29.317      
53.2        64.107      218.676     2.46        3.483       57.016      59.287      47.704      54.523      17.633      99.18       22.545      3.552       2.014       79.211      47.192      1.102       28.72       
53.3        44.409      218.335     2.458       3.523       58.17       58.561      45.267      49.569      17.563      91.807      22.915      3.567       2.034       79.063      46.349      1.104       28.513      
53.4        35.717      218.335     2.442       3.689       57.137      55.269      40.108      42.728      17.175      81.426      23.007      3.435       1.994       79.134      45.64       1.107       28.81       
53.5        35.373      218.613     2.416       3.966       53.557      48.157      33.806      35.897      17.081      74.812      22.884      3.208       1.941       79.448      45.285      1.108       29.489      
53.6        32.997      218.497     2.39        4.32        45.934      38.221      27.941      30.331      17.081      73.402      22.584      3.011       1.858       79.999      45.401      1.109       30.323      
53.7        23.594      218.396     2.371       4.564       35.671      29.808      23.689      27.541      17.707      77.773      22.196      2.838       1.801       80.763      46.029      1.109       30.825      
53.8        19.193      218.747     2.359       4.66        28.368      26.786      22.203      26.993      18.932      90.456      21.942      2.791       1.757       81.692      47.108      1.108       30.83       
53.9        19.439      220.498     2.355       4.564       26.194      27.768      22.33       28.082      20.358      106.683     22.117      2.811       1.719       82.732      48.589      1.107       30.388      
54.0        24.088      218.956     2.361       4.343       26.613      32.47       23.593      31.17       21.613      118.217     22.942      3.0         1.698       83.824      50.443      1.107       29.603      
54.1        36.315      218.451     2.374       4.001       29.395      40.242      26.119      34.309      22.71       121.834     24.397      3.291       1.747       84.917      52.623      1.107       28.706      
54.2        57.57       216.344     2.388       3.691       36.052      47.598      28.77       35.449      23.817      120.035     26.26       3.606       1.842       85.971      55.372      1.107       27.953      
54.3        79.007      215.781     2.396       3.457       45.89       52.619      30.727      35.177      25.257      111.608     28.311      3.873       1.958       86.966      59.262      1.107       27.59       
54.4        89.694      215.945     2.394       3.337       56.998      54.336      31.423      33.494      27.113      97.017      30.205      3.95        2.041       87.885      64.519      1.106       27.679      
54.5        93.39       216.084     2.382       3.275       65.73       53.849      31.355      30.443      29.015      82.314      31.642      3.858       2.078       88.728      70.52       1.106       28.29       
54.6        81.937      215.945     2.369       3.294       70.056      51.854      30.531      27.408      30.276      70.987      32.507      3.607       2.064       89.503      76.668      1.106       29.127      
54.7        67.202      215.506     2.357       3.391       71.214      50.125      28.794      25.045      30.37       63.376      33.02       3.308       2.013       90.219      82.396      1.106       30.038      
54.8        60.446      215.54      2.345       3.553       70.639      49.904      27.254      23.447      30.37       57.885      33.553      3.091       1.94        90.869      86.862      1.106       30.803      
54.9        59.563      215.386     2.334       3.763       69.028      52.823      26.695      22.742      30.417      54.328      33.982      2.975       1.892       91.436      89.746      1.109       31.215      
55.0        58.403      215.361     2.326       3.975       66.904      60.345      26.929      22.666      30.417      53.239      34.522      2.987       1.869       91.898      91.551      1.112       31.28       
55.1        56.738      215.422     2.326       4.127       63.99       68.435      28.287      23.067      31.888      53.52       35.048      3.034       1.868       92.23       92.722      1.117       31.186      
55.2        55.461      215.352     2.329       4.213       60.4        73.651      31.318      24.543      36.227      55.878      35.469      3.081       1.874       92.411      93.42       1.117       30.97       
55.3        50.992      215.75      2.329       4.331       56.417      75.522      36.016      27.826      42.539      62.192      35.724      3.12        1.877       92.426      94.021      1.122       30.693      
55.4        46.913      215.75      2.329       4.496       53.231      76.004      42.98       34.367      49.147      73.115      35.684      3.128       1.861       92.273      95.06       1.121       30.328      
55.5        46.195      216.249     2.334       4.678       52.263      79.857      52.695      43.635      56.471      86.26       35.786      3.158       1.849       91.968      97.214      1.119       29.519      
