~Version Information Section
VERS.                                         2.0:CWLS log ASCII Standart – VERSION 2.0
WRAP.                                          NO:One line per depth step
~Well Information Section
STRT.M                                       -0.5:Начальная глубина
STOP.M                                      184.3:Конечная глубина
STEP.M                                          0:Шаг квантования по глубине
NULL.                                    -9999.25:Признак "Нет данных"
WELL.                                       133Мх:Скважина
~Parameter Information Section
~Curve Information Section
DEPTH.M                                          :Глубина
DS.mm                                            :DS  (ДС)
GGK.g/cm3                                        :GGKp
ГК.mcr/h                                         :GK          (ГК)
GZ1.Ohm*M                                        :GZ1   ГЗ1(A0.4M0.1N)
GZ2.Ohm*M                                        :GZ2   ГЗ2(A1.0M0.1N)
GZ3.Ohm*M                                        :GZ3   ГЗ3(A2.0M0.5N)
GZ4.Ohm*M                                        :GZ4   ГЗ4(A4.0M0.5N)
GZ5.Ohm*M                                        :GZ5   ГЗ5(A8.0M0.5N)
GZR.Ohm*M                                        :GZK   ГЗK(N0.5M2.0A)
ИК.Ohm*M                                         :IK
НГК.ue                                           :NGK     (НГК)
NNKM.                                            :NNKm  (ННКм)
PS.mv                                            :PS       (ПС)
PZ.Ohm*M                                         :PZ    (КС)
RS.Ohm*M                                         :RS (Резистивиметр)
U1.mV                                            :U1
U2.mV                                            :U2
U3.mV                                            :U3
BK.Ohm*M                                         :БК
ПОРИСТОСТЬ.                                      :Пористость ННК
~ASCII LOG DATA
# ...
159.5       125.384     2.128       4.592       132.57      146.76      109.013     38.378      27.047      159.643     37.737      1.825       2.705       64.999      49.544      1.174       571.857     1361.824    2132.001    87.834      27.112      
159.6       125.529     2.146       4.664       135.572     147.62      115.997     39.226      27.102      158.205     37.886      1.782       2.703       63.274      49.864      1.174       562.73      1361.568    2122.0      88.625      27.951      
159.7       125.722     2.164       4.837       137.359     148.353     121.173     39.828      27.173      157.308     38.017      1.749       2.679       61.958      50.284      1.174       565.226     1356.313    2123.254    83.493      28.372      
159.8       125.833     2.165       4.931       138.695     148.479     125.365     40.439      27.231      157.272     38.107      1.745       2.642       60.992      50.812      1.174       582.112     1363.661    2126.543    80.839      28.891      
159.9       125.934     2.157       4.975       140.327     147.223     129.824     41.297      27.263      157.272     38.174      1.715       2.632       60.318      51.399      1.174       598.493     1380.823    2125.844    77.26       29.469      
160.0       126.062     2.151       4.846       141.688     146.197     134.847     42.548      27.3        157.272     38.219      1.688       2.621       59.882      51.97       1.174       605.346     1386.762    2124.801    74.346      29.763      
160.1       126.166     2.142       4.679       142.425     146.197     140.392     44.224      27.46       157.97      38.27       1.694       2.638       59.63       52.49       1.174       602.0       1378.954    2128.474    76.634      29.763      
160.2       126.19      2.148       4.598       142.847     146.197     146.273     46.274      27.8        160.197     38.351      1.742       2.682       59.516      52.942      1.174       598.0       1375.486    2129.974    79.621      29.566      
160.3       126.092     2.158       4.632       143.868     146.399     151.972     48.43       28.415      163.47      38.472      1.824       2.724       59.502      53.356      1.174       592.0       1386.698    2128.427    85.038      28.548      
160.4       125.923     2.164       4.778       145.334     147.481     156.891     50.524      29.191      166.747     38.603      1.837       2.758       59.57       53.78       1.174       586.0       1397.809    2128.22     87.949      27.596      
160.5       125.856     2.159       4.8         146.234     149.618     160.855     52.754      29.999      169.349     38.707      1.804       2.775       59.719      54.239      1.174       584.0       1396.818    2129.419    87.129      27.156      
160.6       125.945     2.143       5.003       146.839     152.342     164.184     55.307      30.752      171.394     38.781      1.756       2.768       59.961      54.693      1.174       584.0       1390.271    2132.757    82.741      27.101      
160.7       126.042     2.13        5.166       147.967     155.143     167.377     58.565      31.434      172.833     38.839      1.72        2.732       60.313      55.104      1.174       586.0       1388.144    2136.0      81.393      27.576      
160.8       126.05      2.128       5.058       149.196     157.522     169.937     62.962      31.936      173.788     38.892      1.707       2.672       60.8        55.464      1.174       584.0       1390.868    2136.0      82.03       28.109      
160.9       126.01      2.139       4.723       149.933     159.346     170.845     68.317      32.272      174.611     38.927      1.676       2.618       61.447      55.796      1.174       586.0       1391.533    2134.0      85.151      29.431      
161.0       125.975     2.168       4.262       150.668     160.573     170.845     74.019      32.505      175.226     38.954      1.685       2.575       62.286      56.144      1.174       586.0       1391.78     2130.0      87.142      30.326      
161.1       125.909     2.198       4.208       151.35      161.365     170.799     79.711      32.725      175.936     38.976      1.724       2.559       63.345      56.565      1.174       584.0       1394.037    2130.0      94.959      31.564      
161.2       125.771     2.23        4.361       152.014     162.216     170.497     85.065      32.995      176.952     38.989      1.8         2.567       64.655      57.092      1.174       578.0       1395.471    2130.0      96.319      32.194      
161.3       125.578     2.267       4.656       152.887     163.581     170.656     89.655      33.36       178.184     38.995      1.838       2.592       66.235      57.667      1.174       574.0       1395.057    2132.0      81.081      32.351      
161.4       125.378     2.292       4.87        153.895     165.468     171.298     94.192      33.967      179.341     38.994      1.838       2.614       68.097      58.199      1.174       578.0       1395.544    2132.0      83.822      32.135      
161.5       125.27      2.301       4.837       155.129     167.147     171.525     100.007     34.662      179.957     38.994      1.814       2.63        70.23       58.575      1.174       582.0       1398.402    2132.0      78.18       31.88       
161.6       125.266     2.284       4.701       156.212     168.641     171.525     106.305     35.502      180.135     38.989      1.836       2.678       72.721      58.709      1.174       584.0       1397.082    2130.0      69.325      30.769      
161.7       125.21      2.227       4.441       156.652     171.164     172.386     112.644     36.383      180.21      38.97       1.912       2.756       75.689      58.725      1.174       578.0       1389.305    2132.0      73.178      28.577      
161.8       125.019     2.174       4.424       158.943     176.817     175.39      120.636     36.855      180.21      38.933      2.018       2.865       79.273      58.71       1.174       576.0       1382.743    2139.999    79.286      26.988      
161.9       124.861     2.137       4.604       164.765     186.085     179.437     130.156     36.855      178.784     38.883      2.122       2.997       83.606      58.492      1.174       584.001     1384.679    2150.001    80.119      24.178      
162.0       124.922     2.093       4.847       171.361     194.44      182.281     138.27      36.855      173.62      38.836      2.167       3.122       88.845      58.029      1.174       597.999     1392.407    2158.0      89.626      22.07       
162.1       125.128     2.069       4.878       175.771     198.763     183.221     143.723     36.689      164.061     38.796      2.191       3.219       94.917      57.386      1.174       610.0       1396.796    2160.0      103.029     21.104      
162.2       125.317     2.067       4.572       177.912     200.449     183.221     146.723     35.648      150.744     38.758      2.145       3.259       101.678     56.664      1.174       610.0       1396.267    2160.0      108.319     20.794      
162.3       125.462     2.066       4.427       178.653     200.878     182.461     147.472     34.247      134.765     38.694      2.076       3.216       108.929     55.963      1.174       600.0       1395.199    2152.001    117.717     20.999      
162.4       125.65      2.074       4.375       178.657     200.878     179.354     147.472     32.646      117.93      38.619      1.973       3.083       116.473     55.361      1.174       587.999     1396.164    2143.999    127.228     22.554      
162.5       125.794     2.093       4.494       178.323     199.408     173.526     146.315     31.198      101.63      38.539      1.924       2.906       124.091     54.882      1.174       576.154     1397.304    2136.0      120.472     24.601      
162.6       125.785     2.101       4.475       175.984     194.743     167.2       142.622     30.046      85.348      38.438      1.905       2.742       131.681     54.533      1.174       572.193     1397.077    2136.0      101.585     26.026      
