~Version Information Section
VERS.                                         2.0:CWLS log ASCII Standart – VERSION 2.0
WRAP.                                          NO:One line per depth step
~Well Information Section
STRT.M                                       0.67:Начальная глубина
STOP.M                                     204.27:Конечная глубина
STEP.M                                          0:Шаг квантования по глубине
NULL.                                    -9999.25:Признак "Нет данных"
WELL.                                       110Мх:Скважина
~Parameter Information Section
~Curve Information Section
DEPTH.M                                          :Глубина
БК.Омм                                           :BK     (БК)
DСР.мм                                           :DS  (ДС)
ГК.гамма                                         :GK          (ГК)
А0.4М0.1N.Омм.ohmm                               :GZ1   ГЗ1(A0.4M0.1N)
А1.0М0.1N.Омм.ohmm                               :GZ2   ГЗ2(A1.0M0.1N)
А2.0М0.5N.Омм.ohmm                               :GZ3   ГЗ3(A2.0M0.5N)
А4.0М0.5N.Oмм.ohmm                               :GZ4   ГЗ4(A4.0M0.5N)
А8.0М1.0N.Омм.ohmm                               :GZ5   ГЗ5(A8.0M0.5N)
N0.5M2.0A.Омм.ohmm                               :GZK   ГЗK(N0.5M2.0A)
ИК.мСм/м                                         :IK
НГК.усл.ед                                       :NGK     (НГК)
ПС.mv                                            :PS       (ПС)
КС.Омм                                           :PZ    (КС)
R.Омм                                            :RS (Резистивиметр)
W_SI.%                                           :п
ННКМ.имп/1,25с                                   :ННКм
ПЛОТНОСТЬГГК.г/см3                               :плотностьГГК
~ASCII LOG DATA
# ...
42.77       139.927     131.065     2.961       -9999.25    -9999.25    -9999.25    -9999.25    -9999.25    -9999.25    23.446      1.467       334.433     53.575      0.96        22.277      2.298       2.454       
42.8        -9999.25    -9999.25    -9999.25    154.426     89.95       82.56       40.835      28.731      54.184      -9999.25    -9999.25    -9999.25    -9999.25    -9999.25    -9999.25    -9999.25    -9999.25    
42.87       139.251     130.674     3.031       -9999.25    -9999.25    -9999.25    -9999.25    -9999.25    -9999.25    22.674      1.52        336.036     55.873      0.96        22.158      2.34        2.455       
42.9        -9999.25    -9999.25    -9999.25    137.493     81.82       69.478      37.241      27.144      44.985      -9999.25    -9999.25    -9999.25    -9999.25    -9999.25    -9999.25    -9999.25    -9999.25    
42.97       114.02      130.486     3.121       -9999.25    -9999.25    -9999.25    -9999.25    -9999.25    -9999.25    21.84       1.555       337.952     58.104      0.96        22.189      2.366       2.448       
43.0        -9999.25    -9999.25    -9999.25    104.373     67.128      58.606      33.992      24.335      33.437      -9999.25    -9999.25    -9999.25    -9999.25    -9999.25    -9999.25    -9999.25    -9999.25    
43.07       80.793      130.659     3.2         -9999.25    -9999.25    -9999.25    -9999.25    -9999.25    -9999.25    21.061      1.551       339.976     60.219      0.96        22.896      2.263       2.44        
43.1        -9999.25    -9999.25    -9999.25    85.061      52.955      47.462      30.742      21.708      25.277      -9999.25    -9999.25    -9999.25    -9999.25    -9999.25    -9999.25    -9999.25    -9999.25    
43.17       51.851      130.82      3.361       -9999.25    -9999.25    -9999.25    -9999.25    -9999.25    -9999.25    20.215      1.493       341.921     61.077      0.96        23.958      2.147       2.429       
43.2        -9999.25    -9999.25    -9999.25    79.218      48.725      35.859      27.493      19.09       22.828      -9999.25    -9999.25    -9999.25    -9999.25    -9999.25    -9999.25    -9999.25    -9999.25    
43.27       38.172      130.814     3.613       -9999.25    -9999.25    -9999.25    -9999.25    -9999.25    -9999.25    19.299      1.406       343.717     59.211      0.96        25.166      2.049       2.418       
43.3        -9999.25    -9999.25    -9999.25    72.034      45.322      30.854      24.244      15.407      18.782      -9999.25    -9999.25    -9999.25    -9999.25    -9999.25    -9999.25    -9999.25    -9999.25    
43.37       35.098      131.698     4.016       -9999.25    -9999.25    -9999.25    -9999.25    -9999.25    -9999.25    18.409      1.287       345.297     52.665      0.96        26.509      1.935       2.406       
43.4        -9999.25    -9999.25    -9999.25    55.681      38.263      27.034      20.995      12.582      13.842      -9999.25    -9999.25    -9999.25    -9999.25    -9999.25    -9999.25    -9999.25    -9999.25    
43.47       32.26       132.848     4.555       -9999.25    -9999.25    -9999.25    -9999.25    -9999.25    -9999.25    17.518      1.205       346.453     43.571      0.96        27.869      1.866       2.395       
43.5        -9999.25    -9999.25    -9999.25    38.74       29.313      22.448      17.745      11.14       11.241      -9999.25    -9999.25    -9999.25    -9999.25    -9999.25    -9999.25    -9999.25    -9999.25    
43.57       22.503      134.025     5.257       -9999.25    -9999.25    -9999.25    -9999.25    -9999.25    -9999.25    16.614      1.158       347.04      38.108      0.96        29.18       1.756       2.385       
43.6        -9999.25    -9999.25    -9999.25    32.687      24.686      18.996      14.496      10.414      10.058      -9999.25    -9999.25    -9999.25    -9999.25    -9999.25    -9999.25    -9999.25    -9999.25    
43.67       14.687      133.789     5.949       -9999.25    -9999.25    -9999.25    -9999.25    -9999.25    -9999.25    15.797      1.149       347.083     36.225      0.96        30.296      1.715       2.379       
43.7        -9999.25    -9999.25    -9999.25    30.504      23.751      16.987      15.189      9.561       9.43        -9999.25    -9999.25    -9999.25    -9999.25    -9999.25    -9999.25    -9999.25    -9999.25    
43.77       13.354      133.365     6.655       -9999.25    -9999.25    -9999.25    -9999.25    -9999.25    -9999.25    15.253      1.122       346.661     33.572      0.96        30.867      1.602       2.369       
43.8        -9999.25    -9999.25    -9999.25    26.45       23.628      17.316      18.178      8.873       10.502      -9999.25    -9999.25    -9999.25    -9999.25    -9999.25    -9999.25    -9999.25    -9999.25    
43.87       14.854      133.395     7.135       -9999.25    -9999.25    -9999.25    -9999.25    -9999.25    -9999.25    14.967      1.107       345.92      30.222      0.96        31.248      1.546       2.359       
43.9        -9999.25    -9999.25    -9999.25    24.007      25.798      18.792      23.073      8.616       12.88       -9999.25    -9999.25    -9999.25    -9999.25    -9999.25    -9999.25    -9999.25    -9999.25    
43.97       15.888      133.67      7.516       -9999.25    -9999.25    -9999.25    -9999.25    -9999.25    -9999.25    14.816      1.142       345.065     27.831      0.96        31.451      1.513       2.351       
44.0        -9999.25    -9999.25    -9999.25    25.552      30.88       20.487      25.588      8.581       15.492      -9999.25    -9999.25    -9999.25    -9999.25    -9999.25    -9999.25    -9999.25    -9999.25    
44.07       17.109      132.971     7.717       -9999.25    -9999.25    -9999.25    -9999.25    -9999.25    -9999.25    14.797      1.201       344.356     26.426      0.96        31.55       1.495       2.344       
44.1        -9999.25    -9999.25    -9999.25    29.046      34.068      21.614      26.734      8.813       17.121      -9999.25    -9999.25    -9999.25    -9999.25    -9999.25    -9999.25    -9999.25    -9999.25    
44.17       19.857      132.442     7.92        -9999.25    -9999.25    -9999.25    -9999.25    -9999.25    -9999.25    14.851      1.244       343.887     25.714      0.96        31.242      1.515       2.338       
44.2        -9999.25    -9999.25    -9999.25    31.823      33.262      22.672      26.169      8.734       18.292      -9999.25    -9999.25    -9999.25    -9999.25    -9999.25    -9999.25    -9999.25    -9999.25    
44.27       24.181      132.439     7.891       -9999.25    -9999.25    -9999.25    -9999.25    -9999.25    -9999.25    14.918      1.243       343.536     25.154      0.96        30.765      1.55        2.335       
44.3        -9999.25    -9999.25    -9999.25    31.052      29.603      23.099      24.542      8.747       19.528      -9999.25    -9999.25    -9999.25    -9999.25    -9999.25    -9999.25    -9999.25    -9999.25    
44.37       25.532      132.499     7.711       -9999.25    -9999.25    -9999.25    -9999.25    -9999.25    -9999.25    14.97       1.234       343.095     24.55       0.96        30.317      1.579       2.333       
44.4        -9999.25    -9999.25    -9999.25    30.796      25.881      21.945      23.64       8.929       19.323      -9999.25    -9999.25    -9999.25    -9999.25    -9999.25    -9999.25    -9999.25    -9999.25    
44.47       23.654      132.661     7.624       -9999.25    -9999.25    -9999.25    -9999.25    -9999.25    -9999.25    14.943      1.22        342.434     24.128      0.959       29.864      1.617       2.338       
44.5        -9999.25    -9999.25    -9999.25    32.352      23.366      20.811      24.442      9.602       18.07       -9999.25    -9999.25    -9999.25    -9999.25    -9999.25    -9999.25    -9999.25    -9999.25    
44.57       21.578      132.729     7.763       -9999.25    -9999.25    -9999.25    -9999.25    -9999.25    -9999.25    14.856      1.206       341.597     23.684      0.96        29.077      1.63        2.348       
