~Version Information Section
VERS.                                         2.0:CWLS log ASCII Standart – VERSION 2.0
WRAP.                                          NO:One line per depth step
~Well Information Section
STRT.M                                       -0.5:Начальная глубина
STOP.M                                      184.3:Конечная глубина
STEP.M                                          0:Шаг квантования по глубине
NULL.                                    -9999.25:Признак "Нет данных"
WELL.                                       133Мх:Скважина
~Parameter Information Section
~Curve Information Section
DEPTH.M                                          :Глубина
DS.mm                                            :DS  (ДС)
GGK.g/cm3                                        :GGKp
ГК.mcr/h                                         :GK          (ГК)
GZ1.Ohm*M                                        :GZ1   ГЗ1(A0.4M0.1N)
GZ2.Ohm*M                                        :GZ2   ГЗ2(A1.0M0.1N)
GZ3.Ohm*M                                        :GZ3   ГЗ3(A2.0M0.5N)
GZ4.Ohm*M                                        :GZ4   ГЗ4(A4.0M0.5N)
GZ5.Ohm*M                                        :GZ5   ГЗ5(A8.0M0.5N)
GZR.Ohm*M                                        :GZK   ГЗK(N0.5M2.0A)
ИК.Ohm*M                                         :IK
НГК.ue                                           :NGK     (НГК)
NNKM.                                            :NNKm  (ННКм)
PS.mv                                            :PS       (ПС)
PZ.Ohm*M                                         :PZ    (КС)
RS.Ohm*M                                         :RS (Резистивиметр)
U1.mV                                            :U1
U2.mV                                            :U2
U3.mV                                            :U3
BK.Ohm*M                                         :БК
ПОРИСТОСТЬ.                                      :Пористость ННК
~ASCII LOG DATA
# ...
178.7       124.237     2.258       9.902       -9999.25    -9999.25    -9999.25    -9999.25    -9999.25    -9999.25    10.589      1.691       2.23        114.236     27.2        -9999.25    557.58      1406.815    2129.075    21.615      32.183      
178.8       124.273     2.25        9.648       -9999.25    -9999.25    -9999.25    -9999.25    -9999.25    -9999.25    10.062      1.699       2.199       114.116     -9999.25    -9999.25    554.403     1425.498    2133.718    20.852      33.675      
178.9       124.235     2.237       9.308       -9999.25    -9999.25    -9999.25    -9999.25    -9999.25    -9999.25    9.463       1.677       2.191       114.168     -9999.25    -9999.25    546.778     1433.888    2139.952    20.656      33.88       
179.0       124.153     2.238       9.535       -9999.25    -9999.25    -9999.25    -9999.25    -9999.25    -9999.25    8.796       1.573       2.207       114.356     -9999.25    -9999.25    538.247     1423.934    2138.827    20.462      32.916      
179.1       124.082     2.25        10.175      -9999.25    -9999.25    -9999.25    -9999.25    -9999.25    -9999.25    8.095       1.468       2.214       114.648     -9999.25    -9999.25    535.696     1409.753    2131.317    20.158      31.5        
179.2       124.051     2.258       10.929      -9999.25    -9999.25    -9999.25    -9999.25    -9999.25    -9999.25    7.396       1.425       2.217       114.787     -9999.25    -9999.25    542.641     1407.259    2126.177    21.374      29.972      
179.3       124.05      2.266       11.138      -9999.25    -9999.25    -9999.25    -9999.25    -9999.25    -9999.25    6.89        1.458       2.201       114.931     -9999.25    -9999.25    549.112     1414.814    2128.954    21.364      27.881      
179.4       124.054     2.261       11.081      -9999.25    -9999.25    -9999.25    -9999.25    -9999.25    -9999.25    6.67        1.488       2.173       115.142     -9999.25    -9999.25    545.011     1418.045    2133.478    21.17       27.103      
179.5       124.048     2.243       11.171      -9999.25    -9999.25    -9999.25    -9999.25    -9999.25    -9999.25    6.342       1.46        2.142       115.447     -9999.25    -9999.25    534.322     1415.469    2129.824    20.48       28.252      
179.6       124.03      2.228       11.197      -9999.25    -9999.25    -9999.25    -9999.25    -9999.25    -9999.25    6.091       1.393       2.097       115.841     -9999.25    -9999.25    531.138     1412.77     2116.279    18.586      30.737      
179.7       124.009     2.225       10.868      -9999.25    -9999.25    -9999.25    -9999.25    -9999.25    -9999.25    5.924       1.351       2.067       -9999.25    -9999.25    -9999.25    541.636     1414.628    2100.887    18.376      32.272      
179.8       123.995     2.228       10.874      -9999.25    -9999.25    -9999.25    -9999.25    -9999.25    -9999.25    5.663       1.351       2.086       -9999.25    -9999.25    -9999.25    551.777     1421.642    2093.539    18.021      34.087      
179.9       123.99      2.23        11.132      -9999.25    -9999.25    -9999.25    -9999.25    -9999.25    -9999.25    5.095       1.391       2.105       -9999.25    -9999.25    -9999.25    549.084     1429.138    2097.279    17.777      34.856      
180.0       123.986     2.221       11.629      -9999.25    -9999.25    -9999.25    -9999.25    -9999.25    -9999.25    4.34        1.454       2.134       -9999.25    -9999.25    -9999.25    538.172     1432.207    2104.008    17.875      35.129      
180.1       123.978     2.205       11.324      -9999.25    -9999.25    -9999.25    -9999.25    -9999.25    -9999.25    3.627       1.551       2.173       -9999.25    -9999.25    -9999.25    532.849     1429.487    2103.668    17.576      34.741      
180.2       123.971     2.201       10.807      -9999.25    -9999.25    -9999.25    -9999.25    -9999.25    -9999.25    3.293       1.625       2.18        -9999.25    -9999.25    -9999.25    536.909     1425.846    2097.413    16.01       34.203      
180.3       123.971     2.212       10.793      -9999.25    -9999.25    -9999.25    -9999.25    -9999.25    -9999.25    3.282       1.616       2.179       -9999.25    -9999.25    -9999.25    540.766     1427.428    2094.184    15.285      32.548      
180.4       123.979     2.227       11.113      -9999.25    -9999.25    -9999.25    -9999.25    -9999.25    -9999.25    3.282       1.54        2.182       -9999.25    -9999.25    -9999.25    539.138     1434.351    2102.405    15.31       30.741      
180.5       123.989     2.243       11.353      -9999.25    -9999.25    -9999.25    -9999.25    -9999.25    -9999.25    3.442       1.475       2.178       -9999.25    -9999.25    -9999.25    535.069     1440.502    2113.999    15.322      29.812      
180.6       123.992     2.261       11.461      -9999.25    -9999.25    -9999.25    -9999.25    -9999.25    -9999.25    4.16        1.446       2.159       -9999.25    -9999.25    -9999.25    533.057     1442.228    2115.576    15.314      29.855      
180.7       123.989     2.275       11.291      -9999.25    -9999.25    -9999.25    -9999.25    -9999.25    -9999.25    5.252       1.456       2.132       -9999.25    -9999.25    -9999.25    534.947     1442.972    2108.49     15.312      30.845      
180.8       123.989     2.279       11.051      -9999.25    -9999.25    -9999.25    -9999.25    -9999.25    -9999.25    6.048       1.471       2.111       -9999.25    -9999.25    -9999.25    539.418     1448.435    2104.534    15.314      31.554      
180.9       124.003     2.272       10.681      -9999.25    -9999.25    -9999.25    -9999.25    -9999.25    -9999.25    6.29        1.497       2.131       -9999.25    -9999.25    -9999.25    545.255     1456.132    2110.483    15.314      31.776      
181.0       124.022     2.283       10.883      -9999.25    -9999.25    -9999.25    -9999.25    -9999.25    -9999.25    6.743       1.503       2.197       -9999.25    -9999.25    -9999.25    550.372     1459.791    2115.478    15.314      31.411      
181.1       124.024     2.302       10.871      -9999.25    -9999.25    -9999.25    -9999.25    -9999.25    -9999.25    7.317       1.542       2.294       -9999.25    -9999.25    -9999.25    552.173     1458.713    2111.686    15.313      30.031      
181.2       124.013     2.314       10.832      -9999.25    -9999.25    -9999.25    -9999.25    -9999.25    -9999.25    7.775       1.584       2.38        -9999.25    -9999.25    -9999.25    551.673     1456.699    2105.529    15.313      28.587      
181.3       124.032     2.315       10.725      -9999.25    -9999.25    -9999.25    -9999.25    -9999.25    -9999.25    8.214       1.613       2.422       -9999.25    -9999.25    -9999.25    550.658     1456.563    2105.229    15.314      28.003      
181.4       124.1       2.311       10.848      -9999.25    -9999.25    -9999.25    -9999.25    -9999.25    -9999.25    9.011       1.613       2.403       -9999.25    -9999.25    -9999.25    550.354     1457.3      2110.117    15.315      27.896      
181.5       124.158     2.311       10.987      -9999.25    -9999.25    -9999.25    -9999.25    -9999.25    -9999.25    9.779       1.611       2.358       -9999.25    -9999.25    -9999.25    550.961     1457.947    2113.025    15.313      28.035      
181.6       124.137     2.311       11.358      -9999.25    -9999.25    -9999.25    -9999.25    -9999.25    -9999.25    10.47       1.596       2.342       -9999.25    -9999.25    -9999.25    551.608     1458.212    2112.805    15.311      28.238      
181.7       124.008     2.31        11.511      -9999.25    -9999.25    -9999.25    -9999.25    -9999.25    -9999.25    11.078      1.543       2.371       -9999.25    -9999.25    -9999.25    551.963     1456.068    2112.05     -9999.25    27.868      
181.8       123.802     2.309       11.183      -9999.25    -9999.25    -9999.25    -9999.25    -9999.25    -9999.25    11.634      1.498       2.422       -9999.25    -9999.25    -9999.25    552.182     1454.967    2111.813    -9999.25    27.464      
