~Version Information Section
VERS.                                         2.0:CWLS log ASCII Standart – VERSION 2.0
WRAP.                                          NO:One line per depth step
~Well Information Section
STRT.M                                        1.0:Начальная глубина
STOP.M                                      203.4:Конечная глубина
STEP.M                                          0:Шаг квантования по глубине
NULL.                                    -9999.25:Признак "Нет данных"
WELL.                                         3Мх:Скважина
~Parameter Information Section
~Curve Information Section
DEPTH.M                                          :Глубина
BK.Ohm*M                                         :BK
DS.mm                                            :DS  (ДС)
ГК.mcr/h                                         :GK          (ГК)
GZ1.Ohm*M                                        :GZ1   ГЗ1(A0.4M0.1N)
GZ2.Ohm*M                                        :GZ2   ГЗ2(A1.0M0.1N)
GZ3.Ohm*M                                        :GZ3   ГЗ3(A2.0M0.5N)
GZ4.Ohm*M                                        :GZ4   ГЗ4(A4.0M0.5N)
GZ5.Ohm*M                                        :GZ5   ГЗ5(A8.0M0.5N)
U2.mV                                            :U2
U3.mV                                            :U3
W.                                               :W
КП.%                                             :Кп
НГК.усл.ед                                       :ННКб
ННКМ.усл.ед                                      :ННКм
GZR.Ohm*M                                        :GZK   ГЗK(N0.5M2.0A)
ИК.Ohm*M                                         :IK
PS.mv                                            :PS       (ПС)
PZ.Ohm*M                                         :PZ    (КС)
RS.Ohm*M                                         :RS (Резистивиметр)
U1.mV                                            :U1
~ASCII LOG DATA
# ...
20.2        21.281      170.637     3.539       4.303       8.001       6.777       7.725       5.971       781.117     463.212     2.428       40.786      2.945       2.188       6.519       19.012      -9999.25    -9999.25    1.075       1394.188    
20.3        19.815      161.746     3.924       4.372       8.05        6.877       7.825       6.071       779.035     445.344     2.454       38.949      3.268       2.176       6.419       18.975      -9999.25    -9999.25    1.075       1442.797    
20.4        30.409      159.783     4.471       4.164       8.05        6.877       7.925       6.171       815.449     470.771     2.475       37.892      3.349       2.131       6.419       18.687      -9999.25    -9999.25    1.075       1511.965    
20.5        43.853      159.377     4.816       4.014       7.953       6.677       8.125       6.271       841.984     496.365     2.433       40.91       2.918       2.095       6.319       18.554      -9999.25    -9999.25    1.075       1574.467    
20.6        26.363      160.174     4.884       3.743       7.857       6.677       8.225       6.371       828.664     481.244     2.404       43.502      2.703       2.068       6.219       18.571      -9999.25    -9999.25    1.075       1654.926    
20.7        19.099      162.658     4.7         3.792       7.905       6.577       8.325       6.471       775.44      421.759     2.421       43.888      3.056       2.13        6.219       18.667      -9999.25    -9999.25    1.075       1744.605    
20.8        23.121      166.688     4.379       3.941       8.074       6.477       8.425       6.471       697.545     357.246     2.455       42.096      3.233       2.273       6.119       18.859      -9999.25    -9999.25    1.075       1735.441    
20.9        22.699      163.245     4.076       4.1         8.147       6.477       8.425       6.471       617.981     329.189     2.464       41.156      3.995       2.57        6.019       18.837      -9999.25    -9999.25    1.075       1551.622    
21.0        18.323      156.768     3.926       4.662       8.582       6.277       8.425       6.571       556.002     346.235     2.531       34.847      4.503       2.947       5.919       18.574      -9999.25    -9999.25    1.075       1234.79     
21.1        22.909      155.89      3.852       4.821       8.678       6.277       8.425       6.571       527.427     378.685     2.577       27.352      5.601       2.968       5.919       18.39       -9999.25    -9999.25    1.075       962.594     
21.2        36.141      156.4       3.96        4.492       8.557       6.277       8.425       6.371       528.099     396.267     2.551       21.448      6.149       2.774       5.919       18.406      -9999.25    -9999.25    1.075       839.21      
21.3        102.329     156.164     4.201       4.245       8.364       6.177       8.425       6.171       543.128     390.092     2.511       22.091      4.787       2.512       5.919       18.725      -9999.25    -9999.25    1.075       860.084     
21.4        239.883     155.314     4.665       3.613       8.05        6.077       8.425       6.071       560.571     383.435     2.474       26.707      3.879       2.184       5.919       19.311      -9999.25    -9999.25    1.075       922.235     
21.5        202.302     155.591     4.996       3.265       7.881       6.077       8.425       5.971       587.344     416.638     2.436       31.746      3.466       2.067       5.919       20.043      -9999.25    -9999.25    1.075       952.377     
21.6        83.753      157.975     5.116       3.172       7.808       6.077       8.425       5.871       633.032     516.206     2.424       35.429      3.191       2.09        5.819       21.048      -9999.25    -9999.25    1.07        927.47      
21.7        35.075      158.907     5.01        3.076       7.687       6.077       8.425       5.671       696.203     684.036     2.437       37.01       3.154       2.085       5.819       21.714      -9999.25    -9999.25    1.07        864.43      
21.8        19.454      155.285     4.884       2.97        7.591       5.877       8.425       5.471       757.307     869.377     2.436       37.934      3.117       2.056       5.819       21.765      -9999.25    -9999.25    1.07        797.061     
21.9        20.559      155.13      4.745       2.739       7.47        5.777       8.325       5.371       794.867     999.754     2.417       39.53       3.253       2.143       5.819       21.121      -9999.25    -9999.25    1.07        755.504     
22.0        30.339      155.471     4.525       2.728       7.349       5.677       8.225       5.271       799.716     1006.029    2.398       39.447      3.345       2.312       5.819       20.511      -9999.25    -9999.25    1.07        769.153     
22.1        27.29       154.86      4.273       2.747       7.301       5.677       7.625       5.271       788.455     902.732     2.361       35.944      3.443       2.313       5.819       19.957      -9999.25    -9999.25    1.07        843.59      
22.2        24.946      153.981     4.05        3.038       7.446       5.677       7.525       4.871       789.015     788.222     2.324       33.798      3.591       2.144       5.819       19.269      -9999.25    -9999.25    1.07        946.475     
22.3        43.853      153.733     4.069       2.931       7.373       5.677       7.425       4.671       811.61      780.219     2.294       34.973      3.223       2.048       5.819       19.053      -9999.25    -9999.25    1.07        1009.106    
22.4        85.704      154.052     4.253       2.849       7.18        5.577       7.125       4.371       829.419     908.936     2.276       38.949      2.977       2.058       5.819       19.052      -9999.25    -9999.25    1.07        964.763     
22.5        59.429      154.51      4.64        2.676       7.011       5.377       6.925       4.371       805.704     1085.69     2.254       41.565      2.906       2.057       5.819       19.149      -9999.25    -9999.25    1.07        811.572     
22.6        52.119      153.952     4.915       2.578       6.793       5.377       6.825       4.271       722.861     1167.377    2.255       41.955      2.8         2.046       5.819       19.29       -9999.25    -9999.25    1.07        610.954     
22.7        46.559      154.381     5.131       2.376       6.697       5.277       6.725       4.271       602.276     1082.359    2.285       41.032      2.828       2.018       5.819       19.535      -9999.25    -9999.25    1.07        444.622     
22.8        42.267      154.642     5.228       2.168       6.479       5.177       6.625       4.271       477.213     861.863     2.312       39.646      2.87        1.966       5.819       19.639      -9999.25    -9999.25    1.07        351.707     
22.9        36.983      156.559     5.346       2.11        6.31        5.177       6.525       4.271       383.527     621.629     2.338       39.567      2.848       1.936       5.819       19.64       -9999.25    -9999.25    1.07        328.279     
23.0        30.832      154.875     5.458       2.003       6.117       5.077       6.525       4.271       333.276     438.879     2.342       40.929      2.758       1.938       5.619       19.576      -9999.25    -9999.25    1.07        351.255     
23.1        25.882      155.895     5.467       1.863       5.681       4.977       6.525       4.271       332.398     356.982     2.329       42.941      2.714       1.949       5.619       19.535      -9999.25    -9999.25    1.07        401.804     
23.2        19.588      156.812     5.29        2.1         5.295       4.977       6.525       4.271       379.476     375.984     2.323       45.443      2.647       1.971       5.519       19.371      -9999.25    -9999.25    1.07        468.313     
23.3        18.281      156.393     4.737       2.409       5.585       4.877       6.525       4.271       475.394     492.39      2.338       48.809      2.93        2.149       5.419       19.271      -9999.25    -9999.25    1.07        548.959     
