~Version Information Section
VERS.                                         2.0:CWLS log ASCII Standart – VERSION 2.0
WRAP.                                          NO:One line per depth step
~Well Information Section
STRT.M                                        0.7:Начальная глубина
STOP.M                                      200.1:Конечная глубина
STEP.M                                          0:Шаг квантования по глубине
NULL.                                    -9999.25:Признак "Нет данных"
WELL.                                       111Мх:Скважина
~Parameter Information Section
~Curve Information Section
DEPTH.M                                          :Глубина
DСР.mm                                           :Dср
ГК.1/min                                         :GK
ИК.mSim/m                                        :IK
N0.5M2.0A.Омм                                    :N0
НГК.усл.ед                                       :NGK
PZ.Ohm*M                                         :PZ
R.Ohm*M                                          :R
PS.mV                                            :ПС
U1.mV                                            :U1
U2.                                              :U2
U3.mV                                            :U3
А0.4М0.1N.Омм                                    :А0
А1.0М0.1N.Омм                                    :А1
А2.0М0.5N.Омм                                    :А2
А4.0М0.5N.Oмм                                    :А4
А8.0М1.0N.Омм                                    :А8
BK.Ohm*M                                         :БК
ГГК.1/min                                        :ГГК
КП.%                                             :Кп
ННКМ.усл.ед                                      :ННКм
~ASCII LOG DATA
# ...
112.7       133.646     3.679       22.75       39.303      1.477       46.0        1.06        98.806      952.399     1362.0      1176.0      40.614      34.058      42.548      36.351      8.673       142.505     2.407       28.636      2.502       
112.8       135.041     3.782       23.077      38.694      1.464       46.0        1.06        93.878      966.8       1355.999    1161.999    44.244      36.285      44.054      38.024      8.576       244.146     2.431       28.162      2.517       
112.9       131.774     3.6         23.316      37.164      1.429       46.0        1.06        89.32       981.2       1341.0      1148.0      47.788      36.819      44.402      38.385      8.869       181.707     2.446       28.071      2.548       
113.0       131.472     3.418       23.386      34.719      1.341       46.0        1.06        84.638      998.0       1329.0      1136.8      50.754      37.481      44.402      38.385      10.688      69.996      2.438       27.734      2.557       
113.1       131.883     4.134       23.319      31.297      1.345       46.2        1.06        80.45       1012.4      1323.0      1131.2      53.2        37.907      43.635      37.652      13.306      40.179      2.423       27.248      2.519       
113.2       132.134     4.493       23.176      27.429      1.412       46.8        1.06        77.123      1024.4      1323.0      1128.4      55.137      36.669      40.839      35.193      14.445      38.314      2.4         26.881      2.5         
113.3       132.285     4.186       22.873      23.871      1.412       47.8        1.06        74.413      1036.4      1332.0      1136.8      56.238      34.622      36.917      31.459      16.019      91.132      2.386       26.665      2.511       
113.4       132.045     4.186       22.478      20.767      1.472       49.1        1.06        72.318      1041.2      1341.0      1156.4      56.778      33.543      33.656      27.892      20.767      192.057     2.381       26.551      2.499       
113.5       132.096     4.666       22.255      17.632      1.695       55.2        1.06        70.963      1041.2      1356.0      1178.8      56.829      32.53       30.905      24.717      27.292      172.93      2.381       26.265      2.471       
113.6       132.21      4.675       22.191      14.597      1.661       63.1        1.06        69.978      1038.8      1380.0      1201.2      56.829      31.234      28.238      21.766      33.579      74.518      2.379       26.24       2.451       
113.7       131.977     4.723       22.167      12.267      1.565       70.7        1.06        69.238      1014.801    1403.999    1223.599    55.794      30.116      25.795      19.44       38.032      40.842      2.37        26.56       2.44        
113.8       131.749     4.781       22.191      11.116      1.605       78.9        1.06        69.238      990.799     1416.0      1240.4      53.2        29.095      23.249      17.28       39.878      38.366      2.351       26.891      2.381       
113.9       132.184     4.838       22.177      10.879      1.587       87.8        1.06        69.238      983.6       1419.0      1246.0      48.797      27.807      20.443      15.382      40.208      34.187      2.334       27.196      2.315       
114.0       132.884     5.171       22.069      10.879      1.644       96.8        1.06        69.238      986.0       1410.0      1246.0      42.489      25.976      18.235      14.653      40.039      33.014      2.315       27.566      2.279       
114.1       132.046     5.338       21.906      10.879      1.728       106.1       1.06        70.224      1009.999    1389.0      1243.2      35.414      24.486      17.443      14.653      39.165      32.813      2.311       28.214      2.247       
114.2       131.108     5.146       21.707      11.839      1.605       116.0       1.06        75.029      1069.998    1359.001    1234.8      28.937      24.11       17.443      14.653      37.167      30.609      2.316       28.852      2.229       
114.3       131.159     5.107       21.6        15.443      1.437       126.5       1.06        84.392      1132.402    1334.999    1240.4      25.343      24.223      17.443      15.018      34.221      28.346      2.326       28.805      2.211       
114.4       130.801     5.763       21.721      23.023      1.669       137.1       1.06        100.038     1180.401    1323.0      1260.0      24.613      24.223      17.536      17.167      30.732      26.834      2.337       28.736      2.2         
114.5       128.994     5.92        22.155      34.747      1.78        144.8       1.06        122.091     1228.4      1320.0      1296.4      24.613      24.464      19.163      22.571      27.154      27.087      2.336       28.773      2.227       
114.6       128.709     6.048       22.991      49.168      1.408       152.2       1.06        148.702     1281.199    1323.0      1349.599    24.613      26.745      23.958      31.46       23.846      35.274      2.332       28.769      2.294       
114.7       129.018     5.768       24.153      63.497      1.768       169.4       1.06        176.422     1331.598    1332.0      1411.198    26.037      32.222      32.088      43.288      20.641      271.467     2.328       27.272      2.443       
114.8       129.225     5.069       25.737      75.935      1.392       185.8       1.06        204.882     1379.602    1347.0      1461.601    32.061      39.834      42.737      53.694      17.294      776.347     2.335       25.567      2.615       
114.9       129.019     4.774       27.75       85.465      1.48        192.7       1.06        231.37      1418.0      1362.0      1506.401    57.176      47.99       54.961      57.85       13.969      1764.634    2.357       23.264      3.026       
115.0       129.295     4.186       29.775      91.932      1.276       197.4       1.06        255.517     1442.0      1380.0      1554.0      109.84      55.528      68.363      58.158      10.914      2887.57     2.398       21.12       3.379       
115.1       129.885     3.926       31.568      95.68       1.491       200.0       1.06        276.83      1430.0      1395.0      1581.999    182.13      62.36       81.749      60.267      8.25        3001.896    2.438       19.089      3.46        
115.2       131.059     3.667       33.035      96.749      1.604       200.9       1.06        295.803     1406.001    1410.0      1604.399    268.046     69.249      92.682      64.515      6.167       2710.358    2.462       16.954      3.539       
115.3       130.79      4.419       34.046      96.749      1.499       200.9       1.06        310.094     1381.999    1404.0      1621.2      349.869     78.917      99.213      66.875      4.882       3403.616    2.469       14.738      3.533       
115.4       130.63      4.57        34.288      96.369      1.613       200.9       1.06        319.334     1362.8      1383.0      1615.6      403.395     96.102      101.239     65.225      4.323       4333.529    2.466       14.091      3.528       
115.5       130.306     4.032       33.642      93.508      1.808       200.9       1.06        323.03      1331.6      1356.0      1582.0      425.014     118.781     101.239     62.15       4.186       3413.552    2.467       13.595      3.527       
115.6       128.806     4.099       32.484      86.508      1.936       200.9       1.06        323.03      1307.601    1329.0      1542.801    430.885     144.235     100.446     59.295      4.176       1633.406    2.468       14.389      3.446       
115.7       128.999     4.435       31.2        76.008      2.124       200.9       1.06        323.03      1283.601    1302.0      1503.601    432.613     173.107     95.905      55.374      4.17        989.046     2.466       15.442      3.325       
115.8       130.87      4.237       29.783      62.744      2.488       197.0       1.06        321.675     1269.2      1290.0      1475.599    428.752     190.654     86.43       50.5        4.175       1064.257    2.459       16.498      3.173       
