~Version Information Section
VERS.                                         2.0:CWLS log ASCII Standart – VERSION 2.0
WRAP.                                          NO:One line per depth step
~Well Information Section
STRT.M                                        1.0:Начальная глубина
STOP.M                                      192.9:Конечная глубина
STEP.M                                          0:Шаг квантования по глубине
NULL.                                    -9999.25:Признак "Нет данных"
WELL.                                       123Мх:Скважина
~Parameter Information Section
~Curve Information Section
DEPTH.M                                          :Глубина
BK.lgОмм                                         :BK     (БК)
ПРОФ_СР.мм                                       :DS  (ДС)
ГК.мкР/час                                       :GK          (ГК)
ГЗ1.Омм                                          :GZ1   ГЗ1(A0.4M0.1N)
ГЗ2.Омм                                          :GZ2   ГЗ2(A1.0M0.1N)
ГЗ3.Омм                                          :GZ3   ГЗ3(A2.0M0.5N)
ГЗ4.Oмм                                          :GZ4   ГЗ4(A4.0M0.5N)
ГЗ5.Oмм                                          :GZ5   ГЗ5(A8.0M0.5N)
ГЗК.Омм                                          :GZK   ГЗK(N0.5M2.0A)
ИК.мСм/м                                         :IK
НГК.усл.ед.                                      :NGK     (НГК)
PS.мВ                                            :PS       (ПС)
PZ.Омм                                           :PZ    (КС)
RIS.Омм                                          :RS (Резистивиметр)
U1.мВ                                            :U1
U2.мВ                                            :U2
U3.mv                                            :U3
W.                                               :W
П.%                                              :п
ННКМ.усл.ед                                      :ННКм
~ASCII LOG DATA
# ...
186.6       16.331      121.071     5.613       155.52      175.78      169.468     -9999.25    137.334     -9999.25    9.033       1.371       247.177     297.847     -9999.25    562.681     332.088     259.874     2.501       23.645      0.228       
186.7       17.418      120.817     5.054       155.52      175.78      170.134     -9999.25    137.334     -9999.25    9.189       1.423       246.8       297.471     -9999.25    409.457     305.178     308.872     2.506       22.844      0.235       
186.8       18.578      120.703     4.743       155.52      175.78      170.801     -9999.25    137.667     -9999.25    9.479       1.502       247.177     297.471     -9999.25    314.662     283.905     333.813     2.506       21.943      0.232       
186.9       20.701      120.983     4.4         155.52      175.78      170.801     -9999.25    138.334     -9999.25    9.705       1.581       247.932     297.471     -9999.25    298.335     277.709     335.169     2.486       21.124      0.245       
187.0       26.242      120.867     3.863       155.52      175.78      170.801     -9999.25    139.334     -9999.25    9.914       1.655       249.063     297.471     -9999.25    328.989     282.769     318.499     2.464       20.507      0.259       
187.1       29.923      120.897     3.688       155.52      175.78      170.801     -9999.25    140.667     -9999.25    10.102      1.679       250.195     297.471     -9999.25    398.899     297.793     285.784     2.443       20.445      0.263       
187.2       31.261      120.753     3.768       155.52      175.78      170.801     -9999.25    141.667     -9999.25    10.252      1.662       251.326     297.471     -9999.25    520.301     387.855     345.829     2.441       20.757      0.259       
187.3       37.154      120.565     3.761       154.8       175.78      170.801     -9999.25    142.334     -9999.25    10.374      1.597       252.457     297.471     -9999.25    657.621     546.534     517.964     2.42        21.597      0.263       
187.4       79.25       120.312     3.456       154.08      175.78      170.134     -9999.25    142.334     -9999.25    10.407      1.511       253.212     297.471     -9999.25    742.386     669.179     667.417     2.41        22.198      0.277       
187.5       72.611      119.621     3.596       153.36      175.78      169.468     -9999.25    142.334     -9999.25    10.422      1.46        253.589     297.471     -9999.25    761.998     688.956     683.528     2.402       22.747      0.274       
187.6       63.826      119.305     3.877       153.36      175.78      168.801     -9999.25    142.334     -9999.25    10.438      1.468       253.966     297.471     -9999.25    709.12      561.688     518.285     2.415       22.945      0.264       
187.7       59.841      119.655     3.927       -9999.25    175.78      168.801     -9999.25    142.334     -9999.25    10.422      1.511       253.966     297.847     -9999.25    651.065     397.002     314.514     2.427       23.533      0.259       
187.8       63.826      120.63      3.731       -9999.25    175.78      168.801     -9999.25    142.334     -9999.25    10.437      1.584       253.966     299.727     -9999.25    611.55      264.864     154.108     2.463       23.74       0.262       
187.9       58.479      119.863     3.581       -9999.25    175.78      168.801     -9999.25    142.334     -9999.25    10.407      1.611       253.966     304.239     -9999.25    597.407     206.753     80.555      2.468       23.959      0.27        
188.0       38.815      119.806     3.704       -9999.25    175.78      168.801     -9999.25    142.334     -9999.25    10.453      1.612       254.343     309.127     -9999.25    604.139     221.403     94.432      2.462       23.618      0.275       
188.1       38.815      119.893     3.647       -9999.25    175.78      168.801     -9999.25    142.334     -9999.25    10.47       1.566       255.097     319.279     -9999.25    592.36      268.967     162.019     2.449       23.252      0.275       
188.2       38.815      120.211     3.632       -9999.25    175.78      168.801     -9999.25    142.334     -9999.25    10.453      1.549       256.229     331.31      -9999.25    553.233     334.357     270.579     2.43        22.162      0.272       
188.3       51.404      120.197     3.704       -9999.25    -9999.25    168.801     -9999.25    142.334     -9999.25    10.422      1.556       257.737     341.839     -9999.25    447.783     342.404     353.185     2.412       21.185      0.283       
188.4       57.28       120.929     3.901       -9999.25    -9999.25    168.801     -9999.25    142.334     -9999.25    10.375      1.549       259.623     355.0       -9999.25    316.363     278.504     360.911     2.39        20.805      0.287       
188.5       39.628      120.443     4.085       -9999.25    -9999.25    168.801     -9999.25    142.334     -9999.25    10.359      1.481       261.509     372.671     -9999.25    256.829     208.291     297.283     2.348       21.475      0.287       
188.6       30.549      119.831     4.111       -9999.25    -9999.25    168.801     -9999.25    142.334     -9999.25    10.313      1.353       263.395     386.207     -9999.25    316.267     200.746     226.786     2.322       22.507      0.287       
188.7       29.923      120.4       4.071       -9999.25    -9999.25    173.641     -9999.25    142.334     -9999.25    10.283      1.269       264.903     400.494     -9999.25    486.755     237.042     166.251     2.279       24.146      0.268       
188.8       29.242      120.01      3.994       -9999.25    -9999.25    178.481     -9999.25    142.334     -9999.25    10.298      1.244       265.657     418.919     -9999.25    1121.972    962.593     135.154     2.256       25.979      0.241       
188.9       27.416      120.533     3.951       -9999.25    -9999.25    183.321     -9999.25    142.334     -9999.25    10.298      1.312       266.035     431.328     -9999.25    1713.349    1679.298    153.431     2.257       27.32       0.229       
189.0       26.242      119.699     3.911       -9999.25    -9999.25    183.321     -9999.25    142.334     -9999.25    10.313      1.345       265.657     438.471     -9999.25    2234.961    2391.99     774.122     2.281       27.711      0.226       
189.1       26.242      119.679     3.843       -9999.25    -9999.25    183.321     -9999.25    142.334     -9999.25    10.359      1.388       264.526     444.487     -9999.25    2244.308    2409.192    1393.695    2.298       27.455      0.226       
189.2       27.416      119.598     3.805       -9999.25    -9999.25    183.321     -9999.25    142.334     -9999.25    10.391      1.333       263.018     446.367     -9999.25    2239.635    2413.491    1991.185    2.312       26.779      0.232       
189.3       28.054      119.864     3.83        -9999.25    -9999.25    183.321     -9999.25    -9999.25    -9999.25    10.438      1.319       261.509     444.111     -9999.25    2234.961    2409.191    1995.292    2.319       25.736      0.233       
189.4       28.054      119.732     3.877       -9999.25    -9999.25    183.321     -9999.25    -9999.25    -9999.25    10.502      1.325       259.623     439.599     -9999.25    2230.288    2391.99     1991.185    2.333       24.664      0.231       
189.5       27.416      119.61      3.989       -9999.25    -9999.25    -9999.25    -9999.25    -9999.25    -9999.25    11.057      1.345       258.115     422.304     -9999.25    2230.288    2374.792    1982.973    2.336       23.732      0.235       
189.6       29.923      120.191     3.999       -9999.25    -9999.25    -9999.25    -9999.25    -9999.25    -9999.25    10.646      1.336       256.606     403.502     -9999.25    2234.962    2357.59     1966.545    2.341       23.174      0.237       
189.7       31.915      120.064     3.904       -9999.25    -9999.25    -9999.25    -9999.25    -9999.25    -9999.25    10.713      1.341       255.097     383.577     -9999.25    2239.635    2344.691    2093.843    2.343       22.789      0.241       
