~Version Information Section
VERS.                                         2.0:CWLS log ASCII Standart – VERSION 2.0
WRAP.                                          NO:One line per depth step
~Well Information Section
STRT.M                                        0.5:Начальная глубина
STOP.M                                      201.9:Конечная глубина
STEP.M                                          0:Шаг квантования по глубине
NULL.                                    -9999.25:Признак "Нет данных"
WELL.                                       138Мх:Скважина
~Parameter Information Section
~Curve Information Section
DEPTH.M                                          :Глубина
БК.Омм                                           :BK     (БК)
DСР.мм                                           :DS  (ДС)
W.g/cm3                                          :GGKp
ГК.гамма                                         :GK          (ГК)
А0.4М0.1N.Омм.ohmm                               :GZ1   ГЗ1(A0.4M0.1N)
А1.0М0.1N.Омм.ohmm                               :GZ2   ГЗ2(A1.0M0.1N)
А2.0М0.5N.Омм.ohmm                               :GZ3   ГЗ3(A2.0M0.5N)
А4.0М0.5N.Oмм.ohmm                               :GZ4   ГЗ4(A4.0M0.5N)
А8.0М1.0N.Омм.ohmm                               :GZ5   ГЗ5(A8.0M0.5N)
N0.5M2.0A.Омм.ohmm                               :GZK   ГЗK(N0.5M2.0A)
ИК.мСм/м                                         :IK
ННКМ.усл.ед                                      :NNKm  (ННКм)
ПС.мВ                                            :PS       (ПС)
КС.Омм                                           :PZ    (КС)
R.Омм                                            :RS (Резистивиметр)
U1.мВ                                            :U1
U2.mV                                            :U2
U3.мВ                                            :U3
КП.%                                             :Кп
НГК.усл.ед                                       :NGK
~ASCII LOG DATA
# ...
182.9       147.126     126.374     2.241       2.884       242.458     243.274     172.479     19.831      15.209      114.945     38.091      2.652       235.656     200.182     1.08        1366.471    1420.475    1132.476    10.4        1.952       
183.0       177.078     126.199     2.245       3.058       248.192     250.915     191.201     21.282      15.469      112.117     38.177      2.728       235.032     205.216     1.08        1402.474    1402.474    1090.474    9.568       2.013       
183.1       190.278     126.212     2.246       3.238       254.981     259.103     206.459     22.514      15.469      106.881     38.104      2.754       234.392     210.075     1.08        1414.472    1378.473    1060.473    9.669       2.081       
183.2       196.688     127.077     2.248       3.222       260.849     265.04      216.185     23.179      15.417      99.309      37.82       2.717       233.768     214.138     1.08        1378.476    1348.476    1036.475    9.574       2.087       
183.3       169.801     127.571     2.256       3.262       263.224     267.03      219.375     23.337      15.009      90.095      37.53       2.766       233.192     216.638     1.08        1312.471    1324.473    1024.474    8.604       2.137       
183.4       151.417     127.65      2.27        3.131       262.798     265.612     218.417     23.072      14.252      80.325      37.216      2.839       232.744     217.24      1.08        1258.478    1330.472    1072.47     6.13        2.235       
183.5       172.623     127.457     2.283       3.067       258.109     258.282     212.121     22.368      13.222      71.238      36.926      3.021       232.44      217.24      1.08        1210.474    1342.474    1102.474    4.505       2.37        
183.6       234.217     127.448     2.296       2.907       245.34      242.312     197.87      21.409      12.112      63.961      36.711      3.158       232.232     217.24      1.08        1216.475    1342.472    1114.471    3.655       2.552       
183.7       246.747     127.476     2.308       2.887       225.107     219.799     178.513     20.801      11.067      58.991      36.504      3.06        232.04      215.837     1.08        1234.473    1306.476    1060.476    5.108       2.727       
183.8       216.871     127.506     2.304       2.771       200.428     194.908     158.187     20.714      10.171      56.155      36.217      2.898       231.832     212.597     1.08        1270.475    1282.473    1030.473    6.896       2.797       
183.9       174.812     127.38      2.286       2.867       175.519     171.932     140.377     20.714      9.489       54.873      35.776      2.705       231.512     207.952     1.08        1282.473    1300.472    1078.469    10.205      2.628       
184.0       135.149     126.864     2.257       2.76        154.276     153.758     127.013     20.714      9.018       54.418      35.321      2.474       231.08      202.57      1.08        1294.474    1318.474    1156.474    13.867      2.361       
184.1       108.857     126.682     2.214       2.831       138.848     141.243     118.297     20.714      8.718       54.213      34.733      2.272       230.568     196.776     1.08        1288.474    1336.473    1192.472    19.261      2.011       
184.2       89.289      126.293     2.164       2.829       129.116     133.481     113.226     21.494      8.525       54.008      34.01       2.162       230.04      190.731     1.08        1276.475    1324.474    1168.477    23.363      1.774       
184.3       73.604      125.508     2.123       3.147       123.691     128.638     110.503     24.247      8.39        53.674      33.293      2.097       229.528     184.402     1.08        1246.472    1324.474    1114.473    25.297      1.585       
184.4       67.148      124.448     2.097       3.224       120.872     124.801     108.905     29.307      8.272       52.964      32.597      2.079       229.128     177.63      1.08        1210.476    1318.474    1096.475    24.936      1.548       
184.5       65.986      123.621     2.084       3.367       119.083     120.727     107.511     36.354      8.146       51.558      32.015      2.082       228.856     170.357     1.08        1126.474    1306.474    1006.474    24.157      1.448       
184.6       67.154      123.715     2.086       3.189       117.533     115.742     105.881     44.503      7.997       49.156      31.507      2.085       228.696     162.614     1.08        1048.469    1288.473    928.469     23.918      1.406       
184.7       70.935      123.871     2.098       3.029       116.159     109.526     103.854     52.557      7.824       45.722      31.198      2.095       228.616     154.589     1.08        964.476     1258.476    850.474     23.06       1.396       
184.8       74.71       125.573     2.111       2.879       114.871     102.574     101.419     59.459      7.641       41.538      31.007      2.131       228.6       146.678     1.08        928.472     1228.472    838.473     21.73       1.501       
184.9       75.284      126.383     2.117       2.923       113.428     95.832      98.844      64.388      7.46        37.104      30.892      2.141       228.6       139.378     1.08        898.475     1192.475    820.475     20.616      1.545       
185.0       83.182      126.161     2.117       2.987       111.865     89.963      96.513      67.255      7.3         32.964      30.801      2.094       228.6       133.008     1.08        880.474     1174.474    808.474     22.815      1.544       
185.1       86.006      126.561     2.11        3.009       110.354     85.403      94.687      68.605      7.183       29.509      30.602      2.016       228.6       127.722     1.08        892.475     1144.473    808.474     25.998      1.526       
185.2       78.41       126.645     2.094       3.164       108.913     82.388      93.562      69.002      7.113       26.862      30.408      1.941       228.6       123.494     1.08        952.469     1120.476    814.474     28.466      1.5         
185.3       69.642      126.666     2.075       3.204       107.727     80.71       93.17       69.021      7.101       24.967      30.17       1.953       228.6       120.123     1.08        994.476     1078.472    814.474     28.03       1.458       
185.4       67.041      126.599     2.055       3.332       107.106     79.844      93.142      68.919      7.101       23.702      29.958      1.996       228.6       117.331     1.08        1006.476    1054.475    802.475     28.217      1.401       
185.5       66.975      126.505     2.036       3.241       106.962     79.39       93.142      68.73       7.101       22.922      29.651      1.957       228.6       114.933     1.08        976.474     1036.474    790.474     29.097      1.388       
185.6       66.329      126.478     2.018       3.157       106.962     79.053      93.142      68.574      7.101       22.491      29.256      1.902       228.6       112.83      1.08        964.474     1036.474    796.475     29.783      1.361       
185.7       65.496      126.487     2.005       2.993       106.962     78.631      93.142      68.452      7.101       22.306      29.021      1.903       228.6       111.002     1.08        958.474     1036.474    784.475     29.339      1.341       
185.8       66.461      126.404     1.995       2.864       106.962     78.091      93.283      68.401      7.15        22.264      28.873      1.928       228.6       109.472     1.08        946.473     1000.471    772.472     29.226      1.314       
185.9       67.689      126.341     1.99        2.847       107.112     77.535      93.583      68.401      7.257       22.264      28.663      1.973       228.584     108.27      1.08        922.475     964.477     760.473     29.852      1.356       
186.0       67.087      126.368     1.988       2.829       107.569     77.066      93.976      68.401      7.421       22.264      28.466      2.005       228.552     107.394     1.08        898.474     928.474     772.474     30.733      1.399       
