~Version Information Section
VERS.                                         2.0:CWLS log ASCII Standart – VERSION 2.0
WRAP.                                          NO:One line per depth step
~Well Information Section
STRT.M                                        1.0:Начальная глубина
STOP.M                                      208.3:Конечная глубина
STEP.M                                          0:Шаг квантования по глубине
NULL.                                    -9999.25:Признак "Нет данных"
WELL.                                       131Мх:Скважина
~Parameter Information Section
~Curve Information Section
DEPTH.M                                          :Глубина
БК.Омм                                           :BK     (БК)
DСР.мм                                           :DS  (ДС)
ГК.гамма                                         :GK          (ГК)
А0.4М0.1N.Омм.ohmm                               :GZ1   ГЗ1(A0.4M0.1N)
А1.0М0.1N.Омм.ohmm                               :GZ2   ГЗ2(A1.0M0.1N)
А2.0М0.5N.Омм.ohmm                               :GZ3   ГЗ3(A2.0M0.5N)
А4.0М0.5N.Oмм.ohmm                               :GZ4   ГЗ4(A4.0M0.5N)
А8.0М1.0N.Омм.ohmm                               :GZ5   ГЗ5(A8.0M0.5N)
N0.5M2.0A.Омм.ohmm                               :GZK   ГЗK(N0.5M2.0A)
ИК.мСм/м                                         :IK
НГК.усл.ед                                       :NGK     (НГК)
ПС.mv                                            :PS       (ПС)
П.%                                              :п
PZ.Омм                                           :PZ    (КС)
R.Омм                                            :RS (Резистивиметр)
U1.мВ                                            :U1
U2.mV                                            :U2
U3.мВ                                            :U3
W.г/см3                                          :ГГКп
~ASCII LOG DATA
# ...
202.0       46.397      121.364     4.486       -9999.25    -9999.25    -9999.25    -9999.25    -9999.25    -9999.25    18.513      1.37        -9999.25    27.133      34.132      -9999.25    1440.004    1412.309    1405.707    2.33        
202.05      -9999.25    -9999.25    -9999.25    -9999.25    -9999.25    19.118      -9999.25    -9999.25    -9999.25    -9999.25    -9999.25    -9999.25    -9999.25    -9999.25    -9999.25    -9999.25    -9999.25    -9999.25    -9999.25    
202.1       46.994      121.096     4.321       -9999.25    -9999.25    -9999.25    -9999.25    -9999.25    -9999.25    18.655      1.395       -9999.25    27.113      34.064      -9999.25    1490.166    1473.327    1477.776    2.33        
202.2       47.292      121.026     4.263       -9999.25    -9999.25    -9999.25    -9999.25    -9999.25    -9999.25    18.802      1.418       -9999.25    26.728      34.064      -9999.25    1614.281    1544.952    1432.882    2.322       
202.3       47.231      121.246     4.226       -9999.25    -9999.25    -9999.25    -9999.25    -9999.25    -9999.25    18.958      1.413       -9999.25    26.255      34.064      -9999.25    1694.406    1519.534    1379.595    2.313       
202.4       47.271      122.042     4.234       -9999.25    -9999.25    -9999.25    -9999.25    -9999.25    -9999.25    19.083      1.431       -9999.25    25.948      34.064      -9999.25    1650.179    1519.534    1379.595    2.305       
202.5       46.92       122.411     4.366       -9999.25    -9999.25    -9999.25    -9999.25    -9999.25    -9999.25    19.168      1.387       -9999.25    25.729      34.104      -9999.25    1624.547    1527.415    1437.995    2.313       
202.6       44.928      122.517     4.408       -9999.25    -9999.25    -9999.25    -9999.25    -9999.25    -9999.25    19.24       1.346       -9999.25    25.734      34.313      -9999.25    1624.547    1554.647    1510.133    2.32        
202.7       42.268      122.378     4.501       -9999.25    -9999.25    -9999.25    -9999.25    -9999.25    -9999.25    19.305      1.297       -9999.25    25.755      34.655      -9999.25    1668.717    1593.118    1533.665    2.342       
202.8       41.325      121.445     4.593       -9999.25    -9999.25    -9999.25    -9999.25    -9999.25    -9999.25    19.359      1.297       -9999.25    25.741      34.776      -9999.25    1786.73     1642.54     1501.449    2.357       
202.9       42.377      121.079     4.44        -9999.25    -9999.25    -9999.25    -9999.25    -9999.25    -9999.25    19.409      1.309       -9999.25    25.881      34.776      -9999.25    1893.009    1665.945    1482.052    2.359       
203.0       43.612      121.326     4.242       -9999.25    -9999.25    -9999.25    -9999.25    -9999.25    -9999.25    19.428      1.349       -9999.25    26.195      34.776      -9999.25    1866.852    1665.945    1482.052    2.36        
203.1       45.82       121.359     4.202       -9999.25    -9999.25    -9999.25    -9999.25    -9999.25    -9999.25    19.445      1.4         -9999.25    26.365      34.383      -9999.25    1834.842    1682.347    1541.513    2.348       
203.2       47.67       121.417     4.206       -9999.25    -9999.25    -9999.25    -9999.25    -9999.25    -9999.25    19.494      1.435       -9999.25    26.443      33.31       -9999.25    1834.842    1750.796    1700.746    2.333       
203.3       45.696      121.531     4.267       -9999.25    -9999.25    -9999.25    -9999.25    -9999.25    -9999.25    19.537      1.433       -9999.25    26.607      31.547      -9999.25    1972.631    2125.405    2345.662    2.335       
203.4       43.083      121.536     4.376       -9999.25    -9999.25    -9999.25    -9999.25    -9999.25    -9999.25    19.571      1.409       -9999.25    26.69       29.191      -9999.25    2251.572    2578.342    3008.997    2.323       
203.5       42.86       121.511     4.466       -9999.25    -9999.25    -9999.25    -9999.25    -9999.25    -9999.25    19.592      1.384       -9999.25    26.374      26.642      -9999.25    2469.526    2705.172    2840.75     2.328       
203.6       43.81       121.421     4.556       -9999.25    -9999.25    -9999.25    -9999.25    -9999.25    -9999.25    19.556      1.371       -9999.25    26.076      24.108      -9999.25    2669.65     2729.056    2696.935    2.326       
203.7       45.211      121.373     4.396       -9999.25    -9999.25    -9999.25    -9999.25    -9999.25    -9999.25    19.49       1.394       -9999.25    26.017      21.87       -9999.25    2888.97     2766.696    2672.494    2.324       
203.8       48.769      121.368     4.326       -9999.25    -9999.25    -9999.25    -9999.25    -9999.25    -9999.25    19.446      1.422       -9999.25    25.718      20.068      -9999.25    2896.567    2799.107    2672.494    2.341       
203.9       51.548      121.336     4.234       -9999.25    -9999.25    -9999.25    -9999.25    -9999.25    -9999.25    19.441      1.454       -9999.25    25.138      18.714      -9999.25    2809.536    2767.67     2766.856    2.341       
204.0       48.73       121.3       4.372       -9999.25    -9999.25    -9999.25    -9999.25    -9999.25    -9999.25    19.467      1.495       -9999.25    25.021      17.933      -9999.25    2776.729    2689.281    2641.697    2.356       
204.1       45.392      121.341     4.397       -9999.25    -9999.25    -9999.25    -9999.25    -9999.25    -9999.25    19.516      1.523       -9999.25    25.226      17.803      -9999.25    2767.352    2672.644    2617.48     2.387       
204.2       45.395      121.315     4.49        -9999.25    -9999.25    -9999.25    -9999.25    -9999.25    -9999.25    19.566      1.477       -9999.25    25.419      17.803      -9999.25    2735.72     2643.191    2589.709    2.375       
204.3       45.229      121.255     4.517       -9999.25    -9999.25    -9999.25    -9999.25    -9999.25    -9999.25    19.57       1.487       -9999.25    25.684      17.803      -9999.25    2673.665    2579.476    2523.607    2.375       
204.4       43.815      121.255     4.453       -9999.25    -9999.25    -9999.25    -9999.25    -9999.25    -9999.25    19.541      1.463       -9999.25    26.135      17.803      -9999.25    2592.783    2485.717    2416.853    2.397       
204.5       43.704      121.269     4.141       -9999.25    -9999.25    -9999.25    -9999.25    -9999.25    -9999.25    19.525      1.434       -9999.25    26.528      18.417      -9999.25    2495.894    2363.469    2269.9      2.396       
204.6       45.778      121.15      3.975       -9999.25    -9999.25    -9999.25    -9999.25    -9999.25    -9999.25    19.528      1.408       -9999.25    26.665      19.958      -9999.25    2351.041    2259.012    2202.618    2.396       
204.7       47.091      121.166     3.918       -9999.25    -9999.25    -9999.25    -9999.25    -9999.25    -9999.25    19.539      1.447       -9999.25    26.821      22.594      -9999.25    -9999.25    -9999.25    -9999.25    2.412       
204.8       45.629      121.194     3.736       -9999.25    -9999.25    -9999.25    -9999.25    -9999.25    -9999.25    19.571      1.395       -9999.25    27.018      26.354      -9999.25    -9999.25    -9999.25    -9999.25    2.404       
204.9       43.107      121.196     3.736       -9999.25    -9999.25    -9999.25    -9999.25    -9999.25    -9999.25    19.618      1.36        -9999.25    27.011      31.182      -9999.25    -9999.25    -9999.25    -9999.25    2.395       
205.0       40.957      121.141     3.776       -9999.25    -9999.25    -9999.25    -9999.25    -9999.25    -9999.25    19.656      1.334       -9999.25    26.794      36.698      -9999.25    -9999.25    -9999.25    -9999.25    2.37        
205.1       38.79       121.102     3.878       -9999.25    -9999.25    -9999.25    -9999.25    -9999.25    -9999.25    19.648      1.328       -9999.25    26.62       42.234      -9999.25    -9999.25    -9999.25    -9999.25    2.353       
205.2       36.522      121.031     3.734       -9999.25    -9999.25    -9999.25    -9999.25    -9999.25    -9999.25    19.593      1.3         -9999.25    26.456      47.267      -9999.25    -9999.25    -9999.25    -9999.25    2.349       
