~Version Information Section
VERS.                                         2.0:CWLS log ASCII Standart – VERSION 2.0
WRAP.                                          NO:One line per depth step
~Well Information Section
STRT.M                                        1.6:Начальная глубина
STOP.M                                      209.3:Конечная глубина
STEP.M                                          0:Шаг квантования по глубине
NULL.                                    -9999.25:Признак "Нет данных"
WELL.                                       132Мх:Скважина
~Parameter Information Section
~Curve Information Section
DEPTH.M                                          :Глубина
BК.                                              :BК (Омм)
DS.mm                                            :DS
GGK.g/cm3                                        :GGKp
IК.                                              :IК (Омм)
NGК.                                             :NGК (усл.ед.)
PS.mV                                            :PS
PZ.                                              :PZ (Омм)
REZ.                                             :REZ (Омм)
U1.                                              :U1 (ue)
U2.                                              :U2 (ue)
U3.                                              :U3 (ue)
ГК.mcr/h                                         :ГКканаломНГК
~ASCII LOG DATA
# ...
124.0       520.328     125.748     2.478       54.614      2.033       276.147     245.257     2.083       1037.346    980.074     924.73      4.724       
124.1       508.124     125.387     2.484       54.981      2.06        275.637     242.941     2.151       1031.87     972.74      915.842     4.667       
124.2       504.534     126.579     2.483       55.769      2.039       274.891     237.279     2.142       1081.252    1026.096    972.458     4.682       
124.3       417.868     126.925     2.503       56.56       1.99        274.066     229.662     2.033       1117.086    1064.021    1011.93     4.882       
124.4       421.225     127.871     2.521       56.89       1.927       273.289     221.459     1.99        1157.459    1106.599    1056.086    5.225       
124.5       346.313     127.146     2.506       55.99       1.881       272.49      215.844     1.966       1194.944    1144.966    1094.942    5.584       
124.6       253.119     129.346     2.501       55.491      1.871       271.65      213.84      1.945       1240.251    1188.667    1137.002    5.922       
124.7       251.725     129.068     2.524       55.412      1.893       270.779     214.873     2.08        1271.609    1214.423    1157.725    5.961       
124.8       255.986     128.719     2.563       53.802      1.962       269.88      220.533     2.587       1282.824    1217.651    1153.934    5.67        
124.9       131.548     128.729     2.598       53.378      2.068       268.974     226.431     2.927       1317.221    1246.963    1178.717    5.095       
125.0       137.084     128.837     2.579       53.342      2.209       268.094     230.639     3.019       1356.572    1287.151    1219.496    4.446       
125.1       1019.162    129.081     2.567       53.287      2.333       267.253     227.999     3.091       1407.04     1338.867    1272.117    4.166       
125.2       3773.027    130.314     2.559       52.906      2.376       266.443     216.115     3.168       1457.867    1392.361    1327.738    4.306       
125.3       2989.379    133.944     2.58        52.496      2.3         265.709     205.182     2.861       1515.78     1453.226    1390.918    4.995       
125.4       1009.308    135.344     2.627       52.092      2.069       265.148     195.08      2.76        1584.896    1524.356    1463.503    5.882       
125.5       440.203     131.703     2.608       51.033      1.802       264.809     191.25      3.091       1644.435    1587.425    1529.43     6.445       
125.6       67.566      125.955     2.586       48.763      1.546       264.734     186.806     3.341       1694.617    1636.682    1577.739    6.559       
125.7       44.256      125.87      2.539       47.267      1.406       264.932     184.167     3.42        1732.368    1669.81     1606.66     6.141       
125.8       36.107      125.734     2.508       46.16       1.327       265.334     183.333     3.451       1756.99     1693.634    1629.742    5.648       
125.9       46.346      126.304     2.473       45.353      1.3         265.783     183.611     3.445       1760.595    1700.971    1640.455    5.39        
126.0       207.458     126.529     2.483       46.421      1.291       266.27      185.0       3.428       1738.069    1684.395    1629.329    5.424       
126.1       299.913     126.581     2.507       47.848      1.301       266.824     179.921     3.262       1710.696    1661.997    1611.524    5.675       
126.2       309.881     126.824     2.487       49.054      1.337       267.462     167.746     3.129       1680.265    1634.6      1586.952    5.852       
126.3       165.885     126.188     2.442       50.983      1.377       268.212     155.044     3.043       1644.337    1604.819    1562.75     6.065       
126.4       77.503      125.965     2.395       51.711      1.403       269.103     152.328     2.962       1606.532    1569.957    1530.601    6.29        
126.5       50.834      126.574     2.377       51.083      1.417       270.108     161.688     2.924       1561.397    1525.03     1485.952    6.264       
126.6       65.34       126.727     2.354       51.15       1.444       271.132     176.168     2.877       1499.492    1462.545    1423.06     5.996       
126.7       92.901      127.356     2.378       51.557      1.481       272.096     190.454     2.802       1446.684    1407.45     1366.001    5.735       
126.8       128.579     127.288     2.426       53.034      1.514       272.909     195.64      2.711       1404.134    1363.337    1320.585    5.713       
126.9       137.697     127.09      2.457       53.823      1.532       273.539     192.495     2.597       1381.456    1341.358    1299.307    5.79        
127.0       152.754     127.458     2.455       55.002      1.543       274.039     184.502     2.463       1372.401    1333.977    1293.476    5.824       
127.1       161.704     127.254     2.417       55.852      1.53        274.546     179.013     2.301       1376.417    1340.043    1301.418    5.939       
127.2       163.51      127.316     2.376       56.255      1.497       275.076     175.713     2.176       1408.395    1371.277    1331.994    6.115       
127.3       153.436     127.465     2.363       57.502      1.477       275.592     174.633     2.053       1428.604    1385.306    1340.566    6.277       
127.4       169.538     127.066     2.373       56.706      1.487       276.089     175.282     1.984       1414.756    1368.777    1321.756    6.349       
127.5       172.05      126.221     2.426       56.747      1.512       276.543     177.06      2.022       1366.083    1317.543    1268.433    6.429       
127.6       173.293     124.908     2.443       56.358      1.524       276.908     178.842     2.182       1306.298    1252.095    1198.24     6.511       
127.7       189.667     124.906     2.4         55.552      1.517       277.144     180.379     2.809       1250.249    1189.46     1130.027    6.523       
127.8       224.643     125.757     2.352       56.337      1.509       277.234     180.914     2.81        1214.772    1152.998    1092.776    6.486       
127.9       240.111     125.363     2.327       55.891      1.487       277.175     179.619     2.824       1199.733    1144.81     1090.636    6.512       
128.0       286.754     126.026     2.37        56.643      1.463       276.974     175.41      2.835       1211.139    1158.991    1107.191    6.581       
128.1       345.995     126.158     2.385       56.173      1.482       276.606     164.469     2.703       1259.409    1208.803    1158.169    6.58        
128.2       394.298     125.464     2.397       54.884      1.538       276.099     148.026     2.575       1314.768    1267.366    1219.262    6.523       
128.3       401.123     125.619     2.444       54.064      1.586       275.511     125.738     2.406       1355.837    1310.808    1264.513    6.526       
128.4       289.043     126.211     2.501       52.197      1.581       274.897     109.419     2.34        1360.834    1314.736    1267.407    6.558       
128.5       41.824      126.646     2.551       48.885      1.525       274.296     102.3       2.372       1332.808    1284.965    1236.188    6.512       
128.6       30.038      126.62      2.508       47.353      1.478       273.692     102.25      2.482       1311.993    1263.077    1213.437    6.4         
128.7       47.42       126.876     2.448       46.463      1.471       273.054     113.858     2.601       1297.73     1246.354    1194.59     6.325       
128.8       105.9       126.688     2.381       46.982      1.503       272.367     130.049     2.62        1275.993    1222.074    1168.14     6.37        
128.9       124.089     126.806     2.352       48.1        1.549       271.626     147.579     2.61        1264.245    1209.57     1155.025    6.517       
129.0       152.217     126.422     2.379       49.92       1.575       270.844     153.431     2.604       1273.808    1220.722    1167.57     6.568       
