~Version Information Section
VERS.                                         2.0:CWLS log ASCII Standart – VERSION 2.0
WRAP.                                          NO:One line per depth step
~Well Information Section
STRT.M                                        0.4:Начальная глубина
STOP.M                                      206.4:Конечная глубина
STEP.M                                          0:Шаг квантования по глубине
NULL.                                    -9999.25:Признак "Нет данных"
WELL.                                       157Мх:Скважина
~Parameter Information Section
~Curve Information Section
DEPTH.M                                          :Глубина
BK.Ohm*M                                         :BK     (БК)
DS.mm                                            :DS  (ДС)
GGK.g/cm3                                        :GGKp
ГК.mcr/h                                         :GK          (ГК)
GZ1.Ohm*M                                        :GZ1   ГЗ1(A0.4M0.1N)
GZ2.Ohm*M                                        :GZ2   ГЗ2(A1.0M0.1N)
GZ3.Ohm*M                                        :GZ3   ГЗ3(A2.0M0.5N)
GZ4.Ohm*M                                        :GZ4   ГЗ4(A4.0M0.5N)
GZ5.Ohm*M                                        :GZ5   ГЗ5(A8.0M0.5N)
GZR.                                             :GZR   ГЗK(N0.5M2.0A)
ИК.Ohm*M                                         :IK
НГК.ue                                           :NGK     (НГК)
NNKM.                                            :NNKm  (ННКм)
PS.mv                                            :PS       (ПС)
PZ.Ohm*M                                         :PZ    (КС)
RS.Ohm*M                                         :RS (Резистивиметр)
W.%                                              :W
~ASCII LOG DATA
# ...
185.4       106.257     150.216     2.387       4.834       120.739     181.513     187.897     184.76      239.185     41.575      61.169      2.32        3.04        44.577      208.239     1.102       19.359      
185.5       112.414     150.299     2.415       4.738       122.739     182.121     194.86      198.075     258.423     44.63       58.793      2.394       3.147       40.328      215.476     1.103       17.859      
185.6       122.546     150.514     2.442       4.737       126.432     186.241     206.423     216.647     280.151     48.458      56.717      2.554       3.237       36.799      223.78      1.104       15.952      
185.7       136.203     150.567     2.457       4.427       132.119     195.482     222.245     239.812     302.23      52.29       54.054      2.663       3.356       34.244      232.973     1.109       13.932      
185.8       170.163     150.317     2.461       4.054       141.675     209.196     242.32      265.258     322.874     55.412      50.329      2.751       3.461       32.662      242.692     1.116       12.329      
185.9       221.944     150.7       2.454       3.936       154.916     228.951     263.698     289.572     341.115     57.433      47.154      2.774       3.526       32.267      250.959     1.122       11.52       
186.0       242.786     150.75      2.451       4.026       171.373     254.17      283.952     310.867     354.274     58.062      44.16       2.848       3.509       32.267      256.396     1.124       11.283      
186.1       262.59      150.141     2.454       4.033       190.343     284.076     300.861     327.81      357.669     57.908      41.189      2.948       3.466       32.267      256.974     1.127       11.38       
186.2       280.668     149.713     2.458       4.095       213.086     317.203     312.486     338.176     356.815     56.749      38.364      3.017       3.418       32.586      255.465     1.128       11.561      
186.3       256.184     149.583     2.457       4.206       237.512     351.839     314.521     337.327     346.413     53.596      35.533      3.001       3.407       34.687      245.776     1.127       11.828      
186.4       214.67      149.744     2.449       4.158       255.892     380.284     311.528     329.154     322.792     48.398      33.245      2.964       3.364       39.383      224.927     1.126       12.211      
186.5       126.67      150.313     2.43        4.11        251.853     376.366     293.243     301.252     290.689     41.666      30.433      2.701       3.308       47.181      193.069     1.128       13.019      
186.6       53.195      150.706     2.411       4.697       227.572     351.0       259.059     255.893     256.074     34.156      27.98       2.46        3.091       58.369      159.799     1.131       14.122      
186.7       37.039      150.689     2.403       5.546       183.789     297.681     212.952     205.302     223.181     27.465      26.042      2.183       2.893       71.892      132.245     1.13        15.852      
186.8       32.974      150.831     2.398       6.431       130.422     227.805     161.652     155.949     191.08      21.758      24.328      2.089       2.599       86.616      113.644     1.132       17.984      
186.9       22.546      150.911     2.387       6.849       91.729      171.747     117.908     113.276     157.044     17.905      22.931      1.865       2.466       101.35      100.468     1.133       20.586      
187.0       18.433      150.871     2.365       7.313       61.34       123.85      87.693      81.458      122.724     15.298      21.767      1.693       2.327       114.773     91.054      1.132       23.198      
187.1       21.477      150.859     2.346       7.537       42.654      90.997      70.422      60.358      93.6        13.819      21.014      1.572       2.295       125.983     86.387      1.134       24.766      
187.2       28.276      150.833     2.334       7.559       37.411      76.82       57.866      49.251      72.298      12.755      20.339      1.59        2.301       135.209     84.068      1.134       25.219      
187.3       24.758      150.886     2.347       7.385       33.544      67.444      49.246      42.82       58.006      11.783      19.594      1.592       2.333       142.443     82.016      1.133       24.384      
187.4       21.767      150.984     2.367       7.356       29.198      55.831      43.96       37.95       49.119      10.77       18.967      1.589       2.319       147.834     80.059      1.131       23.499      
187.5       20.185      150.826     2.368       7.649       25.377      45.745      39.301      33.55       43.818      9.871       18.441      1.602       2.252       151.778     78.224      1.13        23.758      
187.6       18.319      150.965     2.341       8.031       22.506      36.78       34.762      29.165      40.324      9.31        18.043      1.568       2.09        154.317     77.054      1.13        25.335      
187.7       16.89       150.906     2.312       8.395       19.731      29.612      31.404      25.833      37.405      9.149       17.745      1.498       1.97        155.644     76.193      1.131       27.37       
187.8       16.53       150.76      2.291       8.555       17.204      24.705      28.961      23.26       34.892      9.188       17.582      1.405       1.863       156.048     75.335      1.133       28.649      
187.9       17.002      150.794     2.277       8.76        15.953      21.832      27.442      21.428      33.086      9.389       17.576      1.366       1.865       156.048     74.416      1.134       29.175      
188.0       17.354      150.892     2.277       9.072       15.17       19.586      26.687      20.243      32.467      9.577       17.549      1.381       1.881       155.986     73.55       1.132       29.413      
188.1       17.124      150.878     2.287       9.371       14.333      17.974      26.514      19.527      32.403      9.55        17.666      1.417       1.899       155.573     72.597      1.132       29.322      
188.2       17.667      150.761     2.284       9.32        13.523      16.838      26.561      19.231      33.358      9.392       17.842      1.49        1.905       154.774     71.658      1.132       29.47       
188.3       17.755      150.686     2.276       9.045       12.975      16.07       26.9        19.252      35.593      9.202       18.099      1.515       1.895       154.082     70.854      1.131       30.165      
188.4       17.788      150.686     2.277       8.486       12.779      15.585      27.816      19.661      38.009      9.301       18.397      1.5         1.884       153.472     70.406      1.133       30.35       
188.5       18.832      150.65      2.29        8.218       12.673      15.334      29.764      21.573      39.851      10.001      18.638      1.483       1.924       153.058     70.254      1.131       29.395      
188.6       19.959      150.765     2.311       8.163       12.972      15.885      33.143      24.642      41.043      11.53       18.882      1.508       1.983       152.957     70.129      1.128       27.861      
188.7       22.389      150.825     2.339       8.261       14.378      18.272      36.675      27.723      42.981      13.03       19.023      1.607       2.109       152.957     69.794      1.125       26.925      
188.8       27.59       150.855     2.364       8.195       15.564      19.216      39.358      30.001      46.349      14.141      19.103      1.684       2.191       152.957     69.019      1.128       26.484      
188.9       26.753      150.785     2.384       8.013       16.955      19.989      39.998      31.395      51.089      14.891      19.119      1.738       2.249       153.039     68.264      1.132       25.929      
189.0       26.155      150.856     2.395       7.915       17.15       19.838      39.998      32.568      56.158      15.926      19.164      1.758       2.244       153.511     67.849      1.132       25.843      
