~Version Information Section
VERS.                                         2.0:CWLS log ASCII Standart – VERSION 2.0
WRAP.                                          NO:One line per depth step
~Well Information Section
STRT.M                                        0.5:Начальная глубина
STOP.M                                      158.2:Конечная глубина
STEP.M                                          0:Шаг квантования по глубине
NULL.                                    -9999.25:Признак "Нет данных"
WELL.                                       136Мх:Скважина
~Parameter Information Section
~Curve Information Section
DEPTH.M                                          :Глубина
BK.Ohm*M                                         :BK     (БК)
DS.mm                                            :DS  (ДС)
GGK.g/cm3                                        :GGKp
ГК.mcr/h                                         :GK          (ГК)
GZ1.Ohm*M                                        :GZ1   ГЗ1(A0.4M0.1N)
GZ2.Ohm*M                                        :GZ2   ГЗ2(A1.0M0.1N)
GZ3.Ohm*M                                        :GZ3   ГЗ3(A2.0M0.5N)
GZ4.Ohm*M                                        :GZ4   ГЗ4(A4.0M0.5N)
GZ5.Ohm*M                                        :GZ5   ГЗ5(A8.0M0.5N)
GZR.Ohm*M                                        :GZK   ГЗK(N0.5M2.0A)
ИК.Ohm*M                                         :IK
НГК.ue                                           :NGK     (НГК)
NNKM.                                            :NNKm  (ННКм)
PS.mv                                            :PS       (ПС)
PZ.Ohm*M                                         :PZ    (КС)
RS.Ohm*M                                         :RS (Резистивиметр)
U1.mV                                            :U1
U2.mV                                            :U2
U3.mV                                            :U3
КП.%                                             :Кп
~ASCII LOG DATA
# ...
90.1        80.378      131.098     2.138       4.544       77.279      65.367      40.37       26.759      15.874      64.735      43.628      1.387       2.335       70.122      75.718      1.087       -2264.9     89.289      -2060.01    35.575      
90.2        77.912      131.014     2.142       4.668       73.406      66.05       41.836      26.842      16.124      64.103      43.752      1.42        2.335       73.135      75.337      1.087       -2235.45    70.283      -2183.9     35.162      
90.3        77.379      131.037     2.146       4.764       69.49       66.527      42.857      27.035      16.693      63.247      43.89       1.403       2.322       75.49       74.749      1.087       -2204.97    71.504      -2209.88    35.115      
90.4        78.375      130.987     2.14        4.892       65.873      66.527      44.137      27.201      17.542      62.375      43.752      1.443       2.309       76.936      74.021      1.087       -2208.78    88.543      -2137.93    34.652      
90.5        81.721      131.256     2.142       4.932       64.047      66.527      45.871      27.254      18.396      61.687      43.628      1.405       2.308       77.44       73.192      1.087       -2246.88    101.173     -2034.75    33.638      
90.6        85.561      131.17      2.163       4.747       64.047      65.693      47.974      27.298      19.297      60.739      43.657      1.399       2.312       77.44       72.285      1.087       -2286.01    98.306      -1980.25    32.496      
90.7        84.829      131.08      2.198       4.587       64.047      64.003      50.514      27.335      20.066      59.742      43.596      1.356       2.327       77.44       71.294      1.087       -2305.57    84.351      -2005.68    32.237      
90.8        84.831      131.249     2.215       4.634       64.047      61.426      53.321      27.09       20.669      58.635      43.596      1.319       2.351       77.045      70.308      1.087       -2291.12    70.031      -2106.3     32.812      
90.9        81.215      131.196     2.214       4.81        64.098      58.384      55.582      26.937      21.376      56.957      43.567      1.37        2.376       75.863      69.412      1.087       -2262.24    60.485      -2194.2     33.634      
91.0        78.669      131.168     2.198       4.829       65.394      55.567      57.146      26.937      22.76       54.593      43.412      1.377       2.37        74.051      68.701      1.087       -2230.61    61.882      -2215.56    34.961      
91.1        77.722      131.378     2.185       4.719       66.994      53.7        57.615      26.845      24.656      52.021      43.365      1.418       2.34        71.889      68.202      1.087       -2217.5     64.359      -2193.94    35.809      
91.2        77.308      131.449     2.184       4.69        68.514      53.11       57.615      26.483      26.309      49.414      43.126      1.355       2.333       69.47       68.006      1.087       -2222.93    56.973      -2195.89    36.315      
91.3        77.14       131.604     2.181       4.517       69.571      52.9        57.718      25.862      28.016      46.541      43.111      1.366       2.33        66.844      68.006      1.087       -2241.15    43.415      -2220.44    36.923      
91.4        76.851      131.839     2.191       4.33        69.669      52.9        57.718      25.245      29.143      43.872      42.952      1.36        2.298       64.04       68.006      1.087       -2265.32    34.652      -2227.43    37.919      
91.5        73.481      131.793     2.197       4.228       69.687      52.9        57.41       25.013      29.612      42.123      42.841      1.327       2.275       61.08       68.006      1.087       -2285.41    36.852      -2194.26    37.739      
91.6        66.397      131.532     2.194       4.386       70.287      53.171      57.104      25.013      29.612      41.313      42.506      1.311       2.287       57.994      68.158      1.087       -2295.45    53.662      -2146.61    36.3        
91.7        66.13       131.535     2.198       4.606       70.806      54.095      56.462      24.982      29.612      41.101      42.274      1.322       2.292       54.819      68.662      1.087       -2272.92    83.982      -2101.04    34.835      
91.8        71.022      131.565     2.196       4.734       71.445      55.154      55.675      24.982      29.586      40.765      42.217      1.341       2.283       51.605      69.496      1.087       -2227.85    122.894     -2057.96    34.659      
91.9        75.473      131.51      2.179       4.819       72.214      56.351      54.298      24.72       29.579      40.318      42.155      1.318       2.292       48.42       70.65       1.087       -2182.72    142.274     -2029.78    35.348      
92.0        77.551      131.698     2.174       4.803       72.97       57.286      52.448      24.644      29.339      40.318      42.405      1.25        2.313       45.355      71.999      1.087       -2160.12    147.044     -2016.09    35.499      
92.1        78.609      131.636     2.188       4.784       72.8        57.286      50.563      24.964      29.082      40.539      42.405      1.215       2.313       42.532      73.382      1.087       -2160.04    155.94      -2016.18    35.194      
92.2        75.653      131.719     2.202       4.848       71.914      58.293      49.476      25.374      28.868      41.451      42.479      1.232       2.304       40.072      74.676      1.087       -2124.67    176.16      -2018.2     35.746      
92.3        66.806      131.556     2.206       4.908       73.253      59.712      49.297      25.722      28.652      42.139      42.217      1.283       2.311       38.092      75.746      1.087       -2088.86    188.968     -2022.85    37.73       
92.4        50.818      131.9       2.209       4.869       75.276      60.899      49.297      26.185      28.33       43.591      41.792      1.302       2.313       36.707      76.541      1.087       -2070.51    180.548     -2030.44    37.76       
92.5        54.73       132.418     2.205       4.747       75.876      61.768      49.297      27.049      27.998      45.165      41.668      1.306       2.262       35.849      77.078      1.087       -2107.49    158.85      -2035.71    36.419      
92.6        82.638      132.567     2.191       4.646       76.26       61.967      49.297      28.097      28.066      45.928      41.54       1.303       2.215       35.58       77.375      1.087       -2164.88    137.69      -2030.96    34.97       
92.7        90.085      131.496     2.19        4.589       77.255      61.655      49.908      29.259      28.061      46.021      41.611      1.331       2.204       35.58       77.465      1.087       -2204.8     123.942     -2016.21    36.034      
92.8        80.785      131.723     2.168       4.416       77.324      60.786      51.051      30.309      27.779      46.136      41.817      1.295       2.23        35.58       77.465      1.087       -2224.76    133.629     -1966.83    37.954      
92.9        80.412      132.273     2.154       4.297       77.324      60.016      52.452      31.217      27.28       46.41       41.792      1.273       2.299       35.58       77.465      1.087       -2210.61    165.156     -1933.01    38.704      
93.0        84.535      133.171     2.131       4.271       77.381      61.051      53.608      31.824      26.87       46.871      41.775      1.262       2.266       35.937      77.386      1.087       -2182.29    195.088     -1949.37    39.2        
93.1        82.324      133.06      2.12        4.398       78.826      62.277      54.293      32.137      26.584      46.728      41.513      1.318       2.184       36.949      77.151      1.087       -2110.48    206.866     -2043.17    37.204      
93.2        83.774      133.442     2.125       4.479       80.348      64.153      54.968      32.422      26.35       45.987      41.154      1.387       2.166       38.619      76.731      1.087       -2045.97    198.475     -2128.79    34.138      
