~Version Information Section
VERS.                                         2.0:CWLS log ASCII Standart – VERSION 2.0
WRAP.                                          NO:One line per depth step
~Well Information Section
STRT.M                                       -2.2:Начальная глубина
STOP.M                                      205.6:Конечная глубина
STEP.M                                          0:Шаг квантования по глубине
NULL.                                    -9999.25:Признак "Нет данных"
WELL.                                       108Мх:Скважина
~Parameter Information Section
~Curve Information Section
DEPTH.M                                          :Глубина
BK.Ohm*M                                         :BK     (БК)
DS.mm                                            :DS  (ДС)
GGK.g/cm3                                        :GGKp
ГК.mcr/h                                         :GK          (ГК)
GZ1.Ohm*M                                        :GZ1   ГЗ1(A0.4M0.1N)
GZ2.Ohm*M                                        :GZ2   ГЗ2(A1.0M0.1N)
GZ3.Ohm*M                                        :GZ3   ГЗ3(A2.0M0.5N)
GZ4.Ohm*M                                        :GZ4   ГЗ4(A4.0M0.5N)
GZ5.Ohm*M                                        :GZ5   ГЗ5(A8.0M0.5N)
GZR.Ohm*M                                        :GZK   ГЗK(N0.5M2.0A)
ИК.Ohm*M                                         :IK
НГК.ue                                           :NGK     (НГК)
NNKM.                                            :NNKm  (ННКм)
PS.mv                                            :PS       (ПС)
PZ.Ohm*M                                         :PZ    (КС)
RS.Ohm*M                                         :RS (Резистивиметр)
U1.mV                                            :U1
U2.mV                                            :U2
U3.mV                                            :U3
КП.%                                             :Кп
~ASCII LOG DATA
# ...
75.8        -9999.25    136.736     -9999.25    -9999.25    987.205     169.648     22.998      19141.279   0.318       30.081      -9999.25    -9999.25    -9999.25    1127.262    77.926      66.62       929.179     1076.171    1279.63     -9999.25    
75.83       4391.673    -9999.25    2.176       6.276       -9999.25    -9999.25    -9999.25    -9999.25    -9999.25    -9999.25    16.106      6.058       3.955       -9999.25    -9999.25    -9999.25    -9999.25    -9999.25    -9999.25    2.668       
75.9        -9999.25    136.687     -9999.25    -9999.25    987.205     169.648     22.998      14371.953   0.299       30.081      -9999.25    -9999.25    -9999.25    1097.533    76.283      66.62       873.357     1085.749    1318.481    -9999.25    
75.93       3015.293    -9999.25    2.159       6.211       -9999.25    -9999.25    -9999.25    -9999.25    -9999.25    -9999.25    16.112      5.836       3.854       -9999.25    -9999.25    -9999.25    -9999.25    -9999.25    -9999.25    2.905       
76.0        -9999.25    136.936     -9999.25    -9999.25    987.205     169.648     22.998      11192.361   0.286       30.081      -9999.25    -9999.25    -9999.25    1040.066    73.814      66.62       795.704     1080.086    1351.772    -9999.25    
76.03       1948.337    -9999.25    2.149       5.895       -9999.25    -9999.25    -9999.25    -9999.25    -9999.25    -9999.25    16.066      5.701       3.835       -9999.25    -9999.25    -9999.25    -9999.25    -9999.25    -9999.25    2.921       
76.1        -9999.25    136.628     -9999.25    -9999.25    987.205     169.648     22.998      9602.529    0.28        30.081      -9999.25    -9999.25    -9999.25    945.717     70.629      66.62       744.25      1048.015    1363.163    -9999.25    
76.13       2297.023    -9999.25    2.143       5.862       -9999.25    -9999.25    -9999.25    -9999.25    -9999.25    -9999.25    16.091      5.834       3.887       -9999.25    -9999.25    -9999.25    -9999.25    -9999.25    -9999.25    2.675       
76.2        -9999.25    136.396     -9999.25    -9999.25    987.205     169.648     22.998      9602.529    0.28        30.081      -9999.25    -9999.25    -9999.25    823.919     66.829      66.62       795.849     1010.687    1320.049    -9999.25    
76.23       2140.202    -9999.25    2.13        5.963       -9999.25    -9999.25    -9999.25    -9999.25    -9999.25    -9999.25    16.231      6.077       3.935       -9999.25    -9999.25    -9999.25    -9999.25    -9999.25    -9999.25    2.38        
76.3        -9999.25    136.417     -9999.25    -9999.25    987.205     169.648     22.998      9602.529    0.28        30.081      -9999.25    -9999.25    -9999.25    723.102     62.576      66.62       1112.892    1024.74     1264.832    -9999.25    
76.33       2484.877    -9999.25    2.122       6.036       -9999.25    -9999.25    -9999.25    -9999.25    -9999.25    -9999.25    16.437      6.253       3.997       -9999.25    -9999.25    -9999.25    -9999.25    -9999.25    -9999.25    2.28        
76.4        -9999.25    137.069     -9999.25    -9999.25    987.205     169.648     22.998      9602.529    0.28        30.081      -9999.25    -9999.25    -9999.25    647.161     58.039      24.834      1744.743    1103.056    1172.4      -9999.25    
76.43       4037.43     -9999.25    2.129       5.847       -9999.25    -9999.25    -9999.25    -9999.25    -9999.25    -9999.25    16.717      6.396       4.056       -9999.25    -9999.25    -9999.25    -9999.25    -9999.25    -9999.25    2.271       
76.5        -9999.25    137.103     -9999.25    -9999.25    987.205     169.648     22.998      9602.529    0.28        30.081      -9999.25    -9999.25    -9999.25    590.146     53.408      24.834      2461.552    1189.425    1034.505    -9999.25    
76.53       3810.093    -9999.25    2.143       5.862       -9999.25    -9999.25    -9999.25    -9999.25    -9999.25    -9999.25    16.954      6.425       4.082       -9999.25    -9999.25    -9999.25    -9999.25    -9999.25    -9999.25    2.266       
76.6        -9999.25    136.684     -9999.25    -9999.25    987.205     169.648     22.998      9602.529    0.28        30.081      -9999.25    -9999.25    -9999.25    536.602     48.925      24.834      2958.962    1205.268    822.717     -9999.25    
76.63       3477.935    -9999.25    2.155       6.129       -9999.25    -9999.25    -9999.25    -9999.25    -9999.25    -9999.25    17.149      6.468       4.102       -9999.25    -9999.25    -9999.25    -9999.25    -9999.25    -9999.25    2.258       
76.7        -9999.25    135.702     -9999.25    -9999.25    987.205     169.648     22.998      9602.529    0.28        30.081      -9999.25    -9999.25    -9999.25    487.765     44.703      24.649      3089.48     1150.318    636.59      -9999.25    
76.73       2368.405    -9999.25    2.162       6.408       -9999.25    -9999.25    -9999.25    -9999.25    -9999.25    -9999.25    17.253      6.286       4.085       -9999.25    -9999.25    -9999.25    -9999.25    -9999.25    -9999.25    2.332       
76.8        -9999.25    135.513     -9999.25    -9999.25    987.205     169.648     22.998      9602.529    0.28        30.081      -9999.25    -9999.25    -9999.25    453.55      41.059      24.246      2855.278    1092.627    522.774     -9999.25    
76.83       4210.41     -9999.25    2.169       6.597       -9999.25    -9999.25    -9999.25    -9999.25    -9999.25    -9999.25    17.283      6.058       4.022       -9999.25    -9999.25    -9999.25    -9999.25    -9999.25    -9999.25    2.461       
76.9        -9999.25    135.398     -9999.25    -9999.25    987.205     169.648     22.998      9602.529    0.28        30.081      -9999.25    -9999.25    -9999.25    438.851     38.467      23.767      2311.971    1056.258    536.72      -9999.25    
76.93       5632.576    -9999.25    2.162       6.735       -9999.25    -9999.25    -9999.25    -9999.25    -9999.25    -9999.25    17.198      5.941       3.976       -9999.25    -9999.25    -9999.25    -9999.25    -9999.25    -9999.25    2.658       
77.0        -9999.25    135.353     -9999.25    -9999.25    987.205     169.648     22.998      9602.529    0.28        30.081      -9999.25    -9999.25    -9999.25    460.268     37.311      23.767      1711.351    1023.684    614.293     -9999.25    
77.03       2867.716    -9999.25    2.158       6.906       -9999.25    -9999.25    -9999.25    -9999.25    -9999.25    -9999.25    17.13       5.933       3.943       -9999.25    -9999.25    -9999.25    -9999.25    -9999.25    -9999.25    2.973       
77.1        -9999.25    135.17      -9999.25    -9999.25    987.205     169.648     22.998      9602.529    0.28        30.081      -9999.25    -9999.25    -9999.25    505.027     37.991      23.767      1374.167    999.658     722.215     -9999.25    
77.13       1717.985    -9999.25    2.15        6.854       -9999.25    -9999.25    -9999.25    -9999.25    -9999.25    -9999.25    16.985      5.942       3.918       -9999.25    -9999.25    -9999.25    -9999.25    -9999.25    -9999.25    3.286       
77.2        -9999.25    134.787     -9999.25    -9999.25    987.205     169.648     22.998      9602.529    0.28        30.081      -9999.25    -9999.25    -9999.25    524.157     40.883      23.767      1406.412    1016.728    799.648     -9999.25    
77.23       213.435     -9999.25    2.139       6.62        -9999.25    -9999.25    -9999.25    -9999.25    -9999.25    -9999.25    16.939      5.893       3.945       -9999.25    -9999.25    -9999.25    -9999.25    -9999.25    -9999.25    3.466       
77.3        -9999.25    134.36      -9999.25    -9999.25    987.205     169.648     22.998      9602.529    0.28        30.081      -9999.25    -9999.25    -9999.25    519.325     46.072      22.537      1607.768    1072.371    833.273     -9999.25    
77.33       141.667     -9999.25    2.135       6.255       -9999.25    -9999.25    -9999.25    -9999.25    -9999.25    -9999.25    16.982      5.865       4.01        -9999.25    -9999.25    -9999.25    -9999.25    -9999.25    -9999.25    3.429       
