~Version Information Section
VERS.                                         2.0:CWLS log ASCII Standart – VERSION 2.0
WRAP.                                          NO:One line per depth step
~Well Information Section
STRT.M                                        0.7:Начальная глубина
STOP.M                                      200.1:Конечная глубина
STEP.M                                          0:Шаг квантования по глубине
NULL.                                    -9999.25:Признак "Нет данных"
WELL.                                       111Мх:Скважина
~Parameter Information Section
~Curve Information Section
DEPTH.M                                          :Глубина
DСР.mm                                           :Dср
ГК.1/min                                         :GK
ИК.mSim/m                                        :IK
N0.5M2.0A.Омм                                    :N0
НГК.усл.ед                                       :NGK
PZ.Ohm*M                                         :PZ
R.Ohm*M                                          :R
PS.mV                                            :ПС
U1.mV                                            :U1
U2.                                              :U2
U3.mV                                            :U3
А0.4М0.1N.Омм                                    :А0
А1.0М0.1N.Омм                                    :А1
А2.0М0.5N.Омм                                    :А2
А4.0М0.5N.Oмм                                    :А4
А8.0М1.0N.Омм                                    :А8
BK.Ohm*M                                         :БК
ГГК.1/min                                        :ГГК
КП.%                                             :Кп
ННКМ.усл.ед                                      :ННКм
~ASCII LOG DATA
# ...
192.7       120.023     5.942       14.783      -9999.25    1.776       130.0       -9999.25    333.502     1086.328    1400.294    1207.074    -9999.25    7.078       11.538      -9999.25    -9999.25    37.647      2.34        25.764      2.122       
192.8       120.002     6.163       14.61       -9999.25    1.789       127.0       -9999.25    327.096     1071.48     1398.014    1218.51     -9999.25    7.091       9.872       -9999.25    -9999.25    33.806      2.348       27.641      2.072       
192.9       119.918     6.522       14.452      -9999.25    1.877       124.0       -9999.25    321.306     1046.063    1400.314    1250.688    -9999.25    7.108       9.623       -9999.25    -9999.25    32.766      2.35        29.328      2.032       
193.0       119.884     6.701       14.359      -9999.25    1.882       122.0       -9999.25    316.008     1020.641    1406.074    1287.328    -9999.25    -9999.25    9.623       -9999.25    -9999.25    33.037      2.343       30.596      2.015       
193.1       119.709     6.909       14.335      -9999.25    1.896       122.0       -9999.25    311.203     1001.667    1414.46     1323.968    -9999.25    -9999.25    9.623       -9999.25    -9999.25    33.833      2.328       31.512      2.025       
193.2       119.719     7.043       14.357      -9999.25    1.83        121.0       -9999.25    307.261     996.09      1422.844    1348.007    -9999.25    -9999.25    9.802       -9999.25    -9999.25    37.491      2.319       31.43       2.051       
193.3       119.815     7.507       14.426      -9999.25    1.685       119.0       -9999.25    304.304     1011.191    1430.432    1345.28     -9999.25    -9999.25    10.523      -9999.25    -9999.25    49.401      2.317       31.018      2.127       
193.4       120.069     6.739       14.565      -9999.25    1.491       119.0       -9999.25    301.84      1063.145    1433.777    1311.742    -9999.25    -9999.25    12.211      -9999.25    -9999.25    95.554      2.321       29.959      2.245       
193.5       120.054     5.203       14.76       -9999.25    1.372       118.0       -9999.25    299.992     1132.224    1432.148    1264.167    -9999.25    -9999.25    15.16       -9999.25    -9999.25    144.607     2.327       28.982      2.352       
193.6       120.078     5.291       14.943      -9999.25    1.361       118.0       -9999.25    298.76      1199.033    1429.626    1215.011    -9999.25    -9999.25    18.775      -9999.25    -9999.25    154.837     2.332       27.997      2.422       
193.7       120.253     5.357       15.085      -9999.25    1.336       118.0       -9999.25    297.651     1256.918    1426.387    1171.382    -9999.25    -9999.25    22.253      -9999.25    -9999.25    179.651     2.337       26.656      2.446       
193.8       120.58      5.146       15.165      -9999.25    1.451       119.0       -9999.25    296.542     1274.678    1421.924    1149.178    -9999.25    -9999.25    26.392      -9999.25    -9999.25    237.27      2.343       24.893      2.603       
193.9       120.548     5.059       15.155      -9999.25    1.523       123.0       -9999.25    295.803     1247.578    1417.463    1150.286    -9999.25    -9999.25    28.905      -9999.25    -9999.25    235.159     2.352       24.106      2.78        
194.0       120.543     4.627       15.044      -9999.25    1.518       126.0       -9999.25    295.187     1203.352    1415.57     1162.133    -9999.25    -9999.25    29.022      -9999.25    -9999.25    146.433     2.363       24.133      2.797       
194.1       120.844     4.762       14.826      -9999.25    1.741       133.0       -9999.25    294.818     1164.203    1415.762    1175.56     -9999.25    -9999.25    29.094      -9999.25    -9999.25    71.665      2.371       23.921      2.706       
194.2       121.673     5.03        14.509      -9999.25    1.608       133.0       -9999.25    294.818     1139.036    1418.321    1188.342    -9999.25    -9999.25    -9999.25    -9999.25    -9999.25    49.263      2.369       23.621      2.463       
194.3       122.362     6.08        14.105      -9999.25    1.747       134.0       -9999.25    294.818     1150.283    1425.456    1192.334    -9999.25    -9999.25    -9999.25    -9999.25    -9999.25    44.583      2.356       23.78       2.291       
194.4       118.97      6.605       13.652      -9999.25    1.712       134.0       -9999.25    294.818     1178.808    1434.278    1188.193    -9999.25    -9999.25    -9999.25    -9999.25    -9999.25    41.977      2.338       24.333      2.271       
194.5       118.948     6.344       13.211      -9999.25    1.891       134.0       -9999.25    294.941     1211.764    1442.075    1181.899    -9999.25    -9999.25    -9999.25    -9999.25    -9999.25    38.463      2.326       26.008      2.202       
194.6       118.976     6.278       12.756      -9999.25    1.829       133.0       -9999.25    295.68      1240.946    1447.588    1172.672    -9999.25    -9999.25    -9999.25    -9999.25    -9999.25    33.646      2.322       27.356      2.116       
194.7       119.042     7.19        12.286      -9999.25    1.812       133.0       -9999.25    296.789     1261.325    1446.435    1164.348    -9999.25    -9999.25    -9999.25    -9999.25    -9999.25    32.004      2.319       28.413      1.991       
194.8       119.247     7.373       11.872      -9999.25    1.672       133.0       -9999.25    298.144     1254.383    1433.331    1161.219    -9999.25    -9999.25    -9999.25    -9999.25    -9999.25    35.304      2.315       29.491      1.89        
194.9       119.517     7.142       11.551      -9999.25    1.834       130.0       -9999.25    299.499     1215.493    1408.934    1163.934    -9999.25    -9999.25    -9999.25    -9999.25    -9999.25    39.84       2.311       30.554      1.95        
195.0       119.485     6.886       11.356      -9999.25    1.659       129.0       -9999.25    300.608     1151.731    1378.142    1170.147    -9999.25    -9999.25    -9999.25    -9999.25    -9999.25    42.662      2.305       31.572      2.034       
195.1       117.397     6.374       11.273      -9999.25    1.608       128.0       -9999.25    301.47      1081.942    1345.621    1180.491    -9999.25    -9999.25    -9999.25    -9999.25    -9999.25    45.512      2.301       32.265      2.085       
195.2       117.461     6.557       11.273      -9999.25    1.572       127.0       -9999.25    302.21      1006.876    1316.27     1186.304    -9999.25    -9999.25    -9999.25    -9999.25    -9999.25    48.975      2.3         31.476      2.139       
195.3       114.323     6.739       11.318      -9999.25    1.472       127.0       -9999.25    303.072     950.228     1295.916    1187.964    -9999.25    -9999.25    -9999.25    -9999.25    -9999.25    49.282      2.311       30.891      2.175       
195.4       113.999     6.547       11.342      -9999.25    1.619       127.0       -9999.25    304.181     919.525     1285.816    1185.73     -9999.25    -9999.25    -9999.25    -9999.25    -9999.25    44.246      2.327       30.868      2.175       
195.5       114.04      6.451       11.318      -9999.25    1.617       127.0       -9999.25    305.906     909.259     1282.699    1186.06     -9999.25    -9999.25    -9999.25    -9999.25    -9999.25    36.905      2.348       31.201      2.138       
195.6       113.971     7.043       11.21       -9999.25    1.68        127.0       -9999.25    308.0       901.886     1281.917    1185.568    -9999.25    -9999.25    -9999.25    -9999.25    -9999.25    33.142      2.355       31.863      2.001       
195.7       113.825     7.318       11.021      -9999.25    1.497       127.0       -9999.25    310.464     898.891     1282.839    1189.347    -9999.25    -9999.25    -9999.25    -9999.25    -9999.25    35.642      2.348       31.974      1.884       
195.8       113.697     8.102       10.84       -9999.25    1.473       129.0       -9999.25    313.174     896.415     1282.017    1189.649    -9999.25    -9999.25    -9999.25    -9999.25    -9999.25    38.945      2.324       32.156      1.876       
