~Version Information Section
VERS.                                         2.0:CWLS log ASCII Standart – VERSION 2.0
WRAP.                                          NO:One line per depth step
~Well Information Section
STRT.M                                        0.6:Начальная глубина
STOP.M                                      143.2:Конечная глубина
STEP.M                                          0:Шаг квантования по глубине
NULL.                                    -9999.25:Признак "Нет данных"
WELL.                                       116Мх:Скважина
~Parameter Information Section
~Curve Information Section
DEPTH.M                                          :Глубина
BK.lgОмм                                         :BK     (БК)
ПРОФ_СР.мм                                       :DS  (ДС)
ГК.мкР/час                                       :GK          (ГК)
ГЗ1.Омм                                          :GZ1   ГЗ1(A0.4M0.1N)
ГЗ2.Омм                                          :GZ2   ГЗ2(A1.0M0.1N)
ГЗ3.Омм                                          :GZ3   ГЗ3(A2.0M0.5N)
ГЗ4.Oмм                                          :GZ4   ГЗ4(A4.0M0.5N)
ГЗ5.Oмм                                          :GZ5   ГЗ5(A8.0M0.5N)
ГЗК.Омм                                          :GZK   ГЗK(N0.5M2.0A)
ИК.мСм/м                                         :IK
НГК.усл.ед.                                      :NGK     (НГК)
ПС.мВ                                            :PS       (ПС)
PZ.Омм                                           :PZ    (КС)
RIS.Омм                                          :RS (Резистивиметр)
U1.мВ                                            :U1
U2.mV                                            :U2
U3.мВ                                            :U3
W.г/см3                                          :ГГКп
П.%                                              :п
ННКМ.усл.ед                                      :ННКм
~ASCII LOG DATA
# ...
125.4       121.619     152.556     3.412       150.095     182.886     182.859     170.925     148.797     149.052     43.714      2.492       154.456     194.148     1.125       840.0       880.0       1280.0      2.633       3.941       3.628       
125.5       109.144     152.542     3.309       152.245     183.635     183.531     172.842     149.456     149.513     43.858      2.507       152.175     194.059     1.125       840.0       870.0       1280.0      2.613       3.59        3.634       
125.6       144.212     152.705     3.345       154.677     183.937     184.443     174.589     150.135     149.931     45.098      2.613       149.893     194.015     1.125       840.0       870.0       1150.0      2.581       3.06        3.615       
125.7       177.419     152.755     3.365       157.208     184.182     185.531     176.109     150.856     150.32      45.593      2.644       147.27      194.0       1.125       850.0       870.0       1110.0      2.584       2.424       3.659       
125.8       306.902     152.839     3.276       159.639     184.427     186.747     177.344     151.657     150.69      46.181      2.693       143.619     194.0       1.125       850.0       870.0       1060.0      2.592       2.23        3.74        
125.9       414.954     152.811     3.118       161.791     184.686     188.011     178.365     152.598     151.049     46.751      2.766       139.627     194.0       1.125       850.0       870.0       1060.0      2.584       2.198       3.78        
126.0       406.443     152.875     3.258       163.544     184.931     188.907     179.242     153.713     151.408     47.916      2.856       135.52      194.015     1.125       850.0       870.0       1060.0      2.603       2.434       3.796       
126.1       411.15      153.134     3.318       164.871     185.19      189.483     180.01      154.999     151.78      48.221      2.896       131.87      194.059     1.125       850.0       870.0       1050.0      2.616       2.723       3.843       
126.2       439.542     153.193     3.341       165.809     185.449     189.787     180.675     156.421     152.183     48.731      2.823       128.105     194.163     1.125       850.0       810.0       1030.0      2.612       3.252       3.884       
126.3       503.5       153.193     3.017       166.441     185.679     189.851     181.258     157.897     152.641     48.883      2.752       124.341     194.341     1.125       830.0       790.0       1000.0      2.61        3.748       3.867       
126.4       505.825     153.243     3.039       166.864     185.852     189.851     181.738     159.3       153.18      49.198      2.7         120.576     194.637     1.125       810.0       790.0       930.0       2.594       4.052       3.829       
126.5       514.044     153.152     3.201       167.168     185.953     189.851     182.093     160.527     153.804     49.41       2.651       117.268     195.067     1.125       820.0       800.0       950.0       2.57        4.228       3.761       
126.6       481.948     153.211     3.375       167.411     185.996     189.755     182.336     161.511     154.498     48.731      2.634       114.416     195.615     1.125       830.0       800.0       960.0       2.552       4.33        3.74        
126.7       347.536     153.256     3.274       167.622     185.996     189.707     182.48      162.225     155.229     48.988      2.641       112.021     196.193     1.125       830.0       820.0       970.0       2.555       4.332       3.791       
126.8       233.346     153.17      3.202       167.81      185.996     189.691     182.544     162.687     155.947     48.731      2.595       109.853     196.741     1.125       850.0       830.0       980.0       2.553       4.344       3.821       
126.9       230.675     153.188     3.151       167.974     186.011     189.691     182.557     162.957     156.589     47.969      2.567       107.8       197.23      1.125       870.0       880.0       990.0       2.555       4.25        3.826       
127.0       343.558     153.003     3.458       168.106     186.025     189.691     182.557     163.099     157.119     47.916      2.491       105.861     197.689     1.125       740.508     870.0       990.0       2.557       4.208       3.82        
127.1       474.242     152.787     3.544       168.202     186.025     189.691     182.557     163.162     157.52      47.423      2.505       104.15      198.104     1.125       635.522     850.0       970.0       2.55        4.538       3.804       
127.2       522.396     152.745     3.346       168.265     186.025     189.739     182.547     163.188     157.795     46.701      2.492       102.781     198.533     1.125       553.609     850.0       990.0       2.564       4.836       3.748       
127.3       453.942     152.947     3.123       168.301     186.284     189.899     182.534     163.203     157.964     46.414      2.598       101.526     199.022     1.125       537.913     850.0       934.694     2.571       5.547       3.718       
127.4       376.704     153.22      3.032       168.319     186.903     190.219     182.534     163.222     158.065     45.721      2.626       100.157     199.659     1.125       552.202     840.0       901.717     2.573       6.38        3.756       
127.5       305.492     152.327     3.379       168.327     188.055     190.731     182.534     163.259     158.127     44.397      2.552       98.332      200.43      1.125       572.367     840.0       874.434     2.569       7.517       3.797       
127.6       255.27      151.716     3.501       168.342     189.769     191.547     182.534     163.329     158.177     43.601      2.414       96.164      201.304     1.125       629.801     840.0       855.507     2.525       8.744       3.835       
127.7       118.85      151.851     3.543       168.389     192.044     192.619     182.55      163.446     158.236     42.79       2.268       93.655      202.267     1.125       694.409     840.0       855.507     2.506       10.076      3.809       
127.8       145.211     150.884     3.529       168.507     194.334     193.883     182.714     163.626     158.326     41.818      2.219       91.259      203.244     1.125       694.409     840.0       870.192     2.475       11.126      3.744       
127.9       152.757     150.467     3.588       168.756     196.595     195.227     183.139     163.878     158.466     41.027      2.057       89.092      204.207     1.125       718.817     850.0       884.213     2.408       12.147      3.58        
128.0       142.233     150.355     3.754       169.207     198.539     196.651     183.946     164.212     158.676     40.664      1.965       87.495      205.022     1.125       741.266     860.0       880.69      2.373       13.477      3.388       
128.1       142.889     150.312     3.639       169.918     200.065     197.947     185.245     164.632     158.977     39.698      1.89        86.24       205.674     1.125       732.96      860.0       874.769     2.347       14.816      3.228       
128.2       161.808     150.265     3.635       170.923     201.087     199.179     187.13      165.149     159.383     38.333      1.807       85.099      206.089     1.125       745.016     887.711     848.271     2.329       15.677      3.132       
128.3       173.38      150.289     3.49        172.215     201.879     200.347     189.392     165.779     159.904     37.552      1.736       83.73       206.311     1.125       775.795     891.876     832.569     2.368       16.431      3.173       
128.4       126.183     150.24      3.617       173.723     202.34      201.531     191.802     166.537     160.536     36.907      1.655       82.019      206.385     1.125       791.477     898.919     832.569     2.39        16.163      3.187       
128.5       89.536      150.185     3.621       175.34      202.585     202.635     194.122     167.444     161.256     36.039      1.713       80.194      206.385     1.125       791.477     911.9       850.592     2.39        15.978      3.159       
