~Version Information Section
VERS.                                         2.0:CWLS log ASCII Standart – VERSION 2.0
WRAP.                                          NO:One line per depth step
~Well Information Section
STRT.M                                        1.6:Начальная глубина
STOP.M                                      209.3:Конечная глубина
STEP.M                                          0:Шаг квантования по глубине
NULL.                                    -9999.25:Признак "Нет данных"
WELL.                                       132Мх:Скважина
~Parameter Information Section
~Curve Information Section
DEPTH.M                                          :Глубина
BК.                                              :BК (Омм)
DS.mm                                            :DS
GGK.g/cm3                                        :GGKp
IК.                                              :IК (Омм)
NGК.                                             :NGК (усл.ед.)
PS.mV                                            :PS
PZ.                                              :PZ (Омм)
REZ.                                             :REZ (Омм)
U1.                                              :U1 (ue)
U2.                                              :U2 (ue)
U3.                                              :U3 (ue)
ГК.mcr/h                                         :ГКканаломНГК
~ASCII LOG DATA
# ...
134.2       37.751      127.366     2.411       30.621      1.28        226.214     59.771      2.53        1138.43     1098.586    1057.722    9.302       
134.3       48.393      126.456     2.393       29.958      1.277       227.128     59.56       2.581       1095.476    1052.619    1009.365    9.264       
134.4       42.581      126.865     2.385       29.252      1.29        228.515     59.607      2.633       1059.499    1013.351    967.39      8.88        
134.5       34.587      127.346     2.347       28.726      1.307       230.463     59.926      2.685       1042.549    992.794     943.741     8.533       
134.6       37.53       129.059     2.333       28.192      1.311       232.904     59.51       2.74        1030.558    978.788     928.01      8.667       
134.7       40.537      125.088     2.335       27.834      1.301       235.815     56.095      2.801       1013.047    964.907     917.382     9.236       
134.8       77.628      125.862     2.397       27.58       1.273       239.065     50.978      2.853       994.945     949.735     904.801     9.766       
134.9       94.741      125.884     2.447       27.379      1.243       242.675     46.239      2.894       995.353     953.58      911.564     9.811       
135.0       50.673      124.79      2.473       27.041      1.232       246.573     44.937      2.921       1001.894    962.514     922.509     9.569       
135.1       34.725      125.621     2.456       26.61       1.242       250.645     46.025      2.955       1000.201    962.727     924.372     9.412       
135.2       29.732      126.152     2.425       26.327      1.244       254.826     46.883      2.985       1004.689    966.736     927.929     9.265       
135.3       33.714      124.56      2.421       26.28       1.223       258.979     47.494      3.023       1012.195    971.729     930.683     9.157       
135.4       39.992      124.193     2.433       26.367      1.218       263.068     46.159      3.044       1020.32     979.253     937.652     9.346       
135.5       33.94       124.491     2.406       26.509      1.249       267.053     45.496      3.047       1015.199    973.042     930.53      9.802       
135.6       30.931      124.349     2.377       26.699      1.25        270.957     45.264      3.048       996.276     954.746     912.866     10.234      
135.7       30.033      124.337     2.359       26.943      1.194       274.757     46.39       3.048       977.677     938.033     897.885     10.353      
135.8       27.48       124.006     2.378       27.342      1.114       278.453     47.581      3.049       956.452     920.804     884.291     10.179      
135.9       26.124      124.925     2.371       27.669      1.077       282.046     48.89       2.967       937.079     906.202     874.042     9.87        
136.0       26.963      125.113     2.366       28.171      1.121       285.628     50.081      2.57        926.389     895.045     862.683     9.436       
136.1       27.729      134.265     2.369       28.978      1.2         289.066     52.048      2.277       916.252     881.131     845.737     8.918       
136.2       28.113      125.805     2.397       29.737      1.299       292.341     54.997      2.13        894.668     853.839     813.974     8.312       
136.3       29.308      126.483     2.404       31.045      1.363       295.367     58.6        2.205       866.168     818.766     773.754     7.753       
136.4       31.938      126.162     2.378       32.558      1.443       298.089     63.462      2.159       845.848     793.656     744.603     7.471       
136.5       83.63       125.247     2.41        34.782      1.534       300.474     69.319      2.115       815.184     755.822     700.864     7.419       
136.6       218.773     125.035     2.449       37.049      1.601       302.498     78.494      2.073       771.368     709.581     652.975     7.385       
136.7       299.615     124.75      2.498       39.78       1.62        304.11      90.022      2.14        733.285     676.222     623.856     7.173       
136.8       321.491     124.711     2.486       42.112      1.634       305.288     103.46      2.355       720.049     670.066     623.518     6.871       
136.9       310.338     124.868     2.481       43.713      1.673       306.034     116.897     2.528       744.385     699.08      656.051     6.685       
137.0       308.215     124.946     2.427       44.728      1.699       306.336     127.351     2.486       773.444     728.254     685.108     6.692       
137.1       352.866     125.596     2.384       45.164      1.687       306.094     134.824     2.487       784.581     742.957     702.563     6.901       
137.2       389.412     126.396     2.373       45.444      1.66        305.306     138.568     2.38        820.149     781.941     743.945     7.287       
137.3       335.79      125.629     2.427       45.154      1.648       304.095     141.195     2.441       857.627     820.036     782.23      7.556       
137.4       257.638     125.123     2.499       44.634      1.645       302.463     142.703     2.427       875.908     838.576     800.915     7.507       
137.5       112.101     125.58      2.528       43.948      1.635       300.479     143.463     2.429       862.961     828.758     793.874     7.272       
137.6       110.553     125.859     2.54        43.024      1.611       298.138     143.848     2.428       849.958     819.691     788.299     7.183       
137.7       139.502     126.168     2.511       42.246      1.576       295.565     136.412     2.427       874.57      845.856     815.719     7.402       
137.8       154.513     126.624     2.464       41.551      1.537       292.843     121.528     2.427       887.286     858.889     828.988     7.849       
137.9       219.572     126.661     2.452       40.886      1.507       290.031     104.164     2.427       897.852     866.975     834.929     8.186       
138.0       149.729     126.239     2.45        40.066      1.492       287.218     91.765      2.428       922.986     886.926     850.327     8.423       
138.1       54.363      126.445     2.459       39.557      1.482       284.398     84.329      2.426       959.889     918.64      877.392     8.474       
138.2       42.098      126.235     2.416       38.226      1.465       281.671     79.378      2.427       984.472     939.291     894.501     8.634       
138.3       64.614      126.078     2.4         37.352      1.438       279.069     77.739      2.426       976.664     930.182     884.273     8.707       
138.4       58.71       126.05      2.414       36.636      1.414       276.616     77.143      2.426       947.704     903.18      859.08      8.474       
138.5       56.978      125.763     2.422       36.233      1.384       274.403     75.498      2.425       911.528     872.071     832.481     8.17        
138.6       62.614      125.541     2.419       35.895      1.326       272.463     72.943      2.425       873.025     840.557     807.159     8.097       
138.7       43.361      125.401     2.404       35.02       1.287       270.763     72.245      2.424       831.301     804.509     776.217     8.303       
138.8       41.749      125.186     2.403       34.62       1.334       269.292     72.171      2.423       801.578     777.482     751.667     8.47        
138.9       52.988      125.12      2.379       34.049      1.431       268.038     74.216      2.422       795.825     770.537     743.764     8.452       
139.0       54.01       124.993     2.372       33.586      1.493       266.975     75.936      2.421       793.058     763.543     733.279     8.31        
139.1       55.8        125.139     2.385       33.421      1.491       266.067     78.875      2.419       781.495     748.933     716.269     8.035       
139.2       99.178      125.343     2.407       33.278      1.5         265.213     79.398      2.419       761.042     729.79      698.484     7.576       
