~Version Information Section
VERS.                                         2.0:CWLS log ASCII Standart – VERSION 2.0
WRAP.                                          NO:One line per depth step
~Well Information Section
STRT.M                                        0.6:Начальная глубина
STOP.M                                      205.9:Конечная глубина
STEP.M                                          0:Шаг квантования по глубине
NULL.                                    -9999.25:Признак "Нет данных"
WELL.                                       106Мх:Скважина
~Parameter Information Section
~Curve Information Section
DEPTH.M                                          :Глубина
BK.Ohm*M                                         :BK     (БК)
DS.mm                                            :DS  (ДС)
GGK.g/cm3                                        :GGKp
ГК.mcr/h                                         :GK          (ГК)
GZ1.Ohm*M                                        :GZ1   ГЗ1(A0.4M0.1N)
GZ2.Ohm*M                                        :GZ2   ГЗ2(A1.0M0.1N)
GZ3.Ohm*M                                        :GZ3   ГЗ3(A2.0M0.5N)
U2.mV                                            :U2
U3.mV                                            :U3
КП.%                                             :Кп
GZ4.Ohm*M                                        :GZ4   ГЗ4(A4.0M0.5N)
GZ5.Ohm*M                                        :GZ5   ГЗ5(A8.0M0.5N)
GZR.Ohm*M                                        :GZK   ГЗK(N0.5M2.0A)
ИК.Ohm*M                                         :IK
НГК.u.e.                                         :NGK
NNKM.                                            :NNKm  (ННКм)
PS.mv                                            :PS       (ПС)
PZ.Ohm*M                                         :PZ    (КС)
RS.Ohm*M                                         :RS (Резистивиметр)
U1.mV                                            :U1
~ASCII LOG DATA
# ...
138.2       42.56       130.473     2.38        7.846       40.28       34.192      34.881      324.853     428.401     31.576      28.619      62.047      35.192      32.833      1.204       2.277       767.604     46.207      1.1         419.522     
138.3       36.392      130.05      2.376       8.056       42.598      39.78       37.79       323.402     440.622     32.38       32.056      61.934      36.567      31.727      1.219       2.251       772.053     46.0        1.1         402.583     
138.4       38.019      129.655     2.378       8.207       45.181      41.336      40.903      323.402     450.436     31.946      34.619      61.817      36.618      30.981      1.266       2.22        776.16      46.0        1.1         408.158     
138.5       40.832      129.21      2.381       8.128       47.84       42.953      44.001      350.387     450.795     31.361      35.676      61.67       35.027      30.739      1.351       2.302       779.924     46.03       1.1         417.468     
138.6       44.157      129.245     2.384       7.561       49.835      43.269      44.921      334.024     434.851     28.246      35.99       61.537      32.194      30.859      1.397       2.444       783.347     46.148      1.1         419.58      
138.7       53.088      129.394     2.384       7.212       50.904      48.251      44.527      304.859     405.888     26.113      36.279      61.459      28.849      31.023      1.406       2.586       786.084     46.444      1.1         410.204     
138.8       74.817      126.042     2.379       6.99        50.904      43.175      43.081      284.868     370.643     24.898      36.604      61.44       25.224      31.6        1.358       2.705       789.164     46.919      1.1         405.173     
138.9       146.893     125.18      2.367       6.946       50.618      40.843      40.713      264.877     339.735     26.042      36.974      61.465      21.66       32.114      1.355       2.603       793.271     47.511      1.1         409.503     
139.0       63.241      125.102     2.35        6.888       49.579      38.84       38.81       254.292     324.653     27.149      37.101      61.49       18.876      32.511      1.357       2.478       799.089     48.089      1.1         416.459     
139.1       61.944      125.357     2.332       6.799       47.955      37.694      37.59       254.292     331.919     26.869      36.394      61.449      17.253      32.959      1.337       2.498       805.591     48.593      1.1         426.328     
139.2       115.08      125.569     2.315       6.73        45.953      37.457      37.382      293.913     356.652     25.665      34.958      61.04       16.505      32.863      1.306       2.519       811.067     48.948      1.1         421.424     
139.3       91.201      125.867     2.303       6.651       43.58       37.52       37.799      302.278     378.273     24.824      33.76       59.731      16.32       33.096      1.318       2.525       814.147     49.111      1.1         402.986     
139.4       93.541      125.866     2.293       6.678       40.839      38.631      38.438      281.895     379.566     25.03       33.806      56.905      14.602      32.959      1.33        2.518       814.831     49.111      1.1         379.474     
139.5       127.35      126.262     2.29        6.901       38.063      39.964      39.062      278.45      357.973     26.518      35.607      52.299      14.943      32.645      1.271       2.455       814.831     49.022      1.1         387.594     
139.6       116.145     127.448     2.29        7.233       35.547      41.726      39.56       275.005     328.187     28.274      38.948      46.233      15.582      32.603      1.197       2.364       813.804     48.711      1.1         425.652     
139.7       58.614      128.749     2.287       7.524       33.504      41.871      39.763      273.593     307.405     29.404      42.922      39.559      16.345      32.154      1.152       2.243       812.436     48.252      1.1         474.935     
139.8       43.551      129.121     2.283       7.755       31.757      41.005      39.169      273.593     305.961     30.4        46.505      33.353      16.472      31.349      1.153       2.154       810.724     47.748      1.1         500.415     
139.9       39.994      129.054     2.278       7.695       30.266      39.268      38.071      293.042     325.183     31.041      48.927      28.547      15.953      30.581      1.171       2.132       809.013     47.259      1.1         506.864     
140.0       42.364      128.426     2.268       7.584       28.955      37.168      35.927      313.839     359.649     31.614      49.592      25.578      15.39       29.625      1.131       2.113       806.96      46.8        1.1         508.367     
140.1       38.194      127.531     2.259       7.552       27.726      34.577      33.475      352.816     400.831     31.808      47.339      24.269      14.944      28.52       1.131       2.103       804.907     46.341      1.1         520.944     
140.2       36.058      127.541     2.258       7.475       26.644      31.408      31.34       391.793     434.163     31.683      43.221      23.963      16.958      27.844      1.183       2.175       802.853     45.837      1.1         501.051     
140.3       44.361      127.886     2.257       7.312       25.871      28.452      30.46       353.319     446.004     31.212      40.835      24.258      18.115      27.326      1.251       2.287       800.458     45.304      1.1         438.438     
140.4       53.088      127.948     2.262       7.244       25.871      25.863      30.963      281.133     429.786     30.771      41.435      24.956      16.668      27.113      1.231       2.278       798.062     44.741      1.1         364.269     
140.5       47.534      127.946     2.267       7.486       26.599      26.896      33.394      251.029     397.432     31.544      42.579      26.137      18.628      26.986      1.184       2.208       795.667     44.193      1.1         317.276     
140.6       39.537      128.987     2.269       7.843       29.361      30.505      37.492      220.926     365.812     32.592      47.218      27.662      17.863      27.045      1.139       2.12        793.956     43.57       1.1         306.696     
140.7       34.277      128.196     2.268       7.845       34.331      34.873      42.364      220.53      348.33      33.525      60.613      29.377      18.992      27.02       1.126       2.024       792.244     42.874      1.1         301.385     
140.8       34.514      127.754     2.274       7.768       40.345      38.505      46.536      220.124     342.01      33.325      78.245      31.062      19.434      26.712      1.079       2.068       790.876     42.074      1.1         301.342     
140.9       35.975      126.976     2.278       7.9         45.876      40.4        49.716      219.719     341.999     32.306      95.397      32.46       19.51       26.532      1.127       2.145       789.164     41.348      1.1         301.313     
141.0       40.087      126.685     2.287       7.98        50.68       40.548      51.386      219.719     340.079     31.526      112.061     33.334      18.758      26.41       1.231       2.24        787.453     40.815      1.1         335.703     
141.1       57.016      126.247     2.303       7.902       54.611      41.294      50.64       267.611     332.439     30.961      123.843     33.713      16.928      26.712      1.306       2.336       784.716     40.593      1.1         406.451     
141.2       66.834      126.265     2.322       7.436       56.617      41.138      48.477      300.319     317.825     30.178      124.396     33.6        17.697      26.802      1.343       2.405       781.635     40.593      1.1         484.332     
141.3       66.374      126.328     2.333       7.049       56.617      38.643      45.231      277.023     302.633     27.655      115.435     33.029      15.005      27.198      1.375       2.473       778.213     40.637      1.1         510.08      
