~Version Information Section
VERS.                                         2.0:CWLS log ASCII Standart – VERSION 2.0
WRAP.                                          NO:One line per depth step
~Well Information Section
STRT.M                                        0.0:Начальная глубина
STOP.M                                      133.6:Конечная глубина
STEP.M                                          0:Шаг квантования по глубине
NULL.                                    -9999.25:Признак "Нет данных"
WELL.                                       118Мх:Скважина
~Parameter Information Section
~Curve Information Section
DEPTH.M                                          :Глубина
BK.Ohm*M                                         :BK     (БК)
DS.mm                                            :DS  (ДС)
GGK.g/cm3                                        :GGKp
ГК.mcr/h                                         :GK          (ГК)
GZ1.Ohm*M                                        :GZ1   ГЗ1(A0.4M0.1N)
GZ2.Ohm*M                                        :GZ2   ГЗ2(A1.0M0.1N)
GZ3.Ohm*M                                        :GZ3   ГЗ3(A2.0M0.5N)
GZ4.Ohm*M                                        :GZ4   ГЗ4(A4.0M0.5N)
GZ5.Ohm*M                                        :GZ5   ГЗ5(A8.0M0.5N)
GZR.Ohm*M                                        :GZK   ГЗK(N0.5M2.0A)
ИК.Ohm*M                                         :IK
НГК.усл.ед                                       :NGK
NNKM.                                            :NNKm  (ННКм)
PS.mv                                            :PS       (ПС)
PZ.Ohm*M                                         :PZ    (КС)
RS.Ohm*M                                         :RS (Резистивиметр)
U1.mV                                            :U1
U2.mV                                            :U2
U3.mV                                            :U3
W.%                                              :W
~ASCII LOG DATA
# ...
19.2        19.055      165.061     2.197       5.023       18.612      16.188      14.994      14.227      11.19       17.024      -9999.25    1.061       1.956       644.566     19.831      1.057       449.038     437.259     517.929     34.786      
19.4        18.923      163.708     2.199       5.358       19.91       14.957      14.099      12.663      11.768      24.184      -9999.25    1.087       1.904       639.526     19.831      1.061       385.634     400.521     535.208     32.374      
19.6        14.791      163.151     2.237       5.259       16.131      13.796      14.677      12.509      13.428      30.28       -9999.25    0.994       1.847       635.446     19.858      1.064       533.891     372.309     371.364     38.6        
19.8        14.06       160.973     2.253       5.59        14.921      17.568      19.582      16.374      14.459      31.491      -9999.25    1.016       1.817       632.086     20.18       1.068       885.905     394.207     233.303     41.545      
20.0        33.266      161.254     2.268       5.541       23.723      27.098      24.31       17.241      15.408      32.703      -9999.25    0.979       1.788       630.406     20.986      1.072       1083.651    541.656     309.369     38.646      
20.2        38.905      160.52      2.263       6.014       26.765      22.776      22.552      17.992      16.934      34.776      -9999.25    0.95        2.241       629.686     22.57       1.075       829.007     513.44      352.076     31.936      
20.4        23.281      161.381     2.237       5.052       30.028      18.814      18.631      18.743      16.561      30.989      -9999.25    1.031       2.324       630.886     24.719      1.078       549.43      396.977     340.259     31.898      
20.6        24.099      161.153     2.248       4.278       30.571      20.463      17.587      21.391      15.119      24.301      -9999.25    1.136       2.109       633.046     27.082      1.08        589.248     356.743     287.756     37.283      
20.8        24.774      160.486     2.315       3.939       27.29       20.045      18.363      18.597      14.248      22.473      9.081       1.137       2.086       635.926     29.338      1.083       671.549     325.783     204.595     35.541      
21.0        17.865      161.24      2.313       4.43        25.643      28.036      18.333      16.381      13.894      22.286      8.905       1.101       2.044       639.526     31.487      1.085       712.047     403.27      275.59      33.643      
21.2        25.645      160.9       2.238       4.65        25.519      28.292      18.78       16.06       12.908      22.659      8.767       1.078       2.07        644.086     33.448      1.088       861.286     476.515     312.672     31.94       
21.4        17.258      158.232     2.185       5.476       22.984      23.559      15.109      16.695      12.4        20.906      8.723       0.977       1.882       648.646     35.086      1.09        843.472     628.366     535.251     35.393      
21.6        13.183      161.171     2.218       5.529       20.119      17.941      12.829      17.12       11.64       17.885      8.681       0.976       1.803       652.246     35.811      1.092       834.802     755.23      744.019     39.634      
21.8        12.246      159.827     2.259       5.122       16.049      14.907      12.069      16.779      11.84       16.934      8.593       0.975       1.74        655.366     35.14       1.093       886.058     847.597     874.164     35.813      
22.0        12.303      161.935     2.289       6.111       14.715      15.983      13.91       14.025      12.703      18.889      8.541       0.998       1.759       658.006     32.884      1.094       1083.453    1005.477    992.259     37.013      
22.2        20.701      161.135     2.287       6.219       18.997      21.526      18.952      12.402      14.883      23.42       8.616       0.836       1.957       659.686     29.392      1.095       1187.906    1045.699    971.581     27.659      
22.4        23.014      162.388     2.278       5.909       21.384      23.223      24.618      13.055      17.012      25.527      8.88        0.886       2.042       660.406     25.578      1.095       976.074     837.827     772.798     28.696      
22.6        34.277      162.731     2.252       5.472       28.963      24.431      25.835      15.532      18.818      27.647      9.175       1.041       2.088       660.886     22.49       1.096       643.023     583.971     596.318     31.388      
22.8        26.424      161.033     2.197       4.851       29.886      21.872      24.151      19.004      19.011      25.601      9.518       1.091       2.157       661.606     20.771      1.097       655.241     500.581     467.625     37.716      
23.0        24.946      157.134     2.158       4.521       30.81       23.271      23.881      21.052      17.997      22.548      9.571       1.047       2.068       663.046     20.529      1.099       833.752     420.551     257.02      40.688      
23.2        23.55       156.846     2.162       4.316       30.869      25.56       23.667      21.29       16.004      20.048      9.187       0.989       1.959       664.966     21.577      1.1         677.036     325.943     180.693     39.158      
23.4        23.55       156.173     2.184       4.443       33.466      26.466      22.272      19.746      14.475      19.302      8.859       1.059       1.966       668.086     23.591      1.101       684.253     495.357     415.988     35.396      
23.6        14.488      159.613     2.189       4.656       32.596      27.372      18.075      19.504      13.409      17.009      8.657       1.027       1.808       672.166     26.062      1.102       653.104     598.989     631.782     35.881      
23.8        13.243      162.653     2.201       5.041       32.805      30.28       16.412      19.224      12.624      15.042      8.358       0.984       1.753       677.446     27.942      1.103       473.993     520.779     699.424     38.083      
24.0        13.646      162.27      2.179       5.413       25.796      24.067      17.304      16.639      12.157      14.976      8.07        1.048       1.677       684.166     28.264      1.103       518.565     454.903     570.449     39.945      
24.2        16.482      165.711     2.191       5.947       20.802      21.652      19.597      13.854      12.239      17.885      7.966       1.052       1.741       692.806     26.868      1.104       737.584     462.865     357.657     39.066      
24.4        22.803      165.126     2.177       5.959       17.852      19.769      20.504      13.353      12.244      20.272      8.014       1.0         1.822       700.246     24.477      1.105       802.198     481.157     322.957     36.868      
24.6        15.849      165.334     2.178       6.574       16.871      21.056      20.71       14.736      12.25       19.914      8.141       1.0         1.9         706.966     22.194      1.106       760.546     392.825     244.141     36.722      
24.8        14.588      162.591     2.185       5.871       19.94       25.177      20.915      18.068      12.201      17.643      8.129       0.998       1.793       713.926     20.744      1.106       531.826     341.008     298.6       35.642      
25.0        13.459      160.551     2.215       5.708       19.855      19.825      20.728      19.15       12.071      16.132      8.054       1.019       1.791       718.246     20.073      1.106       395.526     330.682     345.803     45.102      
25.2        12.942      163.704     2.221       5.915       20.127      16.803      18.769      16.785      11.563      16.095      8.016       0.982       1.733       718.486     19.858      1.106       453.682     293.353     249.153     44.88       
25.4        13.996      165.458     2.23        6.29        18.135      15.311      18.239      15.697      10.761      16.819      7.963       0.946       1.707       717.526     19.831      1.105       401.119     258.024     246.684     40.984      
