~Version Information Section
VERS.                                         2.0:CWLS log ASCII Standart – VERSION 2.0
WRAP.                                          NO:One line per depth step
~Well Information Section
STRT.M                                        0.4:Начальная глубина
STOP.M                                      191.4:Конечная глубина
STEP.M                                          0:Шаг квантования по глубине
NULL.                                    -9999.25:Признак "Нет данных"
WELL.                                       113Мх:Скважина
~Parameter Information Section
~Curve Information Section
DEPTH.M                                          :Глубина
БК.Омм                                           :BK     (БК)
DСР.мм                                           :DS  (ДС)
GGKP.g/cm3                                       :GGKp
ГК.гамма                                         :GK          (ГК)
А0.4М0.1N.Омм                                    :GZ1   ГЗ1(A0.4M0.1N)
А1.0М0.1N.Омм                                    :GZ2   ГЗ2(A1.0M0.1N)
А2.0М0.5N.Омм                                    :GZ3   ГЗ3(A2.0M0.5N)
А4.0М0.5N.Oмм                                    :GZ4   ГЗ4(A4.0M0.5N)
А8.0М1.0N.Омм                                    :GZ5   ГЗ5(A8.0M0.5N)
N0.5M2.0A.Омм                                    :GZK   ГЗK(N0.5M2.0A)
ИК.мСм/м                                         :IK
НГК.усл.ед                                       :NNKb  (ННКб)
ННКМ.усл.ед                                      :NNKm  (ННКм)
ПС.мВ                                            :PS       (ПС)
PZ.Омм                                           :PZ    (КС)
R.Омм                                            :RS (Резистивиметр)
U1.мВ                                            :U1
U2.mV                                            :U2
U3.мВ                                            :U3
КП.%                                             :Кп
~ASCII LOG DATA
# ...
64.4        33.104      140.982     2.33        5.167       21.162      18.346      18.609      18.126      12.524      22.424      17.576      2.289       1.57        188.343     34.02       1.1         363.799     213.75      181.578     32.747      
64.6        34.73       140.873     2.335       5.059       22.444      19.149      19.746      18.903      13.605      22.266      17.716      2.408       1.592       187.837     34.018      1.1         426.048     294.076     256.796     32.215      
64.8        37.239      141.941     2.317       4.993       23.654      19.785      20.229      19.156      15.198      21.504      17.745      2.401       1.609       187.543     34.124      1.1         441.213     323.297     295.842     31.299      
65.0        40.215      139.984     2.298       4.832       24.054      19.895      20.209      19.049      16.83       20.556      17.67       2.484       1.604       187.412     34.345      1.1         454.206     283.954     235.474     31.758      
65.2        41.749      139.716     2.309       4.837       23.972      19.777      19.5        18.073      17.485      19.526      17.593      2.452       1.632       187.392     34.686      1.1         393.101     235.029     193.955     32.632      
65.4        39.652      140.383     2.329       5.163       22.908      18.887      18.069      16.562      17.471      18.587      17.455      2.253       1.629       187.474     35.087      1.1         309.729     226.768     289.55      33.836      
65.6        33.706      141.17      2.32        5.44        21.318      18.003      17.038      15.559      17.049      18.225      17.217      2.114       1.571       187.71      35.475      1.1         187.777     225.647     491.959     35.323      
65.8        28.286      140.984     2.302       5.553       20.154      17.661      16.851      15.25       16.702      18.225      16.917      1.981       1.493       188.169     35.793      1.1         163.767     215.146     501.107     35.898      
66.0        26.056      141.707     2.288       5.455       19.717      17.661      16.851      15.243      16.685      18.588      16.88       1.983       1.449       188.876     36.011      1.1         224.283     203.242     318.793     36.961      
66.2        27.074      142.174     2.273       5.527       19.697      17.804      17.206      15.311      16.958      20.031      17.093      2.012       1.463       189.763     36.137      1.1         270.143     204.919     189.992     36.847      
66.4        29.206      141.104     2.258       5.546       19.832      18.422      18.504      16.003      17.896      22.335      17.358      2.03        1.504       190.689     36.223      1.1         288.418     198.574     170.903     36.802      
66.6        32.372      141.773     2.258       5.388       21.486      19.996      20.887      17.314      18.625      25.195      17.432      2.155       1.533       191.515     36.378      1.1         315.14      215.877     220.334     36.17       
66.8        57.305      140.257     2.247       4.996       24.83       21.61       22.231      17.568      18.644      26.683      17.521      2.187       1.575       192.169     36.745      1.1         264.875     233.363     370.718     35.108      
67.0        101.793     138.879     2.215       4.427       26.541      21.834      22.222      17.222      17.724      26.693      17.572      2.295       1.585       192.655     37.441      1.1         176.999     211.255     395.048     34.106      
67.2        126.363     138.759     2.208       4.104       26.424      21.057      20.494      14.594      15.295      25.0        17.372      2.352       1.646       193.008     38.477      1.1         138.644     186.44      337.467     33.902      
67.4        88.207      140.849     2.23        4.247       23.979      18.505      17.07       11.44       12.613      21.769      16.682      2.188       1.613       193.251     39.701      1.1         247.752     217.758     268.919     33.931      
67.6        41.976      142.365     2.246       4.864       19.997      16.552      14.861      9.815       10.861      20.304      15.687      1.98        1.492       193.377     40.808      1.1         335.403     227.89      217.372     35.667      
67.8        24.103      141.022     2.242       5.573       17.601      16.111      14.144      9.387       10.217      20.298      15.092      1.897       1.412       193.368     41.548      1.1         411.422     210.95      156.722     36.953      
68.0        23.411      140.788     2.249       5.836       16.583      16.108      13.927      9.295       10.159      20.525      15.056      1.868       1.409       193.203     41.866      1.1         377.64      213.489     174.968     38.528      
68.2        24.105      140.211     2.27        6.037       16.367      16.038      13.881      9.282       10.178      21.733      15.395      1.867       1.423       192.832     41.843      1.1         364.293     270.336     260.535     39.016      
68.4        24.566      140.417     2.277       5.983       16.367      15.806      13.881      9.282       10.388      23.146      15.986      1.849       1.447       192.154     41.737      1.1         377.706     322.55      358.494     39.608      
68.6        24.336      141.115     2.262       5.751       16.54       15.753      13.976      9.335       10.991      24.747      16.749      1.889       1.453       191.0       41.654      1.1         343.217     330.006     406.381     40.021      
68.8        26.991      139.374     2.241       5.424       17.324      15.951      14.367      9.465       12.26       26.963      17.808      1.909       1.47        189.186     41.853      1.1         188.955     272.175     445.076     38.352      
69.0        30.142      137.629     2.234       5.02        18.804      16.274      15.582      9.847       14.16       30.293      19.282      2.034       1.538       186.597     42.705      1.1         169.478     232.952     399.761     37.535      
69.2        31.824      139.101     2.23        4.953       21.695      17.72       18.468      11.111      16.3        35.675      20.784      2.252       1.532       183.254     44.599      1.1         222.463     235.916     377.821     36.164      
69.4        50.572      137.728     2.214       4.441       27.098      20.619      22.55       13.692      18.367      41.904      22.648      2.286       1.583       179.308     47.745      1.1         272.652     247.997     336.001     34.945      
69.6        82.546      136.824     2.209       3.799       35.049      24.148      26.001      16.759      20.231      44.613      24.825      2.607       1.749       174.971     51.934      1.1         253.1       241.635     350.787     34.233      
69.8        104.523     137.176     2.213       3.299       43.565      28.006      27.656      18.91       21.603      44.633      26.727      2.786       1.856       170.443     56.671      1.1         212.395     221.207     356.299     31.021      
70.0        102.631     140.957     2.219       3.424       49.708      31.707      28.135      19.784      22.302      42.696      27.579      2.852       1.851       165.891     61.274      1.1         231.277     212.538     319.721     29.778      
70.2        95.433      140.97      2.213       3.381       53.051      35.451      28.793      20.245      22.391      39.08       27.643      2.907       1.815       161.489     64.966      1.1         290.04      217.011     267.233     29.204      
70.4        81.497      139.545     2.2         3.475       54.611      39.757      29.871      20.571      22.093      36.379      27.012      2.946       1.846       157.435     67.257      1.1         348.636     208.787     196.796     29.453      
70.6        81.334      138.903     2.198       3.396       54.784      43.367      30.073      20.56       20.694      33.588      25.976      2.908       1.849       153.926     68.146      1.1         458.048     204.958     155.054     28.624      
