~Version Information Section
VERS.                                         2.0:CWLS log ASCII Standart – VERSION 2.0
WRAP.                                          NO:One line per depth step
~Well Information Section
STRT.M                                        0.1:Начальная глубина
STOP.M                                      153.3:Конечная глубина
STEP.M                                          0:Шаг квантования по глубине
NULL.                                    -9999.25:Признак "Нет данных"
WELL.                                        144К:Скважина
~Parameter Information Section
~Curve Information Section
DEPTH.M                                          :Глубина
БК.Омм                                           :BK     (БК)
DСР.мм                                           :DS  (ДС)
ПЛОТНОСТЬ.г/см^3                                 :GGKp
ГК.мкР/ч                                         :GK          (ГК)
А0.4М0.1N.Омм                                    :GZ1   ГЗ1(A0.4M0.1N)
А1.0М0.1N.Омм                                    :GZ2   ГЗ2(A1.0M0.1N)
А2.0М0.5N.Омм                                    :GZ3   ГЗ3(A2.0M0.5N)
А4.0М0.5N.Oмм                                    :GZ4   ГЗ4(A4.0M0.5N)
А8.0М1.0N.Омм                                    :GZ5   ГЗ5(A8.0M0.5N)
N0.5M2.0A.Омм                                    :GZR   ГЗK(N0.5M2.0A)
ИК.мСм/м                                         :IK
БЗ.ue                                            :NNKb  (ННКб)
МЗ.ue                                            :NNKm  (ННКм)
ПС.mv                                            :PS       (ПС)
N11.0M0.5A.Омм                                   :PZ    (КС)
R.Омм                                            :RS (Резистивиметр)
ПОРИСТОСТЬ.                                      :W
~ASCII LOG DATA
# ...
59.3        22.849      218.718     2.396       5.697       23.137      19.739      29.363      19.941      16.077      151.251     22.306      2.68        1.739       83.424      43.241      1.112       34.444      
59.4        26.84       219.115     2.411       5.568       22.675      20.675      31.174      22.624      17.366      177.833     23.336      2.74        1.743       82.63       45.303      1.113       33.927      
59.5        31.269      217.487     2.423       5.27        23.236      22.907      34.113      26.35       18.634      194.315     24.796      2.83        1.772       81.972      47.876      1.114       33.25       
59.6        34.138      217.114     2.428       4.758       25.237      25.682      37.093      30.516      19.779      199.971     26.692      2.965       1.827       81.481      51.387      1.114       32.492      
59.7        46.301      217.083     2.422       4.075       29.286      28.383      39.27       34.111      20.748      196.338     29.044      3.137       1.878       81.165      56.412      1.116       31.675      
59.8        70.532      216.419     2.407       3.393       35.292      30.71       40.556      36.593      21.598      183.268     31.756      3.285       1.923       81.022      62.765      1.117       30.861      
59.9        93.307      216.616     2.386       2.772       43.034      33.464      41.094      38.039      22.313      162.041     34.528      3.398       1.967       81.037      70.659      1.117       29.968      
60.0        102.511     216.616     2.362       2.271       50.726      36.775      41.189      39.219      22.822      142.368     36.544      3.464       1.997       81.175      79.219      1.118       29.105      
60.1        109.209     217.738     2.344       1.903       58.532      40.456      41.309      41.142      22.952      125.106     38.499      3.545       2.021       81.382      88.835      1.118       28.316      
60.2        111.066     216.946     2.338       1.69        65.599      45.701      41.651      44.301      23.093      108.058     40.216      3.649       2.03        81.614      99.302      1.119       27.54       
60.3        118.27      216.864     2.345       1.593       71.25       53.83       42.361      48.354      23.321      91.722      41.48       3.822       2.055       81.832      108.763     1.12        26.85       
60.4        127.658     217.479     2.358       1.577       75.013      64.825      43.456      52.317      23.559      80.253      42.49       4.011       2.095       82.025      116.686     1.122       26.26       
60.5        132.541     216.764     2.373       1.633       76.202      78.04       44.943      55.925      23.923      75.647      43.687      4.175       2.133       82.199      123.611     1.122       25.794      
60.6        131.9       216.657     2.389       1.727       76.838      90.212      47.048      59.983      24.532      73.01       44.647      4.233       2.174       82.367      128.279     1.122       25.565      
60.7        128.775     216.687     2.399       1.825       77.634      104.427     49.797      64.455      25.408      71.635      45.212      4.182       2.181       82.543      130.636     1.122       25.703      
60.8        125.458     216.71      2.398       1.881       79.002      120.766     52.909      69.305      26.634      70.945      45.583      4.075       2.169       82.741      132.962     1.125       26.119      
60.9        122.33      216.542     2.389       1.92        80.385      135.951     56.076      74.269      28.407      70.252      45.422      3.914       2.152       82.959      135.399     1.128       26.95       
61.0        115.811     217.713     2.382       1.946       81.026      145.175     59.258      79.948      30.75       69.626      45.253      3.771       2.128       83.198      138.173     1.131       27.961      
61.1        107.892     217.121     2.379       2.0         80.689      146.585     63.22       86.306      35.551      69.545      44.743      3.581       2.08        83.448      141.413     1.132       29.052      
61.2        103.755     216.364     2.384       2.12        79.842      147.735     68.824      93.962      42.509      70.797      43.829      3.382       2.014       83.7        144.802     1.131       29.946      
61.3        100.367     216.165     2.393       2.27        79.052      149.424     77.05       104.092     50.915      75.485      42.602      3.199       1.939       83.949      147.801     1.123       30.579      
61.4        95.175      216.608     2.405       2.396       78.773      152.553     89.913      114.364     58.896      82.014      41.137      3.075       1.883       84.197      150.292     1.118       30.578      
61.5        89.71       216.608     2.415       2.441       80.484      162.533     108.771     129.72      67.951      91.072      39.602      3.087       1.873       84.444      152.312     1.111       29.985      
61.6        91.117      216.206     2.426       2.405       85.804      179.953     133.223     150.477     74.66       101.53      38.254      3.245       1.891       84.69       153.784     1.108       28.816      
61.7        116.38      215.948     2.436       2.277       94.802      203.078     162.773     172.018     86.321      111.078     36.813      3.534       1.945       84.935      154.497     1.108       27.4        
61.8        185.728     215.812     2.444       2.103       110.206     231.971     190.321     185.677     90.439      116.132     35.979      3.919       2.014       85.164      153.336     1.108       26.026      
61.9        285.914     215.812     2.446       1.94        129.785     260.565     220.657     187.797     93.166      114.429     35.107      4.271       2.095       85.363      149.811     1.109       24.964      
62.0        330.514     216.903     2.447       1.856       147.318     279.533     244.58      184.627     93.166      108.534     34.072      4.531       2.152       85.509      143.17      1.11        24.343      
62.1        224.109     217.269     2.442       1.859       155.288     285.513     249.658     172.422     86.254      96.624      32.708      4.529       2.183       85.593      133.726     1.11        24.323      
62.2        153.63      216.918     2.427       2.023       148.979     273.173     248.037     150.661     82.743      81.411      31.352      4.275       2.175       85.608      120.72      1.11        24.81       
62.3        90.794      216.918     2.407       2.374       130.278     237.315     226.946     123.608     73.501      66.655      29.621      3.888       2.14        85.546      105.769     1.109       25.597      
62.4        57.136      215.991     2.387       2.915       101.804     183.91      195.08      95.885      63.375      54.078      27.968      3.537       2.092       85.418      92.308      1.109       26.515      
62.5        34.73       217.06      2.371       3.547       75.854      133.487     161.336     71.132      49.257      45.457      26.463      3.325       2.0         85.258      81.327      1.109       27.368      
62.6        30.804      218.187     2.357       4.205       59.935      100.147     122.751     51.756      39.626      41.562      25.029      3.238       1.901       85.097      73.033      1.107       28.141      
62.7        31.774      217.315     2.349       4.733       51.334      81.912      86.224      38.292      30.813      40.972      24.085      3.191       1.821       84.99       68.515      1.108       28.937      
62.8        33.48       217.014     2.352       5.08        46.2        71.004      62.226      29.904      24.77       42.452      23.539      3.154       1.778       84.971      67.163      1.108       29.943      
62.9        32.58       216.651     2.36        5.248       41.524      62.679      54.623      25.935      21.17       48.161      23.172      3.083       1.782       85.07       66.066      1.103       31.056      
