~Version Information Section
VERS.                                         2.0:CWLS log ASCII Standart – VERSION 2.0
WRAP.                                          NO:One line per depth step
~Well Information Section
STRT.M                                        0.5:Начальная глубина
STOP.M                                      158.2:Конечная глубина
STEP.M                                          0:Шаг квантования по глубине
NULL.                                    -9999.25:Признак "Нет данных"
WELL.                                       136Мх:Скважина
~Parameter Information Section
~Curve Information Section
DEPTH.M                                          :Глубина
BK.Ohm*M                                         :BK     (БК)
DS.mm                                            :DS  (ДС)
GGK.g/cm3                                        :GGKp
ГК.mcr/h                                         :GK          (ГК)
GZ1.Ohm*M                                        :GZ1   ГЗ1(A0.4M0.1N)
GZ2.Ohm*M                                        :GZ2   ГЗ2(A1.0M0.1N)
GZ3.Ohm*M                                        :GZ3   ГЗ3(A2.0M0.5N)
GZ4.Ohm*M                                        :GZ4   ГЗ4(A4.0M0.5N)
GZ5.Ohm*M                                        :GZ5   ГЗ5(A8.0M0.5N)
GZR.Ohm*M                                        :GZK   ГЗK(N0.5M2.0A)
ИК.Ohm*M                                         :IK
НГК.ue                                           :NGK     (НГК)
NNKM.                                            :NNKm  (ННКм)
PS.mv                                            :PS       (ПС)
PZ.Ohm*M                                         :PZ    (КС)
RS.Ohm*M                                         :RS (Резистивиметр)
U1.mV                                            :U1
U2.mV                                            :U2
U3.mV                                            :U3
КП.%                                             :Кп
~ASCII LOG DATA
# ...
83.7        24.243      134.333     2.217       5.048       83.34       54.719      28.197      11.67       3.665       33.411      31.552      1.299       2.284       112.838     62.541      1.087       -1964.59    206.226     -2127.22    40.683      
83.8        28.066      135.626     2.18        4.941       45.856      45.376      24.359      6.784       3.665       33.899      31.06       1.319       2.15        113.414     62.171      1.087       -2020.6     223.639     -1973.79    42.078      
83.9        44.193      135.62      2.144       4.732       41.404      41.297      23.621      4.346       3.665       36.421      31.442      1.302       2.045       113.975     62.171      1.087       -2136.95    224.649     -1820.39    39.532      
84.0        59.77       135.423     2.115       4.508       41.404      40.334      23.621      3.863       3.665       41.656      32.331      1.284       2.01        114.499     62.171      1.087       -2199.03    219.066     -1761.1     35.655      
84.1        74.98       135.995     2.104       4.282       41.404      40.334      23.621      3.863       3.752       46.699      33.982      1.231       2.077       114.977     62.171      1.087       -2178.42    215.935     -1837.12    31.101      
84.2        149.942     136.622     2.111       3.926       41.404      39.823      23.621      3.863       3.991       50.448      35.992      1.227       2.176       115.423     62.283      1.087       -2137.2     218.302     -1913.13    30.514      
84.3        164.586     136.698     2.134       3.567       41.861      39.112      26.023      3.863       4.071       52.83       37.67       1.226       2.374       115.836     62.871      1.087       -2078.31    237.062     -1907.88    30.902      
84.4        152.399     136.841     2.171       3.282       48.667      42.029      29.799      5.178       4.071       53.248      38.976      1.286       2.553       116.225     64.008      1.087       -2029.56    250.137     -1892.71    31.772      
84.5        85.537      137.681     2.221       3.261       57.466      45.543      34.201      7.761       4.071       53.248      39.757      1.33        2.533       116.601     65.761      1.087       -2008.55    247.246     -1903.95    32.114      
84.6        75.807      136.945     2.246       3.395       65.124      48.619      38.468      11.29       3.988       53.248      40.448      1.4         2.488       116.959     68.068      1.087       -2005.2     229.527     -1952.66    31.961      
84.7        83.366      136.918     2.263       3.506       70.879      50.237      42.516      13.996      3.938       51.388      40.535      1.473       2.412       117.297     70.728      1.087       -2012.34    218.275     -1986.92    32.042      
84.8        168.667     137.863     2.261       3.557       90.508      52.53       46.509      16.356      3.967       49.785      40.928      1.577       2.396       117.617     73.522      1.087       -2003.17    251.841     -1956.31    31.444      
84.9        154.385     136.023     2.256       3.439       108.892     54.176      50.887      18.025      3.967       47.491      41.044      1.599       2.481       117.919     76.149      1.087       -1947.49    280.705     -1926.75    30.699      
85.0        90.772      135.208     2.261       3.254       126.648     55.874      53.903      19.528      3.967       44.483      41.102      1.539       2.518       118.211     78.31       1.087       -1907.4     292.18      -1922.98    29.899      
85.1        90.306      136.736     2.268       3.167       128.013     57.284      55.89       20.34       3.967       41.411      41.031      1.42        2.497       118.513     79.778      1.087       -1876.49    270.872     -1972.69    30.558      
85.2        88.628      135.041     2.271       3.183       128.643     58.938      57.053      20.997      4.06        38.27       40.972      1.428       2.489       118.828     80.511      1.087       -1892.08    256.291     -2028.52    32.721      
85.3        79.486      134.771     2.267       3.33        129.01      59.913      57.877      21.722      4.416       35.326      40.496      1.439       2.487       119.172     80.567      1.087       -1858.62    257.575     -2070.08    35.128      
85.4        71.243      134.759     2.256       3.417       129.087     60.849      59.406      22.509      4.971       33.275      39.884      1.506       2.466       119.538     80.567      1.087       -1856.3     238.78      -2096.62    37.081      
85.5        72.228      135.434     2.25        3.475       120.073     61.008      60.872      23.021      5.685       32.03       39.451      1.496       2.441       119.905     80.567      1.087       -1915.24    201.522     -2107.02    35.141      
85.6        78.145      133.906     2.262       3.471       103.743     62.623      60.872      23.479      6.648       31.052      39.056      1.498       2.409       120.211     80.102      1.087       -2014.74    163.397     -2104.47    32.45       
85.7        77.361      133.082     2.255       3.458       87.46       64.291      60.872      23.482      7.78        29.978      38.629      1.467       2.394       120.387     79.234      1.087       -2090.22    143.741     -2099.25    32.493      
85.8        76.787      133.272     2.253       3.441       79.528      65.882      60.494      23.482      9.018       29.274      38.414      1.425       2.428       120.397     78.07       1.087       -2105.93    137.729     -2095.92    34.976      
85.9        70.573      133.393     2.224       3.42        79.528      67.577      60.419      23.974      10.371      29.168      37.887      1.421       2.444       120.397     76.614      1.087       -2114.54    124.665     -2127.94    37.599      
86.0        66.726      133.439     2.206       3.457       79.069      69.96       61.876      25.755      11.853      29.168      37.251      1.401       2.432       120.397     74.788      1.087       -2116.05    109.029     -2185.76    37.34       
86.1        72.77       133.013     2.191       3.531       78.516      69.96       62.82       28.078      13.342      29.168      36.754      1.413       2.394       120.188     72.475      1.087       -2089.78    96.184      -2242.8     36.296      
86.2        73.174      132.583     2.171       3.668       77.766      70.797      63.965      30.216      14.751      29.27       35.7        1.391       2.353       119.7       69.726      1.087       -2039.85    113.614     -2226.94    35.133      
86.3        52.866      132.486     2.182       3.765       77.843      72.045      64.781      32.374      16.047      30.303      34.48       1.389       2.384       118.861     66.746      1.087       -1981.27    156.842     -2148.97    33.377      
86.4        58.398      132.5       2.183       3.657       78.023      73.228      65.409      34.346      17.238      32.489      33.661      1.389       2.427       117.585     63.734      1.087       -1940.32    208.252     -2089.06    32.023      
86.5        160.896     132.421     2.178       3.495       76.844      72.059      66.173      35.525      18.108      34.933      32.773      1.425       2.415       115.702     60.922      1.087       -1908.07    229.274     -2109.03    31.106      
86.6        191.5       132.664     2.189       3.354       77.239      70.322      67.39       36.901      18.632      36.379      31.653      1.451       2.424       113.117     58.554      1.087       -1822.5     228.545     -2167.99    32.082      
86.7        166.231     132.93      2.169       3.42        78.736      69.507      67.913      39.679      19.005      36.662      30.866      1.45        2.5         109.799     56.711      1.087       -1777.54    219.594     -2195.22    33.374      
86.8        164.817     132.809     2.165       3.554       79.66       67.695      69.292      44.53       19.434      36.662      29.694      1.442       2.506       105.81      55.272      1.087       -1749.27    219.418     -2168.71    34.694      
