~Version Information Section
VERS.                                         2.0:CWLS log ASCII Standart – VERSION 2.0
WRAP.                                          NO:One line per depth step
~Well Information Section
STRT.M                                        0.5:Начальная глубина
STOP.M                                      201.9:Конечная глубина
STEP.M                                          0:Шаг квантования по глубине
NULL.                                    -9999.25:Признак "Нет данных"
WELL.                                       138Мх:Скважина
~Parameter Information Section
~Curve Information Section
DEPTH.M                                          :Глубина
БК.Омм                                           :BK     (БК)
DСР.мм                                           :DS  (ДС)
W.g/cm3                                          :GGKp
ГК.гамма                                         :GK          (ГК)
А0.4М0.1N.Омм.ohmm                               :GZ1   ГЗ1(A0.4M0.1N)
А1.0М0.1N.Омм.ohmm                               :GZ2   ГЗ2(A1.0M0.1N)
А2.0М0.5N.Омм.ohmm                               :GZ3   ГЗ3(A2.0M0.5N)
А4.0М0.5N.Oмм.ohmm                               :GZ4   ГЗ4(A4.0M0.5N)
А8.0М1.0N.Омм.ohmm                               :GZ5   ГЗ5(A8.0M0.5N)
N0.5M2.0A.Омм.ohmm                               :GZK   ГЗK(N0.5M2.0A)
ИК.мСм/м                                         :IK
ННКМ.усл.ед                                      :NNKm  (ННКм)
ПС.мВ                                            :PS       (ПС)
КС.Омм                                           :PZ    (КС)
R.Омм                                            :RS (Резистивиметр)
U1.мВ                                            :U1
U2.mV                                            :U2
U3.мВ                                            :U3
КП.%                                             :Кп
НГК.усл.ед                                       :NGK
~ASCII LOG DATA
# ...
109.3       35.561      139.462     2.107       5.138       28.049      24.268      24.055      9.662       5.748       29.999      17.722      1.609       263.704     59.946      1.08        1433.145    1450.475    1186.473    39.881      1.097       
109.4       30.818      139.821     2.1         5.169       28.049      23.943      24.272      9.821       5.732       30.103      17.682      1.653       262.616     59.888      1.08        1079.296    1474.474    1168.474    38.973      1.12        
109.5       26.794      140.079     2.09        5.138       28.049      23.713      24.343      10.218      5.708       30.094      17.625      1.708       261.672     59.805      1.08        915.683     1486.474    1156.474    34.973      1.105       
109.6       27.857      139.936     2.087       4.818       28.058      23.472      24.263      10.871      5.677       29.963      17.59       1.746       260.792     59.696      1.08        1051.947    1528.474    1150.474    32.159      1.096       
109.7       27.416      139.988     2.09        4.427       28.095      23.136      23.971      11.745      5.647       29.682      17.586      1.768       259.976     59.568      1.08        1212.204    1570.472    1144.474    29.826      1.068       
109.8       31.876      139.906     2.091       4.56        28.122      22.745      23.529      12.719      5.624       29.397      17.659      1.727       259.176     59.432      1.08        1372.475    1618.474    1144.474    30.209      1.105       
109.9       40.725      139.338     2.095       4.413       28.098      22.315      23.105      13.677      5.624       29.271      17.808      1.691       258.424     59.304      1.08        1426.474    1612.474    1264.474    31.032      1.137       
110.0       42.49       139.399     2.1         4.435       27.998      21.872      22.816      14.528      5.624       29.271      18.022      1.678       257.736     59.195      1.08        1420.474    1594.474    1366.474    31.205      1.179       
110.1       37.984      139.519     2.101       4.475       27.724      21.59       22.72       15.18       5.624       29.271      18.211      1.664       257.16      59.112      1.08        1408.474    1564.474    1468.474    30.542      1.202       
110.2       41.94       139.333     2.103       4.856       27.303      21.53       22.72       15.626      5.624       29.271      18.354      1.659       256.728     59.056      1.08        1348.475    1534.475    1450.474    30.414      1.227       
110.3       39.301      139.363     2.109       5.168       27.082      21.53       22.72       15.911      5.632       29.317      18.455      1.655       256.392     59.024      1.08        1312.473    1516.474    1462.474    31.489      1.199       
110.4       30.958      139.635     2.115       4.992       27.082      21.53       22.72       16.093      5.694       29.724      18.455      1.654       256.104     59.008      1.08        1282.474    1504.474    1498.474    32.65       1.163       
110.5       26.505      139.625     2.118       4.802       27.082      21.53       22.786      16.292      5.807       30.894      18.418      1.649       255.896     59.002      1.08        1270.474    1510.474    1504.474    32.802      1.117       
110.6       26.44       139.521     2.122       4.748       27.082      21.624      23.076      16.647      5.96        32.901      18.383      1.643       255.72      59.002      1.08        1336.474    1516.474    1492.474    33.796      1.114       
110.7       28.996      139.648     2.122       4.72        27.125      21.871      23.638      17.238      6.141       35.581      18.4        1.673       255.544     59.002      1.08        1384.472    1522.474    1438.475    35.298      1.089       
110.8       29.116      139.868     2.124       4.382       27.491      22.204      24.367      18.111      6.324       38.642      18.502      1.714       255.4       59.002      1.08        1432.473    1534.474    1414.473    37.691      1.08        
110.9       29.028      139.628     2.127       3.805       28.415      22.651      25.154      19.253      6.491       41.736      18.722      1.771       255.288     59.003      1.08        1414.474    1546.474    1396.474    37.655      1.121       
111.0       30.052      139.463     2.135       3.318       29.784      23.181      25.87       20.527      6.644       44.437      19.021      1.826       255.176     59.016      1.08        1438.474    1558.474    1390.474    35.479      1.155       
111.1       35.318      139.086     2.141       3.082       31.503      23.694      26.421      21.751      6.791       46.473      19.347      1.87        255.096     59.048      1.08        1450.474    1552.474    1384.474    32.86       1.253       
111.2       41.156      138.847     2.15        3.127       33.353      24.19       26.812      22.791      6.941       47.928      19.781      1.882       255.048     59.112      1.08        1462.474    1534.475    1366.474    31.713      1.253       
111.3       40.523      138.947     2.154       3.471       35.02       24.682      27.113      23.579      7.092       48.9        20.266      1.811       255.016     59.224      1.08        1450.474    1516.474    1354.474    32.807      1.245       
111.4       42.51       138.692     2.156       3.933       36.417      25.088      27.366      24.115      7.246       49.476      20.738      1.778       255.0       59.39       1.08        1450.474    1504.474    1342.474    33.619      1.183       
111.5       50.383      138.457     2.16        3.929       37.591      25.336      27.584      24.459      7.414       49.98       21.123      1.807       255.0       59.608      1.08        1450.474    1498.474    1336.474    32.617      1.14        
111.6       43.379      138.498     2.167       3.631       38.526      25.444      27.762      24.718      7.613       50.835      21.434      1.869       255.0       59.864      1.08        1450.474    1486.474    1324.474    31.007      1.128       
111.7       33.145      138.632     2.171       3.322       39.294      25.578      27.974      25.026      7.848       52.16       21.718      1.94        255.0       60.136      1.08        1444.474    1456.475    1306.474    30.384      1.126       
111.8       31.278      138.655     2.18        3.575       40.201      26.098      28.383      25.519      8.128       53.768      21.942      1.922       255.0       60.392      1.08        1438.474    1432.473    1294.474    31.39       1.162       
111.9       41.693      138.364     2.183       3.806       41.564      27.073      28.909      26.177      8.439       55.436      22.124      1.87        255.0       60.61       1.08        1432.474    1408.474    1288.474    33.254      1.209       
112.0       50.981      138.33      2.182       3.729       43.638      28.284      29.297      26.866      8.741       56.949      22.362      1.891       254.984     60.776      1.08        1432.474    1402.474    1270.474    33.666      1.218       
112.1       44.63       138.464     2.175       3.227       46.243      29.576      29.445      27.501      9.012       58.16       22.639      1.929       254.952     60.888      1.08        1426.474    1396.474    1240.474    32.343      1.219       
112.2       39.403      138.661     2.165       2.829       48.904      30.857      29.457      28.01       9.229       59.157      22.89       1.99        254.904     60.955      1.08        1420.474    1396.474    1198.475    30.369      1.185       
112.3       37.976      138.732     2.153       2.438       50.895      31.948      29.258      28.302      9.388       60.114      23.097      2.048       254.84      61.0        1.08        1414.474    1396.474    1168.473    28.038      1.21        
112.4       45.814      138.422     2.148       2.508       51.592      32.717      28.69       28.456      9.522       61.079      23.514      2.068       254.76      61.048      1.08        1414.474    1414.474    1102.474    27.162      1.229       
