~Version Information Section
VERS.                                         2.0:CWLS log ASCII Standart – VERSION 2.0
WRAP.                                          NO:One line per depth step
~Well Information Section
STRT.M                                        0.6:Начальная глубина
STOP.M                                      191.4:Конечная глубина
STEP.M                                          0:Шаг квантования по глубине
NULL.                                    -9999.25:Признак "Нет данных"
WELL.                                       129Мх:Скважина
~Parameter Information Section
~Curve Information Section
DEPTH.M                                          :Глубина
BK.lgОмм                                         :BK     (БК)
ПРОФ_СР.мм                                       :DS  (ДС)
ГК.имп/мин                                       :GK          (ГК)
ГЗ1.Омм                                          :GZ1   ГЗ1(A0.4M0.1N)
ГЗ2.Омм                                          :GZ2   ГЗ2(A1.0M0.1N)
ГЗ3.Омм                                          :GZ3   ГЗ3(A2.0M0.5N)
ГЗ4.Oмм                                          :GZ4   ГЗ4(A4.0M0.5N)
ГЗ5.Oмм                                          :GZ5   ГЗ5(A8.0M0.5N)
ГЗК.Омм                                          :GZK   ГЗK(N0.5M2.0A)
ИК.мСм/м                                         :IK
НГК.усл.ед                                       :NNKb  (ННКб)
ННКМ.усл.ед                                      :NNKm  (ННКм)
PZ.Омм                                           :PZ    (КС)
РЕЗ.Омм                                          :RS (Резистивиметр)
U1.мВ                                            :U1
U2.mV                                            :U2
U3.мВ                                            :U3
КП.%                                             :Кп
ПС.                                              :ПС
~ASCII LOG DATA
# ...
180.8       16.108      122.567     6.202       31.1        7.171       8.58        2.077       25.267      -9999.25    8.83        3.674       2.254       43.867      -9999.25    1170.667    1429.333    802.667     29.622      -183.84     
180.9       17.839      123.058     6.394       28.181      7.373       8.698       2.079       24.822      -9999.25    8.88        3.54        2.214       43.511      -9999.25    1151.999    1413.332    786.666     30.069      -183.64     
181.0       18.263      122.797     6.586       25.163      7.574       8.797       2.422       24.689      -9999.25    8.954       3.435       2.25        42.844      -9999.25    1138.667    1386.669    799.999     30.859      -183.32     
181.1       17.159      122.772     6.64        22.107      7.765       8.88        -9999.25    24.689      -9999.25    9.011       3.312       2.212       42.044      -9999.25    1128.0      1359.999    810.667     30.956      -182.88     
181.2       18.172      122.653     6.662       19.083      7.942       8.945       -9999.25    24.822      -9999.25    9.049       3.296       2.119       41.378      -9999.25    1128.0      1346.667    821.334     31.031      -182.36     
181.3       19.045      122.614     6.566       16.239      8.102       8.994       -9999.25    25.222      -9999.25    9.087       3.305       2.14        41.022      -9999.25    1120.0      1344.0      813.333     31.155      -181.8      
181.4       18.543      122.672     6.912       13.788      8.232       9.027       -9999.25    25.889      -9999.25    9.087       3.256       2.203       41.022      -9999.25    1109.332    1344.0      810.666     31.035      -181.2      
181.5       17.66       122.715     7.603       11.869      8.314       9.045       -9999.25    26.867      -9999.25    9.089       3.167       2.153       41.022      -9999.25    1090.667    1349.333    808.0       31.194      -180.64     
181.6       16.885      122.838     7.402       10.553      8.337       9.052       -9999.25    28.333      -9999.25    9.07        3.135       2.091       41.022      -9999.25    1090.667    1362.667    810.667     31.327      -180.12     
181.7       16.586      122.915     7.2         9.776       8.337       9.054       -9999.25    30.333      -9999.25    9.032       3.185       2.087       41.067      -9999.25    1095.999    1373.333    816.0       32.002      -179.64     
181.8       16.432      123.197     7.136       9.414       8.301       9.054       -9999.25    33.444      -9999.25    9.027       3.384       2.091       41.689      -9999.25    1109.333    1384.0      818.667     32.749      -179.2      
181.9       16.886      123.227     7.104       9.28        8.228       9.054       -9999.25    37.933      -9999.25    9.049       3.407       2.105       42.978      -9999.25    1112.0      1378.666    816.0       33.245      -178.8      
182.0       19.45       123.443     7.584       9.242       8.136       9.054       -9999.25    44.244      -9999.25    9.049       3.29        2.13        45.467      -9999.25    1114.667    1341.336    810.667     33.247      -178.4      
182.1       23.425      122.957     7.674       9.216       8.022       9.054       -9999.25    51.489      -9999.25    9.049       3.198       2.156       50.622      -9999.25    1109.333    1306.664    808.0       33.148      -178.0      
182.2       27.033      122.945     7.642       9.154       7.852       9.052       -9999.25    58.956      -9999.25    8.971       3.063       2.184       59.467      -9999.25    1101.334    1285.333    813.333     32.949      -177.64     
182.3       29.48       124.499     7.699       9.013       7.589       9.048       -9999.25    65.267      -9999.25    8.935       3.1         2.206       71.956      -9999.25    1093.333    1296.0      818.667     33.184      -177.36     
182.4       30.686      122.963     7.814       8.769       7.234       9.042       -9999.25    69.889      -9999.25    8.896       3.113       2.213       86.178      -9999.25    1090.667    1304.0      818.666     33.73       -177.16     
182.5       31.434      123.081     7.408       8.44        6.834       9.031       -9999.25    72.244      -9999.25    8.914       3.078       2.182       99.956      -9999.25    1098.666    1306.667    802.668     33.978      -177.04     
182.6       30.665      123.736     7.104       8.058       6.432       9.013       -9999.25    73.089      -9999.25    8.912       2.997       2.108       110.889     -9999.25    1098.667    1309.333    786.666     33.979      -177.0      
182.7       29.569      125.385     7.632       7.668       6.07        8.981       -9999.25    73.089      -9999.25    8.894       2.837       2.065       118.178     -9999.25    1096.001    1325.332    768.001     34.029      -177.0      
182.8       29.131      124.61      7.712       7.296       5.766       8.932       -9999.25    73.089      -9999.25    8.95        2.833       2.056       122.133     -9999.25    1085.333    1338.667    757.333     34.456      -177.0      
182.9       28.865      124.498     7.584       6.966       5.54        8.867       -9999.25    73.044      -9999.25    8.95        2.846       2.038       124.8       -9999.25    1055.998    1352.0      746.666     34.21       -177.0      
183.0       28.799      122.866     7.808       6.686       5.41        8.793       -9999.25    73.0        -9999.25    8.947       2.907       2.019       127.556     -9999.25    1024.002    1352.0      744.0       33.919      -177.0      
183.1       28.209      122.896     8.256       6.485       5.391       8.725       -9999.25    73.0        -9999.25    9.054       2.892       2.001       131.067     -9999.25    994.666     1352.0      752.001     33.297      -177.0      
183.2       28.057      122.733     8.519       6.427       5.391       8.677       -9999.25    -9999.25    -9999.25    9.127       2.732       1.983       134.889     -9999.25    992.0       1346.667    767.999     32.339      -177.04     
183.3       28.035      123.432     8.717       6.427       5.539       8.657       -9999.25    -9999.25    -9999.25    9.127       2.742       1.978       138.622     -9999.25    992.0       1314.667    792.0       31.622      -177.12     
183.4       28.293      122.264     8.045       6.556       5.844       8.657       -9999.25    -9999.25    -9999.25    9.29        2.96        1.976       141.956     -9999.25    1000.001    1282.665    808.001     30.704      -177.28     
183.5       28.379      122.201     7.901       6.869       6.302       8.658       -9999.25    -9999.25    -9999.25    9.414       3.17        1.978       144.889     -9999.25    1007.999    1253.333    808.001     29.395      -177.52     
183.6       27.058      122.236     7.853       7.29        6.83        8.667       -9999.25    -9999.25    -9999.25    9.364       3.459       1.988       147.644     -9999.25    1024.001    1242.666    799.999     29.541      -177.84     
183.7       28.164      122.237     7.699       7.758       7.389       8.675       -9999.25    -9999.25    -9999.25    9.74        3.511       2.013       150.311     -9999.25    1031.999    1232.001    792.0       29.325      -178.24     
183.8       31.987      122.197     7.392       8.273       7.983       8.677       -9999.25    -9999.25    -9999.25    9.81        3.652       2.091       152.8       -9999.25    1032.0      1221.333    792.0       27.935      -178.72     
183.9       37.862      122.217     6.854       -9999.25    -9999.25    8.677       -9999.25    -9999.25    -9999.25    10.172      3.913       2.206       154.756     -9999.25    1023.999    1207.999    781.333     27.664      -179.28     
184.0       38.722      122.268     6.317       -9999.25    -9999.25    8.668       -9999.25    -9999.25    -9999.25    10.323      3.977       2.361       155.867     -9999.25    1016.0      1194.667    770.667     28.285      -179.92     
184.1       36.829      122.131     6.385       -9999.25    -9999.25    8.642       -9999.25    -9999.25    -9999.25    10.376      3.785       2.421       155.911     -9999.25    1016.0      1202.668    770.667     28.485      -180.64     
