~Version Information Section
VERS.                                         2.0:CWLS log ASCII Standart – VERSION 2.0
WRAP.                                          NO:One line per depth step
~Well Information Section
STRT.M                                        0.1:Начальная глубина
STOP.M                                      167.0:Конечная глубина
STEP.M                                          0:Шаг квантования по глубине
NULL.                                    -9999.25:Признак "Нет данных"
WELL.                                        143К:Скважина
~Parameter Information Section
~Curve Information Section
DEPTH.M                                          :Глубина
БК.Омм                                           :BK     (БК)
DСР.мм                                           :DS  (ДС)
ПЛОТНОСТЬ.г/см^3                                 :GGKp
ГК.гамма                                         :GK          (ГК)
ИК.мСм/м                                         :IK
НГК.усл.ед                                       :NGK     (НГК)
ННКМ.усл.ед                                      :NNKm  (ННКм)
ПС.mv                                            :PS       (ПС)
N11.0M0.5A.Омм                                   :PZ    (КС)
R.Омм                                            :RS (Резистивиметр)
КП.%                                             :W
А0.4М0.1N.Омм                                    :GZ1   ГЗ1(A0.4M0.1N)
А1.0М0.1N.Омм                                    :GZ2   ГЗ2(A1.0M0.1N)
А2.0М0.5N.Омм                                    :GZ3   ГЗ3(A2.0M0.5N)
А4.0М0.5N.Oмм                                    :GZ4   ГЗ4(A4.0M0.5N)
А8.0М1.0N.Омм                                    :GZ5   ГЗ5(A8.0M0.5N)
N0.5M2.0A.Омм                                    :GZR   ГЗK(N0.5M2.0A)
~ASCII LOG DATA
# ...
66.7        30.025      230.609     2.327       6.541       21.03       1.308       2.002       47.033      37.348      1.228       28.606      28.442      35.023      41.97       18.15       0.634       43.123      
66.8        30.36       230.596     2.332       6.65        21.08       1.294       2.03        46.995      37.602      1.222       28.308      28.442      34.586      40.755      17.955      0.618       42.518      
66.9        30.694      235.451     2.332       6.848       21.085      1.259       2.035       46.95       37.563      1.215       28.151      28.275      34.403      38.764      17.882      0.563       42.375      
67.0        31.029      234.686     2.329       6.89        21.085      1.219       2.018       46.899      37.427      1.206       28.463      27.782      34.364      36.996      17.882      0.516       42.375      
67.1        31.363      232.279     2.325       6.863       21.085      1.186       2.009       46.849      37.583      1.196       29.09       26.888      34.367      36.136      17.882      0.625       42.375      
67.2        30.668      228.653     2.318       6.847       21.069      1.165       1.983       46.806      37.752      1.189       29.807      26.322      34.367      35.967      18.045      0.625       42.659      
67.3        29.757      223.709     2.308       6.797       21.006      1.158       1.937       46.779      37.784      1.184       30.558      26.322      34.475      35.967      18.667      0.69        43.177      
67.4        26.647      223.214     2.299       6.714       20.928      1.177       1.902       46.78       37.779      1.179       31.008      26.322      34.887      35.881      19.883      0.707       43.556      
67.5        25.473      223.057     2.291       6.459       20.878      1.212       1.893       46.827      37.735      1.175       31.227      26.378      35.523      35.713      21.723      0.707       43.702      
67.6        24.007      223.185     2.286       6.208       20.864      1.244       1.895       46.936      37.706      1.173       31.201      26.757      35.923      35.677      23.99       0.707       43.702      
67.7        25.235      223.35      2.284       6.031       20.864      1.26        1.906       47.13       37.846      1.169       30.936      27.584      36.095      35.725      26.227      0.707       43.581      
67.8        26.388      223.465     2.276       5.871       20.877      1.268       1.932       47.433      38.102      1.166       30.543      28.651      36.453      35.761      28.252      0.707       43.099      
67.9        27.364      223.747     2.262       5.729       20.938      1.282       1.946       47.869      38.315      1.16        30.32       29.583      36.811      35.989      30.173      0.769       42.198      
68.0        29.246      223.652     2.241       5.769       21.052      1.281       1.943       48.461      38.504      1.154       30.18       29.953      37.145      36.332      32.024      0.814       41.33       
68.1        29.462      224.068     2.215       5.757       21.188      1.259       1.932       49.229      38.684      1.145       30.231      30.101      37.454      36.499      33.941      0.92        40.821      
68.2        29.525      224.21      2.193       5.674       21.312      1.254       1.911       50.189      38.915      1.137       30.444      30.427      37.535      36.515      36.208      1.069       40.621      
68.3        27.352      224.057     2.181       5.626       21.411      1.261       1.895       51.347      39.058      1.128       30.778      30.473      37.535      36.55       38.784      1.246       40.604      
68.4        25.242      223.992     2.178       5.619       21.502      1.257       1.883       52.697      39.126      1.12        31.074      30.193      37.181      36.648      41.185      1.246       40.604      
68.5        24.35       224.078     2.185       5.744       21.608      1.25        1.875       54.224      39.206      1.112       31.231      29.853      36.745      36.858      42.979      1.406       40.653      
68.6        25.538      223.957     2.198       5.947       21.746      1.245       1.874       55.899      39.206      1.108       31.153      29.275      36.664      37.333      44.22       1.442       40.843      
68.7        27.543      224.594     2.21        6.228       21.928      1.226       1.881       57.686      39.189      1.103       30.892      28.33       36.784      37.856      45.072      1.664       41.222      
68.8        28.422      223.492     2.222       6.511       22.153      1.201       1.881       59.542      39.102      1.1         30.745      27.168      37.035      38.211      45.663      1.961       41.887      
68.9        28.114      224.267     2.233       6.764       22.397      1.18        1.866       61.417      38.961      1.1         30.811      26.219      37.552      38.508      46.126      1.961       43.104      
69.0        28.067      224.425     2.243       6.863       22.628      1.172       1.84        63.254      38.891      1.1         31.052      25.744      38.28       38.857      46.519      3.865       45.089      
69.1        27.119      224.515     2.252       6.72        22.824      1.169       1.81        64.998      38.891      1.1         31.39       25.616      38.622      39.461      46.993      6.579       47.746      
69.2        24.361      224.705     2.261       6.486       22.975      1.167       1.78        66.597      38.891      1.101       31.835      25.616      38.622      40.484      47.743      9.325       50.804      
69.3        21.047      224.477     2.272       6.159       23.095      1.166       1.764       68.008      38.941      1.104       32.167      25.616      38.907      42.008      48.72       12.121      53.699      
69.4        19.932      224.165     2.284       5.811       23.215      1.168       1.763       69.199      39.019      1.11        32.437      25.926      40.104      43.674      49.62       14.865      55.84       
69.5        21.482      224.487     2.294       5.438       23.361      1.169       1.773       70.15       39.168      1.12        32.356      26.929      41.506      44.914      50.01       16.026      57.215      
69.6        23.59       225.732     2.303       5.445       23.552      1.163       1.793       70.859      39.368      1.133       32.061      27.99       41.995      45.38       50.01       16.438      58.066      
69.7        25.395      223.915     2.312       5.577       23.777      1.15        1.818       71.336      39.48       1.146       31.728      28.381      41.995      45.38       49.937      16.847      58.634      
69.8        27.172      224.14      2.316       5.821       23.998      1.135       1.837       71.595      39.534      1.161       31.369      28.468      42.098      45.345      49.372      17.103      59.079      
69.9        28.756      225.36      2.314       6.166       24.177      1.119       1.859       71.657      39.603      1.174       31.022      28.53       41.966      44.836      47.983      17.223      59.459      
70.0        30.293      226.139     2.306       6.586       24.301      1.096       1.876       71.551      39.698      1.184       31.076      28.405      41.471      43.572      46.225      17.238      59.648      
70.1        30.997      226.351     2.292       6.794       24.369      1.081       1.881       71.313      39.792      1.192       31.378      28.029      40.841      42.044      44.724      17.238      59.641      
70.2        30.908      227.057     2.279       6.892       24.391      1.084       1.869       70.978      39.84       1.198       31.78       27.316      40.409      40.681      43.682      17.313      59.567      
70.3        29.199      228.108     2.272       6.835       24.394      1.093       1.845       70.583      39.847      1.205       32.216      26.855      40.345      39.659      43.05       17.341      59.501      
