~Version Information Section
VERS.                                         2.0:CWLS log ASCII Standart – VERSION 2.0
WRAP.                                          NO:One line per depth step
~Well Information Section
STRT.M                                       -0.5:Начальная глубина
STOP.M                                      184.3:Конечная глубина
STEP.M                                          0:Шаг квантования по глубине
NULL.                                    -9999.25:Признак "Нет данных"
WELL.                                       133Мх:Скважина
~Parameter Information Section
~Curve Information Section
DEPTH.M                                          :Глубина
DS.mm                                            :DS  (ДС)
GGK.g/cm3                                        :GGKp
ГК.mcr/h                                         :GK          (ГК)
GZ1.Ohm*M                                        :GZ1   ГЗ1(A0.4M0.1N)
GZ2.Ohm*M                                        :GZ2   ГЗ2(A1.0M0.1N)
GZ3.Ohm*M                                        :GZ3   ГЗ3(A2.0M0.5N)
GZ4.Ohm*M                                        :GZ4   ГЗ4(A4.0M0.5N)
GZ5.Ohm*M                                        :GZ5   ГЗ5(A8.0M0.5N)
GZR.Ohm*M                                        :GZK   ГЗK(N0.5M2.0A)
ИК.Ohm*M                                         :IK
НГК.ue                                           :NGK     (НГК)
NNKM.                                            :NNKm  (ННКм)
PS.mv                                            :PS       (ПС)
PZ.Ohm*M                                         :PZ    (КС)
RS.Ohm*M                                         :RS (Резистивиметр)
U1.mV                                            :U1
U2.mV                                            :U2
U3.mV                                            :U3
BK.Ohm*M                                         :БК
ПОРИСТОСТЬ.                                      :Пористость ННК
~ASCII LOG DATA
# ...
60.3        134.072     2.246       4.003       46.001      25.083      34.346      39.757      35.884      44.404      20.831      2.078       2.859       98.865      28.364      1.218       624.297     1342.009    2174.064    30.612      24.073      
60.4        134.32      2.226       3.885       59.435      28.508      35.829      40.643      35.884      40.676      21.707      2.08        2.991       100.014     27.872      1.218       620.501     1338.724    2171.268    35.33       22.076      
60.5        134.405     2.229       3.967       69.816      31.548      36.136      40.643      35.884      36.296      22.32       2.06        3.085       102.218     26.792      1.218       611.811     1333.875    2164.706    43.814      21.129      
60.6        134.241     2.24        4.104       77.446      33.563      36.136      40.463      34.915      31.565      22.673      1.979       3.112       105.4       25.436      1.218       595.544     1326.599    2152.453    45.558      21.003      
60.7        133.949     2.247       4.222       81.026      34.331      35.557      39.019      32.459      26.818      22.819      1.869       3.062       109.369     24.2        1.218       583.514     1322.671    2143.438    45.542      21.975      
60.8        133.766     2.245       4.321       81.026      34.331      33.358      35.417      29.154      22.144      22.844      1.786       2.966       113.842     23.336      1.218       578.475     1323.024    2139.706    47.164      23.004      
60.9        133.672     2.215       4.586       77.923      34.171      29.27       30.405      25.497      17.99       22.844      1.734       2.834       118.463     22.7        1.214       568.842     1321.304    2132.5      41.78       24.616      
61.0        133.577     2.178       4.978       69.065      33.384      24.431      25.288      22.044      15.183      22.844      1.677       2.681       122.894     22.1        1.214       548.323     1313.987    2117.069    37.008      25.59       
61.1        133.574     2.147       5.488       57.84       31.783      20.063      21.022      19.148      13.989      22.804      1.596       2.539       126.964     20.828      1.214       531.652     1307.206    2104.514    32.862      27.181      
61.2        133.854     2.116       6.025       48.146      30.017      16.746      18.226      17.216      13.761      22.637      1.555       2.406       130.607     19.772      1.214       530.342     1307.808    2103.539    27.357      28.705      
61.3        134.177     2.109       6.536       40.059      28.594      14.895      17.194      16.634      13.761      22.348      1.578       2.278       133.855     18.764      1.214       527.836     1309.72     2101.737    25.217      29.669      
61.4        134.24      2.122       7.114       34.934      27.966      14.363      17.135      16.634      13.761      21.938      1.59        2.185       136.693     17.6        1.214       510.569     1304.975    2088.888    23.083      30.957      
61.5        134.156     2.135       7.839       33.673      27.966      14.363      17.135      16.634      14.183      21.447      1.593       2.154       139.232     16.4        1.214       491.441     1297.325    2074.629    19.999      31.88       
61.6        134.001     2.164       8.334       33.673      27.966      14.363      17.135      16.634      15.629      21.014      1.586       2.154       141.456     15.536      1.214       487.846     1295.027    2071.969    19.715      32.504      
61.7        133.987     2.183       8.317       33.673      28.927      14.532      17.81       16.732      18.031      20.818      1.61        2.18        143.366     14.564      1.214       501.905     1301.57     2082.506    20.894      33.621      
61.8        134.164     2.175       7.819       34.489      31.419      15.555      20.01       20.333      21.281      20.818      1.674       2.231       144.943     13.4        1.214       521.039     1311.294    2096.842    21.763      34.414      
61.9        134.307     2.173       7.486       36.387      34.499      17.436      24.03       24.642      25.789      20.825      1.702       2.255       146.194     12.2        1.214       536.886     1317.348    2108.717    23.313      34.741      
62.0        134.129     2.173       7.182       39.739      38.804      22.89       29.82       28.549      30.784      20.902      1.728       2.29        147.077     11.336      1.214       547.038     1318.401    2116.327    24.807      33.738      
62.1        133.825     2.182       6.593       46.527      41.821      30.961      35.273      32.025      34.035      21.103      1.721       2.326       147.654     10.7        1.214       548.116     1316.647    2117.119    26.553      32.345      
62.2        133.741     2.235       5.684       52.714      42.084      36.502      37.948      34.711      34.927      21.25       1.732       2.372       147.968     10.1        1.214       542.078     1315.218    2112.568    31.229      29.519      
62.3        133.844     2.292       5.013       54.6        42.084      39.167      38.466      34.711      34.927      21.294      1.749       2.482       148.032     9.164       1.214       537.641     1314.306    2109.22     31.605      27.637      
62.4        134.101     2.312       4.867       55.292      40.894      40.462      38.466      34.711      34.588      21.294      1.745       2.596       147.86      9.008       1.214       538.904     1311.757    2110.138    29.249      25.318      
62.5        134.286     2.306       4.845       57.804      39.636      40.99       37.672      33.123      33.112      21.294      1.711       2.664       147.508     9.033       1.214       534.034     1305.12     2106.439    36.32       24.746      
62.6        134.207     2.27        5.133       59.84       37.537      40.99       34.696      29.813      29.717      21.276      1.628       2.652       146.989     8.648       1.214       513.44      1295.311    2090.951    55.217      25.439      
62.7        134.001     2.226       5.745       59.162      32.076      37.971      29.112      25.558      25.063      21.169      1.567       2.543       146.32      8.064       1.21        487.84      1286.798    2071.738    46.158      27.943      
62.8        133.938     2.205       6.611       55.016      26.558      32.508      23.069      20.986      21.383      20.902      1.535       2.389       145.506     7.509       1.21        474.179     1282.751    2061.504    31.601      29.727      
62.9        134.238     2.214       7.499       47.465      22.98       28.727      19.022      16.967      19.693      20.47       1.533       2.281       144.507     7.041       1.206       475.243     1281.939    2062.278    24.446      31.623      
63.0        134.892     2.225       8.214       40.812      21.031      26.026      16.589      14.174      18.996      19.937      1.502       2.229       143.243     6.655       1.206       478.925     1280.992    2064.978    22.071      32.097      
63.1        135.698     2.23        8.752       36.214      20.573      23.539      14.913      12.634      18.571      19.387      1.481       2.211       141.589     6.365       1.198       474.545     1278.783    2061.687    21.574      32.26       
63.2        136.202     2.216       8.916       32.307      20.794      21.42       13.862      11.88       18.437      18.898      1.471       2.165       139.373     6.181       1.198       462.409     1275.917    2052.678    22.407      33.655      
63.3        136.297     2.173       9.113       29.027      21.043      19.519      13.203      11.532      18.437      18.491      1.456       2.088       136.426     6.067       1.194       450.578     1273.815    2043.94     23.999      35.705      
63.4        136.33      2.138       9.468       27.467      20.98       17.994      12.764      11.248      18.437      18.165      1.439       2.027       132.657     6.003       1.194       448.328     1273.92     2042.33     21.625      36.999      
