~Version Information Section
VERS.                                         2.0:CWLS log ASCII Standart – VERSION 2.0
WRAP.                                          NO:One line per depth step
~Well Information Section
STRT.M                                        0.1:Начальная глубина
STOP.M                                      153.3:Конечная глубина
STEP.M                                          0:Шаг квантования по глубине
NULL.                                    -9999.25:Признак "Нет данных"
WELL.                                        144К:Скважина
~Parameter Information Section
~Curve Information Section
DEPTH.M                                          :Глубина
БК.Омм                                           :BK     (БК)
DСР.мм                                           :DS  (ДС)
ПЛОТНОСТЬ.г/см^3                                 :GGKp
ГК.мкР/ч                                         :GK          (ГК)
А0.4М0.1N.Омм                                    :GZ1   ГЗ1(A0.4M0.1N)
А1.0М0.1N.Омм                                    :GZ2   ГЗ2(A1.0M0.1N)
А2.0М0.5N.Омм                                    :GZ3   ГЗ3(A2.0M0.5N)
А4.0М0.5N.Oмм                                    :GZ4   ГЗ4(A4.0M0.5N)
А8.0М1.0N.Омм                                    :GZ5   ГЗ5(A8.0M0.5N)
N0.5M2.0A.Омм                                    :GZR   ГЗK(N0.5M2.0A)
ИК.мСм/м                                         :IK
БЗ.ue                                            :NNKb  (ННКб)
МЗ.ue                                            :NNKm  (ННКм)
ПС.mv                                            :PS       (ПС)
N11.0M0.5A.Омм                                   :PZ    (КС)
R.Омм                                            :RS (Резистивиметр)
ПОРИСТОСТЬ.                                      :W
~ASCII LOG DATA
# ...
44.5        37.798      218.848     2.294       3.378       64.437      45.981      22.388      13.59       0.387       13.747      17.969      3.026       1.93        91.477      47.253      1.101       32.774      
44.6        29.728      219.184     2.284       3.744       51.67       40.852      19.36       12.341      0.327       13.189      17.103      2.783       1.888       91.504      44.11       1.101       34.218      
44.7        20.721      219.383     2.276       4.265       37.334      34.802      16.662      11.763      0.282       13.434      16.214      2.57        1.831       91.483      40.493      1.101       35.646      
44.8        16.001      223.796     2.272       4.766       27.877      31.747      15.556      11.986      0.248       15.307      15.371      2.373       1.735       91.407      37.429      1.101       36.604      
44.9        14.489      226.039     2.273       5.166       23.616      31.839      15.866      13.776      0.237       20.15       14.687      2.309       1.612       91.276      35.711      1.101       37.062      
45.0        14.564      233.074     2.288       5.35        22.999      35.91       18.382      18.341      0.237       27.664      14.36       2.312       1.565       91.093      34.828      1.101       36.551      
45.1        15.626      223.598     2.321       5.247       23.742      44.924      24.243      24.9        0.298       36.233      14.4        2.452       1.594       90.869      33.996      1.101       35.188      
45.2        20.375      223.598     2.365       4.832       26.681      55.67       31.794      31.302      0.367       42.926      14.733      2.693       1.682       90.629      33.086      1.101       33.082      
45.3        25.472      221.225     2.404       4.262       32.961      63.436      37.766      34.834      0.425       45.746      15.192      3.074       1.793       90.406      32.053      1.101       31.02       
45.4        41.827      221.303     2.419       3.825       40.094      65.491      39.843      35.525      0.425       46.684      15.638      3.471       1.94        90.23       30.703      1.101       29.633      
45.5        56.323      219.47      2.404       3.83        43.142      61.421      39.159      34.067      0.385       47.69       15.937      3.773       2.036       90.127      29.271      1.101       29.016      
45.6        46.892      219.602     2.377       4.371       42.578      49.008      35.984      30.088      0.353       49.392      15.868      3.749       2.1         90.112      28.583      1.101       28.902      
45.7        27.741      219.957     2.358       5.282       39.204      33.685      30.942      25.908      0.324       54.702      15.454      3.447       2.053       90.192      28.712      1.101       29.147      
45.8        15.75       224.536     2.351       6.219       34.117      25.23       27.924      23.864      0.304       64.969      14.904      3.025       1.879       90.37       29.208      1.101       29.516      
45.9        13.449      232.307     2.359       6.841       31.84       23.757      27.458      23.273      0.304       74.709      14.719      2.783       1.707       90.626      29.881      1.101       29.971      
46.0        18.171      225.243     2.383       6.856       32.424      26.428      27.676      22.763      0.276       78.256      15.02       2.836       1.649       90.926      30.248      1.101       30.388      
46.1        28.414      219.974     2.417       6.359       34.418      29.74       27.893      22.309      0.209       77.065      15.661      3.105       1.732       91.222      29.59       1.101       30.461      
46.2        46.994      219.274     2.436       5.667       35.828      30.381      27.574      21.026      0.085       70.5        16.445      3.344       1.871       91.467      28.289      1.101       30.769      
46.3        44.576      218.997     2.434       5.194       35.147      28.576      25.513      18.012      0.011       59.519      17.081      3.376       1.978       91.625      27.743      1.101       31.189      
46.4        26.941      218.685     2.421       4.969       33.527      23.998      20.876      14.241      -0.003      50.548      17.225      3.161       1.969       91.667      28.743      1.101       31.831      
46.5        17.735      219.783     2.408       4.934       32.081      20.275      16.065      11.023      -0.003      46.163      17.115      2.859       1.843       91.577      31.183      1.101       32.248      
46.6        16.801      222.519     2.396       4.869       31.576      19.325      12.935      9.051       0.081       44.797      17.039      2.64        1.704       91.359      34.476      1.101       32.559      
46.7        22.584      227.48      2.386       4.654       32.959      20.158      11.6        8.202       0.14        43.914      17.323      2.656       1.644       91.023      37.57       1.101       32.555      
46.8        37.591      225.82      2.381       4.211       36.016      22.568      11.299      7.732       0.178       42.727      18.301      2.839       1.705       90.602      39.35       1.101       32.395      
46.9        48.086      222.151     2.375       3.741       38.359      25.701      10.712      7.109       0.178       40.5        19.202      3.073       1.853       90.138      39.819      1.101       31.938      
47.0        40.97       220.617     2.362       3.482       39.03       28.156      9.711       6.392       0.17        36.923      19.801      3.207       1.936       89.672      39.885      1.101       31.467      
47.1        34.934      219.668     2.346       3.532       38.735      29.12       8.573       5.766       0.174       33.757      19.946      3.181       1.933       89.228      40.199      1.101       31.36       
47.2        27.552      218.157     2.335       3.805       37.175      29.418      8.0         5.376       0.177       32.323      19.902      3.057       1.868       88.819      41.135      1.101       31.776      
47.3        24.171      218.929     2.33        4.161       35.139      29.65       7.967       5.245       0.186       32.058      19.849      2.895       1.789       88.444      42.637      1.101       32.487      
47.4        25.149      219.202     2.329       4.527       34.368      30.269      8.504       5.237       0.229       32.295      19.899      2.787       1.758       88.11       44.12       1.101       33.197      
47.5        28.737      218.973     2.329       4.763       35.027      32.908      9.929       5.32        0.25        32.827      20.124      2.745       1.757       87.811      44.883      1.101       33.764      
47.6        34.07       218.768     2.331       4.888       36.122      36.639      11.826      5.5         0.261       33.303      20.496      2.754       1.796       87.544      44.874      1.101       34.062      
47.7        37.345      218.375     2.333       4.939       36.693      39.603      13.582      5.735       0.252       33.718      20.625      2.788       1.833       87.316      44.549      1.101       34.424      
47.8        33.846      218.194     2.336       4.996       37.0        41.243      14.869      6.08        0.28        34.3        20.578      2.798       1.844       87.145      44.227      1.101       34.724      
47.9        27.999      218.449     2.337       4.986       36.584      41.843      15.84       6.546       0.647       35.123      20.368      2.778       1.824       87.058      44.141      1.101       35.007      
48.0        28.261      218.491     2.336       4.898       35.996      42.057      17.119      7.255       1.448       36.385      20.126      2.727       1.79        87.075      44.489      1.101       34.908      
48.1        31.341      217.995     2.335       4.725       36.223      42.539      20.518      8.284       2.551       37.883      19.981      2.649       1.772       87.21       45.198      1.101       34.428      
