~Version Information Section
VERS.                                         2.0:CWLS log ASCII Standart – VERSION 2.0
WRAP.                                          NO:One line per depth step
~Well Information Section
STRT.M                                        0.0:Начальная глубина
STOP.M                                      211.0:Конечная глубина
STEP.M                                          0:Шаг квантования по глубине
NULL.                                    -9999.25:Признак "Нет данных"
WELL.                                       125Мх:Скважина
~Parameter Information Section
~Curve Information Section
DEPTH.M                                          :Глубина
BK.lgОмм                                         :BK
D.                                               :D sr
GGKP.g/sm3                                       :GGKp
ГК.гамма                                         :GK
ИК.мСм/м                                         :IK
KP.%                                             :Kp
PS.                                              :PS       (ПС)
PZ.Омм                                           :PZ
RIS.Омм                                          :RIS
U1.                                              :U1
U2.                                              :U2
U3.                                              :U3
БЗ.                                              :БЗ (ГГК-1)
ГЗ1.Омм                                          :ГЗ1
ГЗ2.Омм                                          :ГЗ2
ГЗ3.Омм                                          :ГЗ3
ГЗ4.Oмм                                          :ГЗ4
ГЗ5.Oмм                                          :ГЗ5
ГЗК.Омм                                          :ГЗК
ИКБ.мСм/м                                        :ИКБ
МЗ.                                              :МЗ жесткий (ГГК-4)
ННКМ.усл.ед                                      :ННКм
ИКМ.мСм/м                                        :ИКМ
НГК.усл.ед                                       :ННКб
~ASCII LOG DATA
# ...
205.2       18.493      121.001     2.431       7.147       7.594       26.529      22.203      -9999.25    -9999.25    1369.919    449.749     774.873     10560.0     -9999.25    -9999.25    -9999.25    -9999.25    -9999.25    -9999.25    7.476       17050.0     0.93        6.918       2.138       
205.3       18.578      121.005     2.428       7.091       7.613       26.912      23.653      -9999.25    -9999.25    1340.391    425.472     750.8       10582.667   -9999.25    -9999.25    -9999.25    -9999.25    -9999.25    -9999.25    7.475       17205.334   0.933       6.95        2.104       
205.4       18.621      121.263     2.429       6.822       7.634       27.48       25.637      -9999.25    -9999.25    1302.492    399.431     728.168     10446.667   -9999.25    -9999.25    -9999.25    -9999.25    -9999.25    -9999.25    7.476       17197.334   0.933       6.97        2.049       
205.5       18.535      121.198     2.438       6.922       7.651       27.638      27.621      -9999.25    -9999.25    1254.437    381.028     707.177     10561.429   -9999.25    -9999.25    -9999.25    -9999.25    -9999.25    -9999.25    7.477       16974.285   0.934       6.981       2.038       
205.6       18.493      120.771     2.449       6.778       7.664       27.672      29.681      -9999.25    -9999.25    1217.274    367.041     699.734     10264.0     -9999.25    -9999.25    -9999.25    -9999.25    -9999.25    -9999.25    7.481       17060.0     0.939       6.985       2.129       
205.7       -9999.25    120.577     2.465       6.979       7.665       27.543      31.817      -9999.25    -9999.25    1177.535    354.847     691.693     9941.429    -9999.25    -9999.25    -9999.25    -9999.25    -9999.25    -9999.25    7.486       17101.428   0.945       6.992       2.16        
205.8       -9999.25    120.967     2.486       6.938       7.671       27.411      34.106      -9999.25    -9999.25    1137.844    344.363     679.689     9672.0      -9999.25    -9999.25    -9999.25    -9999.25    -9999.25    -9999.25    7.497       17008.0     0.951       6.993       2.188       
205.9       -9999.25    120.634     2.498       7.101       7.671       27.634      36.395      -9999.25    -9999.25    1110.159    339.759     664.851     9426.667    -9999.25    -9999.25    -9999.25    -9999.25    -9999.25    -9999.25    7.509       17464.0     0.956       6.997       2.141       
206.0       -9999.25    120.714     2.504       7.04        7.672       28.273      38.608      -9999.25    -9999.25    1102.393    342.325     649.995     9300.0      -9999.25    -9999.25    -9999.25    -9999.25    -9999.25    -9999.25    7.523       17278.666   0.988       6.997       2.089       
206.1       -9999.25    112.603     2.506       7.024       7.675       28.711      40.668      -9999.25    -9999.25    1108.644    349.645     638.487     9308.0      -9999.25    -9999.25    -9999.25    -9999.25    -9999.25    -9999.25    7.532       16610.666   1.006       6.995       2.081       
206.2       -9999.25    85.109      2.496       6.971       7.675       29.399      42.27       -9999.25    -9999.25    1126.155    359.804     632.484     9400.0      -9999.25    -9999.25    -9999.25    -9999.25    -9999.25    -9999.25    7.539       16645.0     1.028       6.995       2.204       
206.3       -9999.25    83.341      2.483       6.94        7.68        29.922      43.491      -9999.25    -9999.25    1142.782    368.696     631.085     9420.0      -9999.25    -9999.25    -9999.25    -9999.25    -9999.25    -9999.25    7.541       16550.588   1.059       6.995       2.203       
206.4       -9999.25    83.292      2.468       6.878       7.683       29.868      46.095      -9999.25    -9999.25    1151.986    371.924     634.917     9685.0      -9999.25    -9999.25    -9999.25    -9999.25    -9999.25    -9999.25    7.539       16368.333   1.057       6.999       2.195       
206.5       -9999.25    83.166      2.45        6.868       7.688       29.362      49.482      -9999.25    -9999.25    1146.114    366.043     638.765     10043.529   -9999.25    -9999.25    -9999.25    -9999.25    -9999.25    -9999.25    7.535       16808.234   1.057       7.005       2.252       
206.6       -9999.25    83.164      2.431       6.847       7.691       28.922      53.713      -9999.25    -9999.25    1130.783    353.254     640.858     10493.333   -9999.25    -9999.25    -9999.25    -9999.25    -9999.25    -9999.25    7.53        16737.334   1.054       7.007       2.342       
206.7       -9999.25    83.162      2.421       6.863       7.688       28.396      58.923      -9999.25    -9999.25    1107.196    335.788     635.249     10665.0     -9999.25    -9999.25    -9999.25    -9999.25    -9999.25    -9999.25    7.523       16347.5     1.034       7.003       2.366       
206.8       -9999.25    83.137      2.418       6.8         7.686       27.947      65.233      -9999.25    -9999.25    1084.428    319.587     627.031     10623.75    -9999.25    -9999.25    -9999.25    -9999.25    -9999.25    -9999.25    7.518       16390.0     1.058       6.992       2.373       
206.9       -9999.25    83.165      2.426       6.65        7.688       28.021      72.819      -9999.25    -9999.25    1062.245    305.104     614.987     10220.0     -9999.25    -9999.25    -9999.25    -9999.25    -9999.25    -9999.25    7.512       16195.294   1.072       6.985       2.374       
207.0       -9999.25    83.143      2.446       6.515       7.686       28.316      81.495      -9999.25    -9999.25    1051.757    296.485     606.324     9920.0      -9999.25    -9999.25    -9999.25    -9999.25    -9999.25    -9999.25    7.508       16383.75    1.068       6.976       2.253       
207.1       -9999.25    83.139      2.463       6.338       7.693       28.713      90.973      -9999.25    -9999.25    1055.515    295.861     602.869     9611.765    -9999.25    -9999.25    -9999.25    -9999.25    -9999.25    -9999.25    7.508       16636.471   1.027       6.973       2.188       
207.2       -9999.25    83.166      2.476       6.181       7.691       28.644      101.028     -9999.25    -9999.25    1070.848    303.3       609.01      9409.23     -9999.25    -9999.25    -9999.25    -9999.25    -9999.25    -9999.25    7.513       16792.309   1.031       6.972       2.224       
207.3       -9999.25    83.128      2.483       6.12        7.688       28.62       110.365     -9999.25    -9999.25    1087.168    312.049     617.118     9522.5      -9999.25    -9999.25    -9999.25    -9999.25    -9999.25    -9999.25    7.519       16791.25    1.034       6.969       2.346       
207.4       -9999.25    83.124      2.483       6.269       7.688       28.779      119.43      -9999.25    -9999.25    1103.484    320.634     623.427     9610.0      -9999.25    -9999.25    -9999.25    -9999.25    -9999.25    -9999.25    7.529       16807.5     1.035       6.962       2.3         
207.5       -9999.25    83.108      2.479       6.461       7.692       29.064      127.931     -9999.25    -9999.25    1108.794    324.489     625.602     9849.412    -9999.25    -9999.25    -9999.25    -9999.25    -9999.25    -9999.25    7.54        17138.824   1.084       6.951       2.236       
207.6       -9999.25    83.153      2.479       6.705       7.671       28.994      135.574     -9999.25    -9999.25    1105.817    326.169     624.949     9901.333    -9999.25    -9999.25    -9999.25    -9999.25    -9999.25    -9999.25    7.548       17281.334   1.064       6.949       2.177       
207.7       -9999.25    83.126      2.478       6.843       -9999.25    29.008      142.101     -9999.25    -9999.25    1098.696    325.363     625.314     9805.333    -9999.25    -9999.25    -9999.25    -9999.25    -9999.25    -9999.25    7.552       17392.0     1.041       6.947       2.267       
207.8       -9999.25    83.113      2.479       6.931       -9999.25    28.969      147.401     -9999.25    -9999.25    1088.578    323.248     625.679     9575.0      -9999.25    -9999.25    -9999.25    -9999.25    -9999.25    -9999.25    7.557       17246.25    1.032       6.947       2.335       
