~Version Information Section
VERS.                                         2.0:CWLS log ASCII Standart – VERSION 2.0
WRAP.                                          NO:One line per depth step
~Well Information Section
STRT.M                                        1.0:Начальная глубина
STOP.M                                      203.4:Конечная глубина
STEP.M                                          0:Шаг квантования по глубине
NULL.                                    -9999.25:Признак "Нет данных"
WELL.                                         3Мх:Скважина
~Parameter Information Section
~Curve Information Section
DEPTH.M                                          :Глубина
BK.Ohm*M                                         :BK
DS.mm                                            :DS  (ДС)
ГК.mcr/h                                         :GK          (ГК)
GZ1.Ohm*M                                        :GZ1   ГЗ1(A0.4M0.1N)
GZ2.Ohm*M                                        :GZ2   ГЗ2(A1.0M0.1N)
GZ3.Ohm*M                                        :GZ3   ГЗ3(A2.0M0.5N)
GZ4.Ohm*M                                        :GZ4   ГЗ4(A4.0M0.5N)
GZ5.Ohm*M                                        :GZ5   ГЗ5(A8.0M0.5N)
U2.mV                                            :U2
U3.mV                                            :U3
W.                                               :W
КП.%                                             :Кп
НГК.усл.ед                                       :ННКб
ННКМ.усл.ед                                      :ННКм
GZR.Ohm*M                                        :GZK   ГЗK(N0.5M2.0A)
ИК.Ohm*M                                         :IK
PS.mv                                            :PS       (ПС)
PZ.Ohm*M                                         :PZ    (КС)
RS.Ohm*M                                         :RS (Резистивиметр)
U1.mV                                            :U1
~ASCII LOG DATA
# ...
106.6       23.768      151.076     4.256       2.564       3.507       3.977       6.025       3.071       1030.279    875.875     2.488       34.243      4.245       2.716       3.819       17.765      195.068     26.44       1.008       1206.941    
106.7       29.174      150.821     4.241       3.429       3.989       3.977       5.925       2.971       828.438     685.04      2.48        32.07       4.726       2.728       4.119       17.904      195.392     27.484      1.008       999.257     
106.8       35.237      151.172     4.414       5.246       4.691       4.177       5.925       2.771       655.34      530.744     2.487       30.018      4.726       2.737       4.319       17.975      195.98      27.693      1.008       809.402     
106.9       44.361      151.108     4.603       6.957       5.295       4.377       5.825       2.671       580.863     474.107     2.501       29.736      4.582       2.673       4.619       19.07       197.176     27.275      1.008       715.336     
107.0       59.704      151.123     4.733       9.608       5.754       4.577       5.725       2.571       604.442     516.479     2.49        29.471      4.582       2.608       4.519       20.557      198.227     26.231      1.003       715.37      
107.1       61.235      151.095     4.745       5.87        6.6         5.077       5.725       2.571       664.821     605.269     2.46        29.489      4.438       2.569       4.519       21.872      198.882     24.978      1.003       741.531     
107.2       54.828      150.694     4.72        3.71        6.213       5.677       5.725       2.771       701.134     681.281     2.439       29.789      4.438       2.529       4.519       22.703      199.134     23.724      1.003       733.081     
107.3       51.88       150.486     4.619       3.062       5.561       5.577       5.725       2.971       699.387     719.151     2.427       30.07       4.093       2.451       4.519       23.546      200.372     22.471      0.999       689.347     
107.4       53.088      150.007     4.453       2.684       5.005       5.277       5.725       3.271       674.537     715.783     2.435       31.962      4.093       2.373       4.619       24.252      203.954     21.427      0.999       648.182     
107.5       45.709      149.961     4.217       4.101       5.029       5.177       5.825       4.371       632.875     666.617     2.488       33.573      4.521       2.623       4.719       24.509      209.682     20.8        0.999       635.569     
107.6       35.4        151.844     4.048       2.898       5.875       5.077       5.825       4.571       568.484     569.163     2.558       32.869      4.521       2.873       4.819       24.666      215.219     20.591      0.994       646.289     
107.7       42.756      152.755     4.017       3.12        6.334       5.077       6.025       4.771       487.285     448.369     2.61        30.136      4.921       2.803       5.119       24.679      216.73      20.591      0.994       654.66      
107.8       64.417      153.416     4.115       2.806       6.503       5.077       6.125       4.971       418.885     360.237     2.654       27.445      5.001       2.719       5.319       24.509      213.423     20.591      0.994       637.833     
107.9       63.973      153.641     4.255       2.555       6.334       5.277       6.225       4.971       394.562     358.399     2.669       27.078      4.774       2.646       5.319       24.38       207.055     20.591      0.99        586.684     
108.0       55.208      150.991     4.401       2.763       6.02        5.477       6.325       4.971       418.334     447.904     2.634       27.472      4.717       2.574       5.519       24.162      201.22      20.591      0.99        514.131     
108.1       36.058      150.283     4.576       3.029       6.117       5.777       6.425       4.971       466.925     582.057     2.61        27.825      4.559       2.544       5.719       23.666      197.214     20.591      0.99        445.524     
108.2       33.729      151.232     4.832       4.352       6.745       5.777       6.525       4.971       508.49      690.663     2.593       28.968      4.559       2.528       5.819       23.308      195.128     20.591      0.99        402.427     
108.3       46.774      151.022     5.242       4.063       7.083       5.677       6.625       4.971       525.843     728.542     2.563       30.01       3.937       2.41        5.919       22.953      194.247     20.591      0.99        389.651     
108.4       47.863      151.173     5.811       3.777       7.011       5.577       6.825       5.071       517.814     690.673     2.527       31.431      3.782       2.263       5.819       22.537      193.982     20.591      0.99        399.432     
108.5       31.189      151.712     6.566       3.743       7.132       5.477       6.825       5.171       492.107     602.182     2.479       32.134      3.456       2.16        5.619       22.265      194.215     20.591      0.99        424.807     
108.6       21.827      153.09      7.299       3.376       7.228       5.377       6.825       5.371       456.37      492.311     2.401       33.814      3.391       2.071       5.619       22.029      194.437     20.591      0.985       468.103     
108.7       19.187      153.147     7.569       3.337       6.914       5.477       6.825       5.671       416.934     382.499     2.362       35.43       3.302       2.099       5.519       21.867      194.933     20.591      0.985       534.458     
108.8       17.66       153.095     7.061       3.144       6.697       5.577       6.825       5.771       381.521     290.904     2.368       38.454      3.279       2.152       5.419       21.717      195.17      20.591      0.985       614.675     
108.9       15.596      152.783     5.884       3.729       6.479       5.677       6.925       6.071       360.544     238.222     2.413       40.503      3.896       2.467       5.419       21.193      195.348     20.591      0.985       676.567     
109.0       15.171      152.864     4.667       4.343       6.624       5.777       7.125       5.971       363.09      239.601     2.477       38.012      4.019       2.831       5.419       20.603      195.275     20.591      0.985       689.168     
109.1       24.946      152.484     3.675       5.715       6.962       5.777       7.225       5.871       392.146     293.974     2.542       33.181      4.808       2.824       5.519       19.957      195.349     20.591      0.985       651.353     
109.2       55.335      151.097     2.966       6.427       7.349       6.177       7.325       5.771       439.736     377.844     2.546       30.922      5.005       2.74        5.619       19.33       195.721     20.591      0.985       597.451     
109.3       43.752      150.516     2.506       5.013       7.373       6.777       7.325       5.771       487.801     455.037     2.538       32.889      4.219       2.714       5.819       19.049      196.2       20.591      0.985       561.668     
109.4       46.666      150.974     2.46        4.097       6.842       6.777       7.525       5.771       514.246     491.416     2.522       34.867      4.219       2.706       5.919       19.072      196.589     20.591      0.985       550.553     
109.5       88.716      151.229     2.845       4.556       6.817       6.677       7.625       5.671       508.223     475.914     2.489       33.822      4.253       2.655       6.119       19.35       196.442     20.591      0.985       548.147     
109.6       112.72      152.939     3.454       4.688       6.866       6.577       7.625       5.571       478.956     427.059     2.492       31.373      4.261       2.592       6.319       19.85       195.685     20.591      0.985       541.796     
109.7       94.189      156.337     4.126       5.881       7.252       6.477       7.725       5.571       447.66      376.695     2.519       29.459      4.001       2.403       6.519       20.466      194.238     20.591      0.985       534.405     
