~Version Information Section
VERS.                                         2.0:CWLS log ASCII Standart – VERSION 2.0
WRAP.                                          NO:One line per depth step
~Well Information Section
STRT.M                                       -0.3:Начальная глубина
STOP.M                                      200.8:Конечная глубина
STEP.M                                          0:Шаг квантования по глубине
NULL.                                    -9999.25:Признак "Нет данных"
WELL.                                       124Мх:Скважина
~Parameter Information Section
~Curve Information Section
DEPTH.M                                          :Глубина
U1.мВ                                            :U1
U2.                                              :U2
U3.мВ                                            :U3
БЗ.имп/мин                                       :БЗ
ГГКП.имп/мин                                     :ГГКп
ГЗ1.Омм                                          :ГЗ1
ГЗ2.Омм                                          :ГЗ2
ГЗ3.Омм                                          :ГЗ3
ГЗ4.Oмм                                          :ГЗ4
ГЗ5.Oмм                                          :ГЗ5
ГЗК.Омм                                          :ГЗК
КП.%                                             :Кп
МЗ.                                              :МЗ жесткий
НГК.усл.ед                                       :ННКб
ННКМ.усл.ед                                      :ННКм
ПРОФ_СР.мм                                       :ПРОФ_СР
ПС.мВ                                            :ПС
BK.lgОмм                                         :BK
ГК.имп/мин                                       :GK
ИК.мСм/м                                         :IK
PZ.Омм                                           :PZ
RIS.Омм                                          :RIS
~ASCII LOG DATA
# ...
57.7        1680.000122 3630.000244 1506.666382 23310.0     2.017027    9.176       9.719       24.6        13.176      22.872      14.352      11.998425   28142.8574226.429581    2.861019    151.822006  472.471985  131.522476  4.122       27.855152   68.080002   1.06        
57.8        1686.666626 3649.999756 1490.000122 23394.2851562.019772    9.589       9.719       24.6        13.104      22.672001   14.352      11.832541   30165.7148446.529753    2.86996     151.962997  473.088013  120.226425  4.147       30.196882   68.160004   1.06        
57.9        1690.0      3666.666748 1483.333252 23380.0     2.027803    10.029      9.719       24.620001   13.056      22.528      14.352      11.923776   31515.3847666.632786    2.892455    152.141998  474.320007  109.900558  4.109       31.399147   68.239998   1.06        
58.0        1686.666626 3670.0      1480.0      24065.3339842.043425    10.482      9.719       24.719999   13.032      22.440001   14.352      12.11512    32014.6660166.695892    2.920832    152.237     475.552002  102.56517   4.07        33.010929   68.32       1.06        
58.1        1683.333374 3663.333496 1480.0      24678.5722662.066494    10.93       9.916       24.9        13.032      22.416      14.465      12.389192   31935.7148446.773038    2.948951    152.123001  476.167999  107.398918  3.93        33.735916   68.400002   1.06        
58.2        1676.666626 3649.999756 1483.333374 24608.5722662.101423    11.352      10.345      25.1        13.032      22.416      14.773      12.536525   32004.2851566.602475    2.965991    151.925995  477.399994  123.879639  3.859       34.662045   68.400002   1.06        
58.3        1666.66687  3630.000244 1489.999878 25124.2851562.139425    11.724      11.004      25.280001   13.032      22.416      15.291      12.528927   31461.4277346.333442    2.956272    151.729996  479.247986  128.528656  3.827       35.28706    68.400002   1.06        
58.4        1683.33374  3609.999756 1500.000122 24156.0     2.173188    12.023      11.812      25.459999   13.072      22.416      16.065001   12.392637   29526.6660166.343523    2.94555     151.647003  480.480011  125.892517  3.821       35.28706    68.32       1.06        
58.5        1713.333374 3603.333252 1506.666626 22064.2851562.197703    12.247      12.674      25.68       13.176      22.544001   17.319      12.212584   27201.4277346.464153    2.929806    151.714996  481.712006  114.5513    3.667       35.423309   68.239998   1.06        
58.6        1749.999756 3613.333008 1510.0      19512.8574222.208026    12.398      13.552      25.940001   13.352      22.799999   18.475      12.413499   24470.0     6.775211    2.938941    151.453003  483.559998  113.240013  3.67        35.460991   68.160004   1.06        
58.7        1760.0      3630.000244 1516.666748 16070.6669922.205534    12.488      14.421      26.26       13.608      23.216      19.556      12.801946   21921.3339846.802116    2.983452    151.082993  484.791992  161.064575  3.686       35.114826   68.080002   1.06        
58.8        1753.333496 3639.999756 1526.666504 13510.0     2.204413    12.536      15.255      26.58       13.944      23.976      20.587999   13.076577   21140.0     6.545797    3.009983    151.087997  486.023987  171.790802  3.67        35.248501   68.0        1.06        
58.9        1743.33313  3650.000244 1540.000122 11782.8574222.21473     12.561      16.021      26.860001   14.312      25.136      21.4        13.270119   21905.7148446.379964    3.016397    151.132004  487.872009  150.314209  3.59        34.662045   67.839996   1.06        
59.0        1730.0      3663.333252 1553.333374 11212.8574222.229221    12.581      16.705      27.219999   14.704      26.52       21.799999   13.482434   22688.5722666.110155    2.976909    151.302994  489.720001  125.314133  3.446       34.36544    67.68       1.06        
59.1        1723.333374 3673.333252 1563.333252 11861.4287112.247425    12.599      17.306      27.5        15.104      28.200001   22.24       13.824813   23350.0     6.140392    2.926955    151.529007  491.567993  116.412598  3.302       33.405712   67.519997   1.06        
59.2        1726.666748 3676.666504 1573.333374 13156.0     2.260546    12.599      17.771      27.719999   15.488      30.128      22.68       15.005377   23677.3339846.078057    2.964112    151.712006  494.032013  123.310509  3.636       32.58815    67.360001   1.06        
59.3        1739.999756 3673.333496 1583.33313  15195.7138672.26077     12.596      18.051001   28.02       15.832      31.936001   23.0        17.027901   23742.8574225.666823    2.997867    151.781006  495.880005  143.879852  3.859       32.090366   67.120003   1.06        
59.4        1756.66687  3670.0      1596.66687  17240.0     2.249565    12.567      18.166      28.32       16.128      33.368      23.4        19.407768   23615.0     5.011867    2.927506    151.727997  497.727997  219.280533  3.706       30.872774   66.800003   1.06        
59.5        1766.666626 3666.666748 1606.666626 18125.3339842.238877    12.498      18.166      28.48       16.384001   34.368      23.76       21.839712   23108.0     4.304791    2.800262    152.054001  499.575989  167.880371  3.629       30.196882   66.480003   1.06        
59.6        1776.666504 3712.429443 1610.0      18356.0     2.229797    12.386      18.166      28.559999   16.6        34.807999   24.16       23.721197   22832.0     3.674922    2.594424    152.457001  500.808014  126.765167  4.013       29.487219   66.160004   1.06        
59.7        1790.000244 3749.500977 1610.0      18060.0     2.225351    12.217      18.131001   28.6        16.688      34.807999   24.48       25.045977   22538.5722663.292711    2.419687    153.014008  501.424011  88.104897   4.013       28.725727   65.68       1.06        
59.8        1751.145508 3742.80249  1599.228882 18146.6660162.228413    11.995      17.944      28.6        16.688      34.807999   24.879999   25.622087   22280.0     3.09927     2.34466     153.367004  502.040009  75.1623     3.706       27.434841   65.279999   1.06        
59.9        1628.718872 3639.901123 1569.539063 18086.6660162.236359    11.752      17.653999   28.6        16.688      34.695999   25.24       25.179375   22472.5     3.007941    2.274494    153.716995  502.040009  71.449631   3.706       26.735109   65.120003   1.06        
60.0        1450.937012 3512.340576 1524.212036 18020.0     2.250844    11.469      17.302      28.540001   16.648001   34.271999   25.52       24.774572   23096.6660162.931107    2.225514    154.294006  502.040009  70.307236   3.898       25.667353   64.959999   1.06        
60.1        1303.564697 3411.639648 1477.14624  18061.4277342.273827    11.137      16.896      28.48       16.431999   33.720001   25.719999   25.054729   23547.1425782.795506    2.180679    154.539001  502.040009  69.823235   4.118       25.225771   64.800003   1.06        
60.2        1225.812134 3348.317139 1437.080566 18140.0     2.303227    10.772      16.457001   28.4        16.040001   33.16       25.84       25.244352   24008.0     2.827915    2.146471    155.160004  502.040009  69.183105   5.222       24.112654   64.720001   1.06        
60.3        1205.772949 3320.456299 1401.406128 18616.0     2.329683    10.391      16.009001   28.360001   15.488      32.639999   25.84       25.709391   24849.3339842.868075    2.100533    157.770996  502.040009  66.834396   5.338       23.232042   64.639999   1.06        
60.4        1216.527954 3314.938477 1366.990601 19231.4277342.347149    10.019      15.584      28.299999   14.928      32.127998   25.84       26.723068   24894.2851562.7845      2.047051    162.233994  502.656006  60.117378   5.453       22.826361   64.480003   1.06        
60.5        1245.042603 3323.479736 1338.688721 20077.3339842.356458    9.682       15.208      28.219999   14.376      31.6        25.76       27.545126   24228.0     2.628506    1.967557    165.556     503.272003  36.812897   5.263       22.147903   64.239998   1.06        
