~Version Information Section
VERS.                                         2.0:CWLS log ASCII Standart – VERSION 2.0
WRAP.                                          NO:One line per depth step
~Well Information Section
STRT.M                                        1.0:Начальная глубина
STOP.M                                      151.7:Конечная глубина
STEP.M                                          0:Шаг квантования по глубине
NULL.                                    -9999.25:Признак "Нет данных"
WELL.                                       117Мх:Скважина
~Parameter Information Section
~Curve Information Section
DEPTH.M                                          :Глубина
DСР.мм                                           :Dср
ГК.гамма                                         :GK
ИК.мСм/м                                         :IK
N0.5M2.0A.Омм.                                   :N0.5M2.0A.Омм
R.Омм                                            :R
U1.                                              :U1
U2.                                              :U2
U3.                                              :U3
W.имп/1,25с                                      :W
А0.4М0.1N.Омм.                                   :А0.4М0.1N.Омм
А1.0М0.1N.Омм.                                   :А1.0М0.1N.Омм
А2.0М0.5N.Омм.                                   :А2.0М0.5N.Омм
А4.0М0.5N.Oмм.                                   :А4.0М0.5N.Oмм
А8.0М1.0N.Омм.                                   :А8.0М1.0N.Омм
БЗ.имп/мин                                       :БЗ
БК.Омм                                           :БК
КС.Омм                                           :КС
ПС.                                              :ПС
МЗ.имп/мин                                       :МЗ
НГК.имп/1,25с                                    :ННКб
ННКМ.имп/1,25с                                   :ННКм
ПЛОТНОСТЬГГК.г/см3                               :плотностьГГК
~ASCII LOG DATA
# ...
108.3       135.632     8.74        12.403      14.998      1.229       165.442     50.342      103.515     26.892      17.661      15.715      20.804      2.62        3.249       12080.0     13.047      18.781      167.421     6400.0      2.682       1.553       2.354       
108.4       133.013     8.673       12.419      15.132      1.229       169.336     52.161      104.933     26.842      17.86       15.957      20.199      2.726       3.164       12260.0     13.081      18.763      167.639     6360.0      2.651       1.541       2.344       
108.5       127.556     8.663       12.411      15.138      1.228       173.096     53.674      105.229     27.01       17.83       16.14       19.509      2.841       3.046       12240.0     13.113      18.727      167.858     6080.0      2.647       1.549       2.342       
108.6       126.137     8.757       12.395      15.048      1.228       177.771     52.734      106.86      27.43       17.836      16.446      19.044      3.181       2.935       12180.0     13.106      18.672      168.063     5880.0      2.666       1.563       2.347       
108.7       125.839     8.83        12.383      14.992      1.227       181.567     51.465      108.487     27.901      18.005      16.823      18.583      3.772       2.829       11700.0     13.057      18.61       168.245     5660.0      2.669       1.569       2.355       
108.8       125.739     8.89        12.373      15.111      1.227       178.308     48.828      106.325     28.18       17.736      16.563      18.183      4.335       2.727       11520.0     13.01       18.545      168.387     5700.0      2.612       1.587       2.364       
108.9       125.626     8.967       12.358      15.358      1.228       172.168     45.007      103.871     28.282      17.422      16.378      17.916      4.62        2.615       11380.0     12.981      18.475      168.474     5680.0      2.529       1.606       2.374       
109.0       125.542     8.955       12.326      15.501      1.228       168.482     43.896      101.754     28.389      17.49       16.456      17.709      4.636       2.472       10900.0     12.942      18.407      168.497     5680.0      2.529       1.622       2.377       
109.1       125.447     8.812       12.307      15.366      1.228       163.88      45.239      98.302      28.57       17.708      16.543      17.497      4.836       2.316       10520.0     12.858      18.338      168.457     5700.0      2.627       1.624       2.377       
109.2       125.391     8.735       12.287      14.994      1.227       154.737     44.971      93.786      28.605      17.939      16.615      17.231      5.75        2.171       10540.0     12.739      18.265      168.357     5680.0      2.701       1.617       2.373       
109.3       125.262     8.758       12.252      14.821      1.227       152.649     46.069      93.058      28.398      17.723      16.307      17.036      7.219       2.023       10800.0     12.63       18.197      168.193     5720.0      2.677       1.607       2.363       
109.4       125.273     8.836       12.213      14.865      1.228       154.907     48.437      94.574      28.171      17.192      15.986      16.887      8.707       1.893       10660.0     12.583      18.124      167.963     5680.0      2.615       1.6         2.355       
109.5       125.196     8.98        12.175      14.993      1.228       154.712     48.096      95.753      28.2        16.999      16.042      16.696      10.005      1.849       11200.0     12.603      18.05       167.69      5700.0      2.598       1.591       2.35        
109.6       125.144     9.124       12.136      15.379      1.227       148.327     48.389      93.495      28.444      17.06       16.089      16.605      11.681      1.866       11340.0     12.683      17.992      167.401     5680.0      2.611       1.587       2.347       
109.7       125.136     9.197       12.094      15.726      1.228       146.484     50.293      92.302      28.682      17.02       15.995      16.618      15.336      1.877       11440.0     12.833      17.951      167.118     5700.0      2.596       1.588       2.346       
109.8       125.05      9.253       12.05       15.757      1.227       144.641     52.197      91.11       28.776      17.098      16.262      16.534      20.399      1.888       11580.0     13.029      17.919      166.847     5660.0      2.56        1.593       2.35        
109.9       125.03      9.373       12.008      15.82       1.226       137.085     50.525      86.512      28.799      17.253      16.483      16.472      23.914      1.911       11240.0     13.173      17.895      166.603     5640.0      2.536       1.6         2.353       
110.0       124.952     9.459       11.979      16.174      1.224       129.309     48.938      81.868      28.854      17.066      15.951      16.453      24.777      1.933       11180.0     13.233      17.851      166.401     5600.0      2.539       1.604       2.36        
110.1       125.008     9.456       11.943      16.893      1.223       127.722     46.716      80.659      28.95       16.878      15.519      16.434      23.998      1.949       10760.0     13.311      17.78       166.249     5580.0      2.587       1.615       2.365       
110.2       124.826     9.407       11.917      17.574      1.224       126.135     44.494      79.451      29.09       16.936      15.604      16.434      22.448      1.964       10800.0     13.389      17.706      166.134     5460.0      2.66        1.636       2.371       
110.3       124.917     9.333       11.904      17.773      1.225       130.579     43.066      81.383      29.227      17.194      15.861      16.42       20.84       1.987       10760.0     13.315      17.621      166.041     5600.0      2.689       1.654       2.372       
110.4       124.985     9.181       11.884      17.882      1.223       136.39      43.945      84.477      29.393      17.875      16.313      16.321      20.16       2.002       10800.0     13.069      17.527      165.969     5540.0      2.646       1.652       2.373       
110.5       124.937     9.089       11.873      18.188      1.224       138.831     44.092      85.326      29.606      17.761      16.108      16.104      19.977      1.992       10640.0     12.77       17.443      165.925     5600.0      2.556       1.637       2.369       
110.6       124.586     9.234       11.86       18.594      1.224       141.272     44.238      86.175      29.88       16.979      15.281      15.822      19.284      1.997       10720.0     12.459      17.355      165.902     5620.0      2.476       1.607       2.366       
110.7       124.624     9.411       11.842      19.181      1.226       143.665     44.361      88.432      30.113      16.418      14.84       15.368      18.069      2.041       10740.0     12.158      17.276      165.887     5720.0      2.431       1.59        2.359       
110.8       124.51      9.462       11.823      19.834      1.228       134.424     42.175      83.912      30.229      16.131      14.763      14.936      17.281      2.068       10720.0     11.964      17.244      165.877     5620.0      2.414       1.575       2.353       
110.9       124.546     9.501       11.79       20.611      1.226       125.183     39.99       79.392      30.123      16.064      14.695      14.719      17.222      2.052       10860.0     11.928      17.242      165.882     5540.0      2.425       1.58        2.347       
111.0       124.478     9.605       11.758      21.928      1.226       119.531     38.452      77.164      29.829      15.844      14.524      14.534      17.2        2.026       10980.0     11.981      17.222      165.916     5500.0      2.437       1.574       2.349       
111.1       124.46      9.611       11.725      24.819      1.226       119.543     38.196      76.933      29.393      15.538      14.233      14.417      17.29       2.026       11180.0     12.121      17.144      165.98      5560.0      2.438       1.559       2.353       
