~Version Information Section
VERS.                                         2.0:CWLS log ASCII Standart – VERSION 2.0
WRAP.                                          NO:One line per depth step
~Well Information Section
STRT.M                                        0.6:Начальная глубина
STOP.M                                      143.2:Конечная глубина
STEP.M                                          0:Шаг квантования по глубине
NULL.                                    -9999.25:Признак "Нет данных"
WELL.                                       116Мх:Скважина
~Parameter Information Section
~Curve Information Section
DEPTH.M                                          :Глубина
BK.lgОмм                                         :BK     (БК)
ПРОФ_СР.мм                                       :DS  (ДС)
ГК.мкР/час                                       :GK          (ГК)
ГЗ1.Омм                                          :GZ1   ГЗ1(A0.4M0.1N)
ГЗ2.Омм                                          :GZ2   ГЗ2(A1.0M0.1N)
ГЗ3.Омм                                          :GZ3   ГЗ3(A2.0M0.5N)
ГЗ4.Oмм                                          :GZ4   ГЗ4(A4.0M0.5N)
ГЗ5.Oмм                                          :GZ5   ГЗ5(A8.0M0.5N)
ГЗК.Омм                                          :GZK   ГЗK(N0.5M2.0A)
ИК.мСм/м                                         :IK
НГК.усл.ед.                                      :NGK     (НГК)
ПС.мВ                                            :PS       (ПС)
PZ.Омм                                           :PZ    (КС)
RIS.Омм                                          :RS (Резистивиметр)
U1.мВ                                            :U1
U2.mV                                            :U2
U3.мВ                                            :U3
W.г/см3                                          :ГГКп
П.%                                              :п
ННКМ.усл.ед                                      :ННКм
~ASCII LOG DATA
# ...
7.0         -9999.25    156.519     3.596       -9999.25    -9999.25    -9999.25    -9999.25    -9999.25    -9999.25    -9999.25    1.835       393.122     122.933     1.12        -9999.25    -9999.25    -9999.25    2.074       17.881      2.517       
7.1         -9999.25    156.211     3.672       -9999.25    -9999.25    -9999.25    -9999.25    -9999.25    -9999.25    -9999.25    1.837       393.966     123.067     1.12        -9999.25    -9999.25    -9999.25    2.03        17.965      2.458       
7.2         -9999.25    156.482     3.848       -9999.25    -9999.25    -9999.25    -9999.25    -9999.25    -9999.25    -9999.25    1.837       394.993     123.2       1.12        -9999.25    -9999.25    -9999.25    1.984       17.884      2.483       
7.3         -9999.25    156.117     4.006       -9999.25    -9999.25    -9999.25    -9999.25    -9999.25    -9999.25    -9999.25    1.839       396.248     123.348     1.12        -9999.25    -9999.25    -9999.25    1.971       17.689      2.525       
7.4         -9999.25    156.219     3.976       -9999.25    -9999.25    -9999.25    -9999.25    -9999.25    -9999.25    -9999.25    1.844       397.754     123.526     1.12        -9999.25    -9999.25    -9999.25    1.993       17.85       2.55        
7.5         -9999.25    156.512     3.865       -9999.25    -9999.25    -9999.25    -9999.25    -9999.25    -9999.25    -9999.25    1.862       399.51      123.748     1.12        -9999.25    -9999.25    -9999.25    2.021       18.136      2.566       
7.6         -9999.25    156.35      3.639       -9999.25    -9999.25    -9999.25    -9999.25    -9999.25    -9999.25    -9999.25    1.81        401.427     123.985     1.12        -9999.25    -9999.25    -9999.25    2.078       18.595      2.592       
7.7         -9999.25    156.869     3.503       -9999.25    -9999.25    -9999.25    -9999.25    -9999.25    -9999.25    -9999.25    1.726       403.366     124.193     1.12        -9999.25    -9999.25    -9999.25    2.116       18.876      2.617       
7.8         -9999.25    156.88      3.708       -9999.25    -9999.25    -9999.25    -9999.25    -9999.25    -9999.25    -9999.25    1.646       405.191     124.341     1.12        -9999.25    -9999.25    -9999.25    2.148       19.178      2.619       
7.9         -9999.25    156.738     4.04        -9999.25    -9999.25    -9999.25    -9999.25    -9999.25    -9999.25    -9999.25    1.598       406.879     124.444     1.12        -9999.25    -9999.25    -9999.25    2.195       18.83       2.597       
8.0         -9999.25    156.622     4.137       -9999.25    -9999.25    -9999.25    -9999.25    -9999.25    -9999.25    -9999.25    1.662       408.522     124.548     1.12        -9999.25    -9999.25    -9999.25    2.218       18.193      2.526       
8.1         -9999.25    156.636     4.011       -9999.25    -9999.25    -9999.25    -9999.25    -9999.25    -9999.25    -9999.25    1.771       410.302     124.652     1.12        -9999.25    -9999.25    -9999.25    2.228       17.644      2.462       
8.2         -9999.25    156.665     3.897       -9999.25    -9999.25    -9999.25    -9999.25    -9999.25    -9999.25    -9999.25    1.898       412.355     124.741     1.12        -9999.25    -9999.25    -9999.25    2.223       17.357      2.429       
8.3         -9999.25    156.648     4.004       -9999.25    -9999.25    -9999.25    -9999.25    -9999.25    -9999.25    -9999.25    1.962       414.728     124.785     1.12        -9999.25    -9999.25    -9999.25    2.201       17.831      2.52        
8.4         -9999.25    156.775     4.21        -9999.25    -9999.25    -9999.25    -9999.25    -9999.25    -9999.25    -9999.25    1.948       417.351     124.785     1.12        503.159     694.604     682.343     2.169       18.932      2.649       
8.5         -9999.25    156.834     4.306       -9999.25    -9999.25    -9999.25    -9999.25    -9999.25    -9999.25    -9999.25    1.895       420.112     124.785     1.125       504.547     695.165     682.312     2.171       19.937      2.717       
8.6         -9999.25    157.011     4.138       -9999.25    -9999.25    -9999.25    -9999.25    -9999.25    -9999.25    -9999.25    1.748       422.873     124.726     1.125       484.484     748.348     845.851     2.195       22.222      2.764       
8.7         -9999.25    157.1       3.866       -9999.25    -9999.25    -9999.25    -9999.25    -9999.25    -9999.25    -9999.25    1.581       425.542     124.563     1.125       469.873     761.351     897.86      2.21        24.605      2.662       
8.8         -9999.25    157.188     3.775       -9999.25    -9999.25    -9999.25    -9999.25    -9999.25    -9999.25    -9999.25    1.437       428.12      124.252     1.125       459.325     761.351     897.86      2.258       27.34       2.544       
8.9         -9999.25    158.222     3.87        -9999.25    -9999.25    -9999.25    -9999.25    -9999.25    -9999.25    -9999.25    1.325       430.675     123.778     1.125       453.304     742.326     871.202     2.285       29.728      2.449       
9.0         -9999.25    158.813     4.089       -9999.25    -9999.25    -9999.25    -9999.25    -9999.25    -9999.25    -9999.25    1.212       433.276     123.2       1.125       443.012     724.954     851.365     2.255       31.68       2.364       
9.1         -9999.25    158.952     4.316       -9999.25    -9999.25    -9999.25    -9999.25    -9999.25    -9999.25    -9999.25    1.112       435.923     122.607     1.125       435.354     724.954     840.441     2.218       33.703      2.352       
9.2         -9999.25    158.799     4.498       -9999.25    -9999.25    -9999.25    -9999.25    -9999.25    -9999.25    -9999.25    1.064       438.592     122.074     1.125       435.354     725.409     841.505     2.194       35.631      2.297       
9.3         -9999.25    157.072     4.453       -9999.25    -9999.25    -9999.25    -9999.25    -9999.25    -9999.25    -9999.25    1.093       441.216     121.6       1.125       436.61      735.537     841.563     2.175       36.369      2.224       
9.4         -9999.25    158.277     4.1         -9999.25    -9999.25    -9999.25    -9999.25    -9999.25    -9999.25    -9999.25    1.155       443.703     121.141     1.125       451.051     738.43      841.563     2.171       36.098      2.087       
9.5         -9999.25    157.516     3.547       -9999.25    -9999.25    -9999.25    -9999.25    -9999.25    -9999.25    -9999.25    1.212       445.916     120.652     1.125       494.203     740.265     797.206     2.166       34.898      1.945       
9.6         -9999.25    157.26      3.043       -9999.25    -9999.25    -9999.25    -9999.25    -9999.25    -9999.25    -9999.25    1.265       447.786     120.119     1.11        540.433     740.265     746.883     2.164       33.401      1.927       
9.7         -9999.25    157.444     2.786       -9999.25    -9999.25    -9999.25    -9999.25    -9999.25    -9999.25    -9999.25    1.301       449.292     119.526     1.11        560.402     737.86      713.103     2.169       31.819      1.959       
9.8         -9999.25    156.982     2.804       -9999.25    -9999.25    -9999.25    -9999.25    -9999.25    -9999.25    -9999.25    1.282       450.479     118.859     1.11        560.402     734.046     713.103     2.181       30.409      2.083       
9.9         -9999.25    157.049     3.045       -9999.25    -9999.25    -9999.25    -9999.25    -9999.25    -9999.25    -9999.25    1.207       451.368     118.148     1.11        538.134     733.063     727.289     2.213       29.719      2.26        
10.0        -9999.25    158.746     3.466       -9999.25    -9999.25    -9999.25    -9999.25    -9999.25    -9999.25    -9999.25    1.088       452.007     117.467     1.11        492.984     733.063     783.824     2.235       29.746      2.484       
10.1        -9999.25    159.845     4.148       -9999.25    -9999.25    -9999.25    -9999.25    -9999.25    -9999.25    -9999.25    0.981       452.418     116.889     1.11        459.852     731.885     831.473     2.247       32.584      2.598       
