~Version Information Section
VERS.                                         2.0:CWLS log ASCII Standart – VERSION 2.0
WRAP.                                          NO:One line per depth step
~Well Information Section
STRT.M                                      -0.07:Начальная глубина
STOP.M                                     189.23:Конечная глубина
STEP.M                                          0:Шаг квантования по глубине
NULL.                                    -9999.25:Признак "Нет данных"
WELL.                                       127Мх:Скважина
~Parameter Information Section
~Curve Information Section
DEPTH.M                                          :Глубина
BK.                                              :BK
ГК.гамма                                         :GK
ИК.                                              :IK
НГК.усл.ед                                       :NGK
PSЭ3.                                            :PSэ3
PZЭ3.                                            :PZэ3
U1.                                              :U1
U2.                                              :U2
U3.                                              :U3
W.усл.ед                                         :W
ГЗ1.                                             :ГЗ1
ГЗ2.                                             :ГЗ2
ГЗ3.                                             :ГЗ3
ГЗ4.                                             :ГЗ4
ГЗ5.                                             :ГЗ5
ГЗК.                                             :ГЗК
ННКМ.усл.ед                                      :ННКм
PL.g/cm3                                         :Плотность
ПРОФ_СР.                                         :ПРОФ_СР
IS.                                              :РЕЗ
~ASCII LOG DATA
# ...
147.13      23.736      6.628       17.123      1.117       106.222     31.339      1456.375    703.033     344.181     42.887      23.636      20.074      22.603      26.838      24.348      23.715      1.585       2.253       133.181     1.085       
147.23      23.069      6.506       17.038      1.149       105.583     31.114      1406.582    718.146     372.291     43.43       23.352      19.652      22.171      26.499      24.093      24.447      1.579       2.259       133.509     1.084       
147.33      23.796      6.344       16.96       1.141       104.733     30.909      1354.839    725.366     395.132     43.322      23.097      19.447      21.816      26.166      23.825      25.033      1.562       2.274       133.831     1.085       
147.43      23.081      6.539       16.882      1.131       103.894     30.705      1321.409    725.698     406.058     43.47       22.76       19.231      21.519      25.869      23.646      25.461      1.561       2.291       133.504     1.086       
147.53      21.571      6.59        16.768      1.115       103.239     30.504      1284.812    728.276     418.929     43.522      22.386      18.937      21.267      25.611      23.488      25.744      1.572       2.307       133.317     1.087       
147.63      21.319      6.484       16.597      0.995       102.739     30.263      1273.136    734.916     428.197     42.348      21.941      18.703      20.953      25.315      23.292      25.829      1.577       2.315       133.616     1.088       
147.73      22.106      6.217       16.436      1.007       102.189     30.007      1315.421    742.801     422.713     40.936      21.344      18.418      20.565      24.992      23.098      25.714      1.575       2.313       134.103     1.088       
147.83      21.879      6.012       16.227      1.084       101.472     29.742      1378.347    753.332     413.97      40.153      21.072      17.979      20.116      24.665      22.99       25.617      1.566       2.302       134.3       1.089       
147.93      22.355      6.013       16.118      1.181       100.639     29.467      1418.254    763.969     412.918     38.912      21.305      17.414      19.606      24.405      22.932      25.798      1.542       2.289       133.669     1.088       
148.03      22.619      6.072       15.96       1.182       99.789      29.194      1417.367    766.524     415.948     38.213      21.655      16.719      19.09       24.275      22.87       26.496      1.535       2.277       133.383     1.086       
148.13      22.298      6.187       15.88       1.161       98.967      28.931      1399.455    768.468     423.215     38.649      21.789      16.012      18.701      24.388      22.854      28.067      1.565       2.272       133.478     1.085       
148.23      21.527      6.287       15.836      1.191       98.167      28.692      1368.984    767.395     430.86      39.98       21.781      15.382      18.526      24.721      22.897      30.385      1.593       2.279       133.334     1.086       
148.33      20.837      6.203       15.752      1.133       96.772      28.481      1336.381    757.693     429.881     41.438      21.793      15.354      18.564      25.206      22.938      33.322      1.615       2.296       133.359     1.086       
148.43      21.037      6.139       15.704      1.098       94.417      28.273      1315.974    749.021     426.636     42.69       21.213      15.833      18.75       25.719      22.97       36.398      1.639       2.318       133.395     1.087       
148.53      21.305      6.029       15.613      1.109       91.244      28.057      1325.856    759.391     435.74      43.616      19.979      16.294      18.955      26.102      22.946      40.554      1.658       2.342       133.423     1.087       
148.63      21.569      5.845       15.459      1.085       87.817      27.823      1332.311    776.753     454.223     43.167      18.282      16.322      18.947      26.146      22.831      47.546      1.669       2.361       133.106     1.088       
148.73      23.366      5.439       15.302      1.151       84.478      27.644      1344.157    799.881     477.573     42.008      16.479      16.024      18.515      25.643      22.602      53.695      1.671       2.369       132.781     1.088       
148.83      26.424      5.24        15.152      1.22        81.356      27.535      1364.988    828.657     504.309     40.783      14.755      15.46       17.517      24.608      22.268      59.057      1.658       2.365       132.539     1.087       
148.93      27.843      5.494       15.14       1.135       78.583      27.461      1379.097    845.856     519.48      38.598      13.702      14.818      16.119      23.15       21.844      63.745      1.611       2.35        131.849     1.087       
149.03      25.912      6.047       15.169      1.242       76.2        27.412      1381.806    844.648     516.869     37.173      13.972      15.305      14.415      21.442      21.428      68.224      1.563       2.329       131.923     1.084       
149.13      21.092      6.462       15.25       1.203       74.339      27.399      1372.88     836.592     510.473     36.549      16.01       15.633      12.729      19.678      21.241      71.473      1.529       2.303       132.107     1.081       
149.23      18.263      6.436       15.495      1.198       73.428      27.472      1347.19     823.545     504.246     37.033      21.088      16.183      11.493      18.218      21.425      71.473      1.502       2.283       132.363     1.078       
149.33      17.086      6.275       15.786      1.086       73.739      27.689      1309.749    807.099     498.368     39.753      31.271      16.691      10.984      17.154      22.029      71.298      1.506       2.27        132.598     1.074       
149.43      16.27       6.084       16.002      1.028       75.039      28.05       1278.536    798.949     500.308     42.853      46.249      16.81       11.432      16.306      22.999      69.888      1.542       2.265       133.145     1.07        
149.53      16.098      5.795       16.265      1.05        76.65       28.522      1263.536    793.031     498.832     45.712      63.022      17.036      12.797      15.935      24.249      65.627      1.619       2.264       133.475     1.067       
149.63      15.194      5.045       16.417      1.085       78.228      29.162      1263.233    782.041     485.709     47.855      80.594      16.144      14.977      16.505      25.53       58.454      1.731       2.269       133.052     1.065       
149.73      15.519      3.98        16.578      1.07        79.628      30.469      1275.541    773.148     470.441     43.729      97.557      15.742      17.338      18.137      26.636      49.19       1.834       2.271       132.987     1.065       
149.83      23.923      3.184       16.811      1.046       80.761      33.186      1293.856    767.973     457.194     39.772      110.84      15.653      19.445      20.231      27.504      38.985      1.987       2.265       132.628     1.065       
149.93      54.209      2.758       17.096      1.122       81.8        37.217      1310.912    763.018     444.709     39.613      116.411     15.896      21.022      22.431      28.063      28.44       2.096       2.256       131.167     1.065       
150.03      104.429     2.734       17.575      1.243       82.8        42.142      1309.75     750.12      430.053     36.382      114.161     16.828      21.885      24.818      28.22       18.791      2.105       2.246       129.59      1.067       
150.13      132.64      2.749       18.578      1.346       83.733      47.328      1303.855    733.344     413.568     36.278      107.935     17.529      21.856      27.022      27.992      11.728      2.11        2.235       129.657     1.068       
150.23      130.089     2.834       19.81       1.354       84.378      52.263      1327.83     723.085     396.056     37.294      100.148     18.168      20.998      28.389      27.651      7.461       2.092       2.231       129.776     1.068       
