~Version Information Section
VERS.                                         2.0:CWLS log ASCII Standart – VERSION 2.0
WRAP.                                          NO:One line per depth step
~Well Information Section
STRT.M                                        0.4:Начальная глубина
STOP.M                                      170.2:Конечная глубина
STEP.M                                          0:Шаг квантования по глубине
NULL.                                    -9999.25:Признак "Нет данных"
WELL.                                       121Мх:Скважина
~Parameter Information Section
~Curve Information Section
DEPTH.M                                          :Глубина
BK.Ohm*M                                         :BK     (БК)
DS.mm                                            :DS  (ДС)
GGK.g/cm3                                        :GGKp
ГК.mcr/h                                         :GK          (ГК)
GZ1.Ohm*M                                        :GZ1   ГЗ1(A0.4M0.1N)
GZ2.Ohm*M                                        :GZ2   ГЗ2(A1.0M0.1N)
GZ3.Ohm*M                                        :GZ3   ГЗ3(A2.0M0.5N)
GZ4.Ohm*M                                        :GZ4   ГЗ4(A4.0M0.5N)
GZ5.Ohm*M                                        :GZ5   ГЗ5(A8.0M0.5N)
GZR.Ohm*M                                        :GZK   ГЗK(N0.5M2.0A)
ИК.Ohm*M                                         :IK
НГК.u.e.                                         :NGK
NNKM.                                            :NNKm  (ННКм)
PS.mv                                            :PS       (ПС)
PZ.Ohm*M                                         :PZ    (КС)
RS.Ohm*M                                         :RS (Резистивиметр)
U1.mV                                            :U1
U2.mV                                            :U2
U3.mV                                            :U3
КП.%                                             :Кп
~ASCII LOG DATA
# ...
77.2        149.624     130.327     2.434       3.968       129.551     77.681      28.368      44.918      36.658      46.593      14.351      1.337       2.564       454.88      96.206      1.06        202.995     134.291     135.519     31.913      
77.4        130.017     130.023     2.429       4.097       119.744     82.173      31.162      45.35       36.769      42.269      14.096      1.371       2.511       456.016     101.906     1.06        166.617     125.763     104.79      34.407      
77.6        87.7        130.418     2.424       4.36        109.122     81.568      33.317      46.196      37.394      39.504      14.346      1.296       2.509       457.28      106.72      1.06        148.259     129.039     101.084     32.868      
77.8        79.068      129.663     2.438       4.827       97.597      75.805      35.144      47.148      39.689      40.913      14.606      1.288       2.473       458.4       108.456     1.06        148.694     126.789     106.354     31.737      
78.0        70.958      129.32      2.461       4.589       87.913      70.883      42.139      47.931      44.502      50.167      14.627      1.303       2.471       459.52      108.464     1.06        134.615     124.135     117.837     34.747      
78.2        71.45       129.484     2.43        4.893       85.164      72.704      58.04       48.948      51.511      66.077      14.673      1.27        2.483       460.864     107.379     1.06        119.285     116.263     121.191     35.274      
78.4        60.395      129.467     2.448       5.39        96.523      81.705      81.064      51.751      61.352      83.014      14.7        1.28        2.477       462.576     105.803     1.06        105.265     111.269     135.532     33.373      
78.6        53.333      129.228     2.422       5.224       124.97      94.365      107.164     59.418      74.796      97.021      14.747      1.306       2.464       464.816     105.571     1.06        102.18      107.423     138.76      33.327      
78.8        48.306      129.518     2.407       5.475       168.01      113.82      134.533     74.502      89.363      106.082     14.926      1.335       2.41        467.696     105.783     1.06        119.272     115.006     128.039     31.148      
79.0        52.481      129.848     2.511       5.446       224.638     147.782     160.314     100.997     100.811     106.858     15.099      1.447       2.452       470.768     110.222     1.06        137.146     116.844     129.245     30.075      
79.2        522.396     129.955     2.593       3.429       284.353     192.711     176.571     132.662     107.007     98.491      15.103      1.619       2.765       473.632     126.288     1.06        136.037     129.139     123.06      25.048      
79.4        591.562     130.532     2.623       2.377       317.07      226.43      176.856     154.011     106.434     85.217      14.801      1.747       3.088       476.496     155.84      1.06        142.198     150.776     112.462     22.805      
79.6        429.536     130.485     2.645       2.182       307.271     232.839     160.892     157.25      98.474      72.092      14.378      1.716       3.231       479.728     189.694     1.06        150.18      150.666     108.907     22.093      
79.8        374.111     129.958     2.645       2.196       266.726     216.899     133.71      145.732     84.428      60.78       14.127      1.844       3.301       483.312     209.443     1.06        137.275     130.378     144.278     18.274      
80.0        931.108     131.916     2.671       2.564       209.85      182.239     99.88       121.699     68.028      51.345      13.606      1.935       3.507       486.992     211.219     1.06        126.273     139.224     153.7       15.445      
80.2        293.765     132.787     2.601       3.523       144.447     129.136     65.976      91.499      52.909      45.056      12.872      1.719       3.477       490.544     202.113     1.06        127.567     157.661     143.478     17.191      
80.4        66.681      134.043     2.572       5.084       91.738      79.131      41.088      68.685      40.912      42.709      12.028      1.418       2.996       493.952     170.288     1.06        134.481     167.849     139.054     27.032      
80.6        23.174      133.279     2.501       6.516       65.591      53.67       29.489      58.256      32.591      42.656      11.462      1.266       2.383       496.768     131.653     1.06        134.585     160.35      181.603     36.663      
80.8        38.282      131.418     2.439       5.828       56.19       44.253      26.727      54.486      27.772      42.712      11.367      1.288       2.239       498.288     100.758     1.06        116.434     135.152     209.076     34.567      
81.0        90.991      133.112     2.465       5.077       50.315      36.88       26.422      51.273      25.438      42.67       11.212      1.293       2.507       498.416     81.401      1.06        93.397      117.915     209.461     31.181      
81.2        21.478      131.462     2.504       5.527       45.362      30.798      25.945      48.319      24.005      43.174      10.912      1.232       2.362       498.192     69.674      1.06        88.359      118.218     193.285     33.835      
81.4        34.514      132.62      2.511       5.846       42.014      26.259      25.035      45.556      22.739      44.081      10.776      1.169       2.247       496.96      63.047      1.06        90.161      128.648     175.413     34.371      
81.6        34.834      133.505     2.516       6.482       39.752      22.799      23.392      43.43       22.416      45.89       10.809      1.182       2.27        495.12      60.95       1.06        106.791     138.5       159.122     31.857      
81.8        27.797      133.028     2.527       6.56        39.466      21.218      22.133      41.674      22.905      49.504      10.946      1.276       2.249       492.656     60.934      1.06        143.052     140.731     172.765     34.081      
82.0        33.42       132.034     2.472       6.268       40.328      20.414      21.607      40.547      24.612      57.483      11.208      1.203       2.195       489.664     61.292      1.06        160.315     135.007     189.793     35.978      
82.2        29.717      132.077     2.461       6.144       42.809      20.875      23.599      39.469      27.141      72.127      11.49       1.195       2.125       486.656     63.685      1.06        140.323     126.2       157.232     37.791      
82.4        26.424      133.267     2.476       5.263       50.044      25.276      27.882      38.968      30.445      91.648      11.92       1.241       2.098       483.84      67.563      1.06        120.87      118.661     121.768     41.033      
82.6        37.757      131.923     2.637       4.268       70.168      32.008      34.252      40.271      33.551      109.321     12.605      1.192       2.186       481.008     72.364      1.06        123.73      117.952     125.859     40.118      
82.8        60.256      132.054     2.757       3.997       104.638     40.461      40.661      44.093      36.727      120.71      13.272      1.227       2.503       478.064     78.106      1.06        135.446     117.509     127.631     34.161      
83.0        33.574      131.352     2.689       3.968       147.258     50.723      46.869      49.378      39.012      123.946     13.908      1.202       2.625       475.264     84.467      1.06        138.17      135.444     114.113     36.403      
83.2        99.083      129.82      2.59        2.999       190.305     63.009      50.932      55.719      41.076      118.27      14.759      1.144       2.474       472.848     91.823      1.06        141.636     153.635     104.365     37.816      
83.4        220.293     129.746     2.492       2.633       229.839     77.001      53.232      63.004      44.25       106.557     15.372      1.165       2.59        470.496     101.651     1.06        154.714     157.073     120.503     34.729      
