~Version Information Section
VERS.                                         2.0:CWLS log ASCII Standart – VERSION 2.0
WRAP.                                          NO:One line per depth step
~Well Information Section
STRT.M                                        0.0:Начальная глубина
STOP.M                                      208.6:Конечная глубина
STEP.M                                          0:Шаг квантования по глубине
NULL.                                    -9999.25:Признак "Нет данных"
WELL.                                       140Мх:Скважина
~Parameter Information Section
~Curve Information Section
DEPTH.M                                          :Глубина
GZ1.ohmm                                         :Подошвенный градиент-зонд А0.4М0.1N
GZ2.ohmm                                         :Подошвенный градиент-зонд А1.0М0.1N
GZ3.ohmm                                         :Подошвенный градиент-зонд А2.0М0.5N
GZ5.ohmm                                         :Подошвенный градиент-зонд А8.0М1.0N
GZ3R.GZ3R                                        :GZ3R
GZ4.ohmm                                         :Подошвенный градиент-зонд А4.0М0.5N
GGK.g/cc                                         :Плотностной гамма-гамма каротаж
ГК.ur/h                                          :Гамма каротаж
ИК.ohmm                                          :Индукционный каротаж (сопротивление),
BK.ohmm                                          :Боковой каротаж
NKTS.ue                                          :Нейтронный каротаж по тепловым нейтронам (малый зонд)
WNK.De                                           :Водородосодержание по НК
НГК.ue                                           :Нейтронный каротаж по тепловым нейтронам (большой зонд)
PZ.ohmm                                          :Потенциал-зонд ИММ 0,5А; В4 0,25М
-.                                               :-      SP mv)
DS1.m                                            :Профиль 1 сечения ствола скважины по профилеметрии
DS.m                                             :Кавернометрия
DS2.m                                            :Профиль 2 сечения ствола скважины по профилеметрии
~ASCII LOG DATA
# ...
149.0       -9999.25    -9999.25    -9999.25    -9999.25    -9999.25    -9999.25    2.342       9.557       11.404      23.923      1.436       29.511      2.398       32.065      3482.449    0.154       0.151       0.148       
149.1       43.305      32.01       28.293      27.784      24.178      26.82       -9999.25    -9999.25    -9999.25    -9999.25    -9999.25    -9999.25    -9999.25    -9999.25    -9999.25    -9999.25    -9999.25    -9999.25    
149.2       -9999.25    -9999.25    -9999.25    -9999.25    -9999.25    -9999.25    2.344       8.773       11.388      31.054      1.504       32.593      2.143       30.888      3461.505    0.154       0.151       0.148       
149.3       36.744      28.255      26.764      27.225      23.944      24.945      -9999.25    -9999.25    -9999.25    -9999.25    -9999.25    -9999.25    -9999.25    -9999.25    -9999.25    -9999.25    -9999.25    -9999.25    
149.4       -9999.25    -9999.25    -9999.25    -9999.25    -9999.25    -9999.25    2.339       9.199       11.29       20.409      1.487       36.234      2.054       28.509      3465.468    0.154       0.15        0.147       
149.5       34.856      27.421      26.455      26.232      24.835      25.094      -9999.25    -9999.25    -9999.25    -9999.25    -9999.25    -9999.25    -9999.25    -9999.25    -9999.25    -9999.25    -9999.25    -9999.25    
149.6       -9999.25    -9999.25    -9999.25    -9999.25    -9999.25    -9999.25    2.344       9.141       11.207      22.719      1.449       34.364      2.129       26.98       3495.321    0.154       0.151       0.148       
149.7       42.923      37.301      28.4        25.142      26.95       28.443      -9999.25    -9999.25    -9999.25    -9999.25    -9999.25    -9999.25    -9999.25    -9999.25    -9999.25    -9999.25    -9999.25    -9999.25    
149.8       -9999.25    -9999.25    -9999.25    -9999.25    -9999.25    -9999.25    2.357       9.608       11.184      18.625      1.414       34.406      1.937       26.031      3520.781    0.154       0.151       0.148       
149.9       40.077      34.112      29.189      23.789      27.826      28.901      -9999.25    -9999.25    -9999.25    -9999.25    -9999.25    -9999.25    -9999.25    -9999.25    -9999.25    -9999.25    -9999.25    -9999.25    
150.0       -9999.25    -9999.25    -9999.25    -9999.25    -9999.25    -9999.25    2.35        9.264       11.285      21.396      1.396       38.881      1.933       27.244      3549.529    0.154       0.151       0.148       
150.1       39.651      31.885      28.579      21.104      27.261      27.311      -9999.25    -9999.25    -9999.25    -9999.25    -9999.25    -9999.25    -9999.25    -9999.25    -9999.25    -9999.25    -9999.25    -9999.25    
150.2       -9999.25    -9999.25    -9999.25    -9999.25    -9999.25    -9999.25    2.343       9.236       11.466      22.089      1.443       36.508      2.054       28.249      3552.251    0.154       0.151       0.148       
150.3       31.121      24.66       25.096      22.062      26.362      24.326      -9999.25    -9999.25    -9999.25    -9999.25    -9999.25    -9999.25    -9999.25    -9999.25    -9999.25    -9999.25    -9999.25    -9999.25    
150.4       -9999.25    -9999.25    -9999.25    -9999.25    -9999.25    -9999.25    2.367       9.671       11.675      23.872      1.46        34.566      2.138       29.414      3548.115    0.154       0.151       0.148       
150.5       32.099      23.025      22.959      22.693      25.97       23.842      -9999.25    -9999.25    -9999.25    -9999.25    -9999.25    -9999.25    -9999.25    -9999.25    -9999.25    -9999.25    -9999.25    -9999.25    
150.6       -9999.25    -9999.25    -9999.25    -9999.25    -9999.25    -9999.25    2.368       9.913       11.802      26.151      1.468       34.642      2.136       30.999      3551.495    0.154       0.151       0.148       
150.7       32.497      23.087      22.992      22.487      26.483      23.805      -9999.25    -9999.25    -9999.25    -9999.25    -9999.25    -9999.25    -9999.25    -9999.25    -9999.25    -9999.25    -9999.25    -9999.25    
150.8       -9999.25    -9999.25    -9999.25    -9999.25    -9999.25    -9999.25    2.385       10.101      11.906      27.552      1.49        35.137      2.172       32.836      3554.445    0.154       0.151       0.148       
150.9       34.705      24.341      24.748      23.657      26.648      23.569      -9999.25    -9999.25    -9999.25    -9999.25    -9999.25    -9999.25    -9999.25    -9999.25    -9999.25    -9999.25    -9999.25    -9999.25    
151.0       -9999.25    -9999.25    -9999.25    -9999.25    -9999.25    -9999.25    2.396       9.113       11.938      28.307      1.527       34.995      2.215       34.161      3552.188    0.154       0.151       0.148       
151.1       36.185      25.042      24.654      25.067      26.235      23.473      -9999.25    -9999.25    -9999.25    -9999.25    -9999.25    -9999.25    -9999.25    -9999.25    -9999.25    -9999.25    -9999.25    -9999.25    
151.2       -9999.25    -9999.25    -9999.25    -9999.25    -9999.25    -9999.25    2.351       9.801       11.909      28.885      1.5         35.395      1.989       33.869      3552.441    0.154       0.151       0.148       
151.3       39.213      26.397      24.812      25.34       25.843      23.679      -9999.25    -9999.25    -9999.25    -9999.25    -9999.25    -9999.25    -9999.25    -9999.25    -9999.25    -9999.25    -9999.25    -9999.25    
151.4       -9999.25    -9999.25    -9999.25    -9999.25    -9999.25    -9999.25    2.37        10.028      11.85       26.565      1.5         40.229      2.024       33.463      3553.105    0.154       0.151       0.148       
151.5       42.578      29.148      25.503      24.919      25.632      24.13       -9999.25    -9999.25    -9999.25    -9999.25    -9999.25    -9999.25    -9999.25    -9999.25    -9999.25    -9999.25    -9999.25    -9999.25    
151.6       -9999.25    -9999.25    -9999.25    -9999.25    -9999.25    -9999.25    2.388       9.957       11.787      24.547      1.458       33.51       2.139       32.908      3553.469    0.154       0.151       0.148       
151.7       43.788      30.325      25.503      24.654      25.017      24.099      -9999.25    -9999.25    -9999.25    -9999.25    -9999.25    -9999.25    -9999.25    -9999.25    -9999.25    -9999.25    -9999.25    -9999.25    
151.8       -9999.25    -9999.25    -9999.25    -9999.25    -9999.25    -9999.25    2.359       10.243      11.668      23.095      1.463       35.99       2.094       31.232      3552.626    0.154       0.151       0.148       
151.9       43.481      31.323      25.123      24.057      24.349      22.113      -9999.25    -9999.25    -9999.25    -9999.25    -9999.25    -9999.25    -9999.25    -9999.25    -9999.25    -9999.25    -9999.25    -9999.25    
152.0       -9999.25    -9999.25    -9999.25    -9999.25    -9999.25    -9999.25    2.374       9.366       11.596      21.823      1.517       35.329      2.246       30.033      3549.052    0.154       0.151       0.148       
152.1       42.425      32.257      25.642      24.8        25.021      25.221      -9999.25    -9999.25    -9999.25    -9999.25    -9999.25    -9999.25    -9999.25    -9999.25    -9999.25    -9999.25    -9999.25    -9999.25    
152.2       -9999.25    -9999.25    -9999.25    -9999.25    -9999.25    -9999.25    2.418       10.016      11.647      23.236      1.507       32.0        2.217       29.362      3548.293    0.154       0.151       0.148       
152.3       40.575      32.666      26.652      25.778      26.095      25.578      -9999.25    -9999.25    -9999.25    -9999.25    -9999.25    -9999.25    -9999.25    -9999.25    -9999.25    -9999.25    -9999.25    -9999.25    
152.4       -9999.25    -9999.25    -9999.25    -9999.25    -9999.25    -9999.25    2.419       9.486       11.709      24.804      1.454       35.81       1.989       29.315      3539.516    0.155       0.151       0.148       
