~Version Information Section
VERS.                                         2.0:CWLS log ASCII Standart – VERSION 2.0
WRAP.                                          NO:One line per depth step
~Well Information Section
STRT.M                                        0.5:Начальная глубина
STOP.M                                      158.2:Конечная глубина
STEP.M                                          0:Шаг квантования по глубине
NULL.                                    -9999.25:Признак "Нет данных"
WELL.                                       136Мх:Скважина
~Parameter Information Section
~Curve Information Section
DEPTH.M                                          :Глубина
BK.Ohm*M                                         :BK     (БК)
DS.mm                                            :DS  (ДС)
GGK.g/cm3                                        :GGKp
ГК.mcr/h                                         :GK          (ГК)
GZ1.Ohm*M                                        :GZ1   ГЗ1(A0.4M0.1N)
GZ2.Ohm*M                                        :GZ2   ГЗ2(A1.0M0.1N)
GZ3.Ohm*M                                        :GZ3   ГЗ3(A2.0M0.5N)
GZ4.Ohm*M                                        :GZ4   ГЗ4(A4.0M0.5N)
GZ5.Ohm*M                                        :GZ5   ГЗ5(A8.0M0.5N)
GZR.Ohm*M                                        :GZK   ГЗK(N0.5M2.0A)
ИК.Ohm*M                                         :IK
НГК.ue                                           :NGK     (НГК)
NNKM.                                            :NNKm  (ННКм)
PS.mv                                            :PS       (ПС)
PZ.Ohm*M                                         :PZ    (КС)
RS.Ohm*M                                         :RS (Резистивиметр)
U1.mV                                            :U1
U2.mV                                            :U2
U3.mV                                            :U3
КП.%                                             :Кп
~ASCII LOG DATA
# ...
118.9       34.814      131.503     2.162       6.614       30.71       25.788      23.92       15.915      14.057      19.861      19.728      1.212       1.988       95.067      35.616      1.087       -2168.0     143.333     -2015.0     39.177      
119.0       36.786      131.413     2.167       6.667       30.616      25.788      23.92       15.89       13.858      19.563      19.626      1.181       2.032       95.146      35.459      1.087       -2192.0     146.667     -2000.0     37.017      
119.1       35.505      131.348     2.201       6.884       30.404      25.788      23.92       15.809      13.822      19.329      19.472      1.147       2.046       95.262      35.246      1.087       -2232.0     156.667     -2035.0     35.565      
119.2       34.716      131.509     2.216       7.009       30.175      25.938      23.92       15.725      13.822      19.134      19.314      1.154       2.017       95.415      34.972      1.087       -2271.99    160.0       -2079.99    36.479      
119.3       35.522      131.504     2.214       7.094       29.955      26.162      23.975      15.702      13.822      19.047      19.148      1.168       1.998       95.615      34.642      1.087       -2296.0     153.333     -2115.0     38.393      
119.4       34.635      131.27      2.213       6.901       29.399      26.204      24.318      15.844      13.822      19.047      18.931      1.198       1.993       95.86       34.278      1.087       -2304.0     136.667     -2135.0     38.573      
119.5       34.468      131.311     2.206       6.616       29.031      26.273      24.626      16.025      13.91       19.047      18.698      1.179       1.969       96.162      33.891      1.087       -2308.0     123.333     -2130.0     37.894      
119.6       36.349      131.414     2.194       6.433       29.031      26.519      24.824      16.153      14.027      19.047      18.535      1.139       1.941       96.529      33.499      1.087       -2276.0     136.667     -2120.0     36.971      
119.7       37.264      131.327     2.206       6.428       29.031      26.922      24.949      16.387      14.073      19.117      18.359      1.102       1.97        96.974      33.113      1.087       -2252.0     146.666     -2115.0     36.986      
119.8       36.477      131.528     2.229       6.588       29.022      27.048      25.364      16.785      14.097      19.122      18.218      1.093       2.011       97.508      32.743      1.087       -2228.0     156.666     -2120.0     37.57       
119.9       38.717      131.434     2.216       6.692       28.53       26.802      25.806      17.019      14.191      19.105      18.085      1.114       2.054       98.143      32.379      1.087       -2236.0     146.667     -2115.0     37.719      
120.0       40.217      131.11      2.2         6.84        27.939      26.293      25.965      17.04       14.212      19.073      17.904      1.146       2.1         98.876      32.026      1.087       -2236.0     123.333     -2105.0     38.293      
120.1       33.432      130.962     2.19        6.858       27.395      25.706      26.013      17.046      14.212      18.959      17.7        1.186       2.122       99.73       31.679      1.087       -2236.0     93.333      -2110.0     39.249      
120.2       30.222      131.316     2.162       6.738       27.054      25.082      26.223      17.212      14.143      19.122      17.424      1.252       2.089       100.695     31.343      1.087       -2236.0     66.667      -2125.0     39.409      
120.3       29.316      131.375     2.171       6.691       26.716      24.655      26.577      17.321      13.956      19.289      17.125      1.26        1.997       101.753     31.013      1.087       -2224.0     83.334      -2119.99    38.737      
120.4       29.065      131.305     2.171       6.782       26.767      24.838      26.81       17.189      13.787      19.355      16.82       1.228       1.95        102.881     30.705      1.087       -2228.0     116.667     -2110.0     37.822      
120.5       28.414      131.092     2.192       7.052       26.167      24.28       26.714      16.774      13.642      19.355      16.567      1.165       1.948       104.064     30.419      1.087       -2232.0     163.333     -2100.0     37.503      
120.6       27.968      131.07      2.221       7.207       25.585      23.481      26.509      16.425      13.48       19.39       16.374      1.137       1.967       105.233     30.156      1.087       -2248.0     180.0       -2100.0     36.92       
120.7       28.353      131.055     2.221       7.06        24.58       22.705      26.246      16.425      13.293      19.57       16.184      1.077       1.991       106.347     29.915      1.087       -2208.0     180.001     -2090.0     37.573      
120.8       25.545      130.782     2.228       6.823       23.816      22.318      26.034      16.425      13.189      20.049      16.017      1.033       2.019       107.386     29.702      1.087       -2171.99    153.333     -2080.0     39.338      
120.9       24.748      130.951     2.227       6.478       23.816      22.318      25.877      16.425      13.108      20.851      15.839      1.061       2.033       108.342     29.506      1.087       -2136.0     133.333     -2075.0     39.118      
121.0       26.413      131.199     2.214       6.279       23.445      21.765      25.827      16.47       13.009      21.727      15.732      1.133       1.973       109.205     29.322      1.087       -2140.0     143.333     -2060.0     37.273      
121.1       29.222      131.088     2.217       5.965       22.561      20.864      25.827      16.47       12.858      22.444      15.662      1.166       1.931       110.017     29.159      1.087       -2148.0     166.667     -2045.0     36.704      
121.2       27.104      130.863     2.236       5.85        21.705      20.066      25.639      16.21       12.719      22.713      15.591      1.132       1.948       110.82      29.019      1.087       -2156.0     186.667     -2035.0     38.122      
121.3       25.528      130.705     2.234       5.933       21.188      19.365      25.375      15.864      12.527      22.713      15.532      1.102       2.001       111.623     28.902      1.087       -2168.0     180.0       -2009.99    39.454      
121.4       27.068      130.651     2.25        6.186       21.098      18.749      24.624      15.7        12.241      22.788      15.418      1.135       2.073       112.43      28.812      1.087       -2172.0     173.333     -1985.0     38.676      
121.5       25.947      130.758     2.266       6.34        20.892      18.22       23.608      15.444      11.859      22.903      15.273      1.156       2.051       113.242     28.756      1.087       -2176.0     190.0       -1960.0     38.16       
121.6       25.81       130.246     2.246       6.396       20.901      17.922      22.459      14.911      11.341      22.981      15.189      1.194       1.99        114.026     28.722      1.087       -2156.0     196.667     -1960.0     38.498      
121.7       26.172      130.046     2.242       6.417       20.919      17.604      21.174      14.193      10.798      22.879      15.056      1.168       1.99        114.741     28.706      1.087       -2136.0     203.334     -1965.0     39.024      
121.8       25.896      130.039     2.235       6.379       20.693      17.202      19.818      13.548      10.252      22.879      14.937      1.179       2.008       115.367     28.7        1.087       -2116.0     196.667     -1970.0     39.914      
121.9       25.333      130.053     2.222       6.402       20.612      17.002      18.859      13.109      9.713       22.494      14.835      1.18        2.036       115.887     28.7        1.087       -2120.0     196.667     -1975.0     40.54       
122.0       25.29       130.024     2.234       6.568       20.517      16.95       18.099      12.736      9.218       22.051      14.759      1.194       2.037       116.286     28.7        1.087       -2124.0     196.667     -1975.0     39.761      
