~Version Information Section
VERS.                                         2.0:CWLS log ASCII Standart – VERSION 2.0
WRAP.                                          NO:One line per depth step
~Well Information Section
STRT.M                                        1.2:Начальная глубина
STOP.M                                      169.7:Конечная глубина
STEP.M                                          0:Шаг квантования по глубине
NULL.                                    -9999.25:Признак "Нет данных"
WELL.                                       115Мх:Скважина
~Parameter Information Section
~Curve Information Section
DEPTH.M                                          :Глубина
BK.Ohm*M                                         :BK     (БК)
DS.mm                                            :DS  (ДС)
GGK.g/cm3                                        :GGKp
ГК.mcr/h                                         :GK          (ГК)
GZ1.Ohm*M                                        :GZ1   ГЗ1(A0.4M0.1N)
GZ2.Ohm*M                                        :GZ2   ГЗ2(A1.0M0.1N)
GZ3.Ohm*M                                        :GZ3   ГЗ3(A2.0M0.5N)
GZ4.Ohm*M                                        :GZ4   ГЗ4(A4.0M0.5N)
GZ5.Ohm*M                                        :GZ5   ГЗ5(A8.0M0.5N)
GZR.Ohm*M                                        :GZK   ГЗK(N0.5M2.0A)
ИК.Ohm*M                                         :IK
НГК.ue                                           :NGK     (НГК)
NNKM.                                            :NNKm  (ННКм)
PS.mv                                            :PS       (ПС)
PZ.Ohm*M                                         :PZ    (КС)
RS.Ohm*M                                         :RS (Резистивиметр)
U1.mV                                            :U1
U2.mV                                            :U2
U3.mV                                            :U3
КП.%                                             :Кп
~ASCII LOG DATA
# ...
52.4        16.749      134.21      2.257       4.307       3.685       8.413       6.677       8.025       6.471       6.119       17.991      1.223       2.32        985.227     22.238      0.976       882.7       909.158     930.341     30.958      
52.5        14.454      133.879     2.271       4.287       3.468       8.316       6.577       8.025       6.271       6.019       17.943      1.232       2.335       985.39      22.17       0.976       1021.613    1015.639    1004.037    30.593      
52.6        13.804      133.429     2.301       4.317       3.283       8.267       6.477       8.025       6.271       5.919       17.989      1.249       2.362       985.587     22.07       0.976       1126.086    1079.764    1028.653    29.903      
52.7        14.388      134.324     2.307       4.06        3.163       8.244       6.477       7.925       6.171       5.819       18.16       1.238       2.396       986.233     21.945      0.976       1139.631    1064.706    987.395     29.895      
52.8        15.453      134.232     2.293       3.965       3.145       8.34        6.377       7.825       6.071       5.819       18.453      1.225       2.349       986.983     21.796      0.976       1062.248    970.469     880.266     30.968      
52.9        15.996      134.02      2.248       4.045       3.158       8.485       6.277       7.725       6.071       5.819       18.886      1.181       2.292       987.797     21.624      0.976       921.247     845.263     772.866     32.241      
53.0        16.144      134.687     2.194       4.457       3.255       8.606       6.177       7.625       6.071       5.819       19.39       1.109       2.162       988.306     21.442      0.976       716.64      689.099     665.204     34.259      
53.1        16.218      134.464     2.155       4.519       3.134       8.485       6.077       7.625       5.971       5.819       19.979      1.093       2.03        987.647     21.268      0.976       548.83      568.103     588.763     34.779      
53.2        16.596      135.038     2.126       4.556       2.971       8.315       5.977       7.525       5.971       5.819       20.666      1.108       2.016       986.76      21.111      0.976       481.428     513.237     543.809     34.52       
53.3        18.707      135.73      2.111       4.404       2.327       7.808       5.977       7.525       5.871       5.819       21.419      1.125       2.004       985.569     20.983      0.976       571.448     505.212     479.771     33.505      
53.4        23.659      134.69      2.111       4.34        1.945       7.494       5.877       7.525       5.771       5.919       22.368      1.103       2.018       985.101     20.897      0.976       718.484     477.897     365.154     33.13       
53.5        30.69       136.089     2.122       4.535       1.651       7.325       5.777       7.525       5.671       5.919       23.426      1.091       2.025       984.88      20.868      0.976       794.401     422.632     245.982     33.875      
53.6        34.995      135.939     2.126       4.458       1.52        7.107       5.677       7.425       5.571       6.019       24.429      1.109       2.006       986.501     20.9        0.976       742.198     358.708     172.821     34.814      
53.7        38.019      135.764     2.117       4.271       1.486       6.987       5.577       7.425       5.571       5.919       25.334      1.171       1.996       988.724     20.979      0.976       561.864     286.121     145.671     35.715      
53.8        38.905      136.656     2.112       3.945       1.573       6.818       5.477       7.325       5.571       5.819       25.865      1.2         2.005       990.95      21.094      0.976       569.335     379.442     264.422     36.304      
53.9        39.084      135.904     2.114       4.102       1.418       6.793       5.477       7.225       5.371       5.819       26.367      1.16        1.986       992.431     21.234      0.976       606.921     490.979     409.631     36.319      
54.0        39.446      139.123     2.119       4.592       1.269       6.6         5.377       7.225       5.371       5.719       26.931      1.057       1.938       993.978     21.393      0.976       674.615     620.718     581.284     36.095      
54.1        44.463      140.273     2.128       5.179       1.249       6.455       5.277       7.225       5.371       5.619       27.407      0.988       1.91        995.596     21.568      0.976       584.625     602.761     633.49      37.092      
54.2        48.195      138.437     2.155       5.674       1.24        6.31        5.277       7.025       5.271       5.519       27.814      0.967       1.905       997.727     21.724      0.976       487.9       569.091     678.57      38.287      
54.3        48.195      138.139     2.171       5.964       1.215       6.044       5.277       6.925       5.271       5.519       28.044      0.956       1.836       999.286     21.853      0.976       384.448     519.711     716.521     38.624      
54.4        41.783      136.701     2.173       6.262       1.351       5.827       5.177       6.925       5.071       5.419       28.306      0.925       1.752       1000.353    21.941      0.972       362.035     474.795     683.235     37.834      
54.5        33.42       136.587     2.188       6.563       1.53        5.779       5.077       6.825       4.971       5.319       28.419      0.901       1.745       1001.304    21.991      0.972       427.395     450.061     585.841     37.574      
54.6        36.644      139.65      2.187       6.886       1.756       5.803       5.077       6.725       4.871       5.219       28.359      0.958       1.755       1002.754    21.997      0.972       580.526     445.506     424.34      38.5        
54.7        39.628      136.822     2.173       7.11        1.96        5.875       4.977       6.625       4.771       5.119       28.516      1.009       1.752       1003.305    21.954      0.972       680.291     458.623     339.305     40.438      
54.8        39.446      136.546     2.171       6.822       2.162       5.996       4.977       6.625       4.671       5.019       28.319      1.041       1.742       1002.063    21.863      0.976       726.681     489.409     330.743     41.524      
54.9        41.4        138.448     2.163       6.919       2.323       6.213       4.777       6.625       4.671       5.019       28.336      1.004       1.705       999.153     21.725      0.976       729.698     492.134     337.609     41.892      
55.0        45.92       138.872     2.165       6.879       2.386       6.31        4.777       6.625       4.571       5.019       28.265      0.986       1.686       995.973     21.535      0.981       742.713     449.125     283.431     40.814      
55.1        48.417      140.437     2.171       7.078       2.424       6.358       4.677       6.625       4.571       5.019       28.36       1.071       1.737       992.625     21.299      0.981       705.021     386.548     229.445     39.488      
55.2        53.827      140.329     2.177       6.917       2.443       6.455       4.677       6.625       4.571       5.019       28.345      1.076       1.793       989.336     21.011      0.981       606.617     350.136     236.696     38.832      
55.3        60.117      137.971     2.183       6.566       2.491       6.479       4.677       6.625       4.571       5.019       28.148      1.095       1.831       986.813     20.724      0.981       447.512     339.89      305.182     38.709      
55.4        49.774      137.538     2.201       6.791       2.525       6.503       4.777       6.525       4.571       5.019       27.483      1.028       1.862       984.798     20.441      0.981       347.655     334.302     346.231     38.245      
55.5        39.628      137.259     2.193       6.584       2.55        6.552       4.777       6.525       4.571       5.019       26.939      1.047       1.887       983.409     20.15       0.981       307.055     333.372     359.839     36.656      
