~Version Information Section
VERS.                                         2.0:CWLS log ASCII Standart – VERSION 2.0
WRAP.                                          NO:One line per depth step
~Well Information Section
STRT.M                                        0.4:Начальная глубина
STOP.M                                      191.4:Конечная глубина
STEP.M                                          0:Шаг квантования по глубине
NULL.                                    -9999.25:Признак "Нет данных"
WELL.                                       113Мх:Скважина
~Parameter Information Section
~Curve Information Section
DEPTH.M                                          :Глубина
БК.Омм                                           :BK     (БК)
DСР.мм                                           :DS  (ДС)
GGKP.g/cm3                                       :GGKp
ГК.гамма                                         :GK          (ГК)
А0.4М0.1N.Омм                                    :GZ1   ГЗ1(A0.4M0.1N)
А1.0М0.1N.Омм                                    :GZ2   ГЗ2(A1.0M0.1N)
А2.0М0.5N.Омм                                    :GZ3   ГЗ3(A2.0M0.5N)
А4.0М0.5N.Oмм                                    :GZ4   ГЗ4(A4.0M0.5N)
А8.0М1.0N.Омм                                    :GZ5   ГЗ5(A8.0M0.5N)
N0.5M2.0A.Омм                                    :GZK   ГЗK(N0.5M2.0A)
ИК.мСм/м                                         :IK
НГК.усл.ед                                       :NNKb  (ННКб)
ННКМ.усл.ед                                      :NNKm  (ННКм)
ПС.мВ                                            :PS       (ПС)
PZ.Омм                                           :PZ    (КС)
R.Омм                                            :RS (Резистивиметр)
U1.мВ                                            :U1
U2.mV                                            :U2
U3.мВ                                            :U3
КП.%                                             :Кп
~ASCII LOG DATA
# ...
90.0        81.902      133.085     2.184       3.55        181.102     84.39       63.402      34.333      5.458       58.834      42.93       2.84        1.826       69.665      216.665     1.12        672.0       1084.0      1036.0      30.83       
90.2        79.113      133.13      2.191       3.387       170.581     83.81       63.945      34.279      5.49        59.617      42.55       2.712       1.8         72.266      216.224     1.12        648.001     1084.0      1192.002    30.858      
90.4        75.155      133.553     2.211       3.225       140.436     82.799      68.302      34.337      5.828       61.688      42.396      2.882       1.85        75.204      213.547     1.12        672.0       1120.0      1095.999    30.328      
90.6        74.033      133.867     2.231       3.315       111.555     81.74       76.509      34.575      6.578       64.822      42.124      3.156       1.918       78.926      209.904     1.12        708.0       1116.0      1036.0      28.387      
90.8        72.218      133.304     2.229       3.385       102.67      80.447      83.322      35.149      7.665       68.907      42.058      3.108       1.946       82.919      206.511     1.12        671.999     1099.998    983.999     28.093      
91.0        65.194      131.926     2.219       3.187       102.67      78.191      84.421      35.728      8.927       73.406      41.661      2.887       1.844       86.533      204.538     1.12        548.0       1004.0      948.0       28.86       
91.2        68.561      133.904     2.217       3.167       109.07      76.24       83.767      36.196      10.343      76.641      41.999      2.971       1.792       89.423      203.915     1.12        444.001     1055.998    932.0       29.603      
91.4        78.964      133.807     2.213       3.031       134.583     75.59       80.005      36.794      11.913      77.702      42.874      3.104       1.943       91.445      205.578     1.12        396.0       1064.0      952.0       29.749      
91.6        83.816      133.534     2.193       3.011       174.527     75.59       77.107      37.678      13.406      77.818      43.697      3.024       1.99        92.835      211.296     1.12        360.0       996.001     968.0       29.767      
91.8        77.698      134.131     2.182       2.932       199.393     75.96       75.814      38.486      14.609      77.917      43.786      2.893       1.895       93.653      222.2       1.12        319.999     875.999     879.997     30.26       
92.0        77.253      133.748     2.19        2.996       206.176     77.449      75.021      39.858      15.497      77.955      44.167      2.827       1.848       93.881      236.76      1.12        372.0       812.0       764.0       30.773      
92.2        78.731      133.318     2.195       3.11        209.229     79.663      74.658      42.68       16.311      77.966      44.179      2.805       1.869       93.485      251.046     1.12        408.0       744.001     707.999     30.944      
92.4        78.605      133.735     2.182       3.137       208.773     81.66       74.658      48.442      17.436      77.884      44.406      2.836       1.854       92.476      261.878     1.12        416.0       696.0       639.999     31.521      
92.6        77.984      134.269     2.166       2.913       211.219     82.886      74.868      56.842      19.215      76.857      44.457      2.814       1.842       90.956      268.806     1.12        407.999     696.0       592.0       31.734      
92.8        79.202      134.304     2.165       2.99        233.333     83.736      76.042      63.703      21.534      73.762      44.515      2.724       1.878       89.138      273.599     1.12        419.999     696.0       656.002     31.769      
93.0        80.323      133.913     2.171       3.185       263.893     84.46       77.966      65.131      23.654      68.828      44.532      2.855       1.877       87.298      278.298     1.12        352.0       668.0       648.0       31.432      
93.2        80.525      133.781     2.169       3.035       295.086     84.944      79.651      64.779      24.992      62.746      44.383      2.887       1.872       85.696      284.65      1.12        316.0       628.0       428.004     30.082      
93.4        81.026      133.307     2.172       2.844       316.979     85.075      80.248      62.044      25.622      56.305      44.264      2.934       1.877       84.487      294.415     1.12        235.999     600.0       219.999     29.999      
93.6        81.292      133.191     2.177       2.712       331.699     85.011      80.218      59.327      26.033      49.198      44.052      3.054       1.905       83.697      309.119     1.12        188.0       540.001     148.0       30.216      
93.8        80.552      132.547     2.175       2.773       330.362     84.542      79.643      57.47       26.525      41.002      43.653      2.978       1.926       83.256      328.859     1.12        232.002     476.0       120.0       29.494      
94.0        78.934      133.992     2.168       2.95        300.321     83.701      79.202      56.802      27.161      31.886      43.403      2.954       1.93        83.074      350.096     1.12        300.0       516.0       124.0       30.35       
94.2        77.871      132.969     2.162       3.12        244.776     83.369      79.202      56.802      28.253      23.021      42.806      2.979       1.902       83.109      366.404     1.12        312.0       563.999     235.997     29.681      
94.4        76.582      133.18      2.16        3.089       212.527     83.369      80.142      57.714      30.344      16.384      41.838      2.916       1.889       83.422      373.335     1.12        308.0       564.0       312.0       29.854      
94.6        76.759      133.574     2.157       2.924       212.527     85.421      85.597      62.304      33.932      13.141      40.756      2.983       1.884       84.182      362.674     1.12        296.0       520.0       292.001     30.332      
94.8        92.828      131.863     2.177       2.848       225.412     93.482      96.489      70.389      38.69       12.646      39.267      3.1         1.895       85.649      334.111     1.12        259.999     484.0       304.001     29.941      
95.0        162.748     131.342     2.222       2.861       256.296     104.785     107.659     77.771      43.721      12.646      37.165      3.386       2.052       88.122      291.687     1.12        232.0       476.0       360.0       29.022      
95.2        231.088     133.209     2.265       2.831       266.118     112.385     114.401     81.922      48.272      12.936      34.241      3.551       2.181       91.875      244.961     1.12        212.0       495.999     427.999     27.657      
95.4        256.14      131.7       2.306       2.911       263.803     113.641     116.386     84.145      52.432      13.573      30.884      3.617       2.165       97.053      204.844     1.12        208.0       475.999     480.001     26.931      
95.6        247.245     131.944     2.325       3.031       234.735     111.659     116.256     85.724      56.514      14.229      27.207      3.388       2.112       103.547     174.944     1.12        239.999     432.0       492.001     27.748      
95.8        238.302     134.889     2.314       3.228       196.521     103.036     114.581     87.027      62.001      15.109      24.742      3.142       1.994       110.913     152.691     1.12        316.001     416.001     443.999     29.144      
96.0        226.003     134.478     2.317       3.451       143.061     88.306      109.358     87.615      71.168      17.695      22.943      2.978       1.957       118.42      133.832     1.12        338.933     432.0       424.0       29.311      
96.2        178.201     134.294     2.328       4.511       87.016      71.829      99.943      86.822      82.872      25.293      20.846      2.828       1.94        125.276     115.811     1.12        348.564     446.4       432.0       31.803      
