~Version Information Section
VERS.                                         2.0:CWLS log ASCII Standart – VERSION 2.0
WRAP.                                          NO:One line per depth step
~Well Information Section
STRT.M                                        0.4:Начальная глубина
STOP.M                                      203.0:Конечная глубина
STEP.M                                          0:Шаг квантования по глубине
NULL.                                    -9999.25:Признак "Нет данных"
WELL.                                       128Мх:Скважина
~Parameter Information Section
~Curve Information Section
DEPTH.M                                          :Глубина
BK.Ohm*M                                         :BK     (БК)
DS.mm                                            :DS  (ДС)
GGK.g/cm3                                        :GGKp
ГК.mcr/h                                         :GK          (ГК)
ИК.Ohm*M                                         :IK
НГК.mcR/H                                        :NGK
NNKM.                                            :NNKm  (ННКм)
PS.mv                                            :PS       (ПС)
PZ.Ohm*M                                         :PZ    (КС)
RS.Ohm*M                                         :RS (Резистивиметр)
U1.mV                                            :U1
U2.mV                                            :U2
U3.mV                                            :U3
W.%                                              :W
~ASCII LOG DATA
# ...
144.4       74.645      131.16      2.289       5.473       31.254      1.312       2.508       420.309     85.452      1.1         177.679     317.333     176.398     30.993      
144.6       83.753      131.768     2.268       5.451       30.296      1.251       2.512       419.373     85.559      1.1         127.794     314.667     128.0       32.812      
144.8       47.206      131.338     2.268       5.394       29.085      1.164       2.438       418.979     85.824      1.1         186.668     317.334     128.0       32.607      
145.0       62.951      130.428     2.281       5.43        28.054      1.232       2.298       418.88      86.256      1.1         183.999     344.001     128.0       32.318      
145.2       68.707      131.072     2.255       5.397       27.089      1.209       2.347       418.88      86.745      1.1         202.667     392.0       141.333     29.594      
145.4       81.47       129.939     2.247       5.372       26.221      1.266       2.357       418.88      87.071      1.1         258.667     397.333     146.667     30.539      
145.6       98.855      131.289     2.268       5.372       25.972      1.263       2.424       418.88      87.123      1.1         234.667     373.335     130.667     29.706      
145.8       97.499      132.937     2.276       5.473       26.119      1.225       2.453       418.88      87.109      1.1         293.336     338.667     122.666     30.644      
146.0       67.298      131.873     2.294       5.32        26.371      1.281       2.397       418.88      86.975      1.1         306.666     338.667     157.335     33.474      
146.2       65.917      131.904     2.285       6.228       26.296      1.306       2.378       418.905     86.861      1.1         277.333     325.333     176.0       32.992      
146.4       61.376      131.798     2.26        6.108       26.193      1.154       2.278       419.151     86.815      1.1         242.668     335.999     223.999     31.394      
146.6       62.806      129.47      2.249       6.047       25.639      1.227       2.308       420.013     86.81       1.1         178.668     370.666     202.668     31.915      
146.8       59.293      131.038     2.232       6.355       25.442      1.265       2.293       421.861     86.81       1.1         152.0       362.666     186.667     28.703      
147.0       76.56       131.544     2.274       5.827       25.399      1.292       2.432       424.818     86.832      1.1         162.667     349.334     192.0       28.734      
147.2       78.705      131.194     2.306       6.07        25.122      1.185       2.435       428.785     86.874      1.1         162.667     322.667     197.333     29.597      
147.4       80.91       130.887     2.268       6.216       24.986      1.163       2.459       433.639     86.874      1.1         207.998     317.332     216.0       30.5        
147.6       80.538      130.616     2.233       6.12        24.919      1.244       2.454       439.257     86.714      1.1         221.334     320.001     210.667     30.897      
147.8       72.778      131.241     2.226       5.893       24.852      1.17        2.326       445.861     85.998      1.1         151.998     298.667     197.333     36.026      
148.0       59.156      131.536     2.246       6.576       24.56       1.172       2.178       453.573     84.538      1.1         133.334     325.335     194.667     36.277      
148.2       55.463      131.205     2.258       6.22        24.021      1.197       2.156       462.271     82.526      1.1         202.667     352.0       221.333     33.808      
148.4       63.973      132.112     2.252       6.076       23.401      1.1         2.195       470.87      80.433      1.1         189.335     320.001     205.335     37.556      
148.6       51.404      132.68      2.229       5.925       22.766      1.066       2.19        478.312     78.664      1.1         154.666     277.334     176.0       37.703      
148.8       50.119      132.746     2.239       6.301       22.433      1.197       2.157       483.93      77.303      1.1         143.999     272.0       210.668     36.537      
149.0       59.156      132.753     2.224       6.404       22.029      1.052       2.16        488.291     76.104      1.1         138.668     280.001     189.332     33.452      
149.2       59.841      132.467     2.214       6.525       21.694      1.135       2.089       492.012     74.753      1.1         176.0       280.0       141.333     33.63       
149.4       59.156      132.547     2.211       6.461       21.542      1.145       2.064       495.51      73.121      1.1         160.0       290.666     141.332     34.249      
149.6       61.376      132.518     2.2         6.386       21.604      1.094       2.108       499.009     71.381      1.1         160.001     296.0       189.332     35.555      
149.8       60.395      132.09      2.202       6.463       21.492      1.219       2.092       502.36      69.844      1.1         141.334     301.333     207.999     34.408      
150.0       46.132      132.384     2.215       6.569       21.442      1.156       2.107       504.603     68.715      1.1         176.276     314.667     134.683     32.87       
150.2       54.075      132.116     2.223       6.762       21.442      1.12        2.119       504.824     68.011      1.1         200.381     267.505     56.92       38.321      
150.4       55.335      132.232     2.231       6.403       21.366      1.171       2.131       504.331     67.645      1.1         165.966     239.414     47.651      38.802      
150.6       62.373      131.93      2.254       5.762       20.955      1.092       2.154       501.178     67.517      1.1         182.05      340.593     240.321     34.781      
150.8       63.241      132.187     2.231       6.351       21.05       1.177       2.18        495.732     67.517      1.1         276.559     357.552     188.15      34.654      
151.0       73.451      132.226     2.21        6.358       21.515      0.981       2.199       488.71      67.517      1.1         206.42      312.827     134.983     37.072      
151.2       60.117      132.19      2.205       6.442       22.058      1.125       2.118       481.539     67.623      1.1         319.487     385.72      174.3       36.423      
151.4       61.802      131.913     2.196       6.632       22.409      1.184       2.187       475.724     67.878      1.1         257.017     343.587     154.807     34.304      
151.6       67.453      131.895     2.202       6.507       22.518      1.121       2.24        471.437     68.296      1.1         140.319     319.887     231.801     36.434      
151.8       71.285      131.965     2.218       6.319       22.457      1.164       2.221       467.519     68.91       1.1         160.255     337.044     222.978     33.181      
152.0       62.517      132.634     2.218       6.241       22.295      1.144       2.134       463.281     69.774      1.1         192.706     344.309     192.343     37.018      
152.2       55.463      132.193     2.208       6.452       22.271      1.161       2.049       458.501     70.908      1.1         222.461     345.921     172.689     32.301      
152.4       56.234      132.216     2.215       6.552       22.14       1.099       2.044       453.302     72.125      1.1         291.571     346.446     133.781     31.762      
152.6       59.429      132.126     2.226       6.544       21.796      1.09        2.084       448.202     72.947      1.1         244.192     300.751     90.977      36.161      
152.8       60.814      132.071     2.221       6.539       21.419      1.163       2.112       443.84      73.063      1.1         231.947     283.563     99.105      35.734      
153.0       59.566      131.97      2.194       6.536       21.17       1.106       2.031       440.07      72.984      1.1         179.054     293.309     168.001     33.566      
153.2       56.494      131.993     2.212       6.946       21.027      1.15        2.041       436.473     72.427      1.1         152.041     310.581     176.0       35.015      
