~Version Information Section
VERS.                                         2.0:CWLS log ASCII Standart – VERSION 2.0
WRAP.                                          NO:One line per depth step
~Well Information Section
STRT.M                                        0.1:Начальная глубина
STOP.M                                      153.3:Конечная глубина
STEP.M                                          0:Шаг квантования по глубине
NULL.                                    -9999.25:Признак "Нет данных"
WELL.                                        144К:Скважина
~Parameter Information Section
~Curve Information Section
DEPTH.M                                          :Глубина
БК.Омм                                           :BK     (БК)
DСР.мм                                           :DS  (ДС)
ПЛОТНОСТЬ.г/см^3                                 :GGKp
ГК.мкР/ч                                         :GK          (ГК)
А0.4М0.1N.Омм                                    :GZ1   ГЗ1(A0.4M0.1N)
А1.0М0.1N.Омм                                    :GZ2   ГЗ2(A1.0M0.1N)
А2.0М0.5N.Омм                                    :GZ3   ГЗ3(A2.0M0.5N)
А4.0М0.5N.Oмм                                    :GZ4   ГЗ4(A4.0M0.5N)
А8.0М1.0N.Омм                                    :GZ5   ГЗ5(A8.0M0.5N)
N0.5M2.0A.Омм                                    :GZR   ГЗK(N0.5M2.0A)
ИК.мСм/м                                         :IK
БЗ.ue                                            :NNKb  (ННКб)
МЗ.ue                                            :NNKm  (ННКм)
ПС.mv                                            :PS       (ПС)
N11.0M0.5A.Омм                                   :PZ    (КС)
R.Омм                                            :RS (Резистивиметр)
ПОРИСТОСТЬ.                                      :W
~ASCII LOG DATA
# ...
74.1        60.094      210.691     2.287       4.069       61.001      91.792      74.003      66.694      58.939      84.874      34.213      2.727       1.75        90.055      100.225     1.106       33.262      
74.2        61.466      211.018     2.281       3.886       59.425      88.985      73.395      64.463      57.672      84.077      34.098      2.73        1.745       90.328      94.954      1.106       33.18       
74.3        61.086      211.583     2.274       3.815       57.02       84.062      72.297      62.225      56.57       83.644      34.01       2.728       1.741       90.534      90.227      1.106       33.28       
74.4        55.68       211.57      2.268       3.832       54.364      78.79       70.599      60.219      55.523      83.552      33.914      2.734       1.741       90.664      86.12       1.106       33.439      
74.5        50.085      211.048     2.264       3.934       52.607      75.705      68.911      58.564      54.681      83.635      33.799      2.75        1.739       90.714      82.812      1.106       33.609      
74.6        51.665      210.951     2.262       4.148       52.092      74.825      68.022      57.395      54.14       83.751      33.73       2.745       1.73        90.679      81.266      1.105       33.727      
74.7        56.688      209.583     2.26        4.412       52.059      74.825      67.774      56.794      53.922      83.736      34.069      2.738       1.739       90.562      81.191      1.106       33.769      
74.8        59.985      209.786     2.262       4.63        52.42       75.46       68.329      56.592      53.836      83.682      34.363      2.728       1.756       90.373      81.362      1.106       33.661      
74.9        59.136      210.042     2.266       4.731       52.9        76.05       69.431      56.357      53.836      83.41       34.792      2.749       1.774       90.128      81.715      1.106       33.25       
75.0        60.652      210.178     2.269       4.738       53.392      76.54       70.563      55.913      53.843      82.578      35.041      2.773       1.794       89.848      82.188      1.106       32.637      
75.1        61.827      210.199     2.269       4.663       53.634      76.749      71.532      55.349      54.082      81.363      35.28       2.835       1.799       89.557      82.617      1.107       31.977      
75.2        62.302      210.236     2.264       4.56        53.559      76.404      71.932      54.935      55.116      79.886      35.377      2.872       1.808       89.277      83.861      1.107       31.55       
75.3        61.245      210.039     2.257       4.443       53.467      75.345      71.948      54.824      56.316      78.34       35.427      2.977       1.811       89.024      86.183      1.107       31.483      
75.4        56.804      211.161     2.25        4.375       53.777      74.178      71.847      54.949      57.889      76.994      35.667      3.032       1.792       88.811      88.972      1.107       31.621      
75.5        57.557      210.436     2.247       4.363       54.105      73.727      71.746      55.488      58.675      76.021      35.949      3.044       1.783       88.64       92.294      1.107       31.828      
75.6        64.977      210.149     2.251       4.388       54.947      74.126      72.023      56.619      59.319      75.407      36.279      2.968       1.771       88.507      96.114      1.107       31.958      
75.7        69.04       210.315     2.261       4.4         57.025      75.842      73.237      58.195      59.52       74.912      36.317      2.846       1.776       88.404      99.56       1.107       31.814      
75.8        70.283      210.51      2.274       4.406       59.99       79.353      75.416      59.91       59.958      74.265      36.464      2.793       1.794       88.323      102.304     1.107       31.475      
75.9        74.663      210.411     2.283       4.442       63.975      84.537      77.844      61.612      60.571      73.182      36.638      2.826       1.809       88.256      104.657     1.106       30.829      
76.0        82.517      210.443     2.28        4.464       67.806      90.202      80.192      63.356      61.887      71.761      36.747      2.956       1.824       88.197      106.544     1.106       30.035      
76.1        87.702      210.475     2.268       4.396       69.788      94.514      82.282      65.324      63.358      70.347      36.735      3.135       1.843       88.146      108.082     1.106       29.256      
76.2        82.913      210.613     2.254       4.267       70.617      97.169      83.976      67.565      65.105      69.104      36.433      3.271       1.839       88.102      109.221     1.105       28.678      
76.3        72.814      210.776     2.245       4.138       71.356      100.498     85.416      70.001      66.357      67.97       36.072      3.328       1.826       88.06       110.028     1.105       28.494      
76.4        71.279      210.776     2.242       4.034       72.117      105.783     87.261      72.458      67.318      67.032      35.676      3.275       1.802       88.017      110.63      1.104       28.716      
76.5        80.811      211.018     2.249       3.962       73.127      111.386     89.856      74.645      68.123      66.404      35.283      3.185       1.789       87.98       110.886     1.104       29.186      
76.6        85.213      211.018     2.264       3.943       74.025      115.821     92.311      76.25       69.139      65.765      34.874      3.118       1.801       87.953      110.645     1.103       29.749      
76.7        80.525      210.924     2.282       4.054       74.781      119.148     93.778      77.159      69.726      64.606      34.445      3.07        1.822       87.937      109.779     1.103       30.154      
76.8        80.061      211.084     2.298       4.236       74.939      120.676     94.212      77.459      69.726      62.865      34.092      3.027       1.835       87.935      108.406     1.102       30.422      
76.9        77.695      211.291     2.309       4.435       73.996      120.685     94.104      77.209      69.415      60.713      33.555      2.967       1.82        87.95       106.887     1.102       30.588      
77.0        73.15       211.418     2.314       4.537       72.602      119.941     93.799      76.663      68.196      58.438      32.241      2.94        1.803       87.98       105.283     1.102       30.738      
77.1        63.398      211.576     2.315       4.584       70.573      117.643     93.61       75.869      66.549      56.233      31.769      2.956       1.78        88.028      103.656     1.102       30.957      
77.2        64.602      211.841     2.316       4.543       69.263      116.09      93.428      74.968      64.729      54.201      31.125      2.979       1.771       88.09       102.179     1.102       31.247      
77.3        65.758      212.032     2.318       4.447       69.053      115.477     92.996      73.847      62.866      52.29       30.533      2.982       1.773       88.166      100.548     1.102       31.646      
77.4        67.286      212.482     2.318       4.319       68.558      114.245     92.669      72.101      61.012      50.272      29.995      2.934       1.787       88.25       98.382      1.102       32.274      
77.5        70.764      212.574     2.313       4.255       67.787      112.132     91.719      69.693      58.986      48.258      29.137      2.864       1.797       88.336      95.756      1.102       33.061      
77.6        62.345      212.803     2.306       4.285       65.022      106.424     89.32       66.621      56.4        46.447      28.373      2.791       1.798       88.417      92.887      1.102       33.882      
77.7        52.966      212.953     2.3         4.437       60.434      98.593      85.865      63.27       53.586      45.011      27.6        2.678       1.767       88.492      89.947      1.101       34.606      
