~Version Information Section
VERS.                                         2.0:CWLS log ASCII Standart – VERSION 2.0
WRAP.                                          NO:One line per depth step
~Well Information Section
STRT.M                                        0.6:Начальная глубина
STOP.M                                      209.2:Конечная глубина
STEP.M                                          0:Шаг квантования по глубине
NULL.                                    -9999.25:Признак "Нет данных"
WELL.                                       107Мх:Скважина
~Parameter Information Section
~Curve Information Section
DEPTH.M                                          :Глубина
PS.mv                                            :PS       (ПС)
PZ.Ohm*M                                         :PZ    (КС)
RS.Ohm*M                                         :RS (Резистивиметр)
U1.mV                                            :U1
U2.mV                                            :U2
U3.mV                                            :U3
КП.%                                             :Кп
BK.Ohm*M                                         :BK     (БК)
DS.mm                                            :DS  (ДС)
GGK.g/cm3                                        :GGKp
ГК.mcr/h                                         :GK          (ГК)
GZ1.Ohm*M                                        :GZ1   ГЗ1(A0.4M0.1N)
GZ2.Ohm*M                                        :GZ2   ГЗ2(A1.0M0.1N)
GZ3.Ohm*M                                        :GZ3   ГЗ3(A2.0M0.5N)
GZ4.Ohm*M                                        :GZ4   ГЗ4(A4.0M0.5N)
GZ5.Ohm*M                                        :GZ5   ГЗ5(A8.0M0.5N)
GZR.Ohm*M                                        :GZK   ГЗK(N0.5M2.0A)
ИК.Ohm*M                                         :IK
НГК.u.e.                                         :NGK
NNKM.                                            :NNKm  (ННКм)
~ASCII LOG DATA
# ...
96.6        1078.422    51.191      0.975       398.283     321.766     433.476     31.391      27.227      153.963     2.273       4.332       85.23       32.834      48.942      14.063      14.05       47.24       8.715       1.141       15.709      
96.7        1079.729    51.191      0.975       436.433     375.965     494.611     33.539      27.227      153.963     2.29        4.298       85.23       32.834      48.942      14.063      14.05       47.24       8.715       1.125       15.527      
96.8        1081.087    51.191      0.975       484.085     427.573     547.951     33.952      23.335      154.064     2.298       4.621       85.23       32.834      48.942      14.063      14.19       49.32       8.692       1.08        15.344      
96.9        1082.47     51.191      0.975       517.723     468.56      598.19      33.337      18.03       154.297     2.311       4.949       85.23       32.834      48.942      14.063      14.33       50.36       8.692       1.05        15.014      
97.0        1083.878    51.191      0.975       535.782     493.133     636.219     31.381      18.03       155.035     2.303       5.587       85.23       32.834      48.942      14.063      14.61       51.4        8.692       1.023       14.685      
97.1        1085.286    50.815      0.975       548.772     478.851     613.64      29.987      17.1        155.704     2.285       5.79        85.23       33.354      48.942      14.063      14.75       52.44       8.692       0.997       14.425      
97.2        1086.694    50.439      0.975       557.378     429.348     533.561     29.142      17.219      155.665     2.317       6.179       85.23       33.354      48.942      14.063      15.03       52.44       8.692       0.953       13.993      
97.3        1088.026    50.063      0.975       553.998     382.482     457.532     29.755      17.579      154.93      2.313       6.173       85.23       33.354      48.942      14.063      15.17       52.44       8.648       0.977       13.967      
97.4        1089.309    50.063      0.975       541.078     348.839     402.582     31.199      17.579      154.456     2.354       5.974       85.23       33.354      48.942      14.063      15.45       52.44       8.638       0.963       14.212      
97.5        1090.541    50.439      0.975       530.666     336.76      386.052     32.141      19.099      154.294     2.35        5.671       85.23       32.834      48.942      14.063      15.45       52.44       8.638       0.975       14.291      
97.6        1091.723    51.567      0.975       504.849     349.746     427.625     33.62       18.113      154.429     2.393       5.619       85.23       32.314      48.942      14.063      15.31       52.44       8.603       0.939       14.196      
97.7        1092.854    52.695      0.975       478.956     371.878     479.27      34.287      18.113      154.938     2.348       6.166       85.23       32.314      48.942      14.063      15.17       52.44       8.593       0.965       14.096      
97.8        1093.91     54.575      0.975       486.528     386.975     494.234     33.881      17.989      154.832     2.302       6.383       85.23       31.794      49.382      14.063      15.03       52.44       8.593       0.981       13.998      
97.9        1094.865    56.079      0.975       512.762     391.776     481.694     32.333      16.218      156.375     2.271       6.373       85.23       31.274      50.702      13.943      14.89       52.44       8.561       0.991       13.845      
98.0        1095.796    57.583      0.975       534.534     379.565     436.685     30.409      16.218      157.848     2.283       6.122       85.23       30.754      51.582      13.943      14.75       52.44       8.508       0.982       13.446      
98.1        1096.701    58.711      0.975       542.56      353.617     375.419     29.185      15.241      154.643     2.34        6.309       85.23       30.234      52.022      13.943      14.47       52.44       8.447       0.956       13.126      
98.2        1097.556    59.839      0.975       515.979     335.083     377.383     28.3        17.14       154.895     2.355       6.483       85.23       29.714      52.022      13.823      14.33       52.44       8.447       0.987       13.366      
98.3        1098.335    60.591      0.975       459.273     328.508     446.441     27.755      17.14       154.234     2.337       6.514       85.23       29.714      52.022      13.823      14.19       51.4        8.366       1.018       13.605      
98.4        1099.039    61.343      0.975       416.216     328.967     505.131     27.583      19.815      154.204     2.319       6.454       85.23       28.674      52.022      13.703      14.05       50.36       8.258       1.066       13.995      
98.5        1099.668    61.719      0.975       395.286     333.493     534.61      29.799      22.594      154.184     2.296       6.281       85.23       28.674      51.582      13.463      14.05       50.36       8.258       1.034       14.482      
98.6        1100.246    62.095      0.975       377.64      334.311     549.829     31.919      25.061      154.16      2.317       6.105       85.23       28.674      51.582      13.343      13.91       49.32       8.158       0.985       14.793      
98.7        1100.774    62.095      0.975       363.554     322.234     524.884     33.444      25.061      154.277     2.297       5.985       85.23       28.154      51.142      13.343      13.49       48.28       8.047       0.961       15.147      
98.8        1101.277    61.343      0.975       357.058     299.474     461.978     33.262      22.131      155.011     2.314       6.01        85.23       27.634      50.702      13.223      13.35       48.28       8.047       0.999       15.105      
98.9        1101.755    59.463      0.975       368.699     285.892     412.681     34.716      18.197      155.648     2.396       6.181       85.23       27.114      50.262      13.103      13.21       43.08       7.904       1.059       14.646      
99.0        1102.207    56.831      0.975       400.534     285.43      387.112     37.314      18.197      154.9       2.446       6.385       85.23       27.114      48.942      13.103      13.07       43.08       7.828       1.08        14.108      
99.1        1102.635    53.823      0.975       437.905     283.02      357.236     38.834      16.866      155.029     2.457       6.472       85.65       27.114      48.502      13.103      13.07       43.08       7.828       1.023       13.454      
99.2        1103.037    50.815      0.975       475.343     275.615     316.311     38.104      15.849      155.139     2.358       6.402       85.65       26.074      48.502      13.103      13.07       42.04       7.723       0.956       13.061      
99.3        1103.414    47.431      0.975       513.149     275.484     281.101     36.734      15.849      155.723     2.231       6.249       86.07       26.074      48.062      13.103      12.93       39.96       7.61        0.877       12.893      
99.4        1103.766    44.423      0.975       518.383     272.593     266.063     35.949      14.689      155.723     2.094       6.162       86.07       26.074      47.622      13.103      12.93       39.96       7.484       0.894       12.726      
99.5        1104.043    41.791      0.975       479.888     262.341     286.454     34.931      13.646      155.723     1.997       6.157       86.07       26.074      47.182      13.103      12.93       38.92       7.484       0.937       11.839      
99.6        1104.244    39.159      0.975       430.277     264.066     352.501     32.958      13.646      155.283     2.043       6.378       86.07       26.074      46.742      13.103      12.93       37.88       7.417       0.99        10.952      
99.7        1104.42     36.527      0.975       383.779     281.249     454.483     31.263      13.49       154.843     2.127       6.554       86.07       26.074      46.742      13.103      12.79       36.84       7.406       0.989       11.546      
