~Version Information Section
VERS.                                         2.0:CWLS log ASCII Standart – VERSION 2.0
WRAP.                                          NO:One line per depth step
~Well Information Section
STRT.M                                      -0.07:Начальная глубина
STOP.M                                     189.23:Конечная глубина
STEP.M                                          0:Шаг квантования по глубине
NULL.                                    -9999.25:Признак "Нет данных"
WELL.                                       127Мх:Скважина
~Parameter Information Section
~Curve Information Section
DEPTH.M                                          :Глубина
BK.                                              :BK
ГК.гамма                                         :GK
ИК.                                              :IK
НГК.усл.ед                                       :NGK
PSЭ3.                                            :PSэ3
PZЭ3.                                            :PZэ3
U1.                                              :U1
U2.                                              :U2
U3.                                              :U3
W.усл.ед                                         :W
ГЗ1.                                             :ГЗ1
ГЗ2.                                             :ГЗ2
ГЗ3.                                             :ГЗ3
ГЗ4.                                             :ГЗ4
ГЗ5.                                             :ГЗ5
ГЗК.                                             :ГЗК
ННКМ.усл.ед                                      :ННКм
PL.g/cm3                                         :Плотность
ПРОФ_СР.                                         :ПРОФ_СР
IS.                                              :РЕЗ
~ASCII LOG DATA
# ...
25.53       21.688      1.493       17.723      4.26        -9999.25    -9999.25    -9999.25    -9999.25    -9999.25    13.277      1.339       75.462      33.84       43.347      31.232      19.261      2.964       1.598       100.913     -1.893      
25.63       21.688      1.649       17.723      3.978       -9999.25    -9999.25    -9999.25    -9999.25    -9999.25    13.416      1.339       75.462      33.84       43.347      31.232      19.261      2.993       1.609       100.886     -1.893      
25.73       21.688      1.786       17.723      3.999       -9999.25    -9999.25    -9999.25    -9999.25    -9999.25    13.668      1.339       75.462      33.84       43.347      31.232      19.261      2.996       1.625       100.902     -1.893      
25.83       21.688      1.774       17.723      4.156       -9999.25    -9999.25    -9999.25    -9999.25    -9999.25    14.014      1.339       75.462      33.84       43.347      31.232      19.261      2.975       1.639       100.932     -1.893      
25.93       21.688      1.693       17.723      4.132       -9999.25    -9999.25    -9999.25    -9999.25    -9999.25    14.473      1.339       75.462      33.84       43.347      31.232      19.261      2.919       1.646       100.94      -1.893      
26.03       21.688      1.714       17.723      4.224       -9999.25    -9999.25    -9999.25    -9999.25    -9999.25    14.678      1.339       75.462      33.84       43.347      31.232      19.261      2.835       1.645       100.956     -1.893      
26.13       21.688      1.842       17.723      4.464       -9999.25    -9999.25    -9999.25    -9999.25    -9999.25    14.943      1.339       75.462      33.84       43.347      31.232      19.261      2.768       1.634       100.888     -1.893      
26.23       21.688      1.939       17.723      4.43        -9999.25    -9999.25    -9999.25    -9999.25    -9999.25    15.322      1.339       75.462      33.84       43.347      31.232      19.261      2.69        1.619       100.865     -1.893      
26.33       21.688      1.996       17.723      4.174       -9999.25    -9999.25    -9999.25    -9999.25    -9999.25    15.003      1.339       75.462      33.84       43.347      31.232      19.261      2.609       1.605       100.849     -1.893      
26.43       21.688      2.216       17.723      3.906       -9999.25    -9999.25    -9999.25    -9999.25    -9999.25    14.733      1.339       75.462      33.84       43.347      31.232      19.261      2.5         1.593       100.827     -1.893      
26.53       21.688      2.619       17.723      3.755       -9999.25    -9999.25    -9999.25    -9999.25    -9999.25    14.375      1.339       75.462      33.84       43.347      31.232      19.261      2.38        1.585       100.829     -1.893      
26.63       21.688      3.113       17.723      3.662       -9999.25    -9999.25    -9999.25    -9999.25    -9999.25    14.979      1.339       75.462      33.84       43.347      31.232      19.261      2.361       1.582       100.854     -1.893      
26.73       21.688      3.58        17.723      3.454       -9999.25    -9999.25    -9999.25    -9999.25    -9999.25    15.71       1.339       75.462      33.84       43.347      31.232      19.261      2.397       1.582       100.832     -1.893      
26.83       21.688      3.949       17.723      3.15        -9999.25    -9999.25    -9999.25    -9999.25    -9999.25    15.409      1.339       75.462      33.84       43.347      31.232      19.261      2.376       1.585       100.847     -1.893      
26.93       21.688      4.224       17.723      3.302       -9999.25    -9999.25    -9999.25    -9999.25    -9999.25    14.563      1.339       75.462      33.84       43.347      31.232      19.261      2.288       1.593       100.863     -1.893      
27.03       21.688      4.44        17.723      3.384       -9999.25    -9999.25    -9999.25    -9999.25    -9999.25    14.396      1.339       75.462      33.84       43.347      31.232      19.261      2.238       1.601       100.839     -1.893      
27.13       21.688      4.63        17.723      3.205       -9999.25    -9999.25    -9999.25    -9999.25    -9999.25    14.78       1.339       75.462      33.84       43.347      31.232      19.261      2.241       1.607       100.91      -1.893      
27.23       21.688      4.712       17.723      3.166       -9999.25    -9999.25    -9999.25    -9999.25    -9999.25    14.697      1.339       75.462      33.84       43.347      31.232      19.261      2.24        1.612       100.87      -1.893      
27.33       21.688      4.786       17.723      3.294       -9999.25    -9999.25    -9999.25    -9999.25    -9999.25    14.37       1.339       75.462      33.84       43.347      31.232      19.261      2.23        1.616       100.819     -1.893      
27.43       21.688      4.873       17.723      3.471       -9999.25    -9999.25    -9999.25    -9999.25    -9999.25    14.307      1.339       75.462      33.84       43.347      31.232      19.261      2.218       1.619       100.793     -1.893      
27.53       21.688      5.128       17.723      3.54        -9999.25    -9999.25    -9999.25    -9999.25    -9999.25    14.553      1.339       75.462      33.84       43.347      31.232      19.261      2.218       1.622       100.742     -1.893      
27.63       21.688      5.311       17.723      3.464       -9999.25    -9999.25    -9999.25    -9999.25    -9999.25    14.6        1.339       75.462      33.84       43.347      31.232      19.261      2.224       1.622       100.757     -1.893      
27.73       21.688      5.29        17.723      3.46        -9999.25    -9999.25    -9999.25    -9999.25    -9999.25    14.314      1.339       75.462      33.84       43.347      31.232      19.261      2.231       1.62        100.776     -1.893      
27.83       21.688      5.056       17.723      3.574       -9999.25    -9999.25    -9999.25    -9999.25    -9999.25    14.06       1.339       75.462      33.84       43.347      31.232      19.261      2.239       1.618       100.729     -1.893      
27.93       21.688      4.819       17.723      3.515       -9999.25    -9999.25    -9999.25    -9999.25    -9999.25    13.963      1.339       75.462      33.84       43.347      31.232      19.261      2.267       1.614       100.774     -1.893      
28.03       21.688      4.72        17.723      3.331       -9999.25    -9999.25    -9999.25    -9999.25    -9999.25    14.312      1.339       75.462      33.84       43.347      31.232      19.261      2.347       1.61        100.795     -1.893      
28.13       21.688      4.623       17.723      3.293       -9999.25    -9999.25    -9999.25    -9999.25    -9999.25    14.859      1.339       75.462      33.84       43.347      31.232      19.261      2.383       1.608       100.812     -1.893      
28.23       21.688      4.446       17.723      3.333       -9999.25    -9999.25    -9999.25    -9999.25    -9999.25    14.542      1.339       75.462      33.84       43.347      31.232      19.261      2.312       1.606       100.851     -1.893      
28.33       21.688      4.401       17.723      3.449       -9999.25    -9999.25    -9999.25    -9999.25    -9999.25    14.025      1.339       75.462      33.84       43.347      31.232      19.261      2.245       1.606       100.744     -1.893      
28.43       21.688      4.565       17.723      3.394       -9999.25    -9999.25    -9999.25    -9999.25    -9999.25    13.937      1.339       75.462      33.84       43.347      31.232      19.261      2.232       1.608       100.754     -1.893      
28.53       21.688      4.758       17.723      3.398       -9999.25    -9999.25    -9999.25    -9999.25    -9999.25    14.064      1.339       75.462      33.84       43.347      31.232      19.261      2.237       1.608       100.836     -1.893      
28.63       21.688      4.866       17.723      3.438       -9999.25    -9999.25    -9999.25    -9999.25    -9999.25    14.244      1.339       75.462      33.84       43.347      31.232      19.261      2.247       1.609       100.809     -1.893      
