~Version Information Section
VERS.                                         2.0:CWLS log ASCII Standart – VERSION 2.0
WRAP.                                          NO:One line per depth step
~Well Information Section
STRT.M                                        1.0:Начальная глубина
STOP.M                                      208.3:Конечная глубина
STEP.M                                          0:Шаг квантования по глубине
NULL.                                    -9999.25:Признак "Нет данных"
WELL.                                       131Мх:Скважина
~Parameter Information Section
~Curve Information Section
DEPTH.M                                          :Глубина
БК.Омм                                           :BK     (БК)
DСР.мм                                           :DS  (ДС)
ГК.гамма                                         :GK          (ГК)
А0.4М0.1N.Омм.ohmm                               :GZ1   ГЗ1(A0.4M0.1N)
А1.0М0.1N.Омм.ohmm                               :GZ2   ГЗ2(A1.0M0.1N)
А2.0М0.5N.Омм.ohmm                               :GZ3   ГЗ3(A2.0M0.5N)
А4.0М0.5N.Oмм.ohmm                               :GZ4   ГЗ4(A4.0M0.5N)
А8.0М1.0N.Омм.ohmm                               :GZ5   ГЗ5(A8.0M0.5N)
N0.5M2.0A.Омм.ohmm                               :GZK   ГЗK(N0.5M2.0A)
ИК.мСм/м                                         :IK
НГК.усл.ед                                       :NGK     (НГК)
ПС.mv                                            :PS       (ПС)
П.%                                              :п
PZ.Омм                                           :PZ    (КС)
R.Омм                                            :RS (Резистивиметр)
U1.мВ                                            :U1
U2.mV                                            :U2
U3.мВ                                            :U3
W.г/см3                                          :ГГКп
~ASCII LOG DATA
# ...
169.7       18.326      128.529     5.643       -9999.25    -9999.25    -9999.25    -9999.25    -9999.25    -9999.25    14.678      1.183       191.238     31.117      42.271      1.12        1717.498    1683.186    1672.979    2.488       
169.75      -9999.25    -9999.25    -9999.25    14.847      11.079      10.655      4.173       0.683       170.893     -9999.25    -9999.25    -9999.25    -9999.25    -9999.25    -9999.25    -9999.25    -9999.25    -9999.25    -9999.25    
169.8       18.324      128.403     5.667       -9999.25    -9999.25    -9999.25    -9999.25    -9999.25    -9999.25    15.309      1.181       191.221     31.57       45.541      1.12        1990.156    1926.336    1890.975    2.476       
169.85      -9999.25    -9999.25    -9999.25    17.104      12.39       12.217      4.173       0.683       211.267     -9999.25    -9999.25    -9999.25    -9999.25    -9999.25    -9999.25    -9999.25    -9999.25    -9999.25    -9999.25    
169.9       18.069      129.179     5.947       -9999.25    -9999.25    -9999.25    -9999.25    -9999.25    -9999.25    16.092      1.152       191.057     31.266      49.224      1.12        2456.298    2301.209    2187.532    2.458       
169.95      -9999.25    -9999.25    -9999.25    23.289      14.396      14.19       4.477       0.683       244.33      -9999.25    -9999.25    -9999.25    -9999.25    -9999.25    -9999.25    -9999.25    -9999.25    -9999.25    -9999.25    
170.0       17.651      130.985     5.996       -9999.25    -9999.25    -9999.25    -9999.25    -9999.25    -9999.25    16.922      1.14        190.522     30.157      53.305      1.12        2137.776    2252.009    2391.808    2.453       
170.05      -9999.25    -9999.25    -9999.25    35.126      16.875      16.377      5.648       0.683       265.434     -9999.25    -9999.25    -9999.25    -9999.25    -9999.25    -9999.25    -9999.25    -9999.25    -9999.25    -9999.25    
170.1       18.557      127.086     5.804       -9999.25    -9999.25    -9999.25    -9999.25    -9999.25    -9999.25    17.826      1.16        189.498     28.72       58.149      1.12        2137.776    2252.009    2364.986    2.43        
170.15      -9999.25    -9999.25    -9999.25    52.668      19.675      18.539      7.999       0.685       274.895     -9999.25    -9999.25    -9999.25    -9999.25    -9999.25    -9999.25    -9999.25    -9999.25    -9999.25    -9999.25    
170.2       30.76       125.983     5.448       -9999.25    -9999.25    -9999.25    -9999.25    -9999.25    -9999.25    19.092      1.17        187.99      27.939      64.159      1.12        2316.764    2292.075    2211.04     2.409       
170.25      -9999.25    -9999.25    -9999.25    75.076      22.797      20.428      11.444      0.707       275.358     -9999.25    -9999.25    -9999.25    -9999.25    -9999.25    -9999.25    -9999.25    -9999.25    -9999.25    -9999.25    
170.3       98.952      125.939     5.035       -9999.25    -9999.25    -9999.25    -9999.25    -9999.25    -9999.25    20.835      1.203       186.014     27.218      71.918      1.12        2712.886    2259.846    1925.67     2.402       
170.35      -9999.25    -9999.25    -9999.25    100.623     26.273      21.988      15.336      0.766       275.358     -9999.25    -9999.25    -9999.25    -9999.25    -9999.25    -9999.25    -9999.25    -9999.25    -9999.25    -9999.25    
170.4       201.047     125.949     4.457       -9999.25    -9999.25    -9999.25    -9999.25    -9999.25    -9999.25    22.98       1.295       183.618     25.581      82.466      1.12        1983.413    1873.133    1794.063    2.38        
170.45      -9999.25    -9999.25    -9999.25    124.276     30.369      23.271      19.008      0.865       275.358     -9999.25    -9999.25    -9999.25    -9999.25    -9999.25    -9999.25    -9999.25    -9999.25    -9999.25    -9999.25    
170.5       251.662     125.82      3.877       -9999.25    -9999.25    -9999.25    -9999.25    -9999.25    -9999.25    25.514      1.372       180.978     23.786      95.776      1.12        1983.413    1873.133    1794.063    2.315       
170.55      -9999.25    -9999.25    -9999.25    142.274     36.609      24.374      22.147      0.997       270.618     -9999.25    -9999.25    -9999.25    -9999.25    -9999.25    -9999.25    -9999.25    -9999.25    -9999.25    -9999.25    
170.6       252.474     125.803     3.449       -9999.25    -9999.25    -9999.25    -9999.25    -9999.25    -9999.25    28.605      1.497       178.294     21.47       110.489     1.12        2102.823    2009.567    1947.642    2.261       
170.65      -9999.25    -9999.25    -9999.25    153.578     46.597      25.418      24.513      1.158       264.649     -9999.25    -9999.25    -9999.25    -9999.25    -9999.25    -9999.25    -9999.25    -9999.25    -9999.25    -9999.25    
170.7       238.411     125.491     3.335       -9999.25    -9999.25    -9999.25    -9999.25    -9999.25    -9999.25    32.123      1.622       175.715     19.146      125.639     1.12        2235.468    2137.161    2072.044    2.222       
170.75      -9999.25    -9999.25    -9999.25    158.874     61.03       26.511      25.749      1.354       260.024     -9999.25    -9999.25    -9999.25    -9999.25    -9999.25    -9999.25    -9999.25    -9999.25    -9999.25    -9999.25    
170.8       215.721     125.785     3.227       -9999.25    -9999.25    -9999.25    -9999.25    -9999.25    -9999.25    35.528      1.753       173.337     17.141      140.131     1.12        2381.348    2255.916    2167.271    2.191       
170.85      -9999.25    -9999.25    -9999.25    159.367     79.815      27.652      26.354      1.615       256.122     -9999.25    -9999.25    -9999.25    -9999.25    -9999.25    -9999.25    -9999.25    -9999.25    -9999.25    -9999.25    
170.9       191.689     125.561     3.1         -9999.25    -9999.25    -9999.25    -9999.25    -9999.25    -9999.25    38.503      1.857       171.143     15.859      152.324     1.12        2463.571    2320.271    2216.277    2.193       
170.95      -9999.25    -9999.25    -9999.25    159.367     102.242     28.826      26.671      2.007       252.211     -9999.25    -9999.25    -9999.25    -9999.25    -9999.25    -9999.25    -9999.25    -9999.25    -9999.25    -9999.25    
171.0       173.836     125.506     3.148       -9999.25    -9999.25    -9999.25    -9999.25    -9999.25    -9999.25    41.158      1.983       169.015     14.934      162.086     1.12        2435.914    2266.469    2138.707    2.206       
171.05      -9999.25    -9999.25    -9999.25    159.39      125.424     30.004      26.817      2.611       247.946     -9999.25    -9999.25    -9999.25    -9999.25    -9999.25    -9999.25    -9999.25    -9999.25    -9999.25    -9999.25    
171.1       164.025     125.374     3.192       -9999.25    -9999.25    -9999.25    -9999.25    -9999.25    -9999.25    43.62       2.052       166.877     13.829      170.188     1.12        2397.094    2236.62     2116.773    2.218       
171.15      -9999.25    -9999.25    -9999.25    157.964     146.081     31.154      26.885      3.515       243.76      -9999.25    -9999.25    -9999.25    -9999.25    -9999.25    -9999.25    -9999.25    -9999.25    -9999.25    -9999.25    
171.2       160.595     125.219     3.155       -9999.25    -9999.25    -9999.25    -9999.25    -9999.25    -9999.25    45.772      2.149       164.683     12.72       177.02      1.12        2347.11     2230.726    2116.773    2.224       
171.25      -9999.25    -9999.25    -9999.25    156.56      162.768     32.297      26.953      4.817       239.209     -9999.25    -9999.25    -9999.25    -9999.25    -9999.25    -9999.25    -9999.25    -9999.25    -9999.25    -9999.25    
171.3       156.649     125.358     3.189       -9999.25    -9999.25    -9999.25    -9999.25    -9999.25    -9999.25    47.658      2.221       162.376     12.115      182.923     1.12        2206.911    2210.897    2150.476    2.238       
171.35      -9999.25    -9999.25    -9999.25    156.231     175.298     33.551      27.006      6.667       234.071     -9999.25    -9999.25    -9999.25    -9999.25    -9999.25    -9999.25    -9999.25    -9999.25    -9999.25    -9999.25    
