~Version Information Section
VERS.                                         2.0:CWLS log ASCII Standart – VERSION 2.0
WRAP.                                          NO:One line per depth step
~Well Information Section
STRT.M                                        0.4:Начальная глубина
STOP.M                                      190.1:Конечная глубина
STEP.M                                          0:Шаг квантования по глубине
NULL.                                    -9999.25:Признак "Нет данных"
WELL.                                       135Мх:Скважина
~Parameter Information Section
~Curve Information Section
DEPTH.M                                          :Глубина
DS.mm                                            :DS  (ДС)
GGK.g/cm3                                        :GGKp
ГК.mcr/h                                         :GK          (ГК)
GZ1.Ohm*M                                        :GZ1   ГЗ1(A0.4M0.1N)
GZ2.Ohm*M                                        :GZ2   ГЗ2(A1.0M0.1N)
GZ3.Ohm*M                                        :GZ3   ГЗ3(A2.0M0.5N)
GZ4.Ohm*M                                        :GZ4   ГЗ4(A4.0M0.5N)
GZ5.Ohm*M                                        :GZ5   ГЗ5(A8.0M0.5N)
GZR.Ohm*M                                        :GZK   ГЗK(N0.5M2.0A)
ИК.Ohm*M                                         :IK
НГК.ue                                           :NGK     (НГК)
NNKM.                                            :NNKm  (ННКм)
PS.mv                                            :PS       (ПС)
PZ.Ohm*M                                         :PZ    (КС)
RS.Ohm*M                                         :RS (Резистивиметр)
U1.mV                                            :U1
U2.mV                                            :U2
U3.mV                                            :U3
BK.Ohm*M                                         :БК
ПОРИСТОСТЬ.                                      :Пористость ННК
~ASCII LOG DATA
# ...
54.8        134.391     2.205       4.407       56.349      48.553      62.546      9.68        0.912       24.089      28.316      1.591       2.22        435.311     17.652      1.4         170.666     67.693      118.666     82.128      32.601      
54.9        134.671     2.169       4.64        58.633      48.494      62.096      11.712      0.912       24.098      27.993      1.596       2.16        434.975     17.669      1.4         141.334     67.464      97.334      53.565      33.305      
55.0        135.028     2.148       4.741       60.743      48.525      62.003      16.332      0.96        24.035      27.606      1.524       2.122       434.825     17.6        1.4         112.0       64.718      86.667      16.44       34.356      
55.1        135.746     2.135       4.684       62.154      48.665      62.022      24.147      1.112       23.771      27.298      1.487       2.11        434.821     17.378      1.4         98.667      69.572      97.333      42.95       34.855      
55.2        136.473     2.12        4.719       62.697      49.069      62.19       35.047      1.404       23.163      27.111      1.482       2.123       434.91      17.007      1.4         101.333     81.181      118.666     58.767      34.892      
55.3        136.389     2.108       4.854       62.469      49.958      62.614      47.808      1.89        22.124      26.914      1.465       2.132       435.011     16.581      1.4         120.0       87.937      142.667     11.928      34.97       
55.4        136.238     2.104       5.018       61.8        51.296      63.09       60.063      2.438       20.733      26.667      1.418       2.148       435.068     16.2        1.4         146.666     99.894      156.0       15.159      35.341      
55.5        136.238     2.105       5.085       61.122      52.519      63.179      69.544      2.949       19.25       26.439      1.394       2.152       435.063     15.925      1.4         170.667     106.933     161.405     22.438      35.641      
55.6        136.632     2.119       5.189       60.663      52.851      62.246      74.836      3.328       17.976      26.144      1.424       2.144       434.981     15.772      1.4         184.0       110.426     159.389     14.573      35.902      
55.7        136.623     2.159       5.257       60.445      51.635      59.616      75.319      3.458       17.107      25.745      1.455       2.13        434.803     15.724      1.4         185.249     99.886      149.761     27.88       35.858      
55.8        136.408     2.192       5.391       60.392      48.532      55.181      71.538      3.449       16.663      25.276      1.496       2.095       434.511     15.718      1.4         169.249     87.509      137.394     28.984      35.087      
55.9        136.408     2.201       5.367       60.414      43.938      49.537      65.032      3.331       16.511      24.725      1.503       2.072       434.111     15.726      1.4         153.25      80.407      129.069     14.53       34.498      
56.0        137.657     2.198       5.388       60.452      38.865      43.638      57.369      3.18        16.486      24.037      1.506       2.055       433.606     15.762      1.4         144.0       82.135      131.021     15.167      34.243      
56.1        141.126     2.188       5.315       60.298      34.274      38.497      49.86       3.059       16.5        23.35       1.492       2.02        433.012     15.868      1.4         152.0       85.33       134.257     16.006      34.49       
56.2        144.301     2.174       5.499       59.611      30.795      34.788      43.606      2.967       16.582      22.754      1.486       1.979       432.341     16.042      1.4         160.0       86.796      135.539     14.491      34.819      
56.3        146.536     2.183       5.892       58.097      28.632      32.526      39.137      2.891       16.798      22.256      1.462       1.933       431.612     16.25       1.4         191.456     94.714      151.215     18.126      35.351      
56.4        146.536     2.204       6.609       55.471      27.438      31.311      36.263      2.83        17.169      21.881      1.406       1.887       430.872     16.431      1.4         205.215     95.091      154.494     16.037      36.021      
56.5        145.069     2.216       6.86        51.631      26.645      30.694      34.479      2.77        17.656      21.579      1.327       1.872       430.173     16.539      1.4         216.308     95.469      157.773     15.888      36.164      
56.6        139.666     2.223       6.968       46.945      25.868      30.292      33.298      2.635       18.158      21.218      1.289       1.885       429.536     16.698      1.4         206.715     97.233      150.814     13.802      35.652      
56.7        136.879     2.229       6.923       42.059      24.894      29.873      32.319      2.439       18.569      20.728      1.301       1.905       428.971     16.787      1.4         212.149     105.069     154.968     11.651      35.112      
56.8        136.879     2.228       7.156       37.57       23.64       29.339      31.316      2.177       18.853      20.125      1.337       1.911       428.51      16.8        1.4         225.278     117.109     164.875     10.694      34.252      
56.9        137.181     2.227       7.287       33.951      22.148      28.647      30.24       1.861       19.034      19.432      1.368       1.895       428.155     16.8        1.4         232.972     121.313     170.627     10.502      34.723      
57.0        138.372     2.233       7.272       31.337      20.56       27.808      29.131      1.559       19.162      18.749      1.4         1.861       427.95      16.8        1.4         268.106     136.265     196.826     10.346      35.55       
57.1        139.616     2.234       7.333       29.48       19.058      26.876      28.063      1.315       19.274      18.179      1.4         1.833       427.899     16.8        1.4         295.325     146.573     216.887     10.049      37.521      
57.2        141.702     2.223       7.495       28.131      17.772      25.928      27.098      1.144       19.382      17.733      1.353       1.826       427.952     16.8        1.4         322.544     154.219     236.947     10.063      39.066      
57.3        144.446     2.202       7.629       27.159      16.753      25.058      26.263      1.052       19.49       17.41       1.288       1.835       428.087     16.128      1.4         310.006     143.919     226.36      10.24       39.867      
57.4        145.912     2.186       7.815       26.452      15.999      24.335      25.565      1.021       19.614      17.245      1.259       1.863       428.304     15.672      1.4         297.69      134.059     216.158     10.253      40.425      
57.5        144.849     2.173       7.775       25.905      15.47       23.802      25.009      1.021       19.791      17.177      1.258       1.879       428.556     15.6        1.4         285.983     128.085     207.026     10.144      40.861      
57.6        141.253     2.165       7.943       25.468      15.122      23.468      24.608      1.026       20.056      17.149      1.253       1.883       428.785     15.6        1.4         286.595     129.309     208.096     10.121      40.949      
57.7        139.162     2.171       7.898       25.121      14.925      23.301      24.364      1.052       20.426      17.149      1.249       1.873       428.972     15.6        1.4         299.099     134.202     218.175     10.133      40.661      
57.8        139.035     2.185       7.948       24.833      14.838      23.24       24.245      1.1         20.893      17.156      1.28        1.852       429.067     15.6        1.4         310.993     138.608     227.183     10.142      40.218      
57.9        139.226     2.196       7.884       24.588      14.815      23.229      24.2        1.174       21.402      17.203      1.318       1.853       429.047     15.6        1.4         309.008     138.507     226.574     10.15       39.413      
