~Version Information Section
VERS.                                         2.0:CWLS log ASCII Standart – VERSION 2.0
WRAP.                                          NO:One line per depth step
~Well Information Section
STRT.M                                       1.07:Начальная глубина
STOP.M                                     192.17:Конечная глубина
STEP.M                                          0:Шаг квантования по глубине
NULL.                                    -9999.25:Признак "Нет данных"
WELL.                                        151К:Скважина
~Parameter Information Section
~Curve Information Section
DEPTH.M                                          :Глубина
BK.Ohm*M                                         :BK     (БК)
DS.mm                                            :DS  (ДС)
GGK.g/cm3                                        :GGKp
ГК.mcr/h                                         :GK          (ГК)
GZ1.Ohm*M                                        :GZ1   ГЗ1(A0.4M0.1N)
GZ2.Ohm*M                                        :GZ2   ГЗ2(A1.0M0.1N)
GZ3.Ohm*M                                        :GZ3   ГЗ3(A2.0M0.5N)
GZ4.Ohm*M                                        :GZ4   ГЗ4(A4.0M0.5N)
GZ5.Ohm*M                                        :GZ5   ГЗ5(A8.0M0.5N)
GZR.                                             :GZR   ГЗK(N0.5M2.0A)
ИК.Ohm*M                                         :IK
НГК.ue                                           :NGK     (НГК)
NNKM.                                            :NNKm  (ННКм)
PS.mv                                            :PS       (ПС)
PZ.Ohm*M                                         :PZ    (КС)
RS.Ohm*M                                         :RS (Резистивиметр)
W.%                                              :W
~ASCII LOG DATA
# ...
164.57      124.711     145.817     2.115       4.789       -9999.25    -9999.25    -9999.25    -9999.25    -9999.25    -9999.25    83.174      0.966       1.289       443.444     248.71      1.128       31.95       
164.6       -9999.25    -9999.25    -9999.25    -9999.25    160.077     241.468     220.748     185.766     134.091     298.691     -9999.25    -9999.25    -9999.25    -9999.25    -9999.25    -9999.25    -9999.25    
164.67      138.413     145.683     2.105       4.533       -9999.25    -9999.25    -9999.25    -9999.25    -9999.25    -9999.25    83.913      0.992       1.295       442.469     256.727     1.126       31.755      
164.7       -9999.25    -9999.25    -9999.25    -9999.25    177.604     252.693     226.856     189.026     139.021     297.51      -9999.25    -9999.25    -9999.25    -9999.25    -9999.25    -9999.25    -9999.25    
164.77      159.942     145.575     2.1         4.514       -9999.25    -9999.25    -9999.25    -9999.25    -9999.25    -9999.25    84.836      1.011       1.294       441.293     261.443     1.124       31.617      
164.8       -9999.25    -9999.25    -9999.25    -9999.25    191.919     260.755     233.029     191.289     143.247     293.685     -9999.25    -9999.25    -9999.25    -9999.25    -9999.25    -9999.25    -9999.25    
164.87      193.667     145.375     2.099       4.576       -9999.25    -9999.25    -9999.25    -9999.25    -9999.25    -9999.25    85.387      1.002       1.284       440.43      263.154     1.124       31.67       
164.9       -9999.25    -9999.25    -9999.25    -9999.25    203.925     272.107     237.327     192.039     147.201     287.828     -9999.25    -9999.25    -9999.25    -9999.25    -9999.25    -9999.25    -9999.25    
164.97      206.027     145.237     2.101       4.629       -9999.25    -9999.25    -9999.25    -9999.25    -9999.25    -9999.25    85.823      0.969       1.268       439.42      262.536     1.123       32.145      
165.0       -9999.25    -9999.25    -9999.25    -9999.25    213.378     285.37      239.986     191.59      149.547     282.103     -9999.25    -9999.25    -9999.25    -9999.25    -9999.25    -9999.25    -9999.25    
165.07      201.488     145.008     2.104       4.638       -9999.25    -9999.25    -9999.25    -9999.25    -9999.25    -9999.25    86.54       0.942       1.248       437.624     260.264     1.121       32.776      
165.1       -9999.25    -9999.25    -9999.25    -9999.25    219.831     297.242     241.99      191.459     150.483     274.851     -9999.25    -9999.25    -9999.25    -9999.25    -9999.25    -9999.25    -9999.25    
165.17      198.356     144.699     2.109       4.596       -9999.25    -9999.25    -9999.25    -9999.25    -9999.25    -9999.25    87.484      0.935       1.237       434.925     256.348     1.122       33.589      
165.2       -9999.25    -9999.25    -9999.25    -9999.25    225.228     311.85      243.349     191.087     150.067     267.029     -9999.25    -9999.25    -9999.25    -9999.25    -9999.25    -9999.25    -9999.25    
165.27      193.426     144.564     2.112       4.641       -9999.25    -9999.25    -9999.25    -9999.25    -9999.25    -9999.25    88.183      0.947       1.25        432.24      251.035     1.122       34.682      
165.3       -9999.25    -9999.25    -9999.25    -9999.25    227.47      324.951     242.904     188.967     149.173     259.827     -9999.25    -9999.25    -9999.25    -9999.25    -9999.25    -9999.25    -9999.25    
165.37      187.55      144.423     2.115       4.764       -9999.25    -9999.25    -9999.25    -9999.25    -9999.25    -9999.25    89.405      0.962       1.279       430.734     245.022     1.122       34.969      
165.4       -9999.25    -9999.25    -9999.25    -9999.25    223.819     329.825     240.915     184.461     148.054     252.553     -9999.25    -9999.25    -9999.25    -9999.25    -9999.25    -9999.25    -9999.25    
165.47      180.307     144.088     2.118       4.847       -9999.25    -9999.25    -9999.25    -9999.25    -9999.25    -9999.25    90.738      0.968       1.32        430.603     238.912     1.123       34.11       
165.5       -9999.25    -9999.25    -9999.25    -9999.25    220.035     332.491     236.783     177.77      146.522     247.12      -9999.25    -9999.25    -9999.25    -9999.25    -9999.25    -9999.25    -9999.25    
165.57      165.935     143.869     2.121       4.802       -9999.25    -9999.25    -9999.25    -9999.25    -9999.25    -9999.25    89.496      0.967       1.348       431.552     233.592     1.124       32.711      
165.6       -9999.25    -9999.25    -9999.25    -9999.25    215.701     328.578     230.185     169.711     144.912     243.215     -9999.25    -9999.25    -9999.25    -9999.25    -9999.25    -9999.25    -9999.25    
165.67      154.803     144.463     2.125       4.797       -9999.25    -9999.25    -9999.25    -9999.25    -9999.25    -9999.25    88.26       0.963       1.358       432.354     229.319     1.126       31.085      
165.7       -9999.25    -9999.25    -9999.25    -9999.25    206.807     315.409     223.129     161.154     143.31      240.866     -9999.25    -9999.25    -9999.25    -9999.25    -9999.25    -9999.25    -9999.25    
165.77      151.476     145.165     2.13        4.897       -9999.25    -9999.25    -9999.25    -9999.25    -9999.25    -9999.25    87.985      0.973       1.348       432.958     225.988     1.127       29.52       
165.8       -9999.25    -9999.25    -9999.25    -9999.25    196.057     300.081     214.8       153.879     142.042     241.847     -9999.25    -9999.25    -9999.25    -9999.25    -9999.25    -9999.25    -9999.25    
165.87      142.888     145.537     2.137       5.043       -9999.25    -9999.25    -9999.25    -9999.25    -9999.25    -9999.25    87.74       0.988       1.339       434.059     224.03      1.129       28.871      
165.9       -9999.25    -9999.25    -9999.25    -9999.25    185.37      284.426     207.042     148.54      141.409     245.671     -9999.25    -9999.25    -9999.25    -9999.25    -9999.25    -9999.25    -9999.25    
165.97      129.598     145.696     2.145       5.129       -9999.25    -9999.25    -9999.25    -9999.25    -9999.25    -9999.25    86.972      0.997       1.343       436.526     223.608     1.131       28.881      
166.0       -9999.25    -9999.25    -9999.25    -9999.25    175.184     267.338     201.724     144.848     140.892     251.742     -9999.25    -9999.25    -9999.25    -9999.25    -9999.25    -9999.25    -9999.25    
166.07      120.107     145.637     2.153       5.152       -9999.25    -9999.25    -9999.25    -9999.25    -9999.25    -9999.25    86.236      0.994       1.352       439.278     224.478     1.13        29.11       
166.1       -9999.25    -9999.25    -9999.25    -9999.25    164.702     253.229     198.259     143.106     140.75      258.888     -9999.25    -9999.25    -9999.25    -9999.25    -9999.25    -9999.25    -9999.25    
166.17      114.608     145.57      2.161       5.148       -9999.25    -9999.25    -9999.25    -9999.25    -9999.25    -9999.25    85.448      0.989       1.354       440.218     226.25      1.129       29.394      
166.2       -9999.25    -9999.25    -9999.25    -9999.25    158.09      247.122     197.857     141.943     141.587     265.882     -9999.25    -9999.25    -9999.25    -9999.25    -9999.25    -9999.25    -9999.25    
166.27      110.895     145.688     2.168       5.191       -9999.25    -9999.25    -9999.25    -9999.25    -9999.25    -9999.25    84.93       0.99        1.375       439.107     228.468     1.128       29.49       
166.3       -9999.25    -9999.25    -9999.25    -9999.25    157.719     247.233     199.908     140.947     143.839     272.234     -9999.25    -9999.25    -9999.25    -9999.25    -9999.25    -9999.25    -9999.25    
166.37      113.136     145.79      2.172       5.33        -9999.25    -9999.25    -9999.25    -9999.25    -9999.25    -9999.25    84.467      0.999       1.413       437.346     231.411     1.129       29.424      
