~Version Information Section
VERS.                                         2.0:CWLS log ASCII Standart – VERSION 2.0
WRAP.                                          NO:One line per depth step
~Well Information Section
STRT.M                                      -0.07:Начальная глубина
STOP.M                                     189.23:Конечная глубина
STEP.M                                          0:Шаг квантования по глубине
NULL.                                    -9999.25:Признак "Нет данных"
WELL.                                       127Мх:Скважина
~Parameter Information Section
~Curve Information Section
DEPTH.M                                          :Глубина
BK.                                              :BK
ГК.гамма                                         :GK
ИК.                                              :IK
НГК.усл.ед                                       :NGK
PSЭ3.                                            :PSэ3
PZЭ3.                                            :PZэ3
U1.                                              :U1
U2.                                              :U2
U3.                                              :U3
W.усл.ед                                         :W
ГЗ1.                                             :ГЗ1
ГЗ2.                                             :ГЗ2
ГЗ3.                                             :ГЗ3
ГЗ4.                                             :ГЗ4
ГЗ5.                                             :ГЗ5
ГЗК.                                             :ГЗК
ННКМ.усл.ед                                      :ННКм
PL.g/cm3                                         :Плотность
ПРОФ_СР.                                         :ПРОФ_СР
IS.                                              :РЕЗ
~ASCII LOG DATA
# ...
12.73       -9999.25    4.267       -9999.25    4.41        -9999.25    -9999.25    -9999.25    -9999.25    -9999.25    11.42       -9999.25    -9999.25    -9999.25    43.347      -9999.25    19.261      2.608       1.568       100.885     -1.893      
12.83       -9999.25    4.322       -9999.25    4.328       -9999.25    -9999.25    -9999.25    -9999.25    -9999.25    11.553      -9999.25    -9999.25    -9999.25    43.347      -9999.25    19.261      2.629       1.572       100.87      -1.893      
12.93       -9999.25    4.139       -9999.25    4.308       -9999.25    -9999.25    -9999.25    -9999.25    -9999.25    11.806      1.339       -9999.25    -9999.25    43.347      -9999.25    19.261      2.673       1.575       100.848     -1.893      
13.03       -9999.25    3.871       -9999.25    4.451       -9999.25    -9999.25    -9999.25    -9999.25    -9999.25    11.701      1.339       -9999.25    -9999.25    43.347      -9999.25    19.261      2.687       1.58        100.869     -1.893      
13.13       -9999.25    3.714       -9999.25    4.648       -9999.25    -9999.25    -9999.25    -9999.25    -9999.25    11.125      1.339       -9999.25    -9999.25    43.347      -9999.25    19.261      2.628       1.59        100.82      -1.893      
13.23       -9999.25    3.808       -9999.25    4.71        -9999.25    -9999.25    -9999.25    -9999.25    -9999.25    11.018      1.339       -9999.25    -9999.25    43.347      -9999.25    19.261      2.58        1.603       100.873     -1.893      
13.33       -9999.25    4.002       -9999.25    4.746       -9999.25    -9999.25    -9999.25    -9999.25    -9999.25    11.177      1.339       -9999.25    -9999.25    43.347      -9999.25    19.261      2.555       1.617       100.837     -1.893      
13.43       -9999.25    4.276       -9999.25    4.578       -9999.25    -9999.25    -9999.25    -9999.25    -9999.25    11.35       1.339       -9999.25    -9999.25    43.347      -9999.25    19.261      2.536       1.632       100.839     -1.893      
13.53       -9999.25    4.428       -9999.25    4.72        -9999.25    -9999.25    -9999.25    -9999.25    -9999.25    11.831      1.339       -9999.25    -9999.25    43.347      -9999.25    19.261      2.545       1.645       100.879     -1.893      
13.63       -9999.25    4.438       -9999.25    4.56        -9999.25    -9999.25    -9999.25    -9999.25    -9999.25    11.999      1.339       -9999.25    -9999.25    43.347      -9999.25    19.261      2.563       1.655       100.873     -1.893      
13.73       -9999.25    4.501       -9999.25    4.604       -9999.25    -9999.25    -9999.25    -9999.25    -9999.25    11.67       1.339       -9999.25    -9999.25    43.347      -9999.25    19.261      2.579       1.663       100.859     -1.893      
13.83       -9999.25    4.507       -9999.25    4.696       -9999.25    -9999.25    -9999.25    -9999.25    -9999.25    11.457      1.339       -9999.25    -9999.25    43.347      -9999.25    19.261      2.599       1.669       100.897     -1.893      
13.93       -9999.25    4.435       -9999.25    4.64        -9999.25    -9999.25    -9999.25    -9999.25    -9999.25    11.437      1.339       -9999.25    -9999.25    43.347      -9999.25    19.261      2.629       1.675       100.884     -1.893      
14.03       -9999.25    4.254       -9999.25    4.592       -9999.25    -9999.25    -9999.25    -9999.25    -9999.25    11.549      1.339       75.462      -9999.25    43.347      -9999.25    19.261      2.671       1.683       100.849     -1.893      
14.13       -9999.25    4.175       -9999.25    4.608       -9999.25    -9999.25    -9999.25    -9999.25    -9999.25    11.943      1.339       75.462      -9999.25    43.347      -9999.25    19.261      2.709       1.694       100.863     -1.893      
14.23       -9999.25    4.035       -9999.25    4.514       -9999.25    -9999.25    -9999.25    -9999.25    -9999.25    12.324      1.339       75.462      -9999.25    43.347      -9999.25    19.261      2.752       1.708       100.837     -1.893      
14.33       -9999.25    3.807       -9999.25    4.47        -9999.25    -9999.25    -9999.25    -9999.25    -9999.25    12.084      1.339       75.462      -9999.25    43.347      -9999.25    19.261      2.774       1.724       100.9       -1.893      
14.43       -9999.25    3.584       -9999.25    4.537       -9999.25    -9999.25    -9999.25    -9999.25    -9999.25    11.266      1.339       75.462      -9999.25    43.347      -9999.25    19.261      2.74        1.739       100.908     -1.893      
14.53       -9999.25    3.616       -9999.25    4.429       -9999.25    -9999.25    -9999.25    -9999.25    -9999.25    10.87       1.339       75.462      -9999.25    43.347      -9999.25    19.261      2.708       1.747       100.871     -1.893      
14.63       -9999.25    3.793       -9999.25    4.577       -9999.25    -9999.25    -9999.25    -9999.25    -9999.25    11.06       1.339       75.462      -9999.25    43.347      -9999.25    19.261      2.722       1.752       100.877     -1.893      
14.73       -9999.25    3.962       -9999.25    4.603       -9999.25    -9999.25    -9999.25    -9999.25    -9999.25    11.38       1.339       75.462      -9999.25    43.347      -9999.25    19.261      2.751       1.755       100.838     -1.893      
14.83       -9999.25    4.056       -9999.25    4.571       -9999.25    -9999.25    -9999.25    -9999.25    -9999.25    11.561      1.339       75.462      -9999.25    43.347      -9999.25    19.261      2.738       1.756       100.833     -1.893      
14.93       -9999.25    3.965       -9999.25    4.616       -9999.25    -9999.25    -9999.25    -9999.25    -9999.25    11.584      1.339       75.462      -9999.25    43.347      -9999.25    19.261      2.692       1.758       100.886     -1.893      
15.03       -9999.25    3.848       -9999.25    4.787       -9999.25    -9999.25    -9999.25    -9999.25    -9999.25    11.807      1.339       75.462      -9999.25    43.347      -9999.25    19.261      2.652       1.763       100.836     -1.893      
15.13       -9999.25    3.821       -9999.25    4.916       -9999.25    -9999.25    -9999.25    -9999.25    -9999.25    12.109      1.339       75.462      -9999.25    43.347      31.232      19.261      2.608       1.77        100.876     -1.893      
15.23       -9999.25    3.935       -9999.25    4.691       -9999.25    -9999.25    -9999.25    -9999.25    -9999.25    11.965      1.339       75.462      33.84       43.347      31.232      19.261      2.571       1.775       100.814     -1.893      
15.33       -9999.25    4.02        -9999.25    4.508       -9999.25    -9999.25    -9999.25    -9999.25    -9999.25    12.032      1.339       75.462      33.84       43.347      31.232      19.261      2.552       1.775       100.835     -1.893      
15.43       -9999.25    3.799       -9999.25    4.555       -9999.25    -9999.25    -9999.25    -9999.25    -9999.25    12.164      1.339       75.462      33.84       43.347      31.232      19.261      2.538       1.766       100.887     -1.893      
15.53       -9999.25    3.487       -9999.25    4.533       -9999.25    -9999.25    -9999.25    -9999.25    -9999.25    12.44       1.339       75.462      33.84       43.347      31.232      19.261      2.549       1.749       100.835     -1.893      
15.63       -9999.25    3.335       -9999.25    4.485       -9999.25    -9999.25    -9999.25    -9999.25    -9999.25    12.328      1.339       75.462      33.84       43.347      31.232      19.261      2.577       1.725       100.855     -1.893      
15.73       -9999.25    3.381       -9999.25    4.643       -9999.25    -9999.25    -9999.25    -9999.25    -9999.25    11.95       1.339       75.462      33.84       43.347      31.232      19.261      2.643       1.695       100.861     -1.893      
15.83       -9999.25    3.455       -9999.25    4.479       -9999.25    -9999.25    -9999.25    -9999.25    -9999.25    11.765      1.339       75.462      33.84       43.347      31.232      19.261      2.735       1.663       100.843     -1.893      
