~Version Information Section
VERS.                                         2.0:CWLS log ASCII Standart – VERSION 2.0
WRAP.                                          NO:One line per depth step
~Well Information Section
STRT.M                                        1.0:Начальная глубина
STOP.M                                      199.5:Конечная глубина
STEP.M                                          0:Шаг квантования по глубине
NULL.                                    -9999.25:Признак "Нет данных"
WELL.                                       122Мх:Скважина
~Parameter Information Section
~Curve Information Section
DEPTH.M                                          :Глубина
БК.Омм                                           :BK     (БК)
DСР.мм                                           :DS  (ДС)
ГК.гамма                                         :GK          (ГК)
А0.4М0.1N.Омм.ohmm                               :GZ1   ГЗ1(A0.4M0.1N)
А1.0М0.1N.Омм.ohmm                               :GZ2   ГЗ2(A1.0M0.1N)
А2.0М0.5N.Омм.ohmm                               :GZ3   ГЗ3(A2.0M0.5N)
А4.0М0.5N.Oмм.ohmm                               :GZ4   ГЗ4(A4.0M0.5N)
А8.0М1.0N.Омм.ohmm                               :GZ5   ГЗ5(A8.0M0.5N)
N0.5M2.0A.Омм.ohmm                               :GZK   ГЗK(N0.5M2.0A)
ИК.мСм/м                                         :IK
НГК.усл.ед                                       :NGK     (НГК)
ПС.mv                                            :PS       (ПС)
КС.Омм                                           :PZ    (КС)
R.Омм                                            :RS (Резистивиметр)
ПЛОТНОСТЬ.г/см3                                  :ГГКп
П.                                               :п
ННКМ.усл.ед                                      :ННКм
~ASCII LOG DATA
# ...
104.6       34.714      137.459     7.192       40.968      29.035      26.979      15.837      17.983      30.353      21.59       1.188       64.375      38.029      1.212       2.504       30.497      152.541     
104.7       34.252      137.439     7.246       36.823      26.259      25.162      13.74       17.37       30.585      21.192      1.199       64.75       37.733      1.212       2.492       31.402      153.008     
104.8       34.344      139.427     7.223       36.897      30.321      25.359      13.349      16.354      32.319      20.896      1.218       69.5        37.095      1.215       2.484       32.946      151.897     
104.9       29.292      144.278     7.052       37.794      36.016      28.06       14.534      15.363      34.322      20.54       1.249       75.25       36.565      1.218       2.482       34.673      147.665     
105.0       22.643      151.224     6.904       39.338      39.012      31.894      17.125      14.379      36.072      20.24       1.27        73.75       35.708      1.219       2.485       36.311      144.873     
105.1       19.89       151.995     6.921       43.763      41.182      33.564      19.493      13.932      36.128      20.222      1.267       68.125      34.506      1.219       2.492       37.788      143.087     
105.2       19.492      152.963     7.111       51.338      46.595      32.689      19.696      14.061      34.559      20.29       1.241       64.25       33.565      1.218       2.496       39.093      144.457     
105.3       21.093      151.346     7.357       54.622      48.959      30.951      18.298      13.858      32.691      20.445      1.211       61.25       33.363      1.215       2.492       39.826      146.814     
105.4       20.178      153.131     7.548       48.433      44.152      29.223      16.745      13.373      31.691      20.582      1.18        59.75       33.017      1.212       2.476       40.053      147.667     
105.5       19.063      156.034     7.718       39.555      36.846      27.196      15.647      12.87       31.568      20.709      1.139       63.875      31.317      1.212       2.453       39.763      143.971     
105.6       20.086      156.22      7.833       37.889      33.731      25.226      14.366      12.122      31.162      20.896      1.091       67.375      29.59       1.212       2.428       38.951      141.244     
105.7       21.337      155.737     7.944       40.057      36.703      23.906      12.969      11.562      31.463      21.069      1.068       67.5        28.64       1.212       2.407       37.986      138.439     
105.8       22.428      155.476     8.111       34.649      34.83       23.506      12.193      10.842      32.298      21.244      1.079       64.125      28.265      1.212       2.392       37.095      134.667     
105.9       23.853      155.226     8.179       27.861      30.184      23.787      11.839      10.289      32.431      21.441      1.107       60.875      28.796      1.212       2.389       36.258      132.152     
106.0       23.495      155.19      8.047       26.398      29.241      23.77       11.374      10.161      32.024      21.635      1.123       62.875      29.474      1.212       2.398       35.762      132.441     
106.1       21.13       155.334     7.786       27.264      29.278      24.125      11.151      10.096      32.394      21.779      1.138       69.375      29.525      1.212       2.416       36.236      132.681     
106.2       20.198      154.794     7.609       28.199      29.78       24.579      11.602      9.913       33.244      22.046      1.18        74.0        29.445      1.212       2.428       36.633      133.161     
106.3       23.564      154.221     7.622       29.277      30.415      24.451      12.81       9.876       33.65       22.207      1.235       76.813      29.662      1.212       2.433       36.978      134.22      
106.4       28.009      153.632     7.725       30.287      29.466      24.554      14.448      10.01       34.216      22.259      1.26        79.625      30.305      1.212       2.44        37.337      134.73      
106.5       25.896      152.944     7.869       30.179      26.827      25.376      15.975      10.155      35.057      22.358      1.236       80.125      30.827      1.212       2.446       37.713      135.878     
106.6       24.28       149.017     7.893       28.685      25.616      26.14       17.068      10.284      35.844      22.438      1.193       80.625      30.839      1.212       2.454       38.137      136.151     
106.7       22.319      149.566     7.662       29.509      28.056      26.238      17.66       10.314      36.414      22.616      1.16        80.938      30.817      1.212       2.453       38.314      136.577     
106.8       21.419      152.883     7.325       32.026      29.757      25.947      18.323      10.366      36.488      22.861      1.14        81.125      30.938      1.212       2.455       38.193      136.987     
106.9       25.033      152.205     6.963       31.751      28.644      25.527      19.362      10.15       36.141      23.059      1.117       80.375      31.616      1.212       2.452       37.999      137.703     
107.0       28.586      150.209     6.783       31.714      27.945      24.969      19.797      10.147      35.419      23.179      1.106       78.0        32.765      1.212       2.45        38.05       136.7       
107.1       25.495      147.584     6.692       32.114      26.826      24.584      19.274      10.2        34.188      23.33       1.114       74.875      33.351      1.212       2.444       38.013      135.666     
107.2       24.086      150.703     6.743       31.459      26.516      24.729      18.661      10.241      32.516      23.534      1.138       72.125      33.283      1.212       2.437       37.425      136.825     
107.3       26.356      150.446     6.745       32.279      28.603      25.001      18.311      10.204      31.177      23.825      1.147       70.75       33.226      1.212       2.438       36.745      138.499     
107.4       26.819      147.943     6.581       34.266      30.068      25.669      18.431      10.078      30.989      24.007      1.128       70.75       33.416      1.212       2.443       35.567      138.781     
107.5       26.002      145.502     6.381       33.802      29.243      26.539      18.995      9.969       31.559      24.294      1.099       72.5        33.788      1.212       2.454       34.261      137.385     
107.6       25.362      148.258     6.239       32.519      28.979      26.594      19.301      9.951       32.531      24.604      1.08        73.375      34.276      1.212       2.46        33.015      137.136     
107.7       28.399      149.047     6.225       34.264      30.596      26.196      19.137      10.11       33.594      24.7        1.083       71.125      34.626      1.212       2.464       31.885      138.391     
107.8       28.762      150.414     6.266       36.027      31.933      26.264      19.164      9.955       35.092      24.866      1.103       69.75       34.851      1.212       2.46        30.865      139.607     
107.9       24.135      151.218     6.344       35.11       31.668      26.944      20.165      9.96        37.1        25.129      1.131       71.375      35.012      1.212       2.453       30.09       140.457     
108.0       24.349      151.321     6.301       34.792      32.298      27.456      21.692      10.143      38.052      25.29       1.14        71.5        35.086      1.212       2.446       29.215      140.816     
108.1       28.728      151.079     6.07        37.301      34.445      27.414      22.769      10.497      37.912      25.384      1.124       69.625      35.614      1.213       2.439       29.014      141.35      
108.2       30.258      151.149     5.791       39.231      33.864      27.472      23.258      10.693      38.282      25.484      1.1         69.625      36.571      1.214       2.432       29.309      142.578     
