~Version Information Section
VERS.                                         2.0:CWLS log ASCII Standart – VERSION 2.0
WRAP.                                          NO:One line per depth step
~Well Information Section
STRT.M                                        0.0:Начальная глубина
STOP.M                                      180.0:Конечная глубина
STEP.M                                          0:Шаг квантования по глубине
NULL.                                    -9999.25:Признак "Нет данных"
WELL.                                       120Мх:Скважина
~Parameter Information Section
~Curve Information Section
DEPTH.M                                          :Глубина
BK.Ohm*M                                         :BK     (БК)
DS.mm                                            :DS  (ДС)
GGK.g/cm3                                        :GGKp
ГК.mcr/h                                         :GK          (ГК)
GZ1.Ohm*M                                        :GZ1   ГЗ1(A0.4M0.1N)
GZ2.Ohm*M                                        :GZ2   ГЗ2(A1.0M0.1N)
GZ3.Ohm*M                                        :GZ3   ГЗ3(A2.0M0.5N)
GZ4.Ohm*M                                        :GZ4   ГЗ4(A4.0M0.5N)
GZ5.Ohm*M                                        :GZ5   ГЗ5(A8.0M0.5N)
GZR.Ohm*M                                        :GZK   ГЗK(N0.5M2.0A)
ИК.Ohm*M                                         :IK
НГК.u.e.                                         :NGK
NNKM.                                            :NNKm  (ННКм)
PS.mv                                            :PS       (ПС)
PZ.Ohm*M                                         :PZ    (КС)
RS.Ohm*M                                         :RS (Резистивиметр)
U1.mV                                            :U1
U2.mV                                            :U2
U3.mV                                            :U3
КП.%                                             :Кп
~ASCII LOG DATA
# ...
57.6        76.384      139.926     2.39        5.411       27.401      15.463      21.587      26.334      29.748      13.899      7.834       1.029       2.027       575.926     40.663      1.301       604.912     434.546     362.534     35.222      
57.8        31.333      138.605     2.385       5.802       27.401      15.463      21.587      31.667      29.748      13.899      8.158       1.024       1.93        564.924     42.668      1.308       970.491     746.359     630.69      34.68       
58.0        29.242      137.512     2.273       6.151       27.401      15.463      21.587      37.0        29.748      13.899      8.266       1.071       1.833       553.366     45.802      1.316       946.92      532.58      342.355     35.698      
58.2        26.607      137.072     2.175       6.204       27.401      15.463      21.587      37.667      29.748      14.566      8.264       1.01        1.791       541.404     48.308      1.32        951.847     583.995     393.559     38.995      
58.4        32.961      136.584     2.209       6.018       27.401      15.463      21.587      37.0        29.748      16.566      8.285       1.034       1.869       530.643     51.567      1.321       652.159     468.684     384.281     36.844      
58.6        35.481      136.151     2.231       6.218       27.401      15.463      21.587      34.334      29.748      19.232      8.406       1.11        1.984       522.003     54.575      1.327       440.61      319.61      280.46      33.654      
58.8        37.931      136.44      2.265       6.269       27.401      15.463      21.587      33.667      29.748      19.899      8.584       1.19        1.943       515.321     56.455      1.336       560.263     366.063     271.222     35.749      
59.0        37.497      136.905     2.332       6.563       27.401      15.463      21.587      33.667      29.748      19.899      8.736       1.13        1.915       510.838     59.212      1.341       473.575     328.404     277.333     35.157      
59.2        28.576      138.699     2.301       6.845       27.401      15.463      21.587      33.667      29.748      21.232      8.605       0.986       1.845       509.638     64.1        1.347       335.685     264.744     275.605     38.727      
59.4        28.184      142.643     2.246       5.646       27.401      15.463      21.587      35.0        29.748      22.566      8.406       1.016       1.799       511.884     66.231      1.356       461.955     295.805     228.902     36.563      
59.6        35.481      148.186     2.24        5.836       27.084      15.463      21.587      39.0        29.748      23.899      8.417       1.051       1.85        515.561     66.106      1.36        834.201     492.532     326.329     37.343      
59.8        72.444      145.751     2.25        6.518       26.234      15.463      21.587      40.334      29.748      22.566      8.514       1.07        1.914       520.803     63.85       1.36        1111.461    474.478     235.396     33.856      
60.0        32.509      138.324     2.299       6.829       23.767      15.463      21.587      41.667      29.748      21.899      8.439       0.963       1.889       527.043     58.836      1.36        854.927     451.629     349.389     37.162      
60.2        26.485      140.598     2.255       6.589       20.88       15.529      21.587      40.334      29.748      21.899      8.266       0.915       1.79        533.926     54.7        1.36        631.271     452.518     400.344     41.529      
60.4        28.379      139.406     2.168       6.669       21.379      14.647      21.587      40.334      29.748      21.899      8.205       0.878       1.733       540.608     53.071      1.36        708.073     441.343     308.509     44.123      
60.6        27.353      143.644     2.1         6.73        24.406      14.125      21.587      44.334      29.748      22.802      8.226       0.836       1.733       547.126     53.322      1.36        761.858     434.618     294.427     43.159      
60.8        24.66       142.517     2.199       6.046       26.323      14.125      21.587      42.334      29.748      22.375      8.168       0.892       1.637       553.366     56.706      1.355       911.512     448.633     283.83      45.203      
61.0        27.669      137.254     2.331       5.152       26.001      14.125      21.587      39.667      29.748      22.782      8.197       0.954       1.752       558.886     60.842      1.335       802.924     575.269     544.534     37.369      
61.2        40.738      137.074     2.316       5.214       29.381      14.792      21.587      39.667      24.772      23.211      8.384       0.977       1.972       563.648     62.471      1.303       1091.822    522.682     316.16      34.695      
61.4        37.844      135.676     2.278       6.048       30.093      17.458      18.798      39.667      22.909      23.268      8.573       1.041       1.936       566.892     62.596      1.27        864.367     502.314     330.411     33.846      
61.6        30.269      137.51      2.268       5.949       29.683      20.792      17.404      41.667      28.238      23.152      8.607       1.026       1.858       567.612     63.85       1.247       931.13      542.242     342.001     34.301      
61.8        40.644      138.505     2.255       6.087       28.39       20.125      18.737      45.0        37.289      23.477      8.609       0.944       1.928       565.491     63.223      1.24        992.506     680.334     518.309     33.213      
62.0        52.602      135.709     2.248       6.057       25.9        15.458      19.404      45.667      33.441      25.07       8.692       0.978       1.909       560.489     56.455      1.24        941.651     768.76      672.607     34.128      
62.2        33.574      134.697     2.215       6.665       28.153      11.458      19.404      44.334      34.596      27.475      8.648       1.018       1.768       552.531     47.431      1.24        742.898     502.702     390.077     37.145      
62.4        36.224      135.599     2.246       6.727       30.037      10.125      19.404      41.693      25.37       27.701      8.554       1.039       1.84        540.809     42.919      1.241       460.87      257.738     200.475     39.709      
62.6        31.333      134.959     2.269       5.765       27.467      10.125      19.404      40.816      24.979      25.859      8.479       1.028       1.765       524.211     41.791      1.255       303.423     255.719     301.353     40.529      
62.8        38.637      135.539     2.247       5.742       27.045      10.125      18.737      38.887      23.486      23.038      8.415       1.05        1.805       502.448     41.791      1.281       350.348     317.477     357.911     36.705      
63.0        51.523      136.136     2.223       6.16        28.186      10.792      14.737      37.925      30.391      21.899      8.418       1.083       1.861       478.323     41.791      1.297       517.454     493.337     541.405     36.797      
63.2        51.88       135.138     2.324       5.992       25.554      13.458      12.071      32.066      23.82       17.899      8.355       1.058       1.825       454.121     41.791      1.3         456.009     467.65      567.36      44.465      
63.4        39.628      135.786     2.409       5.887       24.398      11.458      11.404      21.826      27.312      9.232       8.199       1.044       1.877       431.321     40.036      1.296       513.895     343.295     337.481     37.346      
63.6        38.905      136.721     2.348       6.165       22.426      10.125      11.404      20.733      30.721      7.899       8.16        0.97        1.916       410.988     34.271      1.288       502.912     276.655     200.255     37.928      
63.8        39.902      137.91      2.339       5.853       20.949      10.125      12.071      19.634      30.368      8.566       8.009       0.928       1.822       396.435     27.879      1.281       369.843     357.869     439.011     38.084      
