~Version Information Section
VERS.                                         2.0:CWLS log ASCII Standart – VERSION 2.0
WRAP.                                          NO:One line per depth step
~Well Information Section
STRT.M                                        0.0:Начальная глубина
STOP.M                                      133.6:Конечная глубина
STEP.M                                          0:Шаг квантования по глубине
NULL.                                    -9999.25:Признак "Нет данных"
WELL.                                       118Мх:Скважина
~Parameter Information Section
~Curve Information Section
DEPTH.M                                          :Глубина
BK.Ohm*M                                         :BK     (БК)
DS.mm                                            :DS  (ДС)
GGK.g/cm3                                        :GGKp
ГК.mcr/h                                         :GK          (ГК)
GZ1.Ohm*M                                        :GZ1   ГЗ1(A0.4M0.1N)
GZ2.Ohm*M                                        :GZ2   ГЗ2(A1.0M0.1N)
GZ3.Ohm*M                                        :GZ3   ГЗ3(A2.0M0.5N)
GZ4.Ohm*M                                        :GZ4   ГЗ4(A4.0M0.5N)
GZ5.Ohm*M                                        :GZ5   ГЗ5(A8.0M0.5N)
GZR.Ohm*M                                        :GZK   ГЗK(N0.5M2.0A)
ИК.Ohm*M                                         :IK
НГК.усл.ед                                       :NGK
NNKM.                                            :NNKm  (ННКм)
PS.mv                                            :PS       (ПС)
PZ.Ohm*M                                         :PZ    (КС)
RS.Ohm*M                                         :RS (Резистивиметр)
U1.mV                                            :U1
U2.mV                                            :U2
U3.mV                                            :U3
W.%                                              :W
~ASCII LOG DATA
# ...
70.4        41.976      151.571     2.254       5.407       53.866      73.364      74.38       108.729     85.688      86.656      14.209      1.111       2.244       1148.086    133.84      1.023       630.544     498.989     442.16      34.844      
70.6        46.238      151.4       2.275       4.782       53.231      72.288      79.184      120.079     92.153      88.737      14.16       1.072       2.256       1147.126    134.081     1.024       706.453     580.011     527.219     40.162      
70.8        46.345      151.526     2.261       4.609       54.463      79.448      86.412      133.24      103.374     86.216      14.268      1.048       2.287       1146.886    135.048     1.025       939.722     810.408     753.033     36.171      
71.0        53.211      151.723     2.263       4.613       55.583      81.852      98.322      134.413     113.274     77.709      14.298      1.205       2.275       1146.886    136.525     1.025       1270.633    1029.711    882.921     32.437      
71.2        60.117      151.67      2.262       4.361       69.821      103.82      104.362     126.917     119.404     66.13       14.209      1.271       2.319       1146.886    138.11      1.025       1299.284    997.982     812.859     28.397      
71.4        59.429      151.747     2.295       4.25        72.395      99.59       106.244     116.353     120.932     51.239      14.131      1.339       2.371       1146.886    139.292     1.026       1226.649    1029.136    919.892     27.718      
71.6        63.68       152.205     2.35        4.37        72.338      99.739      101.92      99.124      112.467     45.721      13.952      1.254       2.499       1147.366    138.969     1.027       1158.687    998.686     912.013     26.223      
71.8        63.241      153.352     2.368       4.653       84.933      111.014     88.502      78.883      99.087      47.817      13.718      1.1         2.551       1149.046    135.666     1.028       1408.873    1129.646    948.756     26.276      
72.0        39.811      157.33      2.31        5.211       66.605      84.511      72.48       63.943      86.305      53.494      13.542      1.029       2.289       1151.446    128.522     1.028       1681.341    1381.638    1179.418    29.93       
72.2        29.923      155.322     2.292       5.646       54.065      72.051      57.537      60.485      75.121      57.708      13.181      1.026       2.111       1154.086    118.827     1.028       1417.577    1223.834    1106.075    32.683      
72.4        28.708      154.322     2.276       6.067       36.595      67.487      51.342      59.232      64.065      60.19       12.897      1.072       2.074       1157.686    109.722     1.028       1121.409    874.052     746.047     34.963      
72.6        24.604      154.761     2.306       5.798       40.004      57.193      48.007      61.822      62.579      63.613      12.791      1.095       2.108       1161.286    104.485     1.028       1087.008    646.159     430.331     31.695      
72.8        41.495      155.184     2.27        5.055       50.462      55.732      49.851      63.3        64.499      73.152      12.929      1.126       2.182       1164.166    103.948     1.028       1099.503    501.799     248.88      30.448      
73.0        48.195      154.024     2.259       5.125       52.875      53.018      51.603      67.546      69.059      87.942      13.257      1.142       2.279       1165.846    106.687     1.029       1187.165    550.275     280.084     31.328      
73.2        47.206      154.759     2.265       5.222       51.184      57.172      56.291      77.196      78.722      117.147     13.71       1.109       2.317       1167.286    110.608     1.03        1139.158    733.82      540.704     27.932      
73.4        46.989      156.209     2.311       5.093       50.184      65.362      62.791      93.088      93.065      159.794     13.939      1.141       2.299       1167.766    114.717     1.031       1112.755    942.963     870.026     23.173      
73.6        37.844      152.842     2.386       5.014       50.514      82.874      74.478      126.378     125.941     158.235     14.016      1.24        2.282       1167.286    119.068     1.031       1150.0      953.345     843.913     26.723      
73.8        43.451      154.558     2.443       5.102       80.063      134.085     101.379     160.188     161.566     120.044     14.131      1.295       2.342       1166.806    124.117     1.031       1036.544    823.817     697.601     30.934      
74.0        53.211      154.783     2.466       4.55        80.929      108.265     131.314     153.67      184.389     82.488      14.357      1.323       2.383       1166.086    129.757     1.031       778.146     638.063     573.634     27.442      
74.2        137.721     155.714     2.389       4.698       77.807      80.713      81.501      112.19      170.548     70.016      14.599      1.277       2.692       1165.126    134.887     1.031       668.306     623.108     650.291     23.394      
74.4        58.21       156.429     2.311       4.869       68.133      71.488      61.848      81.277      132.265     63.452      14.765      1.217       2.621       1164.166    138.378     1.031       759.152     739.015     793.374     25.312      
74.6        44.463      154.037     2.29        4.635       59.01       68.511      53.487      66.474      98.464      58.217      14.609      1.16        2.386       1163.686    139.721     1.031       995.433     834.334     763.837     29.004      
74.8        41.591      154.099     2.295       4.817       56.154      78.326      50.261      60.684      85.171      53.177      14.327      1.18        2.325       1163.206    139.587     1.031       1164.216    890.698     723.106     25.555      
75.0        45.92       153.354     2.318       4.871       60.346      92.231      50.868      60.137      78.098      51.297      14.247      1.248       2.294       1163.206    138.754     1.031       965.581     734.094     597.112     26.606      
75.2        50.816      153.888     2.33        5.266       65.988      94.39       52.351      60.687      72.872      51.916      14.16       1.276       2.338       1164.406    137.653     1.031       1080.221    814.507     653.399     26.052      
75.4        54.075      154.228     2.351       5.075       65.695      90.105      52.159      59.91       69.854      56.202      14.122      1.215       2.338       1166.566    136.472     1.031       1564.387    1183.159    943.081     26.971      
75.6        54.828      154.518     2.349       5.383       59.943      81.951      54.705      57.455      68.013      59.54       14.277      1.215       2.375       1170.166    136.096     1.031       1409.685    1157.631    1029.552    29.069      
75.8        46.132      157.632     2.343       5.131       57.873      83.704      62.966      57.15       67.531      63.928      14.197      1.172       2.304       1174.006    137.385     1.031       1238.891    965.544     835.705     24.149      
76.0        39.811      157.953     2.344       5.365       63.452      89.302      80.448      59.301      68.115      63.449      14.065      1.236       2.279       1178.086    140.339     1.031       1176.578    866.796     714.931     27.137      
76.2        53.456      157.289     2.351       5.354       66.423      97.147      99.983      61.405      68.888      60.263      14.0        1.334       2.498       1181.686    143.777     1.031       1244.25     962.979     825.048     27.151      
76.4        55.59       157.925     2.349       5.055       75.774      93.658      102.931     60.4        69.478      55.322      14.045      1.357       2.476       1184.326    146.033     1.031       1743.368    1311.415    1037.055    25.582      
76.6        61.659      157.037     2.297       5.042       71.858      88.81       96.342      57.906      68.832      53.834      13.931      1.326       2.44        1185.526    144.878     1.031       1600.473    1270.756    1050.779    26.537      
