~Version Information Section
VERS.                                         2.0:CWLS log ASCII Standart – VERSION 2.0
WRAP.                                          NO:One line per depth step
~Well Information Section
STRT.M                                      -0.07:Начальная глубина
STOP.M                                     189.23:Конечная глубина
STEP.M                                          0:Шаг квантования по глубине
NULL.                                    -9999.25:Признак "Нет данных"
WELL.                                       127Мх:Скважина
~Parameter Information Section
~Curve Information Section
DEPTH.M                                          :Глубина
BK.                                              :BK
ГК.гамма                                         :GK
ИК.                                              :IK
НГК.усл.ед                                       :NGK
PSЭ3.                                            :PSэ3
PZЭ3.                                            :PZэ3
U1.                                              :U1
U2.                                              :U2
U3.                                              :U3
W.усл.ед                                         :W
ГЗ1.                                             :ГЗ1
ГЗ2.                                             :ГЗ2
ГЗ3.                                             :ГЗ3
ГЗ4.                                             :ГЗ4
ГЗ5.                                             :ГЗ5
ГЗК.                                             :ГЗК
ННКМ.усл.ед                                      :ННКм
PL.g/cm3                                         :Плотность
ПРОФ_СР.                                         :ПРОФ_СР
IS.                                              :РЕЗ
~ASCII LOG DATA
# ...
124.73      1.242       3.287       29.102      0.908       278.156     0.844       -9999.25    -9999.25    -9999.25    41.523      0.04        19.886      10.097      20.457      21.282      9.696       1.303       2.011       101.405     1.087       
124.83      1.304       3.168       29.164      0.93        299.789     0.944       -9999.25    -9999.25    -9999.25    39.695      0.043       19.896      10.097      20.455      21.316      9.705       1.313       1.996       101.403     1.088       
124.93      1.493       3.185       29.398      1.028       320.917     1.049       -9999.25    -9999.25    -9999.25    38.969      0.051       19.91       10.104      20.459      21.358      9.284       1.331       1.991       101.44      1.087       
125.03      1.582       3.314       29.801      0.978       343.894     1.147       -9999.25    -9999.25    -9999.25    40.926      0.082       19.912      10.119      20.456      21.041      11.309      1.337       2.019       101.439     1.086       
125.13      1.002       3.365       30.399      1.022       370.65      1.231       -9999.25    -9999.25    -9999.25    42.237      0.187       19.908      10.161      20.31       19.956      26.64       1.324       2.083       101.442     1.084       
125.23      1.185       3.325       31.694      0.978       398.894     1.32        -9999.25    -9999.25    -9999.25    40.298      2.047       19.918      10.235      19.82       18.291      57.255      1.316       2.164       101.484     1.083       
125.33      1.159       3.29        35.303      1.011       418.922     1.39        -9999.25    -9999.25    -9999.25    38.347      10.035      19.942      10.339      18.591      16.431      97.851      1.319       2.252       101.481     1.081       
125.43      1.18        3.249       55.869      0.938       427.117     1.399       -9999.25    -9999.25    -9999.25    38.507      24.028      19.962      10.481      16.386      14.286      144.266     1.335       2.337       101.517     1.079       
125.53      0.9         3.207       59.769      1.081       429.756     1.365       -9999.25    -9999.25    -9999.25    40.001      40.07       19.966      10.614      13.86       11.583      191.427     1.382       2.388       101.54      1.078       
125.63      0.63        3.314       -35.519     1.206       429.317     1.571       -9999.25    -9999.25    -9999.25    41.481      55.873      19.975      10.684      12.123      9.12        227.859     1.432       2.395       101.585     1.079       
125.73      0.739       3.73        -99.71      1.129       427.211     3.329       -9999.25    -9999.25    -9999.25    42.467      70.313      19.988      10.72       11.422      7.343       242.59      1.479       2.382       101.616     1.079       
125.83      0.141       4.249       -152.298    1.055       424.011     7.624       -9999.25    -9999.25    -9999.25    43.121      82.525      19.987      10.713      11.584      5.763       237.295     1.546       2.366       101.635     1.079       
125.93      6.536       4.45        -150.975    1.034       420.228     12.875      -9999.25    -9999.25    -9999.25    43.559      88.614      19.972      10.658      12.651      4.311       218.805     1.647       2.346       102.306     1.079       
126.03      34.367      4.537       -148.605    1.053       416.122     18.388      -9999.25    -9999.25    -9999.25    44.403      88.569      19.955      10.56       14.728      3.823       191.915     1.768       2.323       105.31      1.08        
126.13      68.354      4.568       -146.508    1.129       411.883     23.708      -9999.25    -9999.25    -9999.25    41.838      87.342      19.955      10.475      17.295      4.478       162.199     1.836       2.309       111.609     1.081       
126.23      76.873      4.526       -146.511    1.108       407.589     29.031      -9999.25    -9999.25    -9999.25    37.593      85.824      20.032      10.425      19.283      5.479       138.117     1.868       2.301       119.98      1.081       
126.33      71.266      4.411       -146.193    1.09        403.239     34.547      -9999.25    -9999.25    -9999.25    36.988      85.333      20.692      10.363      20.479      6.983       119.805     1.885       2.291       126.967     1.082       
126.43      72.823      4.361       -144.293    1.25        398.817     40.195      -9999.25    -9999.25    -9999.25    35.691      84.365      23.061      10.311      21.102      9.158       104.791     1.873       2.277       128.118     1.081       
126.53      86.093      4.567       -88.993     1.462       394.35      45.455      -9999.25    -9999.25    -9999.25    34.755      82.893      27.276      10.283      21.362      11.533      92.364      1.846       2.265       128.31      1.08        
126.63      83.299      4.711       32.598      1.378       390.161     48.972      -9999.25    -9999.25    -9999.25    33.356      82.149      32.316      10.258      21.472      13.338      82.526      1.782       2.256       128.362     1.078       
126.73      67.787      4.681       39.461      1.325       386.539     49.792      -9999.25    -9999.25    -9999.25    34.6        81.54       37.947      10.229      21.265      14.617      75.547      1.74        2.249       128.387     1.076       
126.83      60.059      4.636       39.695      1.297       383.217     49.476      -9999.25    -9999.25    -9999.25    37.954      82.195      44.419      10.218      20.807      15.679      71.401      1.752       2.245       128.376     1.076       
126.93      48.915      4.743       39.181      1.441       380.083     48.755      -9999.25    -9999.25    -9999.25    38.38       82.874      50.198      10.226      20.289      16.382      69.687      1.754       2.244       128.31      1.076       
127.03      38.68       4.846       38.819      1.408       377.128     48.156      -9999.25    -9999.25    -9999.25    37.225      85.122      54.61       10.233      19.935      16.89       68.562      1.721       2.248       128.095     1.077       
127.13      40.952      4.99        38.289      1.314       374.539     47.603      -9999.25    -9999.25    -9999.25    37.143      88.4        57.802      10.239      19.85       17.284      67.21       1.7         2.253       128.378     1.078       
127.23      47.429      5.082       37.914      1.299       372.378     47.044      -9999.25    -9999.25    -9999.25    38.82       90.725      60.471      10.241      19.928      17.552      64.917      1.732       2.257       128.675     1.08        
127.33      54.142      4.999       37.408      1.264       370.556     46.416      122.64      130.58      143.824     40.125      90.532      62.024      10.242      20.211      17.766      60.796      1.777       2.261       128.732     1.082       
127.43      59.01       4.737       36.695      1.273       368.822     46.017      144.992     133.153     131.442     40.176      87.951      61.917      10.286      20.643      17.955      54.814      1.805       2.265       128.767     1.082       
127.53      65.276      4.304       36.111      1.324       366.8       45.849      127.798     130.047     144.777     40.113      84.735      61.888      10.673      21.044      18.088      47.738      1.831       2.263       128.804     1.082       
127.63      77.262      4.364       35.574      1.358       364.55      45.751      114.743     127.72      160.268     39.672      80.034      61.364      12.381      21.316      18.209      40.853      1.843       2.255       128.79      1.082       
127.73      76.631      4.734       35.168      1.339       362.478     45.667      100.07      122.728     165.896     38.263      74.735      59.58       16.396      21.444      18.362      34.551      1.835       2.246       128.817     1.082       
127.83      70.926      5.126       35.061      1.282       360.417     45.576      100.159     115.896     153.016     36.784      70.315      56.742      22.154      21.353      18.459      29.217      1.816       2.241       128.904     1.081       
