~Version Information Section
VERS.                                         2.0:CWLS log ASCII Standart – VERSION 2.0
WRAP.                                          NO:One line per depth step
~Well Information Section
STRT.M                                        1.2:Начальная глубина
STOP.M                                      208.4:Конечная глубина
STEP.M                                          0:Шаг квантования по глубине
NULL.                                    -9999.25:Признак "Нет данных"
WELL.                                       109Мх:Скважина
~Parameter Information Section
~Curve Information Section
DEPTH.M                                          :Глубина
BK.Ohm*M                                         :BK     (БК)
DS.mm                                            :DS  (ДС)
GGK.g/cm3                                        :GGKp
ГК.mcr/h                                         :GK          (ГК)
GZ1.Ohm*M                                        :GZ1   ГЗ1(A0.4M0.1N)
GZ2.Ohm*M                                        :GZ2   ГЗ2(A1.0M0.1N)
GZ3.Ohm*M                                        :GZ3   ГЗ3(A2.0M0.5N)
GZ4.Ohm*M                                        :GZ4   ГЗ4(A4.0M0.5N)
GZ5.Ohm*M                                        :GZ5   ГЗ5(A8.0M0.5N)
GZR.Ohm*M                                        :GZK   ГЗK(N0.5M2.0A)
ИК.Ohm*M                                         :IK
НГК.u.e.                                         :NGK
NNKM.                                            :NNKm  (ННКм)
U1.mV                                            :U1
U2.mV                                            :U2
U3.mV                                            :U3
КП.%                                             :Кп
PS.mv                                            :PS       (ПС)
PZ.Ohm*M                                         :PZ    (КС)
RS.Ohm*M                                         :RS (Резистивиметр)
~ASCII LOG DATA
# ...
177.2       123.027     127.231     2.08        3.525       111.262     75.474      79.742      23.543      25.67       137.72      14.034      1.229       2.132       1338.669    786.496     588.417     28.684      999.867     81.513      1.044       
177.3       123.027     127.189     2.091       3.904       107.166     75.474      85.022      23.663      25.67       139.8       14.181      1.21        2.132       1301.717    839.014     679.278     28.72       999.163     82.09       1.044       
177.4       127.057     127.228     2.1         4.229       107.445     75.474      87.662      23.903      25.81       140.84      14.332      1.202       2.102       1240.344    905.65      803.887     28.492      998.459     82.739      1.044       
177.5       130.017     127.236     2.151       4.172       111.918     75.474      89.422      24.023      25.95       140.84      14.332      1.187       2.1         1278.278    1002.222    926.106     29.171      997.772     83.46       1.044       
177.6       126.765     127.624     2.208       3.991       119.465     75.474      89.862      23.783      26.09       140.84      14.485      1.233       2.178       1333.143    1034.197    948.223     30.029      997.093     84.253      1.044       
177.7       123.88      128.597     2.265       3.746       119.465     75.994      90.302      23.783      26.09       140.84      14.642      1.259       2.24        1302.923    945.055     836.838     29.694      996.406     85.046      1.044       
177.8       119.95      127.978     2.259       3.68        127.519     75.994      90.742      23.663      26.23       140.84      14.642      1.26        2.246       1199.745    793.507     675.461     28.501      995.71      85.839      1.044       
177.9       119.95      127.192     2.205       3.672       129.461     75.994      90.742      23.663      26.51       140.84      14.642      1.217       2.251       1092.153    730.045     659.493     27.413      995.015     86.416      1.044       
178.0       114.025     127.464     2.179       3.676       129.461     75.994      90.742      23.663      26.79       139.8       14.642      1.23        2.248       1019.944    763.35      776.628     27.544      994.319     86.993      1.044       
178.1       107.152     128.14      2.127       3.651       126.534     75.994      90.302      23.663      27.07       139.8       14.803      1.22        2.244       1049.347    803.279     838.602     28.742      993.615     87.498      1.044       
178.2       109.396     127.318     2.156       3.582       127.143     75.994      90.302      23.663      27.49       137.72      14.803      1.25        2.258       1163.481    775.397     731.441     30.237      992.903     87.858      1.044       
178.3       114.025     127.412     2.137       3.592       130.059     76.514      90.302      23.663      27.63       136.68      14.966      1.238       2.275       1254.96     719.933     573.878     31.063      992.182     88.074      1.043       
178.4       114.025     127.499     2.182       3.322       130.059     77.554      90.302      23.663      27.77       135.64      15.134      1.26        2.269       1243.688    696.504     515.673     29.935      991.47      88.291      1.042       
178.5       118.032     127.517     2.185       3.406       133.95      77.554      90.302      23.663      27.91       134.6       15.134      1.28        2.258       1164.421    677.58      514.309     28.571      990.774     88.507      1.041       
178.6       121.339     127.522     2.21        3.316       133.95      80.674      90.302      23.783      27.91       134.6       15.134      1.294       2.24        1115.321    641.928     489.137     28.529      990.095     88.723      1.038       
178.7       122.462     127.546     2.196       3.539       133.53      81.714      90.302      23.903      27.91       133.56      15.134      1.307       2.205       1156.765    677.49      528.599     29.337      989.425     89.084      1.037       
178.8       121.619     127.553     2.204       3.477       133.11      83.274      90.302      23.903      27.77       133.56      15.305      1.298       2.19        1275.255    834.469     700.089     29.835      988.754     89.156      1.036       
178.9       122.18      127.582     2.194       3.523       132.69      83.274      90.302      24.023      27.63       132.52      15.305      1.275       2.224       1449.36     1073.764    956.063     29.652      988.075     89.012      1.035       
179.0       122.18      127.573     2.194       3.502       132.27      83.274      90.302      24.143      27.49       131.48      15.481      1.288       2.252       1613.455    1210.839    1066.055    28.885      987.388     88.796      1.035       
179.1       116.145     127.517     2.179       3.332       131.85      83.274      90.302      25.103      27.35       131.48      15.66       1.341       2.255       1728.475    1205.476    992.634     28.262      986.701     88.579      1.035       
179.2       111.686     127.528     2.164       3.215       131.85      83.274      90.742      25.103      27.07       129.4       15.66       1.358       2.257       1714.694    1092.177    827.22      28.021      986.022     88.363      1.035       
179.3       116.145     127.511     2.143       3.561       131.01      83.274      90.742      25.103      27.07       129.4       15.844      1.353       2.188       1584.469    976.581     718.59      28.5        985.352     88.219      1.035       
179.4       113.763     127.512     2.127       3.885       130.17      83.274      91.182      25.103      26.93       129.4       15.844      1.298       2.119       1415.637    902.49      692.451     28.867      984.689     88.074      1.035       
179.5       113.763     127.518     2.119       4.031       128.91      83.274      91.182      24.863      26.93       129.4       15.844      1.274       2.135       1314.183    878.707     708.648     28.777      984.036     88.075      1.035       
179.6       109.396     127.506     2.124       3.679       128.49      82.234      91.182      24.743      26.79       131.48      16.032      1.268       2.154       1317.547    934.976     794.16      29.359      983.39      88.147      1.035       
179.7       112.202     127.514     2.104       3.564       127.65      81.714      91.622      24.743      26.65       133.56      16.224      1.259       2.138       1384.043    1055.398    946.023     30.916      982.762     88.219      1.035       
179.8       112.202     127.505     2.107       3.477       127.65      81.714      92.062      24.623      26.51       133.56      16.224      1.265       2.103       1501.898    1208.487    1119.558    32.21       982.158     88.291      1.035       
179.9       121.619     127.488     2.086       3.604       126.81      81.194      92.502      24.383      26.51       133.56      16.224      1.231       2.091       1660.909    1314.597    1191.424    32.269      981.572     88.868      1.035       
180.0       119.399     127.524     2.118       3.658       126.81      80.154      92.942      24.383      26.51       133.56      16.421      1.202       2.094       1795.024    1329.26     1131.212    31.424      980.993     89.661      1.035       
180.1       133.045     127.967     2.124       3.673       126.39      80.154      93.382      24.263      26.51       133.56      16.421      1.209       2.108       1732.043    1197.064    958.04      30.762      980.424     90.526      1.035       
180.2       142.889     128.673     2.158       3.438       125.55      80.154      94.262      24.263      26.51       133.56      16.421      1.272       2.139       1473.452    984.831     778.435     30.566      979.879     91.391      1.035       
180.3       142.889     128.81      2.158       3.248       125.55      79.114      95.142      24.263      26.51       132.52      16.421      1.319       2.157       1225.855    830.808     684.19      30.575      979.368     92.256      1.035       
