~Version Information Section
VERS.                                         2.0:CWLS log ASCII Standart – VERSION 2.0
WRAP.                                          NO:One line per depth step
~Well Information Section
STRT.M                                        0.4:Начальная глубина
STOP.M                                      170.2:Конечная глубина
STEP.M                                          0:Шаг квантования по глубине
NULL.                                    -9999.25:Признак "Нет данных"
WELL.                                       121Мх:Скважина
~Parameter Information Section
~Curve Information Section
DEPTH.M                                          :Глубина
BK.Ohm*M                                         :BK     (БК)
DS.mm                                            :DS  (ДС)
GGK.g/cm3                                        :GGKp
ГК.mcr/h                                         :GK          (ГК)
GZ1.Ohm*M                                        :GZ1   ГЗ1(A0.4M0.1N)
GZ2.Ohm*M                                        :GZ2   ГЗ2(A1.0M0.1N)
GZ3.Ohm*M                                        :GZ3   ГЗ3(A2.0M0.5N)
GZ4.Ohm*M                                        :GZ4   ГЗ4(A4.0M0.5N)
GZ5.Ohm*M                                        :GZ5   ГЗ5(A8.0M0.5N)
GZR.Ohm*M                                        :GZK   ГЗK(N0.5M2.0A)
ИК.Ohm*M                                         :IK
НГК.u.e.                                         :NGK
NNKM.                                            :NNKm  (ННКм)
PS.mv                                            :PS       (ПС)
PZ.Ohm*M                                         :PZ    (КС)
RS.Ohm*M                                         :RS (Резистивиметр)
U1.mV                                            :U1
U2.mV                                            :U2
U3.mV                                            :U3
КП.%                                             :Кп
~ASCII LOG DATA
# ...
128.4       16.749      131.491     2.62        6.775       27.814      21.045      8.328       34.239      31.2        13.541      7.761       1.172       2.223       520.992     40.467      1.06        174.713     162.995     217.336     34.675      
128.6       21.281      131.238     2.614       6.24        26.603      18.7        9.073       34.523      30.4        15.011      7.642       1.242       2.222       523.104     34.143      1.06        178.861     180.221     159.517     32.815      
128.8       19.634      131.312     2.587       6.969       26.206      16.68       10.588      33.843      30.4        15.359      7.569       1.124       2.279       525.28      31.662      1.06        184.925     178.719     141.371     30.378      
129.0       17.458      131.45      2.579       6.797       26.012      14.339      12.591      32.617      29.6        14.982      7.518       1.061       2.172       527.008     30.885      1.06        178.758     173.717     168.137     34.403      
129.2       19.588      131.506     2.589       6.475       26.081      12.488      14.785      31.743      29.6        14.67       7.543       1.172       2.12        528.08      30.315      1.06        168.499     162.844     182.016     34.549      
129.4       19.907      131.557     2.619       6.919       26.222      11.643      16.773      30.994      29.6        14.257      7.572       1.204       2.13        528.832     29.819      1.06        181.501     172.619     172.041     33.049      
129.6       19.907      131.651     2.61        6.88        26.427      11.353      17.696      30.159      29.6        13.55       7.574       1.175       2.115       529.44      29.48       1.06        204.341     158.816     170.74      38.549      
129.8       19.815      131.622     2.586       6.85        26.598      11.467      17.88       30.483      29.6        13.763      7.579       1.169       2.096       529.84      29.298      1.06        197.118     154.365     165.462     38.794      
130.0       21.33       131.293     2.619       6.946       26.783      12.692      17.274      31.492      31.2        14.477      7.626       1.187       2.175       529.984     29.215      1.06        176.463     148.085     145.634     34.679      
130.2       22.646      131.29      2.633       6.934       26.863      13.643      15.496      32.163      31.2        14.745      7.631       1.103       2.183       530.0       29.146      1.06        181.503     145.438     140.837     34.457      
130.4       21.38       131.257     2.64        6.76        26.873      14.378      13.506      32.409      30.4        14.437      7.625       1.019       2.159       529.984     29.011      1.06        194.054     149.857     137.769     36.056      
130.6       20.989      131.202     2.611       6.164       26.785      14.531      12.32       33.447      30.4        14.597      7.603       1.081       2.185       529.84      28.792      1.06        184.826     154.205     123.829     31.818      
130.8       21.429      131.647     2.563       6.711       26.693      13.84       11.686      35.349      30.4        15.208      7.572       1.215       2.161       529.36      28.541      1.06        161.558     154.573     111.213     34.256      
131.0       20.464      131.407     2.544       6.822       26.578      12.489      11.482      38.178      32.0        16.06       7.585       1.09        2.137       528.368     28.313      1.06        139.603     149.017     126.032     35.141      
131.2       19.907      130.594     2.575       6.44        26.498      11.959      12.441      41.715      33.6        17.322      7.604       1.145       2.134       526.912     28.126      1.06        136.897     148.665     163.707     32.468      
131.4       20.989      130.642     2.587       6.84        26.529      11.455      13.279      45.216      34.4        18.754      7.636       1.09        2.134       525.408     27.96       1.06        140.434     153.372     165.766     32.885      
131.6       20.893      130.729     2.558       6.63        26.739      11.165      13.958      47.753      34.4        19.933      7.661       1.075       2.179       524.128     27.808      1.06        141.571     156.929     163.282     33.164      
131.8       19.498      130.839     2.567       6.467       27.084      11.622      14.082      48.858      34.4        20.479      7.692       1.113       2.124       522.896     27.688      1.06        145.796     149.038     168.824     34.902      
132.0       20.559      130.932     2.592       6.755       27.553      12.252      13.447      48.729      34.4        20.8        7.737       1.063       2.101       521.168     27.623      1.06        140.918     136.532     173.88      34.746      
132.2       21.627      130.642     2.632       7.075       27.978      11.694      12.2        47.755      33.6        20.886      7.805       1.085       2.153       518.48      27.602      1.06        127.887     119.593     173.837     33.315      
132.4       21.281      130.311     2.636       6.61        28.247      10.864      11.718      46.744      32.0        21.152      7.851       1.098       2.157       514.368     27.6        1.06        129.854     130.139     147.253     34.08       
132.6       21.878      129.953     2.616       6.78        28.285      10.227      11.218      46.058      31.2        21.645      7.877       1.161       2.141       508.368     27.6        1.06        145.126     134.357     126.056     36.519      
132.8       22.029      127.352     2.569       6.585       28.221      9.54        10.931      44.979      31.2        21.587      7.923       1.14        2.187       499.248     27.6        1.08        159.259     153.904     119.729     34.277      
133.0       21.928      124.458     2.589       6.198       28.132      8.756       11.273      43.672      32.0        21.163      7.929       1.143       2.312       486.72      27.6        1.08        183.699     163.292     120.867     32.124      
133.2       20.091      123.193     2.601       6.598       28.212      9.21        11.663      42.11       32.0        20.35       7.937       1.123       2.274       472.208     27.6        1.08        205.097     165.742     128.23      33.289      
133.4       19.953      122.837     2.605       6.803       28.387      9.925       10.883      41.473      32.8        20.278      7.961       1.073       2.193       458.624     27.602      1.08        192.29      145.424     143.069     33.075      
133.6       20.701      122.625     2.609       6.778       28.673      9.823       9.909       40.916      32.8        20.088      7.994       1.068       2.186       448.016     27.623      1.08        167.558     136.524     141.617     33.569      
133.8       21.135      122.576     2.621       6.663       28.882      9.492       9.11        40.956      32.8        20.377      8.048       1.034       2.189       439.584     27.688      1.08        181.07      147.8       136.07      31.633      
134.0       21.528      122.57      2.599       6.353       29.07       10.018      8.299       41.398      32.8        21.001      8.074       1.127       2.187       431.552     27.8        1.08        218.509     179.515     127.214     31.63       
134.2       22.856      122.567     2.579       6.356       29.122      10.563      7.477       42.039      31.2        21.81       8.096       1.18        2.217       423.248     27.912      1.08        226.65      192.406     109.574     32.66       
134.4       21.429      122.501     2.564       7.233       29.075      11.494      7.884       42.111      29.6        22.06       8.104       1.165       2.213       415.456     27.986      1.08        196.255     182.397     121.933     33.267      
134.6       21.281      122.487     2.531       6.653       28.925      12.809      8.504       42.215      28.8        22.365      8.087       1.137       2.178       408.896     28.055      1.08        160.731     162.559     162.409     34.347      
