~Version Information Section
VERS.                                         2.0:CWLS log ASCII Standart – VERSION 2.0
WRAP.                                          NO:One line per depth step
~Well Information Section
STRT.M                                        0.4:Начальная глубина
STOP.M                                      206.4:Конечная глубина
STEP.M                                          0:Шаг квантования по глубине
NULL.                                    -9999.25:Признак "Нет данных"
WELL.                                       157Мх:Скважина
~Parameter Information Section
~Curve Information Section
DEPTH.M                                          :Глубина
BK.Ohm*M                                         :BK     (БК)
DS.mm                                            :DS  (ДС)
GGK.g/cm3                                        :GGKp
ГК.mcr/h                                         :GK          (ГК)
GZ1.Ohm*M                                        :GZ1   ГЗ1(A0.4M0.1N)
GZ2.Ohm*M                                        :GZ2   ГЗ2(A1.0M0.1N)
GZ3.Ohm*M                                        :GZ3   ГЗ3(A2.0M0.5N)
GZ4.Ohm*M                                        :GZ4   ГЗ4(A4.0M0.5N)
GZ5.Ohm*M                                        :GZ5   ГЗ5(A8.0M0.5N)
GZR.                                             :GZR   ГЗK(N0.5M2.0A)
ИК.Ohm*M                                         :IK
НГК.ue                                           :NGK     (НГК)
NNKM.                                            :NNKm  (ННКм)
PS.mv                                            :PS       (ПС)
PZ.Ohm*M                                         :PZ    (КС)
RS.Ohm*M                                         :RS (Резистивиметр)
W.%                                              :W
~ASCII LOG DATA
# ...
122.5       192.971     151.683     2.399       3.262       56.885      39.53       51.25       30.648      95.434      326.636     74.117      1.972       2.89        72.394      100.781     1.105       23.098      
122.6       224.635     151.582     2.384       3.353       74.931      42.371      51.38       37.228      96.492      279.179     75.888      2.009       2.858       57.979      128.268     1.105       23.125      
122.7       214.975     151.485     2.368       3.399       94.567      47.569      51.547      42.773      96.924      233.695     78.102      1.93        2.818       45.542      161.059     1.102       23.484      
122.8       194.321     151.316     2.352       3.307       111.788     55.671      51.933      47.5        97.37       196.773     81.955      1.801       2.773       35.464      192.503     1.1         24.447      
122.9       188.73      151.414     2.342       3.325       126.323     66.033      54.34       52.069      98.24       164.969     86.389      1.756       2.76        27.723      222.054     1.101       25.13       
123.0       187.437     151.711     2.339       3.462       138.047     80.194      59.029      57.368      99.812      142.099     90.069      1.765       2.79        22.173      250.038     1.102       24.841      
123.1       175.968     151.478     2.355       3.621       146.439     105.556     65.309      64.093      101.846     127.337     92.192      1.848       2.831       18.38       272.187     1.102       23.375      
123.2       187.838     151.458     2.392       3.575       153.514     146.442     72.106      71.89       104.102     120.909     93.238      1.972       2.945       16.1        287.971     1.103       21.673      
123.3       258.841     151.269     2.442       3.31        163.187     196.302     78.815      80.13       106.366     119.472     90.767      2.085       3.036       14.89       299.118     1.104       19.992      
123.4       262.972     150.919     2.486       3.067       172.434     245.549     84.862      88.521      108.927     119.308     89.15       2.194       3.116       14.405      308.89      1.101       18.468      
123.5       225.105     150.698     2.519       2.957       181.709     293.683     89.826      98.167      112.593     119.312     85.04       2.266       3.125       14.405      316.076     1.102       17.11       
123.6       287.504     150.81      2.534       3.192       194.483     343.926     93.629      108.362     117.586     119.339     81.759      2.315       3.133       14.405      320.577     1.103       15.774      
123.7       321.226     151.369     2.532       3.444       211.035     388.488     96.827      116.242     122.504     119.062     78.098      2.326       3.144       14.407      321.488     1.106       15.493      
123.8       205.688     153.306     2.522       3.779       218.226     411.296     100.87      119.536     125.7       118.593     74.894      2.317       3.136       14.576      321.077     1.109       16.292      
123.9       136.186     154.497     2.512       4.02        219.12      421.994     106.774     119.31      126.504     118.422     72.13       2.268       3.114       15.541      318.415     1.112       17.133      
124.0       142.031     155.251     2.505       4.115       217.197     425.678     114.374     117.674     126.521     117.95      68.594      2.226       3.11        17.349      313.134     1.115       16.934      
124.1       176.248     153.569     2.489       4.074       209.662     426.2       123.047     114.189     125.666     116.45      65.612      2.179       3.126       20.086      306.563     1.119       16.996      
124.2       224.694     152.42      2.47        3.772       208.694     428.663     135.622     111.671     123.891     113.562     62.425      2.163       3.089       23.773      297.482     1.124       18.47       
124.3       257.437     152.967     2.453       3.527       210.306     439.318     159.713     110.523     121.533     108.99      59.412      2.077       3.035       28.259      286.518     1.13        20.959      
124.4       277.856     153.099     2.439       3.068       215.113     455.701     197.257     110.097     118.42      101.86      55.482      1.999       2.93        33.307      273.889     1.134       23.054      
124.5       265.974     153.35      2.426       2.83        224.865     473.4       240.473     108.569     114.28      92.871      52.017      1.895       2.878       38.854      259.222     1.138       24.452      
124.6       221.492     154.792     2.413       2.613       231.24      479.851     282.147     105.921     109.293     83.526      48.957      1.846       2.789       45.197      242.748     1.139       25.576      
124.7       202.522     155.108     2.398       2.69        231.828     478.794     315.688     102.084     103.354     74.664      46.456      1.729       2.75        52.892      224.499     1.14        25.81       
124.8       172.874     154.829     2.383       2.901       230.501     470.842     333.169     97.53       96.226      65.943      44.344      1.63        2.702       62.398      203.202     1.14        25.372      
124.9       119.749     154.441     2.368       3.283       221.742     449.406     332.959     91.527      87.654      56.389      42.104      1.533       2.689       73.402      176.442     1.139       24.915      
125.0       83.276      154.061     2.365       3.748       203.191     414.087     326.484     82.859      78.392      46.927      40.027      1.532       2.632       85.367      146.644     1.136       25.035      
125.1       68.233      154.104     2.372       4.432       177.575     364.771     295.353     71.657      69.291      38.553      37.582      1.564       2.588       97.713      119.042     1.133       24.721      
125.2       51.64       154.142     2.378       5.205       144.411     301.327     251.201     58.834      61.319      32.224      35.347      1.562       2.456       109.36      96.814      1.13        23.531      
125.3       31.492      154.183     2.377       6.318       111.425     235.021     202.128     46.106      55.128      29.01       33.615      1.507       2.362       119.142     80.735      1.129       23.856      
125.4       20.8        153.929     2.367       7.201       79.613      168.575     154.767     33.792      50.512      29.103      32.439      1.442       2.206       126.839     69.876      1.127       26.516      
125.5       17.857      153.902     2.35        8.122       54.973      114.975     115.426     23.077      46.806      30.388      32.168      1.434       2.135       132.464     64.016      1.124       29.214      
125.6       18.188      153.947     2.327       8.559       38.185      78.007      86.807      14.999      43.873      35.602      33.056      1.417       2.06        136.18      60.485      1.125       29.728      
125.7       19.726      153.602     2.302       8.201       28.054      59.11       70.352      10.122      42.501      43.562      35.249      1.384       2.051       137.809     58.076      1.124       28.98       
125.8       24.071      152.471     2.285       7.533       23.084      50.347      62.715      7.313       42.259      52.144      37.497      1.453       2.077       137.984     56.46       1.124       28.849      
125.9       34.26       151.983     2.271       6.716       21.767      46.044      60.627      6.012       42.95       60.19       40.01       1.554       2.129       137.984     55.982      1.124       28.433      
126.0       44.61       152.101     2.266       6.465       21.978      43.39       60.814      5.986       44.833      66.441      42.758      1.62        2.267       137.73      56.141      1.123       27.173      
126.1       50.766      152.01      2.268       5.993       23.585      41.043      62.028      6.256       47.079      70.655      45.374      1.596       2.369       136.172     57.372      1.122       25.883      
