~Version Information Section
VERS.                                         2.0:CWLS log ASCII Standart – VERSION 2.0
WRAP.                                          NO:One line per depth step
~Well Information Section
STRT.M                                        1.6:Начальная глубина
STOP.M                                      209.3:Конечная глубина
STEP.M                                          0:Шаг квантования по глубине
NULL.                                    -9999.25:Признак "Нет данных"
WELL.                                       132Мх:Скважина
~Parameter Information Section
~Curve Information Section
DEPTH.M                                          :Глубина
BК.                                              :BК (Омм)
DS.mm                                            :DS
GGK.g/cm3                                        :GGKp
IК.                                              :IК (Омм)
NGК.                                             :NGК (усл.ед.)
PS.mV                                            :PS
PZ.                                              :PZ (Омм)
REZ.                                             :REZ (Омм)
U1.                                              :U1 (ue)
U2.                                              :U2 (ue)
U3.                                              :U3 (ue)
ГК.mcr/h                                         :ГКканаломНГК
~ASCII LOG DATA
# ...
159.7       19.737      126.705     2.4         17.811      1.023       252.982     27.054      2.411       519.588     489.198     459.832     10.154      
159.8       19.587      126.645     2.372       17.692      1.046       253.475     26.546      2.411       512.066     480.648     450.554     10.377      
159.9       20.723      126.653     2.347       17.532      1.079       253.97      25.656      2.412       500.9       467.345     435.708     10.225      
160.0       24.247      126.989     2.399       17.493      1.108       254.439     24.534      2.409       481.747     446.483     413.725     9.778       
160.1       26.733      126.439     2.423       17.453      1.125       254.872     23.601      2.412       462.366     424.91      390.606     9.37        
160.2       28.336      127.059     2.418       17.49       1.127       255.284     23.088      2.411       448.966     408.086     371.161     9.087       
160.3       27.609      126.777     2.414       17.412      1.123       255.674     22.939      2.411       435.039     394.213     357.53      8.885       
160.4       26.377      126.013     2.41        17.29       1.118       256.055     22.999      2.409       422.98      382.999     347.139     8.926       
160.5       25.884      126.239     2.421       17.019      1.115       256.431     23.146      2.41        412.789     374.445     339.99      9.097       
160.6       23.906      126.507     2.432       16.715      1.116       256.863     23.397      2.41        414.731     377.744     344.292     9.587       
160.7       19.264      127.014     2.412       16.297      1.115       257.42      23.617      2.411       419.477     383.772     351.238     10.117      
160.8       18.09       126.337     2.422       15.997      1.105       258.141     23.623      2.412       420.816     387.067     356.019     10.403      
160.9       17.997      127.198     2.386       15.759      1.091       259.042     23.394      2.418       430.836     397.55      366.71      10.322      
161.0       18.319      127.219     2.408       15.46       1.111       260.11      22.953      2.431       449.536     415.22      383.312     10.287      
161.1       18.355      127.206     2.395       15.33       1.166       261.349     22.5        2.444       466.529     432.883     401.273     10.506      
161.2       18.196      127.412     2.409       15.166      1.183       262.788     22.045      2.457       479.861     446.495     414.977     10.653      
161.3       18.002      126.799     2.414       15.132      1.135       264.458     21.65       2.469       498.859     465.179     433.232     10.504      
161.4       17.742      126.515     2.417       15.07       1.06        266.282     21.318      2.488       509.956     476.886     445.36      10.103      
161.5       17.518      126.553     2.404       14.998      1.026       268.251     21.153      2.487       501.061     471.693     443.284     9.838       
161.6       17.242      126.818     2.379       15.017      1.018       270.372     21.122      2.489       482.667     458.363     434.239     9.823       
161.7       17.283      126.841     2.347       14.987      1.005       272.659     21.185      2.503       465.162     444.088     422.777     10.069      
161.8       17.59       127.491     2.327       14.971      1.021       275.08      21.266      2.536       444.577     426.524     407.874     10.707      
161.9       17.936      126.793     2.334       15.044      1.071       277.603     21.359      2.578       420.913     405.67      389.529     11.215      
162.0       18.174      126.916     2.351       15.187      1.134       280.233     21.565      2.628       406.701     391.396     375.305     11.164      
162.1       17.868      126.63      2.391       15.325      1.175       282.947     21.806      2.685       402.988     387.267     370.861     10.614      
162.2       17.28       127.053     2.39        15.549      1.16        285.738     21.935      2.741       399.285     384.52      368.963     10.011      
162.3       17.696      127.024     2.399       15.838      1.119       288.603     21.764      2.803       400.976     386.33      370.872     9.858       
162.4       19.359      127.859     2.393       16.265      1.083       291.538     21.513      2.873       408.062     392.697     376.587     9.81        
162.5       20.372      126.908     2.407       16.681      1.082       294.512     21.462      2.933       417.343     399.755     381.761     9.837       
162.6       19.387      126.075     2.433       17.097      1.093       297.407     21.978      2.971       429.86      409.687     389.508     10.13       
162.7       17.939      125.612     2.375       17.534      1.088       300.126     23.228      2.972       456.215     435.661     415.009     10.335      
162.8       15.967      126.1       2.341       17.867      1.066       302.648     25.049      2.968       469.445     446.994     424.659     9.996       
162.9       14.472      125.772     2.337       18.203      1.049       304.919     27.446      2.956       464.164     440.511     417.196     9.078       
163.0       14.819      132.443     2.397       18.859      1.085       306.916     29.754      2.935       455.769     431.736     408.161     7.528       
163.1       18.82       126.32      2.441       19.779      1.155       308.584     32.184      2.918       447.46      424.531     401.903     6.523       
163.2       31.538      126.667     2.491       20.81       1.251       309.827     35.651      2.902       441.321     420.029     398.772     6.169       
163.3       54.919      123.897     2.522       22.057      1.305       310.589     42.141      2.881       425.699     401.496     377.927     6.495       
163.4       76.112      129.338     2.498       23.755      1.348       310.831     50.445      2.864       427.558     399.616     372.975     6.644       
163.5       89.522      129.091     2.474       25.884      1.365       310.589     55.341      2.86        442.63      410.153     379.805     6.695       
163.6       103.454     129.209     2.453       27.573      1.351       309.846     63.228      2.858       455.518     417.586     382.876     7.23        
163.7       98.169      129.623     2.484       28.478      1.32        308.597     70.227      2.654       481.197     440.771     403.986     7.795       
163.8       88.655      132.945     2.54        29.018      1.311       307.007     80.342      2.36        517.584     478.575     442.784     7.979       
163.9       101.011     126.451     2.535       29.451      1.337       305.166     85.571      2.156       529.07      491.37      456.627     7.701       
164.0       114.684     125.908     2.549       29.459      1.393       303.074     90.799      2.053       515.656     479.157     445.514     7.438       
164.1       74.607      125.914     2.536       29.037      1.433       300.8       94.714      2.007       492.063     458.282     427.046     7.262       
164.2       48.907      126.188     2.55        28.414      1.452       298.33      97.314      1.971       458.29      428.745     401.224     7.096       
164.3       64.162      126.755     2.516       27.451      1.453       295.691     96.796      1.863       453.467     424.04      396.476     7.267       
164.4       119.483     127.34      2.47        26.387      1.492       292.885     94.474      1.975       425.071     393.897     364.987     7.851       
164.5       176.058     127.0       2.445       25.303      1.547       289.903     90.348      2.382       408.716     377.952     349.408     8.748       
164.6       204.435     127.45      2.452       24.13       1.612       286.815     88.819      2.412       407.906     381.269     356.184     9.626       
164.7       213.551     129.577     2.461       22.94       1.667       283.6       90.457      2.411       412.254     391.834     371.949     9.944       
