~Version Information Section
VERS.                                         2.0:CWLS log ASCII Standart – VERSION 2.0
WRAP.                                          NO:One line per depth step
~Well Information Section
STRT.M                                        0.5:Начальная глубина
STOP.M                                      158.2:Конечная глубина
STEP.M                                          0:Шаг квантования по глубине
NULL.                                    -9999.25:Признак "Нет данных"
WELL.                                       136Мх:Скважина
~Parameter Information Section
~Curve Information Section
DEPTH.M                                          :Глубина
BK.Ohm*M                                         :BK     (БК)
DS.mm                                            :DS  (ДС)
GGK.g/cm3                                        :GGKp
ГК.mcr/h                                         :GK          (ГК)
GZ1.Ohm*M                                        :GZ1   ГЗ1(A0.4M0.1N)
GZ2.Ohm*M                                        :GZ2   ГЗ2(A1.0M0.1N)
GZ3.Ohm*M                                        :GZ3   ГЗ3(A2.0M0.5N)
GZ4.Ohm*M                                        :GZ4   ГЗ4(A4.0M0.5N)
GZ5.Ohm*M                                        :GZ5   ГЗ5(A8.0M0.5N)
GZR.Ohm*M                                        :GZK   ГЗK(N0.5M2.0A)
ИК.Ohm*M                                         :IK
НГК.ue                                           :NGK     (НГК)
NNKM.                                            :NNKm  (ННКм)
PS.mv                                            :PS       (ПС)
PZ.Ohm*M                                         :PZ    (КС)
RS.Ohm*M                                         :RS (Резистивиметр)
U1.mV                                            :U1
U2.mV                                            :U2
U3.mV                                            :U3
КП.%                                             :Кп
~ASCII LOG DATA
# ...
102.9       67.199      134.83      2.25        5.061       63.914      54.915      56.951      33.641      27.312      35.918      36.789      1.378       2.192       86.265      73.763      1.087       -2136.66    235.397     -1837.51    31.771      
103.0       100.903     134.835     2.269       4.94        64.257      54.502      57.77       33.641      27.833      38.137      37.096      1.341       2.3         86.265      73.349      1.087       -2146.66    236.817     -1867.08    29.864      
103.1       337.418     135.1       2.284       4.671       64.257      53.469      59.488      34.449      28.386      40.255      37.476      1.343       2.427       86.265      72.772      1.087       -2150.0     229.194     -1944.47    30.538      
103.2       344.714     135.434     2.274       4.555       83.688      53.202      62.339      36.85       29.011      42.264      37.682      1.362       2.604       86.27       72.044      1.087       -2146.66    224.047     -2036.22    32.034      
103.3       244.229     135.267     2.248       4.459       107.391     56.98       66.601      40.765      29.268      43.079      37.771      1.431       2.719       86.283      71.131      1.087       -2133.33    229.747     -2116.55    33.852      
103.4       195.732     135.492     2.212       4.405       132.596     61.394      70.55       45.676      29.256      43.179      37.182      1.535       2.654       86.311      69.961      1.087       -2090.0     228.411     -2166.92    33.783      
103.5       193.259     135.668     2.183       4.273       157.767     63.453      72.633      49.599      29.668      43.179      36.385      1.629       2.539       86.362      68.454      1.087       -2086.66    223.484     -2155.03    31.643      
103.6       214.9       135.678     2.182       4.247       180.726     65.907      73.069      51.674      29.731      42.566      35.675      1.617       2.403       86.446      66.69       1.087       -2096.66    212.638     -2113.12    29.693      
103.7       223.715     135.926     2.194       4.358       183.989     67.829      73.069      52.506      29.731      41.556      34.722      1.55        2.357       86.557      64.73       1.087       -2136.66    211.58      -2063.42    29.044      
103.8       220.457     136.152     2.199       4.503       183.989     68.069      73.069      52.506      29.731      40.77       33.676      1.467       2.367       86.696      62.653      1.087       -2140.0     216.648     -2030.28    30.31       
103.9       170.265     136.338     2.207       4.529       183.989     66.146      71.516      52.506      29.255      39.413      32.529      1.464       2.385       86.863      60.609      1.087       -2140.0     223.659     -2028.91    31.605      
104.0       61.046      136.65      2.218       4.862       163.447     65.113      68.483      51.251      28.39       37.618      31.166      1.515       2.395       87.054      58.744      1.087       -2140.0     229.051     -2041.4     33.502      
104.1       51.59       136.755     2.205       5.221       140.439     64.841      64.478      48.787      27.288      35.657      29.798      1.547       2.335       87.276      57.058      1.087       -2096.0     234.55      -2061.52    36.166      
104.2       46.537      137.011     2.209       5.503       115.486     62.404      59.621      45.828      25.799      33.262      28.582      1.547       2.274       87.555      55.586      1.087       -2052.0     244.018     -2058.54    37.502      
104.3       46.535      137.287     2.21        5.484       90.379      58.821      53.811      42.363      24.012      30.827      27.607      1.522       2.221       87.903      54.359      1.087       -2016.0     249.65      -2062.62    37.101      
104.4       49.588      137.354     2.207       5.69        62.239      54.5        48.015      38.574      22.075      29.177      26.621      1.475       2.142       88.339      53.323      1.087       -2024.0     247.424     -2081.22    34.956      
104.5       50.095      137.369     2.206       5.974       56.02       50.876      43.792      35.82       20.2        28.072      25.875      1.391       2.073       88.868      52.444      1.087       -2032.0     230.708     -2108.87    34.169      
104.6       47.4        137.496     2.195       6.134       52.37       49.167      40.346      34.035      18.636      27.322      25.233      1.349       2.048       89.453      51.71       1.087       -2020.0     200.341     -2120.49    34.818      
104.7       40.078      137.634     2.192       6.119       50.607      47.793      37.716      32.486      17.426      27.221      24.596      1.233       2.067       90.051      51.083      1.087       -2087.72    164.302     -2073.31    36.934      
104.8       29.217      137.702     2.192       6.142       47.219      45.677      35.586      30.458      16.515      27.221      23.869      1.216       2.081       90.622      50.512      1.087       -2155.45    136.837     -2037.92    40.254      
104.9       24.927      137.898     2.202       6.192       42.385      42.712      33.979      28.12       15.886      27.221      23.164      1.164       2.086       91.104      50.014      1.087       -2235.17    129.963     -2029.34    41.893      
105.0       29.262      137.85      2.201       6.177       37.641      39.799      32.071      25.952      15.502      27.221      22.725      1.195       2.026       91.443      49.577      1.087       -2205.73    132.863     -2065.07    42.433      
105.1       31.328      138.204     2.226       5.966       33.027      36.695      29.938      23.965      15.002      27.925      22.62       1.209       1.963       91.619      49.224      1.087       -2184.24    132.498     -2082.57    40.792      
105.2       33.914      137.872     2.245       5.79        29.059      34.517      27.571      22.481      14.46       28.592      22.814      1.238       1.948       91.624      48.972      1.087       -2169.85    127.634     -2069.72    39.242      
105.3       34.859      137.782     2.26        5.852       26.735      32.469      25.794      21.612      14.056      29.173      23.199      1.28        1.948       91.624      48.854      1.087       -2184.9     123.886     -2049.89    39.801      
105.4       29.272      137.633     2.265       6.207       25.91       30.111      24.488      20.677      13.709      29.682      23.554      1.236       1.982       91.624      48.854      1.087       -2191.99    132.397     -2027.57    40.899      
105.5       26.814      137.73      2.239       6.634       25.102      27.174      23.405      19.28       13.51       30.144      23.885      1.151       2.012       91.457      48.854      1.087       -2180.82    135.938     -2025.56    41.961      
105.6       32.223      137.702     2.205       6.573       24.768      24.516      22.522      17.695      13.51       30.144      24.379      1.084       2.026       91.142      48.854      1.087       -2178.29    129.757     -2048.27    41.887      
105.7       37.543      137.648     2.175       6.115       24.768      22.073      21.992      16.098      13.51       30.246      25.097      1.119       2.017       90.715      48.899      1.087       -2175.75    107.918     -2099.32    43.123      
105.8       41.652      137.639     2.201       5.711       25.484      20.444      21.959      14.809      13.51       30.459      25.994      1.152       1.993       90.214      49.129      1.087       -2184.39    84.867      -2155.9     42.789      
105.9       44.015      137.333     2.224       5.625       26.029      20.444      21.959      14.514      13.825      30.732      27.13       1.157       2.025       89.675      49.554      1.087       -2181.79    68.012      -2206.87    40.253      
106.0       45.915      137.155     2.223       5.914       26.205      20.444      21.959      14.514      14.277      30.938      28.026      1.162       2.064       89.146      50.182      1.087       -2176.59    57.82       -2238.42    36.541      
