~Version Information Section
VERS.                                         2.0:CWLS log ASCII Standart – VERSION 2.0
WRAP.                                          NO:One line per depth step
~Well Information Section
STRT.M                                       1.07:Начальная глубина
STOP.M                                     192.17:Конечная глубина
STEP.M                                          0:Шаг квантования по глубине
NULL.                                    -9999.25:Признак "Нет данных"
WELL.                                        151К:Скважина
~Parameter Information Section
~Curve Information Section
DEPTH.M                                          :Глубина
BK.Ohm*M                                         :BK     (БК)
DS.mm                                            :DS  (ДС)
GGK.g/cm3                                        :GGKp
ГК.mcr/h                                         :GK          (ГК)
GZ1.Ohm*M                                        :GZ1   ГЗ1(A0.4M0.1N)
GZ2.Ohm*M                                        :GZ2   ГЗ2(A1.0M0.1N)
GZ3.Ohm*M                                        :GZ3   ГЗ3(A2.0M0.5N)
GZ4.Ohm*M                                        :GZ4   ГЗ4(A4.0M0.5N)
GZ5.Ohm*M                                        :GZ5   ГЗ5(A8.0M0.5N)
GZR.                                             :GZR   ГЗK(N0.5M2.0A)
ИК.Ohm*M                                         :IK
НГК.ue                                           :NGK     (НГК)
NNKM.                                            :NNKm  (ННКм)
PS.mv                                            :PS       (ПС)
PZ.Ohm*M                                         :PZ    (КС)
RS.Ohm*M                                         :RS (Резистивиметр)
W.%                                              :W
~ASCII LOG DATA
# ...
175.67      128.525     148.337     2.381       5.252       -9999.25    -9999.25    -9999.25    -9999.25    -9999.25    -9999.25    40.944      1.687       2.019       485.164     206.41      1.169       14.939      
175.7       -9999.25    -9999.25    -9999.25    -9999.25    176.861     112.897     54.384      109.199     128.386     59.677      -9999.25    -9999.25    -9999.25    -9999.25    -9999.25    -9999.25    -9999.25    
175.77      145.079     148.403     2.386       5.302       -9999.25    -9999.25    -9999.25    -9999.25    -9999.25    -9999.25    43.15       1.708       2.024       485.311     209.765     1.169       14.301      
175.8       -9999.25    -9999.25    -9999.25    -9999.25    196.751     155.325     60.601      111.442     130.604     56.507      -9999.25    -9999.25    -9999.25    -9999.25    -9999.25    -9999.25    -9999.25    
175.87      156.783     148.544     2.391       5.182       -9999.25    -9999.25    -9999.25    -9999.25    -9999.25    -9999.25    44.598      1.691       2.041       485.683     205.777     1.17        13.842      
175.9       -9999.25    -9999.25    -9999.25    -9999.25    220.628     201.074     67.881      111.3       130.81      53.682      -9999.25    -9999.25    -9999.25    -9999.25    -9999.25    -9999.25    -9999.25    
175.97      158.127     148.629     2.396       4.955       -9999.25    -9999.25    -9999.25    -9999.25    -9999.25    -9999.25    45.424      1.681       2.057       486.142     197.396     1.17        13.71       
176.0       -9999.25    -9999.25    -9999.25    -9999.25    233.686     241.508     74.41       108.673     127.97      51.07       -9999.25    -9999.25    -9999.25    -9999.25    -9999.25    -9999.25    -9999.25    
176.07      166.412     148.665     2.4         4.736       -9999.25    -9999.25    -9999.25    -9999.25    -9999.25    -9999.25    45.608      1.699       2.059       486.34      184.214     1.17        13.958      
176.1       -9999.25    -9999.25    -9999.25    -9999.25    241.067     270.299     78.48       103.442     120.573     48.07       -9999.25    -9999.25    -9999.25    -9999.25    -9999.25    -9999.25    -9999.25    
176.17      174.656     148.732     2.402       4.704       -9999.25    -9999.25    -9999.25    -9999.25    -9999.25    -9999.25    45.335      1.73        2.058       486.171     166.16      1.17        14.328      
176.2       -9999.25    -9999.25    -9999.25    -9999.25    255.272     298.336     80.202      95.775      112.118     44.547      -9999.25    -9999.25    -9999.25    -9999.25    -9999.25    -9999.25    -9999.25    
176.27      159.162     149.573     2.402       4.794       -9999.25    -9999.25    -9999.25    -9999.25    -9999.25    -9999.25    44.779      1.728       2.064       485.911     140.06      1.17        14.399      
176.3       -9999.25    -9999.25    -9999.25    -9999.25    265.519     322.333     77.122      85.87       104.585     40.062      -9999.25    -9999.25    -9999.25    -9999.25    -9999.25    -9999.25    -9999.25    
176.37      147.296     149.152     2.399       4.962       -9999.25    -9999.25    -9999.25    -9999.25    -9999.25    -9999.25    43.863      1.664       2.082       485.769     112.621     1.17        14.183      
176.4       -9999.25    -9999.25    -9999.25    -9999.25    261.607     322.246     69.154      73.972      97.55       34.56       -9999.25    -9999.25    -9999.25    -9999.25    -9999.25    -9999.25    -9999.25    
176.47      138.811     148.863     2.393       5.094       -9999.25    -9999.25    -9999.25    -9999.25    -9999.25    -9999.25    42.6        1.568       2.098       485.867     96.417      1.17        14.321      
176.5       -9999.25    -9999.25    -9999.25    -9999.25    196.413     247.905     59.466      62.011      90.553      29.697      -9999.25    -9999.25    -9999.25    -9999.25    -9999.25    -9999.25    -9999.25    
176.57      118.902     149.019     2.385       5.045       -9999.25    -9999.25    -9999.25    -9999.25    -9999.25    -9999.25    41.353      1.466       2.032       486.16      86.229      1.17        14.88       
176.6       -9999.25    -9999.25    -9999.25    -9999.25    123.235     171.125     51.463      51.518      80.548      26.175      -9999.25    -9999.25    -9999.25    -9999.25    -9999.25    -9999.25    -9999.25    
176.67      76.181      149.0       2.383       4.903       -9999.25    -9999.25    -9999.25    -9999.25    -9999.25    -9999.25    39.847      1.386       1.91        486.618     76.411      1.17        16.288      
176.7       -9999.25    -9999.25    -9999.25    -9999.25    99.751      152.866     45.125      42.417      72.645      23.442      -9999.25    -9999.25    -9999.25    -9999.25    -9999.25    -9999.25    -9999.25    
176.77      39.052      148.988     2.385       5.024       -9999.25    -9999.25    -9999.25    -9999.25    -9999.25    -9999.25    37.705      1.294       1.743       487.004     67.08       1.17        18.646      
176.8       -9999.25    -9999.25    -9999.25    -9999.25    87.202      148.606     44.518      36.911      63.564      21.981      -9999.25    -9999.25    -9999.25    -9999.25    -9999.25    -9999.25    -9999.25    
176.87      29.973      148.994     2.388       5.268       -9999.25    -9999.25    -9999.25    -9999.25    -9999.25    -9999.25    35.286      1.242       1.627       487.056     57.858      1.171       20.923      
176.9       -9999.25    -9999.25    -9999.25    -9999.25    80.462      148.678     51.805      34.507      51.442      21.36       -9999.25    -9999.25    -9999.25    -9999.25    -9999.25    -9999.25    -9999.25    
176.97      35.464      149.113     2.392       6.051       -9999.25    -9999.25    -9999.25    -9999.25    -9999.25    -9999.25    32.861      1.221       1.578       486.705     49.03       1.171       22.306      
177.0       -9999.25    -9999.25    -9999.25    -9999.25    79.368      145.967     59.166      32.369      43.576      20.641      -9999.25    -9999.25    -9999.25    -9999.25    -9999.25    -9999.25    -9999.25    
177.07      42.062      150.639     2.397       6.63        -9999.25    -9999.25    -9999.25    -9999.25    -9999.25    -9999.25    30.641      1.222       1.584       486.005     41.322      1.171       22.825      
177.1       -9999.25    -9999.25    -9999.25    -9999.25    78.266      133.728     62.714      29.258      39.758      18.937      -9999.25    -9999.25    -9999.25    -9999.25    -9999.25    -9999.25    -9999.25    
177.17      45.892      151.623     2.395       7.242       -9999.25    -9999.25    -9999.25    -9999.25    -9999.25    -9999.25    28.763      1.166       1.604       485.199     36.014      1.171       22.221      
177.2       -9999.25    -9999.25    -9999.25    -9999.25    74.058      115.658     61.368      24.893      163.727     16.11       -9999.25    -9999.25    -9999.25    -9999.25    -9999.25    -9999.25    -9999.25    
177.27      43.177      150.71      2.375       7.331       -9999.25    -9999.25    -9999.25    -9999.25    -9999.25    -9999.25    27.261      1.077       1.595       484.584     33.277      1.171       21.469      
177.3       -9999.25    -9999.25    -9999.25    -9999.25    58.09       81.51       54.773      20.559      34.924      13.444      -9999.25    -9999.25    -9999.25    -9999.25    -9999.25    -9999.25    -9999.25    
177.37      34.959      149.899     2.351       7.311       -9999.25    -9999.25    -9999.25    -9999.25    -9999.25    -9999.25    26.104      0.995       1.536       484.537     31.734      1.172       21.885      
177.4       -9999.25    -9999.25    -9999.25    -9999.25    39.105      49.42       46.337      16.783      33.145      11.973      -9999.25    -9999.25    -9999.25    -9999.25    -9999.25    -9999.25    -9999.25    
177.47      25.551      149.468     2.329       7.176       -9999.25    -9999.25    -9999.25    -9999.25    -9999.25    -9999.25    25.14       0.957       1.465       485.142     30.734      -9999.25    23.238      
