~Version Information Section
VERS.                                         2.0:CWLS log ASCII Standart – VERSION 2.0
WRAP.                                          NO:One line per depth step
~Well Information Section
STRT.M                                        1.6:Начальная глубина
STOP.M                                      209.3:Конечная глубина
STEP.M                                          0:Шаг квантования по глубине
NULL.                                    -9999.25:Признак "Нет данных"
WELL.                                       132Мх:Скважина
~Parameter Information Section
~Curve Information Section
DEPTH.M                                          :Глубина
BК.                                              :BК (Омм)
DS.mm                                            :DS
GGK.g/cm3                                        :GGKp
IК.                                              :IК (Омм)
NGК.                                             :NGК (усл.ед.)
PS.mV                                            :PS
PZ.                                              :PZ (Омм)
REZ.                                             :REZ (Омм)
U1.                                              :U1 (ue)
U2.                                              :U2 (ue)
U3.                                              :U3 (ue)
ГК.mcr/h                                         :ГКканаломНГК
~ASCII LOG DATA
# ...
98.5        151.867     130.807     2.425       19.391      1.27        257.657     48.99       2.415       2110.985    2158.561    2198.727    8.672       
98.6        53.429      131.907     2.403       18.211      1.225       254.139     47.102      2.414       2110.007    2157.645    2197.896    9.412       
98.7        22.552      132.005     2.362       17.473      1.171       250.679     42.659      2.415       2108.313    2156.159    2196.671    10.125      
98.8        14.917      132.078     2.332       16.65       1.097       247.416     35.326      2.414       2112.703    2154.775    2189.624    10.539      
98.9        13.912      131.984     2.308       15.707      1.045       244.414     29.28       2.414       2116.545    2147.053    2170.596    10.634      
99.0        14.284      130.862     2.308       15.185      1.045       241.68      24.985      2.414       2109.4      2124.696    2133.553    10.27       
99.1        13.985      135.884     2.326       14.836      1.068       239.241     22.369      2.415       2093.652    2094.244    2089.092    9.786       
99.2        13.669      133.268     2.351       14.557      1.081       237.136     20.691      2.414       2079.304    2064.008    2043.71     9.131       
99.3        13.5        134.138     2.394       14.448      1.079       235.395     19.66       2.414       2070.217    2037.521    2000.584    8.659       
99.4        14.071      136.788     2.397       14.395      1.072       233.971     19.424      2.413       2063.166    2017.483    1968.302    8.163       
99.5        14.772      131.432     2.417       14.394      1.076       232.87      19.633      2.413       2064.368    2009.18     1951.179    7.808       
99.6        15.227      129.304     2.403       14.475      1.105       232.02      20.048      2.412       2077.542    2021.635    1963.13     7.565       
99.7        15.207      130.024     2.418       14.611      1.151       231.438     20.338      2.413       2093.842    2049.98     2003.053    7.516       
99.8        15.557      141.683     2.421       14.861      1.189       231.032     20.259      2.414       2109.369    2082.08     2050.98     7.546       
99.9        22.487      143.206     2.412       15.032      1.208       230.647     20.121      2.414       2122.506    2111.092    2095.079    7.554       
100.0       23.216      141.688     2.428       15.179      1.21        230.247     20.454      2.414       2127.865    2126.357    2119.819    7.418       
100.1       17.907      140.05      2.47        15.3        1.217       229.807     21.511      2.412       2124.692    2123.513    2117.49     7.263       
100.2       16.937      137.705     2.46        15.455      1.234       229.323     22.738      2.413       2122.764    2122.141    2116.589    7.191       
100.3       18.361      139.0       2.467       15.611      1.251       228.8       23.139      2.412       2126.842    2120.262    2108.814    7.438       
100.4       22.522      138.678     2.448       15.771      1.272       228.239     22.477      2.412       2133.365    2112.314    2086.965    7.719       
100.5       29.4        138.77      2.492       15.901      1.294       227.708     21.387      2.414       2136.407    2105.998    2071.759    8.279       
100.6       25.93       138.966     2.503       16.099      1.284       227.251     20.818      2.414       2135.339    2111.274    2083.109    8.66        
100.7       20.407      137.689     2.453       16.135      1.246       226.916     20.976      2.414       2136.914    2130.14     2118.205    8.627       
100.8       18.3        137.262     2.421       15.97       1.217       226.714     21.388      2.415       2139.09     2139.816    2134.857    8.221       
100.9       17.208      135.977     2.397       15.776      1.226       226.609     21.889      2.416       2136.477    2144.426    2146.458    7.751       
101.0       15.785      135.776     2.46        15.526      1.269       226.601     22.149      2.416       2132.503    2149.53     2160.299    7.663       
101.1       13.689      135.934     2.454       15.105      1.301       226.657     22.637      2.416       2133.534    2147.725    2155.746    7.438       
101.2       13.993      135.814     2.468       14.961      1.293       226.757     23.118      2.415       2140.303    2139.875    2133.816    7.267       
101.3       17.448      136.338     2.443       14.877      1.262       226.872     23.677      2.414       2146.749    2131.305    2110.861    7.174       
101.4       19.962      135.663     2.487       14.849      1.282       226.951     23.678      2.415       2139.674    2111.899    2079.95     7.311       
101.5       23.212      136.225     2.546       14.935      1.345       226.975     23.205      2.415       2118.967    2072.189    2022.517    7.874       
101.6       34.56       135.862     2.582       15.022      1.397       226.951     21.921      2.414       2108.436    2047.512    1984.514    8.468       
101.7       42.009      137.097     2.594       15.08       1.389       226.82      20.722      2.413       2101.712    2042.214    1980.658    9.126       
101.8       37.461      138.558     2.547       14.994      1.318       226.584     19.847      2.413       2095.613    2048.912    1999.606    9.429       
101.9       25.38       137.942     2.476       14.824      1.26        226.267     19.914      2.414       2091.993    2056.707    2018.255    9.788       
102.0       21.747      139.973     2.438       14.548      1.165       225.916     20.121      2.414       2101.38     2074.813    2044.399    9.991       
102.1       16.9        140.312     2.446       14.255      1.122       225.538     20.132      2.415       2120.715    2102.82     2080.212    10.015      
102.2       14.857      137.819     2.494       13.824      1.085       225.138     19.76       2.415       2122.223    2108.138    2088.967    9.875       
102.3       13.102      137.673     2.524       13.416      1.068       224.777     19.15       2.415       2121.843    2102.535    2078.364    9.784       
102.4       12.128      137.229     2.48        13.188      1.046       224.468     18.452      2.416       2127.797    2093.347    2054.8      9.736       
102.5       11.757      137.432     2.39        13.053      1.016       224.232     17.763      2.417       2109.642    2063.237    2013.394    9.481       
102.6       12.677      137.0       2.345       12.943      1.009       224.071     17.252      2.417       2091.981    2039.34     1983.694    9.065       
102.7       12.468      135.375     2.389       12.897      1.042       223.995     17.014      2.415       2089.095    2033.832    1975.75     8.588       
102.8       12.357      131.276     2.467       12.916      1.086       223.991     17.139      2.415       2082.06     2026.203    1967.593    8.26        
102.9       12.716      131.573     2.482       13.0        1.143       224.067     17.48       2.416       2055.284    1999.549    1941.113    7.965       
103.0       13.458      131.617     2.444       13.153      1.166       224.184     17.752      2.416       2015.77     1960.408    1902.417    7.902       
103.1       17.902      131.74      2.417       13.31       1.22        224.293     17.802      2.416       1994.65     1937.033    1877.077    8.15        
103.2       23.223      132.121     2.419       13.447      1.255       224.317     17.707      2.415       1936.018    1880.692    1822.947    8.428       
103.3       23.988      131.877     2.441       13.611      1.225       224.269     17.863      2.416       1872.284    1820.108    1765.367    8.344       
103.4       22.577      133.094     2.429       13.61       1.153       224.246     18.419      2.414       1829.877    1782.171    1731.605    8.01        
103.5       20.633      134.642     2.385       13.539      1.085       224.257     19.199      2.414       1793.931    1750.451    1703.812    7.859       
