~Version Information Section
VERS.                                         2.0:CWLS log ASCII Standart – VERSION 2.0
WRAP.                                          NO:One line per depth step
~Well Information Section
STRT.M                                        1.0:Начальная глубина
STOP.M                                      199.5:Конечная глубина
STEP.M                                          0:Шаг квантования по глубине
NULL.                                    -9999.25:Признак "Нет данных"
WELL.                                       122Мх:Скважина
~Parameter Information Section
~Curve Information Section
DEPTH.M                                          :Глубина
БК.Омм                                           :BK     (БК)
DСР.мм                                           :DS  (ДС)
ГК.гамма                                         :GK          (ГК)
А0.4М0.1N.Омм.ohmm                               :GZ1   ГЗ1(A0.4M0.1N)
А1.0М0.1N.Омм.ohmm                               :GZ2   ГЗ2(A1.0M0.1N)
А2.0М0.5N.Омм.ohmm                               :GZ3   ГЗ3(A2.0M0.5N)
А4.0М0.5N.Oмм.ohmm                               :GZ4   ГЗ4(A4.0M0.5N)
А8.0М1.0N.Омм.ohmm                               :GZ5   ГЗ5(A8.0M0.5N)
N0.5M2.0A.Омм.ohmm                               :GZK   ГЗK(N0.5M2.0A)
ИК.мСм/м                                         :IK
НГК.усл.ед                                       :NGK     (НГК)
ПС.mv                                            :PS       (ПС)
КС.Омм                                           :PZ    (КС)
R.Омм                                            :RS (Резистивиметр)
ПЛОТНОСТЬ.г/см3                                  :ГГКп
П.                                               :п
ННКМ.усл.ед                                      :ННКм
~ASCII LOG DATA
# ...
15.8        108.273     161.969     6.471       16.403      13.052      9.559       7.053       6.53        11.24       12.215      0.955       13.5        37.153      1.212       2.202       35.724      130.295     
15.9        99.212      163.093     6.198       16.806      16.006      11.035      6.668       4.89        12.141      11.904      0.971       10.5        35.977      1.212       2.192       37.677      122.346     
16.0        88.46       166.824     6.071       17.657      20.161      12.429      6.705       4.269       12.854      11.556      0.978       9.0         34.626      1.212       2.186       38.891      118.229     
16.1        79.216      167.729     6.079       18.866      26.039      13.211      7.118       4.062       13.431      11.167      0.99        8.5         33.904      1.212       2.186       39.53       118.07      
16.2        70.018      169.389     6.244       20.044      30.128      13.202      7.656       3.889       13.373      10.784      1.008       9.0         33.553      1.212       2.195       40.028      119.413     
16.3        63.006      170.171     6.359       20.839      29.524      12.591      7.881       3.803       12.807      10.456      1.028       10.375      32.793      1.212       2.21        41.104      120.116     
16.4        50.147      172.803     6.327       21.56       27.225      11.749      7.77        3.716       12.16       10.238      1.048       11.25       30.858      1.212       2.226       42.391      120.548     
16.5        40.839      177.15      6.368       21.163      23.61       11.06       7.544       3.489       11.78       10.198      1.063       12.25       27.741      1.212       2.237       43.332      120.599     
16.6        33.218      176.438     6.75        20.561      20.753      10.674      7.388       3.2         11.869      10.338      1.072       12.875      23.99       1.212       2.249       44.506      120.527     
16.7        28.045      176.882     7.208       19.522      19.419      10.406      7.406       3.015       12.428      10.586      1.065       16.875      21.14       1.212       2.262       46.293      119.916     
16.8        26.235      177.204     7.549       17.884      19.185      10.091      7.257       2.822       12.681      10.825      1.042       22.25       20.083      1.212       2.282       47.715      118.76      
16.9        29.524      177.776     7.558       15.401      17.447      9.736       6.497       2.735       12.529      11.026      1.018       23.75       20.018      1.212       2.301       48.42       117.08      
17.0        33.414      178.628     7.457       11.288      13.828      9.685       5.6         2.634       12.528      11.128      1.015       23.5        20.651      1.212       2.321       48.157      115.993     
17.1        36.646      179.032     7.277       8.748       11.937      10.151      5.115       2.536       12.689      11.143      1.041       23.125      21.75       1.212       2.33        47.551      114.803     
17.2        38.006      179.471     7.064       8.421       11.228      11.53       4.756       2.528       12.797      11.121      1.079       23.0        22.56       1.212       2.333       46.703      113.86      
17.3        35.248      179.343     6.88        9.671       12.087      14.251      4.523       2.532       13.114      11.123      1.113       23.125      22.925      1.212       2.333       45.304      113.82      
17.4        27.816      179.391     6.738       11.219      12.865      17.34       4.554       2.543       13.698      11.16       1.121       24.625      23.231      1.212       2.339       43.492      114.301     
17.5        25.701      179.412     6.609       11.78       13.016      18.934      4.655       2.818       14.037      11.248      1.101       27.125      23.561      1.212       2.351       42.065      114.979     
17.6        25.767      179.496     6.557       12.565      13.065      18.771      4.619       3.386       13.902      11.391      1.068       29.0        24.009      1.212       2.364       41.191      116.583     
17.7        26.431      179.694     6.573       13.108      12.433      17.643      4.494       3.598       13.611      11.552      1.047       29.75       24.383      1.212       2.373       41.123      119.699     
17.8        25.949      179.909     6.642       12.676      11.335      16.306      4.677       3.769       13.491      11.699      1.043       29.625      24.553      1.212       2.369       40.856      122.021     
17.9        26.016      179.051     6.705       12.061      11.178      15.319      5.277       3.611       13.493      11.818      1.049       29.25       24.425      1.212       2.357       40.552      123.54      
18.0        26.914      179.734     6.747       11.836      11.857      14.7        5.972       3.679       13.571      11.959      1.058       28.875      24.098      1.212       2.334       40.494      124.095     
18.1        28.77       180.998     6.851       12.212      12.514      14.715      6.65        3.496       13.747      12.083      1.049       28.75       23.886      1.212       2.311       40.576      124.692     
18.2        28.593      181.262     6.968       12.298      12.737      14.98       7.142       3.49        13.688      12.184      1.016       27.875      23.806      1.212       2.287       40.382      125.333     
18.3        27.625      181.44      6.989       12.206      12.997      15.249      7.398       3.622       13.398      12.284      0.996       27.25       23.788      1.212       2.274       39.922      125.611     
18.4        27.744      181.745     6.85        12.451      13.466      15.495      7.616       3.645       13.036      12.366      1.019       28.5        23.858      1.212       2.263       39.116      125.125     
18.5        26.589      182.135     6.604       13.191      13.77       15.614      7.857       3.634       12.797      12.412      1.069       30.625      24.116      1.212       2.257       38.909      123.818     
18.6        24.269      181.616     6.265       13.906      13.951      15.731      8.188       3.612       12.89       12.441      1.11        32.375      24.404      1.212       2.254       38.478      123.262     
18.7        23.499      181.515     6.052       13.904      14.127      15.675      8.56        3.564       13.015      12.43       1.124       33.0        24.592      1.212       2.253       38.502      124.193     
18.8        22.608      181.278     6.005       14.469      14.54       15.432      8.812       3.587       13.011      12.425      1.118       33.625      24.787      1.212       2.256       38.786      123.78      
18.9        21.049      180.514     6.218       15.44       14.59       15.218      8.967       3.54        12.983      12.454      1.102       34.5        24.89       1.212       2.255       38.952      122.883     
19.0        19.683      179.954     6.626       15.338      13.904      14.894      9.209       3.368       12.991      12.533      1.1         35.125      24.791      1.212       2.254       39.311      120.913     
19.1        18.673      179.55      7.1         14.92       13.549      14.461      9.72        3.264       12.82       12.707      1.116       36.375      24.449      1.212       2.245       39.631      119.437     
19.2        18.356      178.995     7.379       14.808      13.576      14.134      11.166      3.196       12.473      12.943      1.108       37.875      23.97       1.212       2.237       39.582      118.224     
19.3        19.292      176.403     7.292       14.483      13.201      13.65       13.493      3.105       12.094      13.094      1.059       39.375      23.735      1.212       2.23        40.087      116.996     
19.4        21.707      168.754     7.081       14.091      12.875      12.989      15.55       3.061       11.796      13.241      1.017       40.5        23.962      1.212       2.227       39.937      114.305     
