~Version Information Section
VERS.                                         2.0:CWLS log ASCII Standart – VERSION 2.0
WRAP.                                          NO:One line per depth step
~Well Information Section
STRT.M                                        1.2:Начальная глубина
STOP.M                                      208.4:Конечная глубина
STEP.M                                          0:Шаг квантования по глубине
NULL.                                    -9999.25:Признак "Нет данных"
WELL.                                       109Мх:Скважина
~Parameter Information Section
~Curve Information Section
DEPTH.M                                          :Глубина
BK.Ohm*M                                         :BK     (БК)
DS.mm                                            :DS  (ДС)
GGK.g/cm3                                        :GGKp
ГК.mcr/h                                         :GK          (ГК)
GZ1.Ohm*M                                        :GZ1   ГЗ1(A0.4M0.1N)
GZ2.Ohm*M                                        :GZ2   ГЗ2(A1.0M0.1N)
GZ3.Ohm*M                                        :GZ3   ГЗ3(A2.0M0.5N)
GZ4.Ohm*M                                        :GZ4   ГЗ4(A4.0M0.5N)
GZ5.Ohm*M                                        :GZ5   ГЗ5(A8.0M0.5N)
GZR.Ohm*M                                        :GZK   ГЗK(N0.5M2.0A)
ИК.Ohm*M                                         :IK
НГК.u.e.                                         :NGK
NNKM.                                            :NNKm  (ННКм)
U1.mV                                            :U1
U2.mV                                            :U2
U3.mV                                            :U3
КП.%                                             :Кп
PS.mv                                            :PS       (ПС)
PZ.Ohm*M                                         :PZ    (КС)
RS.Ohm*M                                         :RS (Резистивиметр)
~ASCII LOG DATA
# ...
135.6       42.56       131.795     2.349       4.644       99.93       48.954      59.942      19.223      16.01       79.48       12.375      1.493       2.232       640.909     633.69      841.89      28.692      1065.473    42.722      1.0         
135.7       55.59       131.825     2.349       4.606       99.93       48.954      59.942      19.343      16.01       82.6        12.424      1.465       2.332       642.666     601.774     781.31      26.918      1066.043    42.145      1.0         
135.8       82.224      131.821     2.346       4.593       100.35      48.954      59.942      19.343      16.01       83.64       12.442      1.432       2.394       746.621     613.905     699.105     24.653      1066.588    41.929      1.0         
135.9       97.724      131.836     2.328       4.941       105.39      48.954      59.942      19.463      16.01       85.72       12.442      1.384       2.472       910.768     660.36      632.854     22.814      1067.108    41.929      1.0         
136.0       97.724      131.83      2.334       5.242       107.07      49.474      59.942      19.463      16.01       86.76       12.406      1.342       2.404       1064.874    714.199     605.87      23.012      1067.594    42.217      1.0         
136.1       72.946      131.681     2.34        5.378       109.17      49.994      59.942      19.583      16.15       88.84       12.335      1.268       2.292       1171.936    755.361     605.397     24.298      1068.038    42.722      1.0         
136.2       53.211      131.592     2.346       5.405       108.75      51.034      59.942      19.703      16.15       89.88       12.274      1.227       2.256       1187.115    753.426     597.106     26.207      1068.44     43.443      1.0         
136.3       37.67       131.907     2.32        5.517       106.65      52.074      59.942      19.703      16.29       89.88       12.169      1.189       2.241       1038.772    668.861     560.434     27.988      1068.801    44.453      1.0         
136.4       42.073      132.292     2.279       5.728       104.13      52.594      59.942      19.943      16.43       90.92       12.169      1.212       2.203       785.472     532.815     507.099     29.48       1069.119    45.678      1.0         
136.5       42.073      132.977     2.269       5.505       102.87      53.634      59.942      20.063      16.71       91.96       11.955      1.222       2.122       582.89      430.962     472.723     29.909      1069.396    47.12       1.0         
136.6       39.994      133.092     2.27        5.607       100.35      53.634      60.382      20.183      17.27       93.0        11.955      1.233       2.067       537.287     419.15      478.571     30.078      1069.63     48.707      1.0         
136.7       33.343      133.288     2.275       5.862       99.09       55.194      60.822      20.183      18.11       94.04       11.87       1.267       2.053       609.406     472.269     511.133     29.893      1069.823    50.293      1.0         
136.8       29.648      133.25      2.324       6.477       99.09       55.714      61.262      20.423      19.93       96.12       11.795      1.256       2.047       676.997     517.374     535.23      29.182      1069.974    51.951      1.0         
136.9       33.574      132.947     2.344       6.67        99.09       56.234      61.702      20.903      20.77       97.16       11.752      1.209       2.061       716.683     546.287     554.529     28.556      1070.091    53.61       1.0         
137.0       33.037      132.729     2.349       6.59        98.67       57.274      61.702      21.023      21.19       100.28      11.689      1.15        2.071       745.438     584.204     600.481     30.006      1070.184    55.268      1.0         
137.1       33.037      132.303     2.329       6.395       98.25       57.794      63.902      21.623      21.33       101.32      11.689      1.147       2.046       805.036     661.145     691.795     32.001      1070.251    56.71       1.0         
137.2       31.261      132.329     2.354       6.289       97.83       58.314      63.902      21.863      22.03       102.36      11.672      1.261       2.021       949.911     801.417     826.425     32.132      1070.292    58.008      1.0         
137.3       30.974      132.312     2.339       6.127       97.83       59.874      65.222      21.383      22.17       103.4       11.633      1.347       2.057       1155.814    965.308     953.451     29.867      1070.318    59.089      1.0         
137.4       29.512      132.142     2.321       6.122       97.83       59.874      66.542      20.903      22.73       102.36      11.611      1.417       2.092       1323.829    1062.432    994.797     27.975      1070.326    59.81       1.0         
137.5       29.512      132.128     2.314       6.197       97.83       60.394      66.982      20.663      22.73       101.32      11.594      1.36        2.081       1385.197    1060.737    949.054     28.211      1070.326    60.171      1.0         
137.6       29.174      132.693     2.33        6.141       97.83       58.834      66.982      20.423      22.45       101.32      11.594      1.382       2.067       1359.645    1019.78     901.395     28.889      1070.326    60.243      1.0         
137.7       31.477      133.43      2.328       6.436       98.25       58.314      69.622      20.303      22.31       100.28      11.574      1.385       2.064       1323.235    1021.75     933.092     29.42       1070.326    59.882      1.0         
137.8       33.266      132.992     2.346       6.215       98.25       57.794      72.262      20.183      22.31       95.08       11.594      1.392       2.063       1288.094    1058.63     1021.139    29.435      1070.326    59.45       1.0         
137.9       34.041      132.423     2.413       6.204       98.25       57.274      72.702      20.183      21.89       94.04       11.672      1.313       2.088       1240.228    1056.307    1049.86     28.772      1070.326    58.873      1.0         
138.0       34.041      132.331     2.468       5.669       99.51       57.274      73.582      20.183      21.75       93.0        11.749      1.225       2.14        1203.636    1020.299    1011.686    27.588      1070.326    58.152      1.0         
138.1       33.266      132.331     2.438       5.271       99.51       57.274      72.262      20.183      21.33       93.0        11.87       1.185       2.199       1273.545    1036.476    985.267     25.46       1070.326    57.287      1.0         
138.2       42.855      132.535     2.34        5.106       100.77      57.274      71.822      20.183      21.19       93.0        11.87       1.192       2.331       1460.365    1148.867    1039.344    24.323      1070.326    56.422      1.0         
138.3       52.845      132.704     2.293       5.371       101.61      57.274      71.382      20.183      21.19       91.96       11.914      1.196       2.4         1663.201    1311.336    1168.314    23.96       1070.334    55.556      1.0         
138.4       52.845      132.2       2.232       5.88        101.61      57.274      70.942      20.183      21.05       90.92       11.955      1.204       2.244       1754.254    1421.709    1289.968    24.794      1070.351    54.763      1.0         
138.5       51.642      131.945     2.265       6.01        99.93       57.274      70.502      20.183      20.91       90.92       12.059      1.177       2.12        1660.631    1391.471    1307.227    26.129      1070.376    54.114      1.0         
138.6       32.81       132.906     2.233       6.179       99.51       57.794      70.502      20.183      20.77       89.88       12.059      1.196       2.056       1459.432    1243.351    1204.031    27.226      1070.418    53.682      1.0         
138.7       26.546      132.164     2.283       6.428       98.67       57.794      70.062      20.183      20.49       88.84       12.162      1.21        1.992       1262.593    1043.085    1014.231    29.346      1070.485    53.393      1.0         
