~Version Information Section
VERS.                                         2.0:CWLS log ASCII Standart – VERSION 2.0
WRAP.                                          NO:One line per depth step
~Well Information Section
STRT.M                                        1.0:Начальная глубина
STOP.M                                      151.7:Конечная глубина
STEP.M                                          0:Шаг квантования по глубине
NULL.                                    -9999.25:Признак "Нет данных"
WELL.                                       117Мх:Скважина
~Parameter Information Section
~Curve Information Section
DEPTH.M                                          :Глубина
DСР.мм                                           :Dср
ГК.гамма                                         :GK
ИК.мСм/м                                         :IK
N0.5M2.0A.Омм.                                   :N0.5M2.0A.Омм
R.Омм                                            :R
U1.                                              :U1
U2.                                              :U2
U3.                                              :U3
W.имп/1,25с                                      :W
А0.4М0.1N.Омм.                                   :А0.4М0.1N.Омм
А1.0М0.1N.Омм.                                   :А1.0М0.1N.Омм
А2.0М0.5N.Омм.                                   :А2.0М0.5N.Омм
А4.0М0.5N.Oмм.                                   :А4.0М0.5N.Oмм
А8.0М1.0N.Омм.                                   :А8.0М1.0N.Омм
БЗ.имп/мин                                       :БЗ
БК.Омм                                           :БК
КС.Омм                                           :КС
ПС.                                              :ПС
МЗ.имп/мин                                       :МЗ
НГК.имп/1,25с                                    :ННКб
ННКМ.имп/1,25с                                   :ННКм
ПЛОТНОСТЬГГК.г/см3                               :плотностьГГК
~ASCII LOG DATA
# ...
53.2        130.651     6.011       23.105      29.952      1.265       244.605     79.285      161.412     27.317      48.547      59.981      42.56       27.519      5.141       10780.0     26.013      38.372      120.071     5480.0      3.048       1.781       2.368       
53.3        131.07      6.087       22.736      28.912      1.277       242.285     86.304      161.52      27.398      36.123      43.832      42.766      25.897      4.998       10480.0     26.123      37.141      120.759     5340.0      3.052       1.764       2.371       
53.4        132.811     6.16        22.573      26.559      1.281       272.815     100.464     180.054     27.391      28.153      38.244      40.098      19.2        4.995       10320.0     25.398      36.391      121.393     5340.0      3.033       1.778       2.375       
53.5        130.734     6.146       22.481      24.311      1.287       303.723     118.347     199.729     27.236      30.744      40.813      36.853      17.895      5.066       9940.0      24.551      36.287      121.985     5260.0      3.008       1.827       2.38        
53.6        130.493     6.063       22.392      24.253      1.28        323.694     147.058     221.066     27.048      30.189      36.478      36.409      22.229      5.109       10040.0     24.82       36.578      122.535     5160.0      3.011       1.839       2.381       
53.7        130.561     5.953       22.41       24.64       1.28        345.605     165.027     241.154     26.85       25.978      30.15       35.724      24.067      5.167       9840.0      25.746      36.999      123.051     5240.0      3.043       1.819       2.381       
53.8        130.255     5.848       22.517      25.33       1.286       385.828     194.715     276.364     26.678      24.035      27.297      34.194      24.097      5.318       9780.0      27.093      37.43       123.524     5180.0      3.124       1.788       2.382       
53.9        130.147     5.757       22.705      26.374      1.283       393.201     217.261     293.147     26.475      26.997      27.829      35.087      27.18       5.552       9700.0      29.149      37.914      123.907     5140.0      3.247       1.816       2.382       
54.0        130.033     5.688       23.021      27.313      1.281       365.772     202.918     275.315     26.275      30.537      29.998      37.381      30.585      5.832       9780.0      31.317      38.558      124.121     5200.0      3.342       1.845       2.38        
54.1        130.133     5.623       23.375      28.359      1.281       349.28      177.746     255.821     26.118      33.753      32.639      39.178      32.481      6.151       10200.0     32.934      39.33       124.074     5360.0      3.362       1.895       2.381       
54.2        130.073     5.593       23.797      28.951      1.285       330.53      151.014     234.79      26.116      33.91       32.52       39.918      31.907      6.645       10220.0     33.88       40.175      123.678     5380.0      3.32        1.927       2.381       
54.3        130.033     5.62        24.476      28.74       1.303       293.469     112.56      198.635     26.322      33.192      30.26       39.11       28.605      8.066       10400.0     33.887      41.225      122.853     5440.0      3.277       1.914       2.388       
54.4        130.093     5.69        25.343      27.607      1.298       251.367     79.248      161.448     26.682      36.319      30.797      37.065      25.403      12.117      10580.0     33.139      42.746      121.514     5600.0      3.247       1.873       2.396       
54.5        130.031     5.769       26.182      27.95       1.305       244.068     82.825      158.874     27.021      37.614      30.396      34.035      25.171      19.892      10700.0     32.413      44.735      119.6       5600.0      3.207       1.835       2.41        
54.6        129.995     5.864       26.935      31.795      1.362       236.768     86.402      156.3       27.147      36.938      27.733      31.509      28.762      29.626      10520.0     32.267      47.037      117.102     5600.0      3.169       1.859       2.425       
54.7        130.005     5.991       27.611      35.511      1.466       231.726     91.541      155.265     26.95       34.579      24.066      29.194      32.233      39.222      10160.0     32.849      49.895      114.049     5420.0      3.141       1.883       2.443       
54.8        129.938     6.051       28.399      48.923      1.542       226.685     96.68       154.23      26.438      31.706      21.738      27.206      33.777      48.66       9500.0      33.669      53.598      110.474     5340.0      3.128       1.903       2.454       
54.9        130.293     5.913       29.281      68.614      1.571       226.685     96.68       154.23      25.612      33.519      23.66       28.046      42.137      56.766      8960.0      34.451      58.11       106.448     5140.0      3.19        1.905       2.462       
55.0        130.214     5.646       30.049      106.278     1.563       226.685     96.68       154.23      24.557      36.168      25.247      32.809      60.451      62.289      8460.0      38.269      64.816      102.107     5060.0      3.472       1.938       2.462       
55.1        129.933     5.184       31.007      158.187     1.551       225.733     90.955      153.319     23.418      33.975      27.488      45.547      86.132      66.813      8400.0      56.014      73.993      97.61       5180.0      3.909       1.99        2.455       
55.2        129.989     4.595       32.313      194.236     1.543       224.781     85.23       152.408     22.28       38.208      40.074      63.353      143.342     70.765      8640.0      111.816     85.459      93.127      5400.0      4.535       2.1         2.444       
55.3        129.35      4.017       33.595      221.271     1.534       220.874     78.491      148.188     21.316      51.463      61.711      83.631      227.367     72.133      9400.0      198.329     100.729     88.839      5560.0      5.194       2.323       2.431       
55.4        129.126     3.503       34.795      238.739     1.533       216.968     71.753      143.967     20.659      65.361      82.31       102.885     281.924     69.96       10080.0     272.026     117.972     84.94       5840.0      5.62        2.523       2.42        
55.5        129.316     3.107       36.171      245.591     1.506       213.061     65.014      139.747     20.358      97.36       97.626      111.858     270.943     65.34       10380.0     317.824     135.049     81.642      5840.0      5.653       2.59        2.415       
55.6        129.097     2.979       37.76       243.167     1.483       226.013     69.592      146.126     20.333      144.993     104.053     111.128     220.504     59.796      10860.0     338.652     152.994     79.136      5800.0      5.349       2.513       2.412       
55.7        129.014     3.007       39.329      233.016     1.461       238.964     74.17       152.506     20.436      183.391     101.021     105.107     159.264     53.741      10840.0     319.167     170.852     77.525      5800.0      5.056       2.383       2.41        
55.8        129.002     3.151       40.629      221.736     1.424       244.385     80.212      157.134     20.622      203.208     97.769      97.179      101.385     47.548      10560.0     273.467     186.317     76.832      5720.0      4.86        2.281       2.413       
55.9        128.678     3.429       41.5        213.73      1.395       249.805     86.255      161.762     20.84       209.329     100.094     89.154      67.136      42.574      10120.0     242.303     196.995     77.027      5660.0      4.78        2.197       2.41        
56.0        128.565     3.731       41.736      200.739     1.374       248.267     86.694      157.88      21.081      239.59      112.465     83.342      43.957      39.511      10080.0     228.598     199.862     78.006      5680.0      4.792       2.209       2.401       
