~Version Information Section
VERS.                                         2.0:CWLS log ASCII Standart – VERSION 2.0
WRAP.                                          NO:One line per depth step
~Well Information Section
STRT.M                                        1.0:Начальная глубина
STOP.M                                      151.7:Конечная глубина
STEP.M                                          0:Шаг квантования по глубине
NULL.                                    -9999.25:Признак "Нет данных"
WELL.                                       117Мх:Скважина
~Parameter Information Section
~Curve Information Section
DEPTH.M                                          :Глубина
DСР.мм                                           :Dср
ГК.гамма                                         :GK
ИК.мСм/м                                         :IK
N0.5M2.0A.Омм.                                   :N0.5M2.0A.Омм
R.Омм                                            :R
U1.                                              :U1
U2.                                              :U2
U3.                                              :U3
W.имп/1,25с                                      :W
А0.4М0.1N.Омм.                                   :А0.4М0.1N.Омм
А1.0М0.1N.Омм.                                   :А1.0М0.1N.Омм
А2.0М0.5N.Омм.                                   :А2.0М0.5N.Омм
А4.0М0.5N.Oмм.                                   :А4.0М0.5N.Oмм
А8.0М1.0N.Омм.                                   :А8.0М1.0N.Омм
БЗ.имп/мин                                       :БЗ
БК.Омм                                           :БК
КС.Омм                                           :КС
ПС.                                              :ПС
МЗ.имп/мин                                       :МЗ
НГК.имп/1,25с                                    :ННКб
ННКМ.имп/1,25с                                   :ННКм
ПЛОТНОСТЬГГК.г/см3                               :плотностьГГК
~ASCII LOG DATA
# ...
128.6       120.266     4.736       45.298      67.533      1.532       183.899     69.153      120.293     15.2        73.683      74.029      80.098      142.798     120.009     10020.0     149.797     227.014     75.972      5440.0      7.849       2.73        2.416       
128.7       120.403     4.721       45.757      73.367      1.521       171.313     65.918      113.599     14.501      128.637     80.31       89.542      147.621     131.919     9820.0      197.092     237.006     71.56       5300.0      8.531       2.813       2.423       
128.8       120.489     4.738       46.465      78.669      1.497       160.875     60.717      106.254     13.857      202.681     88.714      98.048      148.898     145.512     9500.0      242.296     245.611     67.148      5160.0      8.918       2.935       2.434       
128.9       120.534     4.757       47.655      85.963      1.414       149.732     54.48       98.717      13.358      241.185     99.243      111.866     149.492     157.457     9040.0      282.914     250.347     62.731      4920.0      9.017       2.981       2.447       
129.0       120.621     4.787       49.395      96.22       1.434       135.669     48.303      89.577      13.043      263.872     109.099     130.367     147.363     165.52      8520.0      314.835     250.921     58.282      4900.0      9.166       3.019       2.464       
129.1       120.648     4.807       51.531      109.867     1.498       134.9       46.399      87.323      12.821      293.451     122.582     147.687     131.373     170.729     8380.0      328.423     249.94      53.788      4860.0      9.323       3.009       2.484       
129.2       120.645     4.754       53.218      123.138     1.504       133.362     45.142      85.261      12.589      330.661     142.204     160.512     100.832     174.835     8100.0      310.244     248.754     49.242      4840.0      9.587       3.005       2.504       
129.3       120.601     4.648       54.151      130.363     1.443       129.675     45.85       83.852      12.357      369.505     162.818     163.163     88.143      178.769     7800.0      268.328     245.43      44.664      4720.0      9.933       3.041       2.528       
129.4       120.561     4.506       54.933      128.842     1.417       121.387     46.228      80.752      12.21       392.644     167.548     167.284     107.383     183.023     7380.0      240.648     241.144     40.09       4560.0      10.265      3.084       2.556       
129.5       120.482     4.361       55.664      128.818     1.514       116.016     46.546      79.254      12.242      320.911     148.53      179.581     148.353     185.921     7180.0      229.644     239.637     35.557      4620.0      10.512      3.138       2.578       
129.6       120.528     4.293       55.718      134.907     1.593       108.947     43.006      73.333      12.459      269.277     145.502     177.469     179.35      184.766     6940.0      205.974     242.044     31.128      4600.0      10.525      3.156       2.592       
129.7       120.486     4.343       55.064      141.339     1.611       102.649     38.819      67.22       12.756      315.241     167.061     162.93      189.749     179.973     6520.0      183.739     248.104     26.869      4600.0      10.251      3.178       2.602       
129.8       120.481     4.433       54.545      139.875     1.604       97.07       35.083      62.398      13.081      338.264     168.959     154.497     195.967     175.443     6480.0      204.775     257.985     22.845      4760.0      9.745       3.186       2.604       
129.9       120.52      4.6         54.15       125.246     1.555       96.094      31.678      59.268      13.442      285.061     139.404     147.094     215.681     174.927     6400.0      260.372     272.588     19.122      5060.0      9.187       3.143       2.597       
130.0       120.573     4.744       53.913      111.492     1.517       93.787      26.538      55.031      13.848      227.962     111.26      137.638     257.431     177.699     6660.0      330.834     290.446     15.764      5020.0      8.772       3.03        2.587       
130.1       120.448     4.737       54.399      113.43      1.529       93.177      25.256      55.219      14.302      234.134     109.63      130.962     288.738     179.453     7080.0      426.74      308.397     13.052      5020.0      8.526       2.927       2.569       
130.2       120.451     4.625       54.889      121.115     1.554       92.224      24.048      55.353      14.687      272.146     121.677     128.1       251.928     178.412     7180.0      517.651     325.112     10.947      5080.0      8.419       2.915       2.555       
130.3       120.489     4.51        55.169      117.536     1.577       90.552      22.388      54.194      14.965      343.538     134.089     123.77      173.033     175.736     7440.0      537.821     341.272     9.156       5060.0      8.197       2.897       2.548       
130.4       120.523     4.366       55.307      112.108     1.582       84.961      26.904      52.306      15.093      434.099     144.663     123.212     136.661     171.805     7640.0      483.666     357.395     7.68        5040.0      7.754       2.868       2.542       
130.5       120.495     4.255       55.241      111.039     1.577       80.701      33.154      51.524      15.14       418.307     139.826     123.971     134.52      164.231     7840.0      412.772     371.51      6.518       5180.0      7.409       2.8         2.542       
130.6       120.501     4.247       55.294      108.453     1.568       79.382      34.082      51.093      15.106      338.281     131.993     115.394     128.863     152.87      7880.0      356.478     378.606     5.681       5200.0      7.442       2.818       2.545       
130.7       120.595     4.321       55.448      106.956     1.543       78.406      34.936      50.714      15.034      345.063     147.117     107.143     127.129     142.506     7860.0      329.895     378.927     5.173       5140.0      7.826       2.836       2.548       
130.8       120.52      4.452       55.076      110.721     1.509       77.759      35.29       51.039      14.901      414.064     182.915     107.873     139.967     134.249     7840.0      349.728     375.579     5.236       5220.0      8.271       2.892       2.549       
130.9       120.559     4.585       54.227      117.618     1.475       81.03       29.468      52.093      14.864      474.025     225.385     113.578     150.305     124.585     7900.0      388.628     366.453     6.154       5280.0      8.635       2.951       2.544       
131.0       120.441     4.743       53.439      120.092     1.435       81.934      23.962      51.869      14.97       488.729     256.729     118.167     139.276     112.951     7720.0      399.966     350.625     7.972       5220.0      8.735       3.005       2.527       
131.1       120.353     4.895       52.484      113.624     1.427       79.895      23.779      51.295      15.379      492.09      271.349     118.22      106.105     101.536     7640.0      370.5       330.774     10.7        5200.0      8.554       3.014       2.502       
131.2       120.287     4.996       51.534      103.114     1.436       89.013      27.246      57.988      15.934      508.12      276.556     114.944     70.236      91.095      7860.0      316.473     309.163     14.38       5360.0      8.022       2.992       2.472       
131.3       120.293     5.03        50.442      94.172      1.438       97.803      31.213      63.979      16.563      503.49      267.427     107.078     46.006      82.121      8320.0      254.485     288.667     19.037      5560.0      7.312       2.872       2.442       
131.4       120.155     5.076       49.237      84.126      1.425       104.699     33.654      67.195      17.129      465.736     246.317     98.6        37.557      74.554      9160.0      189.13      271.348     24.565      5680.0      6.627       2.759       2.405       
