~Version Information Section
VERS.                                         2.0:CWLS log ASCII Standart – VERSION 2.0
WRAP.                                          NO:One line per depth step
~Well Information Section
STRT.M                                        0.4:Начальная глубина
STOP.M                                      190.1:Конечная глубина
STEP.M                                          0:Шаг квантования по глубине
NULL.                                    -9999.25:Признак "Нет данных"
WELL.                                       135Мх:Скважина
~Parameter Information Section
~Curve Information Section
DEPTH.M                                          :Глубина
DS.mm                                            :DS  (ДС)
GGK.g/cm3                                        :GGKp
ГК.mcr/h                                         :GK          (ГК)
GZ1.Ohm*M                                        :GZ1   ГЗ1(A0.4M0.1N)
GZ2.Ohm*M                                        :GZ2   ГЗ2(A1.0M0.1N)
GZ3.Ohm*M                                        :GZ3   ГЗ3(A2.0M0.5N)
GZ4.Ohm*M                                        :GZ4   ГЗ4(A4.0M0.5N)
GZ5.Ohm*M                                        :GZ5   ГЗ5(A8.0M0.5N)
GZR.Ohm*M                                        :GZK   ГЗK(N0.5M2.0A)
ИК.Ohm*M                                         :IK
НГК.ue                                           :NGK     (НГК)
NNKM.                                            :NNKm  (ННКм)
PS.mv                                            :PS       (ПС)
PZ.Ohm*M                                         :PZ    (КС)
RS.Ohm*M                                         :RS (Резистивиметр)
U1.mV                                            :U1
U2.mV                                            :U2
U3.mV                                            :U3
BK.Ohm*M                                         :БК
ПОРИСТОСТЬ.                                      :Пористость ННК
~ASCII LOG DATA
# ...
22.8        138.974     2.234       3.63        -9999.25    -9999.25    -9999.25    -14.788     -9999.25    8.706       -9999.25    8.244       5.838       -9999.25    -9999.25    1.54        -9999.25    -9999.25    -9999.25    -9999.25    0.083       
22.9        139.555     2.208       3.587       -9999.25    -9999.25    -9999.25    -16.838     -9999.25    10.524      -9999.25    7.761       5.637       -9999.25    -9999.25    1.54        -9999.25    -9999.25    -9999.25    -9999.25    0.495       
23.0        140.808     2.211       3.836       -9999.25    -9999.25    -9999.25    -19.204     -9999.25    14.178      -9999.25    7.481       5.578       -9999.25    -9999.25    1.56        -9999.25    -9999.25    -9999.25    -9999.25    0.613       
23.1        140.95      2.237       4.12        -9999.25    -9999.25    -9999.25    -21.777     -9999.25    19.43       -9999.25    7.371       5.61        -9999.25    -9999.25    1.58        -9999.25    -9999.25    -9999.25    -9999.25    0.472       
23.2        140.256     2.263       4.42        -9999.25    -9999.25    -9999.25    -24.341     -9999.25    25.231      -9999.25    7.388       5.631       -9999.25    -9999.25    1.6         -9999.25    -9999.25    -9999.25    -9999.25    0.465       
23.3        139.646     2.267       4.893       -9999.25    -9999.25    -9999.25    -26.851     -9999.25    29.799      -9999.25    7.441       5.575       -9999.25    -9999.25    1.6         -9999.25    -9999.25    -9999.25    -9999.25    0.618       
23.4        139.542     2.248       5.156       -9999.25    -9999.25    -9999.25    -29.096     -9999.25    31.66       -9999.25    7.313       5.458       -9999.25    -9999.25    1.6         -9999.25    -9999.25    -9999.25    -9999.25    0.976       
23.5        139.515     2.214       5.279       -9999.25    -9999.25    -9999.25    -30.606     -9999.25    30.519      -9999.25    7.249       5.345       -9999.25    -9999.25    1.6         -9999.25    -9999.25    -9999.25    -9999.25    1.154       
23.6        139.607     2.189       5.427       -9999.25    -9999.25    -9999.25    -31.352     -9999.25    27.134      -9999.25    7.309       5.351       -9999.25    -9999.25    1.6         -9999.25    -9999.25    -9999.25    -9999.25    1.093       
23.7        139.801     2.192       5.88        -9999.25    -9999.25    -9999.25    -31.62      -9999.25    22.815      -9999.25    7.525       5.451       -9999.25    -9999.25    1.6         -9999.25    -9999.25    -9999.25    -9999.25    0.938       
23.8        140.3       2.223       6.628       -9999.25    -9999.25    -9999.25    -31.671     -9999.25    18.879      -9999.25    7.695       5.577       -9999.25    -9999.25    1.6         -9999.25    -9999.25    -9999.25    -9999.25    0.922       
23.9        140.457     2.269       7.19        -9999.25    -9999.25    -9999.25    -31.678     -9999.25    16.035      -9999.25    7.757       5.712       -9999.25    -9999.25    1.6         -9999.25    -9999.25    -9999.25    -9999.25    1.078       
24.0        140.307     2.299       7.43        -9999.25    -9999.25    -9999.25    -31.682     -9999.25    14.298      -9999.25    7.781       5.863       -9999.25    -9999.25    1.6         -9999.25    -9999.25    -9999.25    -9999.25    1.193       
24.1        140.307     2.298       7.025       -9999.25    -9999.25    -9999.25    -31.684     -9999.25    13.357      -9999.25    7.79        6.037       -9999.25    -9999.25    1.6         -9999.25    -9999.25    -9999.25    -9999.25    1.191       
24.2        140.814     2.282       6.214       1.581       -2.721      -9999.25    -31.684     -9999.25    12.882      -9999.25    7.899       6.199       -9999.25    -9999.25    1.6         -9999.25    -9999.25    -9999.25    -9999.25    0.902       
24.3        141.578     2.268       5.279       2.269       -1.879      -9999.25    -31.683     -9999.25    12.659      -9999.25    8.055       6.359       -9999.25    -9999.25    1.6         -9999.25    -9999.25    -9999.25    -9999.25    0.647       
24.4        141.893     2.264       4.535       4.018       -0.861      -9999.25    -31.681     -9999.25    12.561      -9999.25    8.157       6.424       -9999.25    -9999.25    1.6         -9999.25    -9999.25    -9999.25    -9999.25    0.308       
24.5        142.37      2.273       4.114       5.982       0.262       -9999.25    -31.676     -9999.25    12.53       -9999.25    8.223       6.356       -9999.25    -9999.25    1.6         -9999.25    -9999.25    -9999.25    -9999.25    0.184       
24.6        143.049     2.268       4.245       8.103       1.164       -9999.25    -31.669     -9999.25    12.552      -9999.25    8.238       6.264       -9999.25    -9999.25    1.6         -9999.25    -9999.25    -9999.25    -9999.25    0.214       
24.7        143.579     2.245       4.782       9.994       1.842       -9999.25    -31.66      -9999.25    12.665      -9999.25    8.282       6.178       -9999.25    -9999.25    1.6         -9999.25    -9999.25    -9999.25    -9999.25    0.314       
24.8        144.23      2.227       5.321       12.361      2.475       -9999.25    -31.652     -9999.25    12.864      -9999.25    8.322       6.166       -9999.25    -9999.25    1.6         -9999.25    -9999.25    -9999.25    -9999.25    0.374       
24.9        143.896     2.206       5.394       15.206      3.215       -9999.25    -31.646     -9999.25    13.064      -9999.25    8.334       6.246       -9999.25    -9999.25    1.6         -9999.25    -9999.25    -9999.25    -9999.25    0.405       
25.0        143.388     2.19        5.005       18.105      4.152       -9999.25    -31.644     -9999.25    13.163      -9999.25    8.323       6.336       -9999.25    -9999.25    1.6         -9999.25    -9999.25    -9999.25    -9999.25    0.38        
25.1        143.132     2.201       4.33        20.609      5.056       -9999.25    -31.643     -29.24      13.121      -9999.25    8.273       6.41        -9999.25    -9999.25    1.6         -9999.25    -9999.25    -9999.25    -9999.25    0.345       
25.2        142.997     2.212       3.734       22.319      5.768       -9999.25    -31.644     -29.974     13.026      -9999.25    8.26        6.439       -9999.25    -9999.25    1.6         -9999.25    -9999.25    -9999.25    -9999.25    0.253       
25.3        142.997     2.19        3.435       23.73       6.373       -9999.25    -31.644     -30.49      12.978      -9999.25    8.307       6.429       -9999.25    -9999.25    1.6         -9999.25    -9999.25    -9999.25    -9999.25    0.185       
25.4        142.757     2.163       3.365       25.667      6.804       -29.18      -31.604     -30.49      13.033      -9999.25    8.374       6.424       -9999.25    -9999.25    1.6         -9999.25    -9999.25    -9999.25    -9999.25    0.067       
25.5        142.807     2.148       3.472       28.348      6.999       -28.767     -31.44      -30.426     14.643      -9999.25    8.479       6.409       -9999.25    -9999.25    1.6         -9999.25    -9999.25    -9999.25    -9999.25    0.005       
25.6        143.109     2.129       3.634       31.2        6.883       -27.765     -31.026     -30.181     20.657      -9999.25    8.578       6.389       -9999.25    -9999.25    1.6         -9999.25    -9999.25    -9999.25    -9999.25    0.0         
25.7        143.788     2.1         3.934       33.412      6.508       -26.775     -30.32      -29.602     32.529      -9999.25    8.6         6.364       -9999.25    -9999.25    1.6         -9999.25    -9999.25    -9999.25    -9999.25    0.047       
25.8        144.781     2.076       3.895       34.677      6.064       -25.703     -29.533     -28.63      50.732      -9999.25    8.44        6.322       -9999.25    -9999.25    1.6         -9999.25    -9999.25    -9999.25    -9999.25    0.071       
25.9        147.423     2.055       3.837       34.825      5.639       -24.666     -28.916     -27.637     75.346      -9999.25    8.26        6.273       -9999.25    -9999.25    1.6         -9999.25    -9999.25    -9999.25    -9999.25    0.087       
