~Version Information Section
VERS.                                         2.0:CWLS log ASCII Standart – VERSION 2.0
WRAP.                                          NO:One line per depth step
~Well Information Section
STRT.M                                        1.6:Начальная глубина
STOP.M                                      212.2:Конечная глубина
STEP.M                                          0:Шаг квантования по глубине
NULL.                                    -9999.25:Признак "Нет данных"
WELL.                                       139Мх:Скважина
~Parameter Information Section
~Curve Information Section
DEPTH.M                                          :Глубина
BK.Ohm*M                                         :BK     (БК)
DS.mm                                            :DS  (ДС)
GGK.g/cm3                                        :GGKp
ГК.mcr/h                                         :GK          (ГК)
GZ1.Ohm*M                                        :GZ1   ГЗ1(A0.4M0.1N)
GZ2.Ohm*M                                        :GZ2   ГЗ2(A1.0M0.1N)
GZ3.Ohm*M                                        :GZ3   ГЗ3(A2.0M0.5N)
GZ4.Ohm*M                                        :GZ4   ГЗ4(A4.0M0.5N)
GZ5.Ohm*M                                        :GZ5   ГЗ5(A8.0M0.5N)
GZR.Ohm*M                                        :GZK   ГЗK(N0.5M2.0A)
ИК.Ohm*M                                         :IK
НГК.ue                                           :NGK     (НГК)
NNKM.                                            :NNKm  (ННКм)
PS.mv                                            :PS       (ПС)
PZ.Ohm*M                                         :PZ    (КС)
U1.mV                                            :U1
U2.mV                                            :U2
U3.mV                                            :U3
КП.%                                             :Кп
~ASCII LOG DATA
# ...
158.0       52.557      137.219     2.258       6.238       23.333      18.551      56.99       17.293      16.944      21.599      17.706      1.016       1.937       196.436     46.762      85.827      155.752     237.351     40.858      
158.1       55.719      137.511     2.249       5.993       23.335      19.118      56.977      17.313      16.899      21.86       17.801      1.02        1.976       196.484     46.349      167.343     191.353     202.625     41.245      
158.2       56.889      136.511     2.25        5.981       23.351      19.354      56.977      17.32       16.85       22.113      17.884      1.047       2.013       196.559     45.943      256.562     202.459     139.552     41.227      
158.3       57.209      136.39      2.243       5.954       23.402      19.371      56.979      17.319      16.789      22.306      17.946      1.13        2.024       196.665     45.528      293.231     188.417     98.387      40.742      
158.4       59.01       136.149     2.239       5.969       23.49       19.36       56.992      17.307      16.718      22.43       17.976      1.09        2.048       196.804     45.093      269.672     173.733     107.463     39.92       
158.5       61.831      136.022     2.222       5.904       23.604      19.275      57.04       17.269      16.643      22.507      18.013      1.086       2.075       196.983     44.632      255.241     208.521     159.559     39.812      
158.6       62.743      136.032     2.223       5.811       23.728      19.079      57.137      17.202      16.571      22.546      18.071      1.09        2.053       197.206     44.144      261.24      246.74      218.865     39.96       
158.7       62.656      137.272     2.208       5.689       23.845      18.93       57.312      17.131      16.507      22.574      18.09       1.177       2.017       197.477     43.627      267.242     279.291     264.077     40.36       
158.8       63.46       138.767     2.2         5.861       23.963      18.905      57.614      17.098      16.459      22.617      18.104      1.172       2.011       197.803     43.085      257.438     263.711     244.938     40.664      
158.9       65.314      139.078     2.206       5.805       24.12       18.905      58.09       17.098      16.427      22.697      18.091      1.105       2.007       198.183     42.523      256.158     241.94      214.044     42.296      
159.0       65.396      137.49      2.208       5.814       24.321      18.915      58.788      17.1        16.401      22.835      18.045      1.03        1.989       198.608     41.946      230.268     215.422     194.22      44.14       
159.1       62.753      137.228     2.225       5.702       24.574      18.998      59.726      17.124      16.381      23.047      18.022      0.982       1.968       199.064     41.36       192.721     194.587     197.234     44.32       
159.2       60.395      138.209     2.213       6.098       24.859      19.231      60.844      17.216      16.361      23.313      18.027      0.98        1.957       199.531     40.766      180.103     190.928     201.688     42.132      
159.3       60.461      138.665     2.213       6.213       25.118      19.545      62.001      17.394      16.33       23.561      18.042      1.002       1.985       199.982     40.167      190.369     192.07      194.921     38.541      
159.4       63.516      139.07      2.21        6.264       25.289      19.822      63.022      17.586      16.269      23.711      18.037      1.045       2.023       200.393     39.561      186.916     180.833     175.501     37.948      
159.5       68.063      139.256     2.203       5.934       25.356      19.952      63.731      17.72       16.163      23.755      18.015      1.087       2.048       200.744     38.945      171.468     158.813     143.083     39.003      
159.6       68.387      139.299     2.216       5.845       25.355      19.956      64.056      17.77       16.001      23.75       17.989      1.109       2.059       201.027     38.325      167.333     138.402     108.83      40.687      
159.7       67.094      139.616     2.218       5.62        25.341      19.944      64.113      17.766      15.779      23.702      17.939      1.135       2.043       201.239     37.714      183.75      130.368     85.721      40.881      
159.8       68.351      138.815     2.233       5.519       25.261      19.846      64.101      17.73       15.507      23.541      17.9        1.163       2.06        201.387     37.132      197.414     144.958     109.303     39.938      
159.9       70.529      136.183     2.256       5.386       25.069      19.581      64.0        17.592      15.208      23.261      17.847      1.183       2.099       201.475     36.603      193.324     182.163     179.561     39.733      
160.0       70.658      136.079     2.277       5.546       24.809      19.232      63.716      17.322      14.903      22.933      17.779      1.2         2.088       201.516     36.156      174.227     220.128     267.8       40.181      
160.1       64.735      136.7       2.281       5.718       24.521      18.891      63.338      17.003      14.608      22.624      17.716      1.152       2.06        201.52      35.808      157.886     222.054     293.169     40.725      
160.2       60.953      137.437     2.258       5.935       24.238      18.644      63.012      16.735      14.339      22.344      17.669      1.11        2.019       201.52      35.565      149.767     187.193     237.717     40.707      
160.3       60.41       137.394     2.245       5.992       23.985      18.511      62.799      16.572      14.107      22.081      17.637      1.061       1.988       201.52      35.415      149.874     151.58      164.298     40.037      
160.4       60.491      137.072     2.218       6.128       23.782      18.473      62.691      16.531      13.92       21.825      17.588      1.062       2.002       201.502     35.347      166.982     146.966     129.352     39.609      
160.5       60.614      136.396     2.197       6.233       23.657      18.473      62.66       16.531      13.78       21.579      17.546      1.053       1.994       201.472     35.345      178.01      147.147     122.501     38.436      
160.6       60.464      136.494     2.206       6.202       23.61       18.474      62.66       16.542      13.678      21.359      17.516      1.027       1.96        201.444     35.345      188.981     147.328     113.02      37.408      
160.7       58.892      137.658     2.191       6.151       23.61       18.483      62.661      16.636      13.606      21.202      17.465      1.02        1.925       201.422     35.345      195.049     135.781     90.161      36.678      
160.8       55.641      139.135     2.189       5.94        23.61       18.527      62.677      16.958      13.55       21.138      17.41       1.036       1.899       201.41      35.345      196.805     139.465     84.895      37.321      
160.9       54.125      138.466     2.209       5.773       23.618      18.64       62.733      17.552      13.499      21.138      17.384      1.148       1.889       201.403     35.398      176.119     151.081     119.686     39.672      
161.0       55.361      139.058     2.224       5.687       23.679      18.815      62.846      18.35       13.446      21.139      17.36       1.197       1.899       201.401     35.497      133.298     152.124     166.945     41.246      
161.1       59.136      138.035     2.225       5.869       23.85       18.997      63.01       19.223      13.386      21.15       17.354      1.232       1.965       201.4       35.637      90.802      134.661     186.594     41.908      
161.2       64.783      136.034     2.229       6.07        24.091      19.128      63.221      19.952      13.319      21.213      17.348      1.138       2.031       201.4       35.811      70.744      109.261     155.378     40.399      
161.3       67.763      135.127     2.22        6.159       24.309      19.178      63.463      20.362      13.234      21.373      17.304      1.096       2.1         201.4       36.004      78.673      94.0        100.896     39.334      
