~Version Information Section
VERS.                                         2.0:CWLS log ASCII Standart – VERSION 2.0
WRAP.                                          NO:One line per depth step
~Well Information Section
STRT.M                                        0.0:Начальная глубина
STOP.M                                      180.0:Конечная глубина
STEP.M                                          0:Шаг квантования по глубине
NULL.                                    -9999.25:Признак "Нет данных"
WELL.                                       120Мх:Скважина
~Parameter Information Section
~Curve Information Section
DEPTH.M                                          :Глубина
BK.Ohm*M                                         :BK     (БК)
DS.mm                                            :DS  (ДС)
GGK.g/cm3                                        :GGKp
ГК.mcr/h                                         :GK          (ГК)
GZ1.Ohm*M                                        :GZ1   ГЗ1(A0.4M0.1N)
GZ2.Ohm*M                                        :GZ2   ГЗ2(A1.0M0.1N)
GZ3.Ohm*M                                        :GZ3   ГЗ3(A2.0M0.5N)
GZ4.Ohm*M                                        :GZ4   ГЗ4(A4.0M0.5N)
GZ5.Ohm*M                                        :GZ5   ГЗ5(A8.0M0.5N)
GZR.Ohm*M                                        :GZK   ГЗK(N0.5M2.0A)
ИК.Ohm*M                                         :IK
НГК.u.e.                                         :NGK
NNKM.                                            :NNKm  (ННКм)
PS.mv                                            :PS       (ПС)
PZ.Ohm*M                                         :PZ    (КС)
RS.Ohm*M                                         :RS (Резистивиметр)
U1.mV                                            :U1
U2.mV                                            :U2
U3.mV                                            :U3
КП.%                                             :Кп
~ASCII LOG DATA
# ...
153.6       276.058     124.04      2.086       3.578       191.004     215.08      150.033     208.118     176.537     261.992     15.935      1.202       2.252       334.889     426.816     1.38        648.595     406.459     284.833     33.178      
153.8       328.095     123.271     2.061       3.442       197.148     239.192     162.555     226.131     186.245     254.973     16.004      1.262       2.255       330.886     446.618     1.38        621.274     463.185     396.291     33.234      
154.0       341.193     123.755     2.112       3.602       214.928     258.289     179.658     208.858     189.402     261.879     16.063      1.279       2.313       326.566     450.503     1.381       857.647     752.361     716.455     31.099      
154.2       354.813     124.491     2.163       3.552       231.529     264.052     189.111     183.0       193.849     208.592     16.033      1.258       2.339       322.284     460.78      1.386       1147.847    965.861     864.928     34.821      
154.4       358.096     123.401     2.17        3.618       234.91      277.295     197.27      195.667     199.973     177.899     16.034      1.302       2.405       318.761     481.21      1.389       1507.235    1043.579    781.739     30.322      
154.6       305.492     123.301     2.105       3.818       234.652     292.107     206.69      217.001     207.095     195.233     16.019      1.288       2.45        317.6       533.6       1.386       1543.49     774.851     446.234     29.924      
154.8       269.154     123.251     2.125       3.804       236.279     291.458     209.884     233.0       207.862     199.232     15.966      1.277       2.41        319.798     566.311     1.381       1498.405    971.981     716.512     32.627      
155.0       376.704     123.348     2.249       3.485       229.525     272.126     213.109     253.667     204.8       189.899     15.934      1.323       2.446       326.239     544.253     1.38        1408.48     1096.538    894.626     32.755      
155.2       349.945     122.218     2.349       3.169       217.304     246.792     206.25      262.334     200.815     187.899     15.911      1.427       2.652       337.356     486.6       1.38        1386.762    1061.174    848.24      23.173      
155.4       216.77      123.015     2.255       3.253       226.899     224.124     190.25      228.332     190.497     193.233     15.829      1.362       2.604       353.637     484.093     1.38        1575.665    1267.322    1059.878    24.03       
155.6       191.426     122.82      2.226       3.303       216.697     220.792     177.341     203.0       183.438     238.567     15.784      1.342       2.555       373.163     491.738     1.379       1435.627    1271.06     1182.551    28.81       
155.8       219.281     122.682     2.277       2.982       189.003     240.125     171.796     197.667     177.66      294.566     15.835      1.305       2.64        392.883     497.503     1.369       803.105     729.571     726.229     28.386      
156.0       233.346     123.045     2.356       3.076       206.614     234.792     177.729     193.667     170.177     324.565     15.767      1.465       2.666       412.092     493.492     1.351       531.636     443.348     429.557     24.142      
156.2       171.396     122.893     2.422       3.517       225.673     208.792     180.042     191.0       165.027     310.567     15.75       1.561       2.804       428.134     477.951     1.341       702.81      670.184     707.304     20.276      
156.4       193.197     123.124     2.447       3.487       196.672     197.458     162.434     189.667     170.459     245.23      15.694      1.581       2.966       439.97      465.042     1.338       692.229     656.181     687.169     16.653      
156.6       336.512     122.512     2.201       3.746       178.585     222.126     145.209     189.667     181.183     188.565     15.719      1.496       2.793       448.169     464.415     1.325       697.633     678.791     729.342     21.541      
156.8       368.129     122.326     2.154       3.513       194.12      258.125     155.95      189.667     193.142     182.566     15.82       1.409       2.513       453.968     463.538     1.308       852.879     783.898     791.02      29.151      
157.0       170.608     122.251     2.275       3.33        204.248     277.458     183.886     189.667     205.982     195.232     15.806      1.406       2.641       458.048     463.914     1.3         1012.487    747.661     605.656     27.572      
157.2       185.78      122.449     2.44        3.106       230.176     299.458     208.562     189.667     217.518     203.899     15.843      1.774       3.037       460.688     513.043     1.3         1548.834    619.474     478.237     17.037      
157.4       189.234     123.245     2.508       2.972       242.843     310.792     220.202     192.334     235.693     200.566     15.843      2.226       3.587       462.368     579.096     1.3         743.839     508.985     389.323     8.303       
157.6       598.411     123.048     2.45        3.015       233.703     316.125     222.031     194.334     241.805     199.899     15.918      2.463       3.529       463.088     614.314     1.3         847.977     516.129     341.645     7.566       
157.8       567.545     122.439     2.512       3.358       235.332     317.458     224.071     195.667     252.219     201.899     16.043      2.381       3.475       463.126     603.534     1.301       952.47      549.897     344.473     8.754       
158.0       521.195     123.392     2.502       3.683       232.655     294.126     234.07      195.667     266.546     205.899     16.151      2.296       3.497       463.126     505.527     1.315       943.47      541.998     354.5       8.822       
158.2       368.978     123.38      2.513       3.476       244.779     266.792     245.404     195.667     283.265     209.232     16.11       2.21        3.434       463.126     450.503     1.356       804.882     612.804     541.145     8.721       
158.4       390.841     123.226     2.578       3.279       273.056     267.458     256.738     196.334     295.961     209.899     16.169      2.34        3.475       463.126     455.015     1.409       440.477     413.728     519.022     7.634       
158.6       263.027     123.586     2.525       3.267       309.881     276.792     272.071     199.667     310.822     209.899     16.222      2.362       3.585       463.126     464.917     1.443       353.082     242.94      270.632     6.14        
158.8       422.669     123.094     2.448       3.19        347.369     292.792     283.404     201.667     317.383     209.899     16.282      2.363       3.598       463.366     466.796     1.456       396.1       314.581     328.445     6.843       
159.0       516.416     123.296     2.441       3.255       384.844     290.125     250.073     199.667     298.464     210.566     16.244      2.432       3.505       463.846     463.538     1.457       428.507     458.088     589.992     8.22        
159.2       571.479     123.255     2.485       3.588       393.0       278.792     206.071     196.334     242.56      213.232     16.257      2.398       3.397       464.364     464.916     1.452       379.655     438.916     686.176     8.72        
159.4       554.626     123.436     2.494       3.419       403.0       276.792     197.404     195.667     213.225     217.232     16.2        2.368       3.366       465.324     464.164     1.444       886.188     793.828     874.999     8.438       
159.6       357.273     123.176     2.491       3.417       408.333     277.458     200.737     195.667     215.225     217.899     16.106      2.383       3.451       466.726     458.524     1.44        1259.952    951.899     796.715     6.834       
159.8       419.759     123.504     2.543       3.2         408.333     274.125     201.404     199.0       217.892     217.899     16.058      2.479       3.515       468.368     455.516     1.44        732.838     468.328     402.463     7.144       
