~Version Information Section
VERS.                                         2.0:CWLS log ASCII Standart – VERSION 2.0
WRAP.                                          NO:One line per depth step
~Well Information Section
STRT.M                                       -2.2:Начальная глубина
STOP.M                                      205.6:Конечная глубина
STEP.M                                          0:Шаг квантования по глубине
NULL.                                    -9999.25:Признак "Нет данных"
WELL.                                       108Мх:Скважина
~Parameter Information Section
~Curve Information Section
DEPTH.M                                          :Глубина
BK.Ohm*M                                         :BK     (БК)
DS.mm                                            :DS  (ДС)
GGK.g/cm3                                        :GGKp
ГК.mcr/h                                         :GK          (ГК)
GZ1.Ohm*M                                        :GZ1   ГЗ1(A0.4M0.1N)
GZ2.Ohm*M                                        :GZ2   ГЗ2(A1.0M0.1N)
GZ3.Ohm*M                                        :GZ3   ГЗ3(A2.0M0.5N)
GZ4.Ohm*M                                        :GZ4   ГЗ4(A4.0M0.5N)
GZ5.Ohm*M                                        :GZ5   ГЗ5(A8.0M0.5N)
GZR.Ohm*M                                        :GZK   ГЗK(N0.5M2.0A)
ИК.Ohm*M                                         :IK
НГК.ue                                           :NGK     (НГК)
NNKM.                                            :NNKm  (ННКм)
PS.mv                                            :PS       (ПС)
PZ.Ohm*M                                         :PZ    (КС)
RS.Ohm*M                                         :RS (Резистивиметр)
U1.mV                                            :U1
U2.mV                                            :U2
U3.mV                                            :U3
КП.%                                             :Кп
~ASCII LOG DATA
# ...
98.2        -9999.25    132.674     -9999.25    -9999.25    148.193     169.648     22.998      6.947       19.809      30.081      -9999.25    -9999.25    -9999.25    1180.063    55.715      3.748       1013.854    885.414     697.077     -9999.25    
98.23       111.642     -9999.25    2.237       6.089       -9999.25    -9999.25    -9999.25    -9999.25    -9999.25    -9999.25    14.429      5.8         3.986       -9999.25    -9999.25    -9999.25    -9999.25    -9999.25    -9999.25    3.0         
98.3        -9999.25    132.825     -9999.25    -9999.25    148.193     169.648     22.998      6.947       19.809      30.081      -9999.25    -9999.25    -9999.25    1171.681    65.591      3.748       963.035     874.364     739.86      -9999.25    
98.33       115.169     -9999.25    2.246       6.082       -9999.25    -9999.25    -9999.25    -9999.25    -9999.25    -9999.25    14.478      5.822       3.998       -9999.25    -9999.25    -9999.25    -9999.25    -9999.25    -9999.25    2.916       
98.4        -9999.25    132.917     -9999.25    -9999.25    148.193     169.648     22.998      6.947       19.809      30.081      -9999.25    -9999.25    -9999.25    1163.997    78.266      3.748       952.336     875.921     812.414     -9999.25    
98.43       97.697      -9999.25    2.247       6.326       -9999.25    -9999.25    -9999.25    -9999.25    -9999.25    -9999.25    14.528      5.868       4.0         -9999.25    -9999.25    -9999.25    -9999.25    -9999.25    -9999.25    2.948       
98.5        -9999.25    133.422     -9999.25    -9999.25    148.193     169.648     22.998      6.947       19.809      30.081      -9999.25    -9999.25    -9999.25    1153.421    93.508      3.748       945.138     863.553     868.194     -9999.25    
98.53       92.945      -9999.25    2.248       6.419       -9999.25    -9999.25    -9999.25    -9999.25    -9999.25    -9999.25    14.578      5.969       3.988       -9999.25    -9999.25    -9999.25    -9999.25    -9999.25    -9999.25    3.035       
98.6        -9999.25    133.234     -9999.25    -9999.25    148.193     169.648     22.998      6.947       19.809      30.081      -9999.25    -9999.25    -9999.25    1142.872    110.501     3.748       905.946     882.562     938.254     -9999.25    
98.63       96.153      -9999.25    2.255       6.424       -9999.25    -9999.25    -9999.25    -9999.25    -9999.25    -9999.25    14.628      6.078       3.988       -9999.25    -9999.25    -9999.25    -9999.25    -9999.25    -9999.25    3.174       
98.7        -9999.25    132.784     -9999.25    -9999.25    148.193     169.648     22.998      6.947       19.809      30.081      -9999.25    -9999.25    -9999.25    1132.312    128.436     3.748       880.68      936.298     1002.333    -9999.25    
98.73       97.481      -9999.25    2.261       6.403       -9999.25    -9999.25    -9999.25    -9999.25    -9999.25    -9999.25    14.679      6.063       4.012       -9999.25    -9999.25    -9999.25    -9999.25    -9999.25    -9999.25    3.255       
98.8        -9999.25    132.936     -9999.25    -9999.25    148.193     169.648     22.998      6.947       19.809      30.081      -9999.25    -9999.25    -9999.25    1120.359    146.168     3.748       874.951     982.411     1071.899    -9999.25    
98.83       87.454      -9999.25    2.26        6.434       -9999.25    -9999.25    -9999.25    -9999.25    -9999.25    -9999.25    14.73       5.88        4.033       -9999.25    -9999.25    -9999.25    -9999.25    -9999.25    -9999.25    3.241       
98.9        -9999.25    133.085     -9999.25    -9999.25    148.193     169.648     22.998      6.947       19.809      30.081      -9999.25    -9999.25    -9999.25    1114.342    162.357     3.748       890.963     986.76      1069.414    -9999.25    
98.93       77.768      -9999.25    2.248       6.581       -9999.25    -9999.25    -9999.25    -9999.25    -9999.25    -9999.25    14.782      5.795       4.052       -9999.25    -9999.25    -9999.25    -9999.25    -9999.25    -9999.25    3.089       
99.0        -9999.25    132.858     -9999.25    -9999.25    148.193     169.648     22.998      6.947       19.809      30.081      -9999.25    -9999.25    -9999.25    1095.547    175.969     3.748       937.045     964.869     1021.14     -9999.25    
99.03       73.536      -9999.25    2.252       6.6         -9999.25    -9999.25    -9999.25    -9999.25    -9999.25    -9999.25    14.834      5.782       4.055       -9999.25    -9999.25    -9999.25    -9999.25    -9999.25    -9999.25    2.926       
99.1        -9999.25    132.939     -9999.25    -9999.25    148.193     169.648     22.998      6.947       19.809      30.081      -9999.25    -9999.25    -9999.25    1059.418    185.968     3.748       974.217     969.659     967.373     -9999.25    
99.13       83.755      -9999.25    2.261       6.464       -9999.25    -9999.25    -9999.25    -9999.25    -9999.25    -9999.25    14.886      5.886       4.004       -9999.25    -9999.25    -9999.25    -9999.25    -9999.25    -9999.25    2.884       
99.2        -9999.25    133.72      -9999.25    -9999.25    148.193     169.648     22.998      6.947       19.809      30.081      -9999.25    -9999.25    -9999.25    1019.513    191.211     3.748       958.751     976.792     898.619     -9999.25    
99.23       109.715     -9999.25    2.251       5.997       -9999.25    -9999.25    -9999.25    -9999.25    -9999.25    -9999.25    14.939      5.902       3.937       -9999.25    -9999.25    -9999.25    -9999.25    -9999.25    -9999.25    2.949       
99.3        -9999.25    132.983     -9999.25    -9999.25    148.193     169.648     22.998      6.947       19.809      30.081      -9999.25    -9999.25    -9999.25    973.765     191.571     3.748       906.2       920.812     794.453     -9999.25    
99.33       112.465     -9999.25    2.245       5.758       -9999.25    -9999.25    -9999.25    -9999.25    -9999.25    -9999.25    14.991      5.904       3.922       -9999.25    -9999.25    -9999.25    -9999.25    -9999.25    -9999.25    2.889       
99.4        -9999.25    132.54      -9999.25    -9999.25    148.193     169.648     22.998      6.947       19.809      30.081      -9999.25    -9999.25    -9999.25    940.792     187.436     3.748       881.185     827.291     686.04      -9999.25    
99.43       95.076      -9999.25    2.256       5.64        -9999.25    -9999.25    -9999.25    -9999.25    -9999.25    -9999.25    15.045      5.918       3.942       -9999.25    -9999.25    -9999.25    -9999.25    -9999.25    -9999.25    2.753       
99.5        -9999.25    132.274     -9999.25    -9999.25    148.193     169.648     22.998      6.947       19.809      30.081      -9999.25    -9999.25    -9999.25    936.695     180.167     3.748       965.126     765.736     619.744     -9999.25    
99.53       92.884      -9999.25    2.258       5.906       -9999.25    -9999.25    -9999.25    -9999.25    -9999.25    -9999.25    15.099      5.909       3.948       -9999.25    -9999.25    -9999.25    -9999.25    -9999.25    -9999.25    2.676       
99.6        -9999.25    131.871     -9999.25    -9999.25    148.193     169.648     22.998      6.947       19.809      30.081      -9999.25    -9999.25    -9999.25    936.662     170.479     3.748       1057.83     769.564     598.012     -9999.25    
99.63       96.889      -9999.25    2.245       6.101       -9999.25    -9999.25    -9999.25    -9999.25    -9999.25    -9999.25    15.153      5.939       3.933       -9999.25    -9999.25    -9999.25    -9999.25    -9999.25    -9999.25    2.757       
99.7        -9999.25    131.54      -9999.25    -9999.25    148.193     169.648     22.998      6.947       19.809      30.081      -9999.25    -9999.25    -9999.25    923.591     159.405     3.748       1127.769    818.67      567.581     -9999.25    
99.73       105.531     -9999.25    2.248       6.271       -9999.25    -9999.25    -9999.25    -9999.25    -9999.25    -9999.25    15.207      5.991       3.928       -9999.25    -9999.25    -9999.25    -9999.25    -9999.25    -9999.25    2.899       
