~Version Information Section
VERS.                                         2.0:CWLS log ASCII Standart – VERSION 2.0
WRAP.                                          NO:One line per depth step
~Well Information Section
STRT.M                                        0.6:Начальная глубина
STOP.M                                      208.2:Конечная глубина
STEP.M                                          0:Шаг квантования по глубине
NULL.                                    -9999.25:Признак "Нет данных"
WELL.                                       156Мх:Скважина
~Parameter Information Section
~Curve Information Section
DEPTH.M                                          :Глубина
БК.Ом                                            :BK     (БК)
DСР.мм                                           :DS  (ДС)
ПЛОТНОСТЬ.г/см^3                                 :GGKp
ГК.мкР/час                                       :GK          (ГК)
А0.4М0.1N.Ом                                     :GZ1   ГЗ1(A0.4M0.1N)
А1.0М0.1N.Ом                                     :GZ2   ГЗ2(A1.0M0.1N)
А2.0М0.5N.Ом                                     :GZ3   ГЗ3(A2.0M0.5N)
А4.0М0.5N.Oм                                     :GZ4   ГЗ4(A4.0M0.5N)
А8.0М1.0N.Ом                                     :GZ5   ГЗ5(A8.0M0.5N)
N0.5M2.0A.Ом                                     :GZR   ГЗK(N0.5M2.0A)
ИК.мСм/м                                         :IK
НГК.усл.ед                                       :NGK     (НГК)
ННКМ.усл.ед                                      :NNKm  (ННКм)
ПС.mv                                            :PS       (ПС)
N11.0M0.5A.Ом                                    :PZ    (КС)
РЕЗИСТИВИМЕТР.Ом                                 :RS (Резистивиметр)
КПSIO.%                                          :W
~ASCII LOG DATA
# ...
111.6       58.034      160.465     2.317       7.579       63.31       48.717      20.036      29.848      16.533      48.589      30.113      1.328       1.502       67.786      52.314      1.31        23.16       
111.7       56.552      160.09      2.303       7.58        64.883      50.61       20.257      28.359      14.305      39.953      30.237      1.304       1.489       68.295      53.612      1.31        23.446      
111.8       46.674      158.684     2.29        7.555       64.508      52.423      21.02       26.853      12.818      33.76       30.291      1.267       1.469       68.321      58.305      1.31        23.784      
111.9       42.27       154.064     2.28        7.471       61.838      53.928      21.882      24.901      12.044      30.787      30.147      1.225       1.414       67.912      63.522      1.31        24.171      
112.0       41.159      154.156     2.273       7.317       57.021      54.888      22.741      22.703      11.899      29.836      29.805      1.203       1.359       67.095      66.255      1.31        24.625      
112.1       41.429      152.702     2.268       7.267       51.757      55.046      24.199      21.114      12.072      29.436      29.421      1.202       1.332       65.934      65.364      1.31        25.029      
112.2       43.065      152.682     2.266       7.462       47.152      53.958      27.698      21.133      12.177      28.824      29.047      1.201       1.321       64.628      62.015      1.31        25.351      
112.3       45.616      152.804     2.263       7.672       44.006      54.253      34.124      22.671      12.002      27.987      28.698      1.197       1.32        63.299      58.025      1.31        25.658      
112.4       42.832      152.852     2.259       7.952       44.777      61.813      42.649      24.693      11.861      27.43       28.252      1.186       1.331       62.155      54.729      1.31        26.015      
112.5       35.306      152.679     2.258       8.249       46.697      70.412      51.167      26.091      12.039      28.805      27.703      1.161       1.313       61.521      52.537      1.31        26.423      
112.6       30.79       152.609     2.259       8.306       45.452      69.999      57.407      26.221      12.562      33.627      27.059      1.124       1.288       61.294      51.171      1.31        26.931      
112.7       28.051      152.507     2.263       8.123       39.874      58.314      58.935      24.493      13.301      40.654      26.404      1.093       1.263       61.502      49.959      1.31        27.511      
112.8       26.48       152.837     2.266       7.906       34.52       44.124      55.447      21.342      14.058      46.449      25.779      1.07        1.233       62.406      47.639      1.31        28.121      
112.9       25.252      153.919     2.268       7.608       34.012      36.28       49.998      18.348      14.421      48.538      25.225      1.057       1.204       63.772      43.888      1.31        28.633      
113.0       27.286      154.984     2.265       7.307       38.096      34.56       46.993      16.842      14.122      47.18       24.775      1.057       1.207       65.323      39.823      1.31        28.997      
113.1       31.893      155.806     2.256       6.999       44.347      36.949      48.21       16.792      13.36       43.358      24.411      1.069       1.207       66.914      37.106      1.31        29.21       
113.2       30.573      155.84      2.243       6.709       49.751      40.49       52.138      17.197      12.627      38.266      24.13       1.086       1.208       68.275      36.858      1.31        29.294      
113.3       30.713      155.503     2.23        6.546       49.804      40.863      55.816      17.248      12.219      33.476      23.905      1.105       1.209       69.21       39.043      1.31        29.248      
113.4       31.714      152.438     2.22        6.568       45.342      38.769      56.246      16.472      11.943      30.298      23.695      1.114       1.213       69.687      42.11       1.31        29.111      
113.5       30.927      150.978     2.215       6.591       39.543      35.872      52.028      14.937      11.659      28.839      23.471      1.107       1.214       69.47       43.81       1.31        28.941      
113.6       31.121      151.822     2.218       6.629       34.038      32.059      44.798      13.15       11.19       28.248      23.216      1.096       1.225       68.524      42.521      1.31        28.814      
113.7       33.804      151.855     2.225       6.684       29.676      27.647      37.317      11.622      10.589      27.598      22.921      1.082       1.235       67.231      39.103      1.31        28.71       
113.8       31.975      148.892     2.233       6.644       26.378      23.264      31.275      10.644      9.836       26.163      22.564      1.064       1.248       65.894      35.376      1.31        28.738      
113.9       23.495      149.191     2.241       6.495       25.783      21.268      27.376      10.521      9.171       23.978      22.185      1.044       1.26        64.721      32.515      1.31        28.944      
114.0       21.551      149.402     2.249       6.426       26.329      20.542      25.449      11.283      8.655       21.702      21.81       1.026       1.263       64.044      31.05       1.31        29.263      
114.1       24.995      148.369     2.253       6.502       27.157      20.757      24.944      12.796      8.661       19.92       21.491      1.005       1.244       63.777      30.715      1.31        29.641      
114.2       21.689      148.532     2.256       6.548       27.914      21.604      24.772      14.937      9.297       18.822      21.276      0.978       1.215       63.773      31.385      1.31        30.111      
114.3       20.43       151.338     2.26        6.605       28.06       21.98       24.898      18.016      10.432      18.631      21.216      0.955       1.182       64.188      32.61       1.31        30.588      
114.4       21.307      150.052     2.266       6.657       27.483      21.998      26.068      22.613      11.78       19.222      21.284      0.948       1.147       64.856      33.898      1.31        31.025      
114.5       20.42       150.573     2.271       6.69        27.517      23.691      28.546      28.76       13.356      20.292      21.469      0.957       1.134       65.527      34.689      1.31        31.345      
114.6       22.063      151.402     2.27        6.707       30.247      28.937      32.092      35.966      15.987      21.844      21.764      0.974       1.138       66.254      34.837      1.31        31.487      
114.7       26.318      151.671     2.268       6.7         33.632      33.982      36.871      44.221      19.323      24.96       22.137      0.998       1.158       67.06       34.832      1.31        31.386      
114.8       25.871      152.866     2.268       6.6         34.624      34.807      43.766      54.018      23.043      30.559      22.513      1.015       1.179       67.656      35.309      1.31        31.076      
114.9       22.758      157.489     2.266       6.411       33.575      33.11       52.015      64.469      26.229      37.985      22.841      1.023       1.201       68.109      36.326      1.31        30.67       
115.0       21.646      156.406     2.264       6.234       36.851      36.572      59.582      74.229      29.315      45.864      23.142      1.029       1.21        68.915      37.177      1.31        30.284      
115.1       23.007      153.236     2.271       6.087       47.705      45.968      64.96       82.506      32.379      54.715      23.479      1.038       1.228       70.033      37.312      1.31        29.918      
115.2       29.684      161.031     2.288       5.963       58.117      52.568      67.86       88.459      35.029      66.733      23.91       1.046       1.24        71.238      37.118      1.31        29.594      
