~Version Information Section
VERS.                                         2.0:CWLS log ASCII Standart – VERSION 2.0
WRAP.                                          NO:One line per depth step
~Well Information Section
STRT.M                                        0.2:Начальная глубина
STOP.M                                      176.0:Конечная глубина
STEP.M                                          0:Шаг квантования по глубине
NULL.                                    -9999.25:Признак "Нет данных"
WELL.                                       112Мх:Скважина
~Parameter Information Section
~Curve Information Section
DEPTH.M                                          :Глубина
BK.Ohm*M                                         :BK     (БК)
DS.mm                                            :DS  (ДС)
GGK.g/cm3                                        :GGKp
ГК.mcr/h                                         :GK          (ГК)
GZ1.Ohm*M                                        :GZ1   ГЗ1(A0.4M0.1N)
GZ2.Ohm*M                                        :GZ2   ГЗ2(A1.0M0.1N)
GZ3.Ohm*M                                        :GZ3   ГЗ3(A2.0M0.5N)
GZ4.Ohm*M                                        :GZ4   ГЗ4(A4.0M0.5N)
GZ5.Ohm*M                                        :GZ5   ГЗ5(A8.0M0.5N)
GZR.Ohm*M                                        :GZK   ГЗK(N0.5M2.0A)
ИК.Ohm*M                                         :IK
НГК.ue                                           :NGK     (НГК)
NNKM.                                            :NNKm  (ННКм)
PS.mv                                            :PS       (ПС)
PZ.Ohm*M                                         :PZ    (КС)
U1.mV                                            :U1
U2.mV                                            :U2
U3.mV                                            :U3
КП.%                                             :Кп
~ASCII LOG DATA
# ...
51.2        65.728      138.581     2.286       4.54        16.941      11.682      12.874      17.779      2.075       32.085      20.522      1.076       1.991       320.5       52.12       730.0       2910.0      580.0       43.401      
51.3        79.776      138.325     2.314       4.255       18.261      12.307      13.546      17.821      2.276       33.757      21.323      1.077       2.013       320.68      53.28       740.0       2930.0      570.0       41.066      
51.4        82.288      138.155     2.339       4.053       19.953      13.054      14.292      17.881      2.522       35.485      22.075      1.088       2.18        320.82      54.52       740.0       2950.0      570.0       39.957      
51.5        81.752      138.164     2.354       4.004       22.102      13.922      15.075      17.975      2.808       37.211      22.987      1.065       2.366       320.92      55.8        730.0       2940.0      570.0       39.403      
51.6        79.52       138.211     2.355       3.82        24.739      14.897      15.855      18.111      3.121       38.817      24.003      1.061       2.371       320.98      57.16       730.0       2930.0      570.0       39.005      
51.7        76.904      138.197     2.345       3.682       27.805      15.964      16.6        18.288      3.45        40.182      25.177      1.046       2.354       321.0       58.4        720.0       2920.0      570.0       38.606      
51.8        73.976      138.195     2.33        3.713       31.17       17.133      17.29       18.507      3.818       41.193      26.158      1.127       2.369       321.0       59.64       700.0       2880.0      580.0       38.381      
51.9        75.408      138.35      2.317       3.587       34.639      18.44       17.909      18.772      4.276       41.745      27.097      1.236       2.424       321.0       60.8        700.0       2870.0      590.0       38.218      
52.0        81.864      138.317     2.303       3.573       37.974      19.918      18.452      19.061      4.881       41.904      27.751      1.374       2.48        321.0       61.88       780.0       2870.0      600.0       37.63       
52.1        82.344      137.992     2.287       3.71        40.931      21.606      18.925      19.355      5.692       41.893      28.343      1.429       2.494       321.0       62.8        810.0       2900.0      600.0       37.659      
52.2        89.088      137.919     2.272       3.883       43.35       23.535      19.332      19.664      6.741       41.782      29.24       1.429       2.485       321.0       63.64       810.0       2910.0      600.0       38.086      
52.3        89.912      137.978     2.264       3.87        45.191      25.703      19.684      19.951      7.968       41.37       30.045      1.388       2.444       321.0       64.36       790.0       2920.0      620.0       38.603      
52.4        88.696      138.027     2.265       3.733       46.497      28.061      19.999      20.111      9.244       40.552      30.006      1.407       2.392       321.0       65.0        780.0       2930.0      630.0       38.319      
52.5        90.864      138.01      2.27        3.613       47.389      30.526      20.3        20.135      10.4        39.411      29.846      1.445       2.349       321.0       65.64       770.0       2940.0      640.0       38.088      
52.6        97.24       137.85      2.278       3.642       48.082      33.004      20.619      20.122      11.238      37.999      29.58       1.473       2.382       321.04      66.4        770.0       2960.0      660.0       37.939      
52.7        96.696      137.923     2.288       3.627       48.776      35.389      20.992      20.005      11.646      36.328      29.606      1.421       2.433       321.18      67.24       770.0       2950.0      660.0       37.607      
52.8        93.68       137.882     2.298       3.556       49.64       37.585      21.457      19.606      11.728      34.427      29.536      1.395       2.431       321.46      68.2        790.0       2950.0      670.0       36.454      
52.9        88.68       137.927     2.304       3.398       50.858      39.535      22.052      18.828      11.708      32.309      28.95       1.438       2.438       322.0       69.24       810.0       2950.0      690.0       35.601      
53.0        94.064      137.917     2.307       3.205       52.388      41.158      22.803      17.709      11.549      29.97       28.785      1.41        2.454       322.92      70.32       820.0       2940.0      700.0       35.063      
53.1        104.008     138.062     2.307       3.067       53.751      42.307      23.701      16.43       11.075      27.548      28.638      1.394       2.475       324.18      71.28       820.0       2940.0      700.0       34.232      
53.2        104.896     138.129     2.309       2.978       54.388      42.922      24.705      15.193      10.336      25.191      28.051      1.348       2.494       325.72      72.16       840.0       3061.21     700.0       32.894      
53.3        103.152     138.183     2.308       3.129       54.424      43.109      25.748      14.153      9.507       23.039      27.425      1.365       2.514       327.64      72.84       703.434     2919.903    667.686     31.709      
53.4        101.808     138.265     2.306       3.387       54.34       43.098      26.751      13.45       8.734       21.244      27.04       1.362       2.543       329.84      73.36       472.73      2778.596    610.933     31.904      
53.5        99.736      138.543     2.301       3.763       53.631      42.981      27.634      13.134      8.103       19.952      26.992      1.375       2.572       332.1       73.68       326.647     2678.523    564.017     33.118      
53.6        101.968     138.986     2.302       4.15        51.477      42.509      28.344      13.093      7.649       19.183      26.809      1.371       2.55        334.5       73.88       261.313     2617.797    526.487     34.875      
53.7        109.008     139.978     2.313       4.191       48.006      41.501      28.853      13.093      7.366       18.902      26.473      1.375       2.486       337.1       73.96       239.478     2588.633    490.739     36.984      
53.8        105.008     140.524     2.332       4.396       43.868      40.069      29.199      13.112      7.234       18.902      25.868      1.368       2.382       339.62      74.0        239.478     2588.633    456.991     40.776      
53.9        100.016     142.529     2.353       4.933       39.923      38.299      29.442      13.271      7.203       18.905      25.155      1.432       2.261       341.94      74.0        266.528     2594.938    423.243     44.788      
54.0        98.296      142.796     2.368       5.318       36.726      36.242      29.631      13.736      7.202       18.961      24.231      1.527       2.125       344.2       74.0        293.577     2601.244    405.832     44.239      
54.1        96.144      142.516     2.384       5.345       34.518      34.055      29.795      14.466      7.202       19.271      23.205      1.532       2.013       346.26      74.0        325.023     2614.257    405.832     40.718      
54.2        91.96       139.517     2.399       4.794       33.264      32.021      29.965      15.38       7.216       20.051      22.072      1.492       1.979       347.98      73.96       362.806     2636.94     411.971     33.558      
54.3        89.864      139.294     2.406       4.416       32.791      30.346      30.13       16.389      7.282       21.191      21.465      1.36        2.165       349.48      73.88       350.725     2688.227    548.907     31.538      
54.4        86.44       139.882     2.404       4.265       32.747      29.146      30.31       17.378      7.421       22.576      21.432      1.269       2.464       350.82      73.72       326.928     2788.489    909.789     32.994      
54.5        82.48       140.28      2.391       4.314       32.747      28.499      30.556      18.315      7.655       24.091      21.695      1.203       2.546       351.9       73.32       308.166     2742.433    837.436     36.512      
