~Version Information Section
VERS.                                         2.0:CWLS log ASCII Standart – VERSION 2.0
WRAP.                                          NO:One line per depth step
~Well Information Section
STRT.M                                        0.0:Начальная глубина
STOP.M                                      208.6:Конечная глубина
STEP.M                                          0:Шаг квантования по глубине
NULL.                                    -9999.25:Признак "Нет данных"
WELL.                                       140Мх:Скважина
~Parameter Information Section
~Curve Information Section
DEPTH.M                                          :Глубина
GZ1.ohmm                                         :Подошвенный градиент-зонд А0.4М0.1N
GZ2.ohmm                                         :Подошвенный градиент-зонд А1.0М0.1N
GZ3.ohmm                                         :Подошвенный градиент-зонд А2.0М0.5N
GZ5.ohmm                                         :Подошвенный градиент-зонд А8.0М1.0N
GZ3R.GZ3R                                        :GZ3R
GZ4.ohmm                                         :Подошвенный градиент-зонд А4.0М0.5N
GGK.g/cc                                         :Плотностной гамма-гамма каротаж
ГК.ur/h                                          :Гамма каротаж
ИК.ohmm                                          :Индукционный каротаж (сопротивление),
BK.ohmm                                          :Боковой каротаж
NKTS.ue                                          :Нейтронный каротаж по тепловым нейтронам (малый зонд)
WNK.De                                           :Водородосодержание по НК
НГК.ue                                           :Нейтронный каротаж по тепловым нейтронам (большой зонд)
PZ.ohmm                                          :Потенциал-зонд ИММ 0,5А; В4 0,25М
-.                                               :-      SP mv)
DS1.m                                            :Профиль 1 сечения ствола скважины по профилеметрии
DS.m                                             :Кавернометрия
DS2.m                                            :Профиль 2 сечения ствола скважины по профилеметрии
~ASCII LOG DATA
# ...
65.0        -9999.25    -9999.25    -9999.25    -9999.25    -9999.25    -9999.25    2.236       8.092       13.647      72.117      3.566       0.188       19.294      29.546      3587.315    0.158       0.154       0.151       
65.1        64.175      13.147      2.507       15.124      40.418      12.554      -9999.25    -9999.25    -9999.25    -9999.25    -9999.25    -9999.25    -9999.25    -9999.25    -9999.25    -9999.25    -9999.25    -9999.25    
65.2        -9999.25    -9999.25    -9999.25    -9999.25    -9999.25    -9999.25    2.199       8.096       13.841      64.402      3.559       -0.47       19.66       17.5        3589.603    0.158       0.155       0.151       
65.3        68.768      12.024      1.486       9.655       60.644      57.567      -9999.25    -9999.25    -9999.25    -9999.25    -9999.25    -9999.25    -9999.25    -9999.25    -9999.25    -9999.25    -9999.25    -9999.25    
65.4        -9999.25    -9999.25    -9999.25    -9999.25    -9999.25    -9999.25    2.187       8.127       14.185      65.578      3.545       -0.608      19.612      15.625      3582.119    0.158       0.154       0.15        
65.5        68.938      13.724      1.336       8.542       62.941      14.44       -9999.25    -9999.25    -9999.25    -9999.25    -9999.25    -9999.25    -9999.25    -9999.25    -9999.25    -9999.25    -9999.25    -9999.25    
65.6        -9999.25    -9999.25    -9999.25    -9999.25    -9999.25    -9999.25    2.16        8.7         14.715      61.532      3.593       -0.328      19.551      13.75       3565.125    0.158       0.154       0.151       
65.7        77.346      15.718      1.212       8.542       64.4        16.249      -9999.25    -9999.25    -9999.25    -9999.25    -9999.25    -9999.25    -9999.25    -9999.25    -9999.25    -9999.25    -9999.25    -9999.25    
65.8        -9999.25    -9999.25    -9999.25    -9999.25    -9999.25    -9999.25    2.131       8.186       15.272      54.875      3.675       -0.192      19.531      19.063      3545.809    0.157       0.154       0.151       
65.9        71.855      16.946      1.253       8.542       86.359      20.6        -9999.25    -9999.25    -9999.25    -9999.25    -9999.25    -9999.25    -9999.25    -9999.25    -9999.25    -9999.25    -9999.25    -9999.25    
66.0        -9999.25    -9999.25    -9999.25    -9999.25    -9999.25    -9999.25    2.128       8.767       15.584      48.698      3.648       -0.092      19.082      19.688      3535.597    0.158       0.154       0.151       
66.1        83.151      18.756      1.253       9.661       57.213      24.721      -9999.25    -9999.25    -9999.25    -9999.25    -9999.25    -9999.25    -9999.25    -9999.25    -9999.25    -9999.25    -9999.25    -9999.25    
66.2        -9999.25    -9999.25    -9999.25    -9999.25    -9999.25    -9999.25    2.149       8.457       15.719      101.004     3.583       0.105       18.708      33.832      3509.266    0.158       0.154       0.151       
66.3        74.342      21.54       1.693       4.498       71.998      25.486      -9999.25    -9999.25    -9999.25    -9999.25    -9999.25    -9999.25    -9999.25    -9999.25    -9999.25    -9999.25    -9999.25    -9999.25    
66.4        -9999.25    -9999.25    -9999.25    -9999.25    -9999.25    -9999.25    2.189       7.636       15.889      100.605     3.699       0.415       19.854      31.707      3495.021    0.159       0.155       0.151       
66.5        76.551      21.283      1.295       11.988      68.255      48.033      -9999.25    -9999.25    -9999.25    -9999.25    -9999.25    -9999.25    -9999.25    -9999.25    -9999.25    -9999.25    -9999.25    -9999.25    
66.6        -9999.25    -9999.25    -9999.25    -9999.25    -9999.25    -9999.25    2.221       7.014       15.933      111.672     3.798       -0.291      20.821      40.083      3490.453    0.157       0.153       0.15        
66.7        76.168      19.874      2.114       12.268      90.948      50.046      -9999.25    -9999.25    -9999.25    -9999.25    -9999.25    -9999.25    -9999.25    -9999.25    -9999.25    -9999.25    -9999.25    -9999.25    
66.8        -9999.25    -9999.25    -9999.25    -9999.25    -9999.25    -9999.25    2.247       6.487       16.36       131.255     3.775       -0.446      21.06       47.198      3496.756    0.156       0.153       0.15        
66.9        62.276      17.292      3.088       11.966      119.829     22.071      -9999.25    -9999.25    -9999.25    -9999.25    -9999.25    -9999.25    -9999.25    -9999.25    -9999.25    -9999.25    -9999.25    -9999.25    
67.0        -9999.25    -9999.25    -9999.25    -9999.25    -9999.25    -9999.25    2.245       7.175       16.224      117.203     3.849       -0.58       21.644      46.702      3521.164    0.156       0.153       0.15        
67.1        1081.621    23.413      3.386       11.495      181.65      14.518      -9999.25    -9999.25    -9999.25    -9999.25    -9999.25    -9999.25    -9999.25    -9999.25    -9999.25    -9999.25    -9999.25    -9999.25    
67.2        -9999.25    -9999.25    -9999.25    -9999.25    -9999.25    -9999.25    2.229       6.891       15.54       98.585      3.825       -0.909      21.323      46.126      3533.007    0.157       0.154       0.15        
67.3        1011.553    26.754      2.95        12.919      258.37      26.794      -9999.25    -9999.25    -9999.25    -9999.25    -9999.25    -9999.25    -9999.25    -9999.25    -9999.25    -9999.25    -9999.25    -9999.25    
67.4        -9999.25    -9999.25    -9999.25    -9999.25    -9999.25    -9999.25    2.238       6.697       15.664      107.127     3.778       -0.71       20.92       45.158      3548.111    0.157       0.154       0.15        
67.5        1112.629    24.009      5.267       6.568       266.303     12.395      -9999.25    -9999.25    -9999.25    -9999.25    -9999.25    -9999.25    -9999.25    -9999.25    -9999.25    -9999.25    -9999.25    -9999.25    
67.6        -9999.25    -9999.25    -9999.25    -9999.25    -9999.25    -9999.25    2.218       6.996       15.917      118.663     3.76        -0.554      20.765      41.516      3566.358    0.157       0.154       0.15        
67.7        1569.159    31.476      7.026       10.488      129.312     18.715      -9999.25    -9999.25    -9999.25    -9999.25    -9999.25    -9999.25    -9999.25    -9999.25    -9999.25    -9999.25    -9999.25    -9999.25    
67.8        -9999.25    -9999.25    -9999.25    -9999.25    -9999.25    -9999.25    2.211       7.298       15.638      134.84      3.793       -0.445      21.17       44.457      3580.205    0.157       0.154       0.15        
67.9        816.452     39.909      6.509       12.214      83.833      27.951      -9999.25    -9999.25    -9999.25    -9999.25    -9999.25    -9999.25    -9999.25    -9999.25    -9999.25    -9999.25    -9999.25    -9999.25    
68.0        -9999.25    -9999.25    -9999.25    -9999.25    -9999.25    -9999.25    2.214       7.399       15.34       131.636     3.844       -0.729      21.496      48.774      3602.488    0.157       0.153       0.15        
68.1        76.651      27.804      7.131       8.942       184.324     18.906      -9999.25    -9999.25    -9999.25    -9999.25    -9999.25    -9999.25    -9999.25    -9999.25    -9999.25    -9999.25    -9999.25    -9999.25    
68.2        -9999.25    -9999.25    -9999.25    -9999.25    -9999.25    -9999.25    2.171       6.7         15.302      100.501     3.837       -0.7        21.039      45.197      3612.881    0.156       0.153       0.15        
68.3        1510.662    32.689      7.162       7.378       167.613     3.214       -9999.25    -9999.25    -9999.25    -9999.25    -9999.25    -9999.25    -9999.25    -9999.25    -9999.25    -9999.25    -9999.25    -9999.25    
68.4        -9999.25    -9999.25    -9999.25    -9999.25    -9999.25    -9999.25    2.127       6.577       15.249      91.903      3.82        -0.243      20.15       46.126      3617.552    0.157       0.154       0.151       
