~Version Information Section
VERS.                                         2.0:CWLS log ASCII Standart – VERSION 2.0
WRAP.                                          NO:One line per depth step
~Well Information Section
STRT.M                                        0.6:Начальная глубина
STOP.M                                      209.2:Конечная глубина
STEP.M                                          0:Шаг квантования по глубине
NULL.                                    -9999.25:Признак "Нет данных"
WELL.                                       107Мх:Скважина
~Parameter Information Section
~Curve Information Section
DEPTH.M                                          :Глубина
PS.mv                                            :PS       (ПС)
PZ.Ohm*M                                         :PZ    (КС)
RS.Ohm*M                                         :RS (Резистивиметр)
U1.mV                                            :U1
U2.mV                                            :U2
U3.mV                                            :U3
КП.%                                             :Кп
BK.Ohm*M                                         :BK     (БК)
DS.mm                                            :DS  (ДС)
GGK.g/cm3                                        :GGKp
ГК.mcr/h                                         :GK          (ГК)
GZ1.Ohm*M                                        :GZ1   ГЗ1(A0.4M0.1N)
GZ2.Ohm*M                                        :GZ2   ГЗ2(A1.0M0.1N)
GZ3.Ohm*M                                        :GZ3   ГЗ3(A2.0M0.5N)
GZ4.Ohm*M                                        :GZ4   ГЗ4(A4.0M0.5N)
GZ5.Ohm*M                                        :GZ5   ГЗ5(A8.0M0.5N)
GZR.Ohm*M                                        :GZK   ГЗK(N0.5M2.0A)
ИК.Ohm*M                                         :IK
НГК.u.e.                                         :NGK
NNKM.                                            :NNKm  (ННКм)
~ASCII LOG DATA
# ...
106.2       1076.461    54.575      0.975       628.941     355.964     352.576     46.388      12.388      153.083     2.099       6.457       90.69       33.874      49.382      14.423      14.33       45.16       7.289       1.064       11.814      
106.3       1075.732    51.943      0.975       716.912     459.254     445.147     43.764      12.677      153.083     1.921       6.727       91.11       33.874      48.942      14.423      14.33       44.12       7.462       1.011       11.562      
106.4       1075.003    50.063      0.975       828.469     562.188     530.744     38.004      12.677      153.083     1.747       6.828       91.11       34.394      48.502      14.423      14.33       43.08       7.462       0.993       11.356      
106.5       1074.273    47.807      0.975       978.058     653.279     586.508     34.179      13.002      153.083     1.707       6.918       91.11       34.394      48.502      14.423      14.33       42.04       7.686       0.972       11.099      
106.6       1073.544    45.927      0.975       1143.72     757.919     658.16      31.967      13.274      153.083     1.817       6.808       91.11       34.394      48.062      14.423      14.47       41.0        7.922       1.008       10.974      
106.7       1072.79     44.047      0.975       1266.571    847.783     729.481     30.259      13.49       153.083     2.007       6.504       91.53       34.394      48.062      14.303      14.47       39.96       8.19        1.01        10.877      
106.8       1072.036    42.543      0.975       1335.892    917.061     795.696     30.102      13.49       152.643     2.166       6.34        91.95       34.914      48.062      14.183      14.47       38.92       8.19        1.068       11.385      
106.9       1071.307    41.039      0.975       1354.518    964.414     851.111     28.714      13.243      152.203     2.295       6.529       92.79       34.914      48.062      14.063      14.47       38.92       8.499       1.09        12.271      
107.0       1070.577    39.911      0.975       1320.077    974.971     876.462     27.451      14.322      152.203     2.364       6.779       93.21       34.394      48.062      13.943      14.47       38.92       8.859       1.058       12.79       
107.1       1069.848    39.159      0.975       1221.009    904.056     818.746     26.888      17.498      152.203     2.44        6.701       93.21       33.354      48.062      13.943      14.47       41.0        9.226       1.04        13.444      
107.2       1069.094    38.783      0.975       1069.481    760.951     687.346     27.742      17.498      152.203     2.448       6.331       93.63       32.314      48.062      13.823      14.47       41.0        9.226       1.035       14.016      
107.3       1068.289    39.535      0.975       930.378     636.212     584.186     26.334      17.418      152.203     2.444       5.93        94.05       32.314      48.502      13.703      14.47       41.0        9.583       1.014       14.338      
107.4       1067.435    41.039      0.975       834.613     589.413     581.152     24.431      22.751      152.203     2.419       5.649       93.63       31.794      48.942      13.583      14.33       41.0        9.957       1.043       14.623      
107.5       1066.504    42.919      0.975       754.901     571.301     611.046     21.773      22.751      152.203     2.42        5.164       93.63       31.274      49.382      13.583      14.19       41.0        10.313      1.075       14.841      
107.6       1065.499    45.551      0.975       699.863     569.468     644.335     21.002      32.659      152.203     2.483       4.86        92.79       31.274      49.822      13.463      14.05       41.0        10.313      1.17        15.014      
107.7       1064.443    47.431      0.975       664.964     574.827     670.843     20.284      34.277      152.203     2.509       4.769       92.79       30.754      50.262      13.463      14.05       41.0        10.631      1.243       15.322      
107.8       1063.336    48.183      0.975       615.605     548.176     658.19      20.448      43.053      152.203     2.501       4.575       92.79       30.754      49.822      13.463      13.91       41.0        10.9        1.379       15.629      
107.9       1062.23     48.183      0.975       554.482     490.452     606.266     21.047      66.527      152.203     2.451       4.455       92.79       30.754      49.382      13.463      13.77       41.0        11.129      1.507       17.0        
108.0       1061.149    47.807      0.975       526.69      448.084     554.973     21.587      66.527      151.763     2.417       4.198       92.79       30.754      48.942      13.463      13.77       41.0        11.129      1.586       18.714      
108.1       1060.093    46.303      0.975       549.006     435.368     518.555     22.046      109.144     151.323     2.391       4.022       93.21       30.754      48.502      13.463      13.77       41.0        11.365      1.596       19.637      
108.2       1059.062    44.047      0.975       635.649     454.767     501.14      23.296      115.611     150.883     2.361       3.854       93.21       30.754      48.062      13.463      13.77       41.0        11.538      1.531       20.412      
108.3       1058.056    41.415      0.975       754.427     471.477     459.765     24.083      115.611     150.883     2.31        3.947       93.21       30.754      48.062      13.703      13.77       41.0        11.538      1.512       20.447      
108.4       1057.051    39.159      0.975       853.249     472.719     398.969     23.604      189.671     150.883     2.288       4.136       92.79       30.754      48.062      13.943      13.77       41.0        11.655      1.486       20.182      
108.5       1056.045    36.903      0.975       915.365     473.569     361.465     22.271      246.604     150.883     2.275       4.153       91.95       30.754      48.062      13.943      13.77       42.04       11.709      1.432       19.92       
108.6       1055.014    35.023      0.975       937.799     479.825     358.136     22.296      246.604     150.883     2.273       4.01        91.11       30.754      48.062      13.943      14.05       42.04       11.613      1.405       19.608      
108.7       1053.958    34.271      0.975       914.959     494.997     389.186     23.719      328.095     150.883     2.274       3.383       90.69       30.754      48.062      14.063      14.19       43.08       11.462      1.381       19.341      
108.8       1052.927    34.271      0.976       867.379     521.91      447.068     26.032      344.35      151.323     2.317       3.156       89.85       30.754      48.062      14.063      14.19       43.08       11.462      1.414       18.902      
108.9       1051.921    34.271      0.978       859.24      567.507     511.836     27.901      215.278     151.323     2.408       2.948       89.01       30.754      48.062      14.063      14.61       43.08       11.365      1.341       18.617      
109.0       1050.941    34.271      0.98        894.342     633.365     587.333     28.731      71.121      151.763     2.467       3.422       89.01       30.754      48.062      14.183      15.03       43.08       11.256      1.267       18.845      
109.1       1049.985    34.271      0.982       941.049     714.406     688.597     28.238      71.121      151.763     2.428       3.522       88.59       32.314      48.062      14.183      15.59       44.12       11.256      1.218       18.799      
109.2       1049.055    34.647      0.984       978.109     788.954     792.368     27.137      23.496      151.763     2.35        3.742       88.17       33.874      48.062      14.303      16.01       47.24       11.149      1.183       17.663      
109.3       1048.15     35.399      0.986       992.927     838.511     874.612     26.667      19.011      151.763     2.304       4.093       88.17       36.994      48.062      14.303      16.57       49.32       11.145      1.153       16.753      
