~Version Information Section
VERS.                                         2.0:CWLS log ASCII Standart – VERSION 2.0
WRAP.                                          NO:One line per depth step
~Well Information Section
STRT.M                                        0.0:Начальная глубина
STOP.M                                      208.6:Конечная глубина
STEP.M                                          0:Шаг квантования по глубине
NULL.                                    -9999.25:Признак "Нет данных"
WELL.                                       140Мх:Скважина
~Parameter Information Section
~Curve Information Section
DEPTH.M                                          :Глубина
GZ1.ohmm                                         :Подошвенный градиент-зонд А0.4М0.1N
GZ2.ohmm                                         :Подошвенный градиент-зонд А1.0М0.1N
GZ3.ohmm                                         :Подошвенный градиент-зонд А2.0М0.5N
GZ5.ohmm                                         :Подошвенный градиент-зонд А8.0М1.0N
GZ3R.GZ3R                                        :GZ3R
GZ4.ohmm                                         :Подошвенный градиент-зонд А4.0М0.5N
GGK.g/cc                                         :Плотностной гамма-гамма каротаж
ГК.ur/h                                          :Гамма каротаж
ИК.ohmm                                          :Индукционный каротаж (сопротивление),
BK.ohmm                                          :Боковой каротаж
NKTS.ue                                          :Нейтронный каротаж по тепловым нейтронам (малый зонд)
WNK.De                                           :Водородосодержание по НК
НГК.ue                                           :Нейтронный каротаж по тепловым нейтронам (большой зонд)
PZ.ohmm                                          :Потенциал-зонд ИММ 0,5А; В4 0,25М
-.                                               :-      SP mv)
DS1.m                                            :Профиль 1 сечения ствола скважины по профилеметрии
DS.m                                             :Кавернометрия
DS2.m                                            :Профиль 2 сечения ствола скважины по профилеметрии
~ASCII LOG DATA
# ...
58.0        -9999.25    -9999.25    -9999.25    -9999.25    -9999.25    -9999.25    2.363       9.825       9.069       3137.312    3.179       -0.133      17.028      1698.599    1998.323    0.158       0.155       0.152       
58.1        67.182      40.239      115.794     272.156     326.964     38.392      -9999.25    -9999.25    -9999.25    -9999.25    -9999.25    -9999.25    -9999.25    -9999.25    -9999.25    -9999.25    -9999.25    -9999.25    
58.2        -9999.25    -9999.25    -9999.25    -9999.25    -9999.25    -9999.25    2.47        9.338       8.992       1004067.625 3.022       -1.073      16.13       1487.933    2071.08     0.158       0.155       0.151       
58.3        61.757      179.718     204.868     283.902     134846.156  197978.016  -9999.25    -9999.25    -9999.25    -9999.25    -9999.25    -9999.25    -9999.25    -9999.25    -9999.25    -9999.25    -9999.25    -9999.25    
58.4        -9999.25    -9999.25    -9999.25    -9999.25    -9999.25    -9999.25    2.373       9.107       9.0         78.458      2.912       -0.215      18.278      46.534      2125.17     0.169       0.166       0.162       
58.5        19.99       132.306     194.206     42.726      161009.438  131.153     -9999.25    -9999.25    -9999.25    -9999.25    -9999.25    -9999.25    -9999.25    -9999.25    -9999.25    -9999.25    -9999.25    -9999.25    
58.6        -9999.25    -9999.25    -9999.25    -9999.25    -9999.25    -9999.25    2.271       9.38        8.936       51.897      3.487       -1.089      21.002      66.559      2992.743    0.164       0.162       0.16        
58.7        2981.852    51.918      15.177      353.866     289.038     191.705     -9999.25    -9999.25    -9999.25    -9999.25    -9999.25    -9999.25    -9999.25    -9999.25    -9999.25    -9999.25    -9999.25    -9999.25    
58.8        -9999.25    -9999.25    -9999.25    -9999.25    -9999.25    -9999.25    2.326       8.827       8.847       55.264      3.316       -1.736      18.6        35.718      3359.887    0.157       0.153       0.15        
58.9        1712.714    27.633      252.983     24.275      51753.625   161202.906  -9999.25    -9999.25    -9999.25    -9999.25    -9999.25    -9999.25    -9999.25    -9999.25    -9999.25    -9999.25    -9999.25    -9999.25    
59.0        -9999.25    -9999.25    -9999.25    -9999.25    -9999.25    -9999.25    2.388       9.295       8.755       52.29       3.193       -0.501      17.36       32.072      3301.894    0.157       0.154       0.15        
59.1        2337.001    66.977      67.612      155.652     118.038     220212.125  -9999.25    -9999.25    -9999.25    -9999.25    -9999.25    -9999.25    -9999.25    -9999.25    -9999.25    -9999.25    -9999.25    -9999.25    
59.2        -9999.25    -9999.25    -9999.25    -9999.25    -9999.25    -9999.25    2.39        8.967       8.678       50.067      3.213       -0.271      17.29       37.161      3297.012    0.157       0.154       0.15        
59.3        82.342      46.545      23.405      227.775     17040.541   33321.621   -9999.25    -9999.25    -9999.25    -9999.25    -9999.25    -9999.25    -9999.25    -9999.25    -9999.25    -9999.25    -9999.25    -9999.25    
59.4        -9999.25    -9999.25    -9999.25    -9999.25    -9999.25    -9999.25    2.419       9.101       8.521       47.067      3.239       0.017       17.007      30.912      2918.851    0.157       0.154       0.151       
59.5        76.527      19.226      25154.66    -18.95      382.328     367.262     -9999.25    -9999.25    -9999.25    -9999.25    -9999.25    -9999.25    -9999.25    -9999.25    -9999.25    -9999.25    -9999.25    -9999.25    
59.6        -9999.25    -9999.25    -9999.25    -9999.25    -9999.25    -9999.25    2.429       9.101       8.393       37.249      3.305       0.184       16.923      28.681      2477.601    0.156       0.153       0.15        
59.7        82.606      31.921      402.699     127.122     210.73      7722.76     -9999.25    -9999.25    -9999.25    -9999.25    -9999.25    -9999.25    -9999.25    -9999.25    -9999.25    -9999.25    -9999.25    -9999.25    
59.8        -9999.25    -9999.25    -9999.25    -9999.25    -9999.25    -9999.25    2.359       9.735       8.414       52.815      3.071       -0.772      15.828      67.398      1809.385    0.159       0.155       0.151       
59.9        58.425      14.242      238.565     172.901     382.464     140.335     -9999.25    -9999.25    -9999.25    -9999.25    -9999.25    -9999.25    -9999.25    -9999.25    -9999.25    -9999.25    -9999.25    -9999.25    
60.0        -9999.25    -9999.25    -9999.25    -9999.25    -9999.25    -9999.25    2.106       10.369      8.605       3909.044    2.932       0.451       18.295      53.58       1244.92     0.171       0.169       0.168       
60.1        38.005      14.108      7.226       179.512     11658.082   330.829     -9999.25    -9999.25    -9999.25    -9999.25    -9999.25    -9999.25    -9999.25    -9999.25    -9999.25    -9999.25    -9999.25    -9999.25    
60.2        -9999.25    -9999.25    -9999.25    -9999.25    -9999.25    -9999.25    1.985       11.571      8.94        17625.719   3.563       -1.254      26.511      5101.355    1069.411    0.205       0.196       0.188       
60.3        27.999      7.865       7.573       248.439     14442.053   51.536      -9999.25    -9999.25    -9999.25    -9999.25    -9999.25    -9999.25    -9999.25    -9999.25    -9999.25    -9999.25    -9999.25    -9999.25    
60.4        -9999.25    -9999.25    -9999.25    -9999.25    -9999.25    -9999.25    1.996       11.085      9.539       1287674.25  3.657       -4.093      26.261      -3.691      987.811     0.179       0.183       0.187       
60.5        72.049      19.826      6.801       277.216     6491.147    226.158     -9999.25    -9999.25    -9999.25    -9999.25    -9999.25    -9999.25    -9999.25    -9999.25    -9999.25    -9999.25    -9999.25    -9999.25    
60.6        -9999.25    -9999.25    -9999.25    -9999.25    -9999.25    -9999.25    2.131       10.954      10.314      128875.867  3.465       -3.056      22.295      70.369      1213.772    0.18        0.172       0.163       
60.7        3692.683    11.372      4.925       182.636     9289.83     4957.627    -9999.25    -9999.25    -9999.25    -9999.25    -9999.25    -9999.25    -9999.25    -9999.25    -9999.25    -9999.25    -9999.25    -9999.25    
60.8        -9999.25    -9999.25    -9999.25    -9999.25    -9999.25    -9999.25    2.188       10.266      10.975      2594.665    3.444       -1.789      18.881      -3.807      1502.466    0.158       0.156       0.154       
60.9        37067.391   92.021      4.402       149.975     9078.161    4524.904    -9999.25    -9999.25    -9999.25    -9999.25    -9999.25    -9999.25    -9999.25    -9999.25    -9999.25    -9999.25    -9999.25    -9999.25    
61.0        -9999.25    -9999.25    -9999.25    -9999.25    -9999.25    -9999.25    2.364       8.866       11.666      3796.251    3.221       -0.442      16.772      -3.797      1751.503    0.157       0.154       0.151       
61.1        24094.736   71.915      4.659       43.673      8225.729    5409.385    -9999.25    -9999.25    -9999.25    -9999.25    -9999.25    -9999.25    -9999.25    -9999.25    -9999.25    -9999.25    -9999.25    -9999.25    
61.2        -9999.25    -9999.25    -9999.25    -9999.25    -9999.25    -9999.25    2.382       7.853       12.505      66.417      3.206       0.384       16.976      -3.797      1751.503    0.156       0.153       0.151       
61.3        82.261      337.623     4.027       206.163     10091.493   5294.542    -9999.25    -9999.25    -9999.25    -9999.25    -9999.25    -9999.25    -9999.25    -9999.25    -9999.25    -9999.25    -9999.25    -9999.25    
61.4        -9999.25    -9999.25    -9999.25    -9999.25    -9999.25    -9999.25    2.338       6.991       13.136      103.574     3.369       0.553       18.918      4.758       1868.209    0.156       0.153       0.15        
