~Version Information Section
VERS.                                         2.0:CWLS log ASCII Standart – VERSION 2.0
WRAP.                                          NO:One line per depth step
~Well Information Section
STRT.M                                        0.6:Начальная глубина
STOP.M                                      205.9:Конечная глубина
STEP.M                                          0:Шаг квантования по глубине
NULL.                                    -9999.25:Признак "Нет данных"
WELL.                                       106Мх:Скважина
~Parameter Information Section
~Curve Information Section
DEPTH.M                                          :Глубина
BK.Ohm*M                                         :BK     (БК)
DS.mm                                            :DS  (ДС)
GGK.g/cm3                                        :GGKp
ГК.mcr/h                                         :GK          (ГК)
GZ1.Ohm*M                                        :GZ1   ГЗ1(A0.4M0.1N)
GZ2.Ohm*M                                        :GZ2   ГЗ2(A1.0M0.1N)
GZ3.Ohm*M                                        :GZ3   ГЗ3(A2.0M0.5N)
U2.mV                                            :U2
U3.mV                                            :U3
КП.%                                             :Кп
GZ4.Ohm*M                                        :GZ4   ГЗ4(A4.0M0.5N)
GZ5.Ohm*M                                        :GZ5   ГЗ5(A8.0M0.5N)
GZR.Ohm*M                                        :GZK   ГЗK(N0.5M2.0A)
ИК.Ohm*M                                         :IK
НГК.u.e.                                         :NGK
NNKM.                                            :NNKm  (ННКм)
PS.mv                                            :PS       (ПС)
PZ.Ohm*M                                         :PZ    (КС)
RS.Ohm*M                                         :RS (Резистивиметр)
U1.mV                                            :U1
~ASCII LOG DATA
# ...
199.0       27.102      120.315     2.297       10.056      -9999.25    -9999.25    -9999.25    312.256     436.667     35.157      -9999.25    -9999.25    -9999.25    13.996      1.047       1.912       596.836     47.467      -9999.25    422.441     
199.1       31.117      120.018     2.286       9.749       -9999.25    -9999.25    -9999.25    285.431     440.0       33.92       -9999.25    -9999.25    -9999.25    13.944      1.076       1.937       599.573     48.0        -9999.25    382.353     
199.2       33.806      119.57      2.279       9.767       -9999.25    -9999.25    -9999.25    285.431     443.333     32.366      -9999.25    -9999.25    -9999.25    13.948      1.1         1.962       602.653     48.0        -9999.25    352.006     
199.3       33.42       119.704     2.271       9.46        -9999.25    -9999.25    -9999.25    340.428     446.667     31.365      -9999.25    -9999.25    -9999.25    13.965      1.115       1.978       605.049     47.733      -9999.25    375.448     
199.4       32.81       119.568     2.264       9.98        -9999.25    -9999.25    -9999.25    395.426     445.485     31.655      -9999.25    -9999.25    -9999.25    14.213      1.113       1.951       606.76      46.933      -9999.25    385.031     
199.5       34.119      119.439     2.258       10.113      -9999.25    -9999.25    -9999.25    346.845     437.658     31.697      -9999.25    -9999.25    -9999.25    14.424      1.108       1.925       606.76      46.0        -9999.25    357.317     
199.6       35.645      119.346     2.26        10.113      -9999.25    -9999.25    -9999.25    243.266     421.053     31.055      -9999.25    -9999.25    -9999.25    14.412      1.102       1.961       612.92      45.067      -9999.25    317.874     
199.7       38.459      119.987     2.263       9.698       -9999.25    -9999.25    -9999.25    243.266     401.465     30.545      -9999.25    -9999.25    -9999.25    14.462      1.075       2.003       616.0       44.533      -9999.25    308.192     
199.8       38.019      119.958     2.265       9.454       -9999.25    -9999.25    -9999.25    260.641     379.712     30.049      -9999.25    -9999.25    -9999.25    14.391      1.086       2.015       619.08      44.133      -9999.25    339.985     
199.9       37.411      120.588     2.27        9.544       -9999.25    -9999.25    -9999.25    278.015     356.623     29.525      -9999.25    -9999.25    -9999.25    14.569      1.125       2.018       619.08      44.133      -9999.25    387.676     
200.0       37.497      120.842     2.274       10.033      -9999.25    -9999.25    -9999.25    280.021     333.057     29.435      -9999.25    -9999.25    -9999.25    14.571      1.129       2.009       622.16      44.133      -9999.25    424.766     
200.1       37.497      121.062     2.272       10.325      -9999.25    -9999.25    -9999.25    264.651     316.31      29.733      -9999.25    -9999.25    -9999.25    14.789      1.101       1.981       622.16      44.667      -9999.25    433.05      
200.2       32.885      120.757     2.272       10.874      -9999.25    -9999.25    -9999.25    258.304     313.691     31.121      -9999.25    -9999.25    -9999.25    14.777      1.086       1.942       622.16      45.867      -9999.25    407.223     
200.3       30.339      120.688     2.269       11.087      -9999.25    -9999.25    -9999.25    251.958     323.117     32.205      -9999.25    -9999.25    -9999.25    14.617      1.141       1.942       622.16      47.067      -9999.25    376.091     
200.4       29.923      121.161     2.266       10.873      -9999.25    -9999.25    -9999.25    251.958     336.071     33.507      -9999.25    -9999.25    -9999.25    14.674      1.141       1.966       622.16      48.0        -9999.25    360.98      
200.5       29.512      121.353     2.272       10.3        -9999.25    -9999.25    -9999.25    256.507     341.335     33.854      -9999.25    -9999.25    -9999.25    14.621      1.098       1.972       619.08      48.4        -9999.25    367.188     
200.6       28.576      121.574     2.282       9.844       -9999.25    -9999.25    -9999.25    261.057     336.05      34.08       -9999.25    -9999.25    -9999.25    14.619      1.069       1.97        619.08      48.8        -9999.25    367.704     
200.7       26.607      122.039     2.298       9.606       -9999.25    -9999.25    -9999.25    240.188     322.689     34.034      -9999.25    -9999.25    -9999.25    14.488      1.09        1.99        616.0       49.333      -9999.25    356.106     
200.8       24.717      122.968     2.319       9.469       -9999.25    -9999.25    -9999.25    214.152     309.394     34.096      -9999.25    -9999.25    -9999.25    14.432      1.176       2.014       612.92      49.867      -9999.25    341.4       
200.9       24.547      124.035     2.334       9.384       -9999.25    -9999.25    -9999.25    214.152     301.612     32.84       -9999.25    -9999.25    -9999.25    14.465      1.193       2.043       612.92      50.533      -9999.25    341.298     
201.0       22.856      120.828     2.345       9.103       -9999.25    -9999.25    -9999.25    226.485     299.186     30.82       -9999.25    -9999.25    -9999.25    14.434      1.224       2.173       606.76      50.933      -9999.25    345.751     
201.1       23.227      120.513     2.355       8.804       -9999.25    -9999.25    -9999.25    -9999.25    -9999.25    29.175      -9999.25    -9999.25    -9999.25    14.455      1.211       2.386       606.76      50.933      -9999.25    -9999.25    
201.2       33.113      120.367     2.356       8.485       -9999.25    -9999.25    -9999.25    -9999.25    -9999.25    29.097      -9999.25    -9999.25    -9999.25    14.51       1.263       2.425       603.68      50.933      -9999.25    -9999.25    
201.3       32.885      120.512     2.35        8.394       -9999.25    -9999.25    -9999.25    -9999.25    -9999.25    29.535      -9999.25    -9999.25    -9999.25    14.654      1.245       2.325       600.6       50.533      -9999.25    -9999.25    
201.4       29.04       120.762     2.337       8.499       -9999.25    -9999.25    -9999.25    -9999.25    -9999.25    29.465      -9999.25    -9999.25    -9999.25    14.953      1.215       2.233       597.52      50.0        -9999.25    -9999.25    
201.5       22.182      120.869     2.318       8.667       -9999.25    -9999.25    -9999.25    -9999.25    -9999.25    29.215      -9999.25    -9999.25    -9999.25    15.314      1.182       2.161       594.44      49.6        -9999.25    -9999.25    
201.6       22.182      121.847     2.299       9.13        -9999.25    -9999.25    -9999.25    -9999.25    -9999.25    29.679      -9999.25    -9999.25    -9999.25    15.564      1.137       2.1         591.36      49.2        -9999.25    -9999.25    
201.7       22.233      122.611     2.289       9.372       -9999.25    -9999.25    -9999.25    -9999.25    -9999.25    31.013      -9999.25    -9999.25    -9999.25    15.637      1.121       2.017       591.36      48.667      -9999.25    -9999.25    
201.8       22.439      121.793     2.289       9.659       -9999.25    -9999.25    -9999.25    -9999.25    -9999.25    33.268      -9999.25    -9999.25    -9999.25    15.62       1.107       1.921       591.36      48.267      -9999.25    -9999.25    
201.9       22.439      123.379     2.307       9.728       -9999.25    -9999.25    -9999.25    -9999.25    -9999.25    34.13       -9999.25    -9999.25    -9999.25    15.61       1.153       1.869       591.36      48.0        -9999.25    -9999.25    
202.0       22.439      120.227     2.328       9.844       -9999.25    -9999.25    -9999.25    -9999.25    -9999.25    33.225      -9999.25    -9999.25    -9999.25    15.518      1.182       1.887       597.52      47.867      -9999.25    -9999.25    
202.1       22.439      115.549     2.35        9.835       -9999.25    -9999.25    -9999.25    -9999.25    -9999.25    30.221      -9999.25    -9999.25    -9999.25    15.531      1.198       2.134       597.52      47.733      -9999.25    -9999.25    
