~Version Information Section
VERS.                                         2.0:CWLS log ASCII Standart – VERSION 2.0
WRAP.                                          NO:One line per depth step
~Well Information Section
STRT.M                                        0.2:Начальная глубина
STOP.M                                      176.0:Конечная глубина
STEP.M                                          0:Шаг квантования по глубине
NULL.                                    -9999.25:Признак "Нет данных"
WELL.                                       112Мх:Скважина
~Parameter Information Section
~Curve Information Section
DEPTH.M                                          :Глубина
BK.Ohm*M                                         :BK     (БК)
DS.mm                                            :DS  (ДС)
GGK.g/cm3                                        :GGKp
ГК.mcr/h                                         :GK          (ГК)
GZ1.Ohm*M                                        :GZ1   ГЗ1(A0.4M0.1N)
GZ2.Ohm*M                                        :GZ2   ГЗ2(A1.0M0.1N)
GZ3.Ohm*M                                        :GZ3   ГЗ3(A2.0M0.5N)
GZ4.Ohm*M                                        :GZ4   ГЗ4(A4.0M0.5N)
GZ5.Ohm*M                                        :GZ5   ГЗ5(A8.0M0.5N)
GZR.Ohm*M                                        :GZK   ГЗK(N0.5M2.0A)
ИК.Ohm*M                                         :IK
НГК.ue                                           :NGK     (НГК)
NNKM.                                            :NNKm  (ННКм)
PS.mv                                            :PS       (ПС)
PZ.Ohm*M                                         :PZ    (КС)
U1.mV                                            :U1
U2.mV                                            :U2
U3.mV                                            :U3
КП.%                                             :Кп
~ASCII LOG DATA
# ...
44.4        -9999.25    143.591     -9999.25    5.94        -9999.25    -9999.25    -9999.25    -9999.25    -9999.25    -9999.25    -9999.25    7.043       4.213       -9999.25    -9999.25    -9999.25    -9999.25    -9999.25    1.551       
44.5        -9999.25    143.378     -9999.25    5.702       -9999.25    -9999.25    -9999.25    -9999.25    -9999.25    -9999.25    -9999.25    6.666       4.206       -9999.25    -9999.25    -9999.25    -9999.25    -9999.25    1.791       
44.6        -9999.25    143.139     -9999.25    5.626       -9999.25    -9999.25    -9999.25    -9999.25    -9999.25    -9999.25    -9999.25    6.329       4.234       -9999.25    -9999.25    -9999.25    -9999.25    -9999.25    1.833       
44.7        -9999.25    143.208     -9999.25    5.866       -9999.25    -9999.25    -9999.25    -9999.25    -9999.25    -9999.25    -9999.25    6.016       4.223       -9999.25    -9999.25    -9999.25    -9999.25    -9999.25    1.585       
44.8        -9999.25    143.074     -9999.25    6.239       -9999.25    -9999.25    -9999.25    -9999.25    -9999.25    -9999.25    15.732      5.708       4.211       -9999.25    -9999.25    -9999.25    -9999.25    -9999.25    1.358       
44.9        -9999.25    143.188     -9999.25    6.609       -9999.25    -9999.25    -9999.25    -9999.25    -9999.25    -9999.25    15.324      5.574       4.199       -9999.25    -9999.25    -9999.25    -9999.25    -9999.25    1.321       
45.0        -9999.25    143.938     -9999.25    6.382       15.546      3.763       4.797       3.167       -9999.25    12.492      15.121      5.501       4.178       -9999.25    -9999.25    -9999.25    -9999.25    -9999.25    1.415       
45.1        -9999.25    143.0       -9999.25    6.401       15.449      6.754       2.851       2.117       7.901       12.208      14.909      5.438       4.158       -9999.25    -9999.25    -9999.25    -9999.25    -9999.25    1.591       
45.2        27.656      143.221     -9999.25    6.11        14.371      11.534      2.02        1.832       4.844       12.049      14.63       5.394       4.156       -9999.25    -9999.25    -9999.25    -9999.25    -9999.25    1.69        
45.3        31.32       142.912     -9999.25    6.097       13.664      13.436      1.46        2.005       3.92        11.993      14.462      5.283       4.168       -9999.25    -9999.25    -9999.25    -9999.25    -9999.25    1.853       
45.4        37.16       143.289     -9999.25    5.929       13.925      12.491      1.228       2.099       3.293       11.963      14.473      5.357       4.146       372.0       16.0        -9999.25    -9999.25    -9999.25    1.945       
45.5        40.208      142.621     -9999.25    6.074       14.061      11.92       1.208       1.942       2.965       12.432      14.624      5.305       4.114       370.0       17.0        -9999.25    -9999.25    -9999.25    1.918       
45.6        42.352      142.422     -9999.25    6.32        14.061      12.257      1.145       1.914       2.714       12.482      14.812      5.413       4.105       368.0       18.0        -9999.25    -9999.25    -9999.25    1.798       
45.7        44.792      142.397     -9999.25    6.731       14.063      12.34       1.143       1.897       2.54        12.619      14.924      5.39        4.094       367.0       19.0        -9999.25    -9999.25    -9999.25    1.714       
45.8        46.408      142.528     -9999.25    6.747       14.076      12.358      1.143       1.885       2.462       12.799      14.873      5.439       4.068       365.48      22.0        -9999.25    -9999.25    -9999.25    1.659       
45.9        49.224      143.037     -9999.25    6.742       14.116      12.359      1.148       1.851       2.447       12.991      14.916      5.353       4.067       362.72      20.8        -9999.25    -9999.25    -9999.25    1.586       
46.0        50.816      142.542     -9999.25    6.512       14.188      12.366      1.2         1.802       2.447       13.2        15.1        5.373       4.111       359.76      22.08       -9999.25    -9999.25    -9999.25    1.467       
46.1        50.24       143.484     -9999.25    6.284       14.306      12.382      1.41        1.756       2.453       13.4        15.208      5.384       4.122       355.98      23.32       -9999.25    -9999.25    -9999.25    1.418       
46.2        49.44       143.609     -9999.25    6.106       14.478      12.404      1.909       1.724       2.492       13.582      15.412      5.4         4.086       351.94      24.08       -9999.25    -9999.25    -9999.25    1.349       
46.3        48.856      143.875     -9999.25    5.851       14.711      12.436      2.808       1.715       2.599       13.756      15.689      5.297       4.112       348.1       24.92       -9999.25    -9999.25    -9999.25    1.357       
46.4        49.016      143.554     -9999.25    5.664       15.015      12.491      4.205       1.715       2.767       13.929      15.883      5.201       4.178       344.5       25.68       -9999.25    -9999.25    -9999.25    1.392       
46.5        52.784      143.331     -9999.25    5.571       15.393      12.583      6.104       1.717       2.974       14.108      16.005      5.177       4.256       341.36      26.36       -9999.25    -9999.25    -9999.25    1.257       
46.6        60.76       143.238     -9999.25    5.464       15.839      12.714      8.353       1.733       3.186       14.293      16.14       5.265       4.325       338.82      27.0        -9999.25    -9999.25    -9999.25    1.054       
46.7        61.384      142.822     -9999.25    5.502       16.339      12.881      10.692      1.79        3.369       14.481      16.432      5.38        4.352       336.64      27.68       -9999.25    -9999.25    -9999.25    0.986       
46.8        61.504      142.673     -9999.25    5.458       16.875      13.08       12.844      1.906       3.496       14.661      16.654      5.472       4.38        334.62      28.36       -9999.25    -9999.25    -9999.25    1.071       
46.9        63.032      142.67      -9999.25    5.577       17.413      13.301      14.551      2.082       3.56        14.822      16.751      5.523       4.428       332.66      28.96       -9999.25    -9999.25    -9999.25    1.078       
47.0        62.768      142.516     -9999.25    5.31        17.893      13.527      15.654      2.312       3.573       14.951      16.991      5.614       4.471       330.6       29.52       -9999.25    -9999.25    -9999.25    0.892       
47.1        61.28       142.61      -9999.25    4.91        18.237      13.746      16.207      2.576       3.573       15.049      17.145      5.669       4.484       328.48      30.12       -9999.25    -9999.25    -9999.25    0.759       
47.2        60.328      143.109     -9999.25    4.764       18.405      13.955      16.376      2.849       3.563       15.125      17.256      5.785       4.461       326.4       30.72       -9999.25    -9999.25    -9999.25    0.979       
47.3        60.528      143.917     2.285       4.964       18.441      14.151      16.375      3.105       3.52        15.193      17.168      5.798       4.407       324.34      31.28       -9999.25    -9999.25    -9999.25    1.253       
47.4        59.84       143.843     2.277       5.208       18.434      14.326      16.356      3.334       3.45        15.262      17.011      5.713       4.323       322.36      31.84       -9999.25    -9999.25    -9999.25    1.762       
47.5        59.256      142.014     2.275       5.359       18.371      14.47       16.265      3.552       3.37        15.34       16.838      5.586       4.27        320.46      32.32       -9999.25    -9999.25    -9999.25    1.939       
47.6        58.768      141.298     2.285       5.397       18.179      14.579      16.087      3.813       3.291       15.42       16.61       5.496       4.275       318.52      32.64       -9999.25    -9999.25    -9999.25    1.703       
47.7        57.496      141.114     2.297       5.345       17.877      14.645      15.936      4.189       3.226       15.49       16.521      5.514       4.34        316.5       32.84       -9999.25    -9999.25    -9999.25    1.392       
