~Version Information Section
VERS.                                         2.0:CWLS log ASCII Standart – VERSION 2.0
WRAP.                                          NO:One line per depth step
~Well Information Section
STRT.M                                        0.6:Начальная глубина
STOP.M                                      191.4:Конечная глубина
STEP.M                                          0:Шаг квантования по глубине
NULL.                                    -9999.25:Признак "Нет данных"
WELL.                                       129Мх:Скважина
~Parameter Information Section
~Curve Information Section
DEPTH.M                                          :Глубина
BK.lgОмм                                         :BK     (БК)
ПРОФ_СР.мм                                       :DS  (ДС)
ГК.имп/мин                                       :GK          (ГК)
ГЗ1.Омм                                          :GZ1   ГЗ1(A0.4M0.1N)
ГЗ2.Омм                                          :GZ2   ГЗ2(A1.0M0.1N)
ГЗ3.Омм                                          :GZ3   ГЗ3(A2.0M0.5N)
ГЗ4.Oмм                                          :GZ4   ГЗ4(A4.0M0.5N)
ГЗ5.Oмм                                          :GZ5   ГЗ5(A8.0M0.5N)
ГЗК.Омм                                          :GZK   ГЗK(N0.5M2.0A)
ИК.мСм/м                                         :IK
НГК.усл.ед                                       :NNKb  (ННКб)
ННКМ.усл.ед                                      :NNKm  (ННКм)
PZ.Омм                                           :PZ    (КС)
РЕЗ.Омм                                          :RS (Резистивиметр)
U1.мВ                                            :U1
U2.mV                                            :U2
U3.мВ                                            :U3
КП.%                                             :Кп
ПС.                                              :ПС
~ASCII LOG DATA
# ...
150.2       18.176      132.826     5.875       10.178      10.134      5.091       7.574       19.089      9.16        11.003      3.201       2.149       23.325      1.12        920.0       1349.335    811.035     30.179      -121.72     
150.3       17.885      132.647     6.531       9.912       9.836       5.464       7.513       19.356      9.232       10.932      3.143       2.111       22.067      1.12        912.0       1328.0      778.994     29.726      -121.88     
150.4       17.472      132.64      6.662       9.708       9.597       5.988       7.507       19.933      9.291       10.895      3.273       2.073       20.928      1.12        906.666     1309.333    740.688     29.472      -121.96     
150.5       17.499      132.721     7.008       9.555       9.407       6.652       7.507       20.778      9.34        10.791      3.415       2.073       19.965      1.12        904.0       1304.0      723.586     29.724      -121.96     
150.6       17.819      132.923     6.992       9.445       9.259       7.441       7.545       21.889      9.384       10.755      3.371       2.096       19.216      1.12        904.0       1266.664    701.778     29.714      -121.96     
150.7       18.346      133.475     6.912       9.377       9.145       8.32        7.617       23.089      9.42        10.726      3.325       2.11        18.681      1.12        909.333     1229.336    678.464     29.043      -121.96     
150.8       18.707      135.265     6.812       9.349       9.062       9.241       7.712       24.289      9.44        10.721      3.287       2.122       18.337      1.12        914.667     1194.667    658.976     28.695      -121.96     
150.9       18.852      133.294     6.413       9.349       9.007       10.155      7.823       25.311      9.44        10.717      3.298       2.123       18.142      1.12        936.001     1210.668    647.264     29.206      -121.84     
151.0       18.624      133.743     6.643       9.354       8.974       11.015      7.936       26.2        9.427       10.755      3.353       2.112       18.048      1.12        949.332     1216.0      668.884     29.73       -121.6      
151.1       18.483      133.99      6.874       9.382       8.962       11.78       8.038       26.911      9.362       10.685      3.438       2.094       18.012      1.12        960.0       1218.666    702.446     30.492      -121.24     
151.2       18.169      134.442     6.848       9.428       8.962       12.415      8.116       27.444      9.237       10.685      3.513       2.108       18.002      1.12        949.334     1221.332    735.999     32.319      -120.72     
151.3       18.114      136.744     6.835       9.494       8.968       12.883      8.167       27.711      9.054       10.781      3.293       2.123       18.002      1.12        941.333     1229.333    744.0       33.895      -120.08     
151.4       18.086      134.432     6.979       9.584       8.988       13.145      8.195       27.8        8.823       10.717      3.073       2.106       18.002      1.12        936.0       1234.666    744.0       33.778      -119.36     
151.5       18.128      137.309     6.995       9.702       9.016       13.188      8.207       27.8        8.558       10.781      3.12        2.087       18.002      1.12        938.666     1226.667    744.0       33.726      -118.6      
151.6       18.183      133.437     6.931       9.842       9.041       13.188      8.209       27.756      8.274       10.781      3.12        2.07        18.003      1.12        941.334     1224.0      746.667     33.993      -117.8      
151.7       18.253      133.422     6.618       9.991       9.056       13.041      8.209       27.578      7.98        10.812      3.07        2.079       18.023      1.12        951.999     1218.667    762.604     33.616      -117.0      
151.8       19.074      133.633     5.99        10.131      9.056       12.772      8.204       27.178      7.685       10.949      3.12        2.119       18.092      1.12        968.0       1213.333    778.544     32.962      -116.2      
151.9       20.733      133.946     5.904       10.251      9.056       12.45       8.192       26.556      7.402       11.083      3.245       2.175       18.26       1.12        965.333     1208.0      783.491     33.178      -115.4      
152.0       21.703      134.093     5.818       10.345      9.045       12.122      8.192       25.8        7.15        11.118      3.161       2.218       18.576      1.12        954.668     1210.667    768.819     33.333      -114.6      
152.1       21.287      134.313     5.907       10.403      9.03        11.812      8.222       25.044      6.947       11.254      3.046       2.195       19.057      1.12        936.0       1210.667    754.144     32.862      -113.8      
152.2       20.047      134.638     5.952       10.414      9.017       11.527      8.396       24.378      6.811       11.254      3.112       2.162       19.669      1.12        946.666     1213.333    753.964     32.409      -113.0      
152.3       19.148      134.438     6.547       10.414      9.002       11.271      8.863       23.844      6.745       11.286      3.16        2.14        20.331      1.12        954.667     1216.0      765.189     32.21       -112.2      
152.4       18.715      134.737     6.515       10.37       8.98        11.039      9.726       23.444      6.744       11.278      3.118       2.128       20.943      1.12        954.666     1221.333    776.415     32.058      -111.4      
152.5       18.394      133.693     6.451       10.278      8.948       10.831      11.029      23.178      6.744       11.246      3.128       2.146       21.424      1.12        938.668     1221.333    753.914     32.118      -110.6      
152.6       18.423      133.014     6.403       10.16       8.906       10.644      12.712      23.044      6.784       11.242      3.239       2.144       21.74       1.12        941.334     1218.667    708.343     32.123      -109.76     
152.7       18.535      133.121     6.355       10.046      8.867       10.479      14.662      23.0        6.848       11.167      3.263       2.119       21.908      1.12        951.999     1216.0      657.359     31.74       -108.92     
152.8       18.507      133.423     6.522       9.97        8.845       10.333      16.718      23.0        6.921       11.097      3.207       2.126       21.977      1.12        970.667     1218.667    633.928     31.595      -108.08     
152.9       18.422      133.67      6.605       9.952       8.845       10.205      18.764      23.0        6.998       11.028      3.177       2.155       21.997      1.12        973.334     1224.0      640.659     31.73       -107.2      
153.0       18.213      133.531     6.24        9.952       8.854       10.095      20.737      23.0        7.075       11.164      3.177       2.152       22.0        1.12        973.334     1229.333    664.574     31.468      -106.28     
153.1       17.977      133.3       6.378       9.997       8.895       10.0        22.58       23.0        7.146       11.199      3.316       2.138       22.0        1.12        962.666     1232.0      697.034     31.451      -105.4      
153.2       17.907      133.485     7.066       10.087      8.962       9.916       24.194      23.0        7.209       11.293      3.436       2.148       22.0        1.12        952.001     1232.0      717.336     31.953      -104.52     
153.3       18.422      133.57      6.79        10.202      9.047       9.842       25.42       23.0        7.262       11.293      3.336       2.163       22.0        1.12        944.0       1232.0      702.659     31.868      -103.68     
153.4       19.157      133.494     6.24        10.326      9.146       9.773       26.124      23.0        7.304       11.397      3.262       2.179       22.0        1.12        941.333     1237.334    679.44      30.954      -103.0      
153.5       19.53       133.568     5.946       10.45       9.259       9.71        26.277      23.044      7.339       11.329      3.251       2.197       22.0        1.12        936.0       1242.666    685.139     30.629      -102.52     
