~Version Information Section
VERS.                                         2.0:CWLS log ASCII Standart – VERSION 2.0
WRAP.                                          NO:One line per depth step
~Well Information Section
STRT.M                                        0.5:Начальная глубина
STOP.M                                      158.2:Конечная глубина
STEP.M                                          0:Шаг квантования по глубине
NULL.                                    -9999.25:Признак "Нет данных"
WELL.                                       136Мх:Скважина
~Parameter Information Section
~Curve Information Section
DEPTH.M                                          :Глубина
BK.Ohm*M                                         :BK     (БК)
DS.mm                                            :DS  (ДС)
GGK.g/cm3                                        :GGKp
ГК.mcr/h                                         :GK          (ГК)
GZ1.Ohm*M                                        :GZ1   ГЗ1(A0.4M0.1N)
GZ2.Ohm*M                                        :GZ2   ГЗ2(A1.0M0.1N)
GZ3.Ohm*M                                        :GZ3   ГЗ3(A2.0M0.5N)
GZ4.Ohm*M                                        :GZ4   ГЗ4(A4.0M0.5N)
GZ5.Ohm*M                                        :GZ5   ГЗ5(A8.0M0.5N)
GZR.Ohm*M                                        :GZK   ГЗK(N0.5M2.0A)
ИК.Ohm*M                                         :IK
НГК.ue                                           :NGK     (НГК)
NNKM.                                            :NNKm  (ННКм)
PS.mv                                            :PS       (ПС)
PZ.Ohm*M                                         :PZ    (КС)
RS.Ohm*M                                         :RS (Резистивиметр)
U1.mV                                            :U1
U2.mV                                            :U2
U3.mV                                            :U3
КП.%                                             :Кп
~ASCII LOG DATA
# ...
70.9        46.882      140.053     2.226       4.301       77.037      58.903      60.197      29.966      9.508       37.386      31.126      1.382       2.325       140.799     56.7        1.087       -2007.81    221.065     -1986.53    31.473      
71.0        40.637      139.901     2.246       4.448       77.037      60.178      60.396      28.711      9.505       35.431      30.103      1.352       2.345       139.908     55.826      1.087       -1986.82    265.79      -1908.45    32.288      
71.1        50.105      138.677     2.261       4.787       77.037      62.303      60.552      28.029      9.498       33.509      29.122      1.344       2.404       139.5       54.964      1.087       -1947.94    307.579     -1835.64    33.496      
71.2        57.867      139.373     2.284       5.114       74.908      62.303      60.552      28.71       9.503       31.856      28.231      1.36        2.403       139.254     54.141      1.087       -1914.87    324.958     -1801.88    34.403      
71.3        59.647      139.695     2.29        4.947       71.917      62.303      60.535      29.244      9.5         30.399      27.636      1.359       2.324       139.124     53.39       1.087       -1908.18    319.973     -1806.16    34.114      
71.4        51.492      138.604     2.308       4.704       69.626      61.572      60.535      28.594      9.493       29.193      27.111      1.387       2.292       139.068     52.713      1.087       -1943.3     307.622     -1796.42    32.76       
71.5        34.064      138.376     2.33        4.508       67.675      61.267      60.552      28.124      9.307       29.192      26.221      1.323       2.303       139.05      52.114      1.087       -2008.82    278.39      -1782.23    32.221      
71.6        33.353      137.396     2.322       4.392       62.614      60.118      60.535      27.291      9.113       29.192      25.502      1.376       2.348       139.04      51.565      1.087       -2105.16    230.23      -1767.44    32.826      
71.7        41.604      140.359     2.315       4.388       58.226      59.59       60.518      26.391      8.905       29.192      24.835      1.375       2.399       139.022     51.061      1.087       -2177.57    192.373     -1795.26    33.148      
71.8        50.58       141.849     2.317       4.405       57.138      59.625      59.425      25.457      8.594       28.412      24.41       1.405       2.403       138.98      50.59       1.087       -2213.78    173.623     -1890.71    31.445      
71.9        40.514      139.751     2.317       4.258       55.583      58.956      58.129      24.888      8.124       27.988      24.179      1.365       2.411       138.896     50.142      1.087       -2175.57    188.279     -2010.58    29.619      
72.0        29.667      138.243     2.299       4.183       52.834      56.548      56.787      24.26       7.83        27.204      23.96       1.408       2.491       138.753     49.689      1.087       -2065.83    197.951     -2096.6     29.361      
72.1        26.798      136.72      2.289       4.292       49.61       51.667      54.989      23.131      7.531       24.7        23.572      1.454       2.562       138.539     49.213      1.087       -1997.57    200.059     -2109.57    32.464      
72.2        29.218      135.872     2.269       4.607       46.974      44.967      51.395      21.71       7.194       21.438      23.107      1.44        2.578       138.247     48.698      1.087       -1993.94    178.278     -2094.27    35.236      
72.3        31.48       135.632     2.255       4.878       45.602      38.599      48.907      19.833      6.625       17.981      22.643      1.393       2.531       137.862     48.132      1.087       -2074.5     150.213     -2096.48    37.471      
72.4        28.648      135.563     2.257       5.004       42.994      31.547      46.562      18.248      6.24        14.657      22.373      1.387       2.388       137.393     47.505      1.087       -2113.57    129.537     -2108.55    37.641      
72.5        30.624      135.986     2.274       5.118       41.194      26.957      44.27       17.788      5.95        12.125      22.329      1.367       2.263       136.841     46.855      1.087       -2126.22    119.917     -2126.03    36.11       
72.6        37.065      136.548     2.283       5.049       39.185      24.818      39.399      17.788      5.725       11.282      22.338      1.338       2.204       136.201     46.228      1.087       -2121.73    135.965     -2108.63    34.518      
72.7        41.587      137.502     2.279       4.904       38.514      24.818      37.358      17.788      5.56        11.193      22.361      1.267       2.18        135.486     45.651      1.087       -2095.79    166.414     -2073.86    33.088      
72.8        43.282      140.094     2.303       4.859       37.033      24.818      36.605      17.788      5.56        11.193      22.604      1.257       2.176       134.702     45.142      1.087       -2058.12    202.808     -2022.78    33.19       
72.9        45.098      139.563     2.318       4.906       36.37       24.818      36.295      18.341      5.56        11.193      22.859      1.182       2.215       133.839     44.733      1.087       -2029.3     215.511     -1990.38    33.593      
73.0        39.237      137.535     2.333       4.778       36.37       25.279      36.013      19.517      5.56        11.351      22.996      1.184       2.269       132.906     44.408      1.087       -2021.91    193.331     -2030.15    33.337      
73.1        35.443      136.702     2.347       4.618       35.34       25.699      35.664      21.755      5.777       11.94       23.062      1.21        2.358       131.918     44.139      1.087       -2026.26    153.549     -2107.58    32.797      
73.2        37.023      136.42      2.341       4.634       36.346      27.147      34.226      23.221      5.972       12.66       23.054      1.29        2.443       130.865     43.921      1.087       -2039.83    123.052     -2183.69    32.718      
73.3        33.117      136.712     2.346       4.742       36.346      27.147      33.075      23.234      6.049       13.071      22.962      1.342       2.466       129.788     43.753      1.087       -2071.17    116.677     -2182.54    33.463      
73.4        29.922      136.95      2.329       4.646       36.346      27.147      34.338      23.234      6.103       13.342      22.823      1.363       2.453       128.726     43.618      1.087       -2110.71    123.955     -2137.66    34.249      
73.5        26.841      136.44      2.317       4.661       35.367      26.229      34.62       23.234      6.162       13.787      22.655      1.342       2.417       127.714     43.523      1.087       -2136.68    140.175     -2059.55    33.887      
73.6        27.458      136.753     2.298       4.841       34.271      24.774      34.62       21.835      6.283       14.196      22.311      1.316       2.39        126.781     43.467      1.087       -2144.89    169.507     -1954.73    33.212      
73.7        30.031      136.684     2.3         5.012       32.4        23.05       34.62       19.741      6.432       14.454      22.071      1.303       2.373       125.979     43.45       1.087       -2139.94    205.987     -1837.05    33.215      
73.8        28.757      136.171     2.298       4.914       30.726      20.216      31.245      19.7        6.551       14.761      21.898      1.298       2.341       125.297     43.45       1.087       -2138.26    234.773     -1739.43    34.102      
73.9        28.736      135.788     2.289       4.581       29.546      19.015      29.142      19.7        7.056       15.246      21.86       1.258       2.303       124.721     43.45       1.087       -2146.33    240.315     -1686.11    35.649      
74.0        28.736      135.861     2.309       4.389       29.546      19.015      29.142      19.7        11.727      16.641      21.994      1.25        2.276       124.215     43.45       1.087       -2180.89    211.023     -1715.38    35.596      
