~Version Information Section
VERS.                                         2.0:CWLS log ASCII Standart – VERSION 2.0
WRAP.                                          NO:One line per depth step
~Well Information Section
STRT.M                                        0.4:Начальная глубина
STOP.M                                      206.4:Конечная глубина
STEP.M                                          0:Шаг квантования по глубине
NULL.                                    -9999.25:Признак "Нет данных"
WELL.                                       157Мх:Скважина
~Parameter Information Section
~Curve Information Section
DEPTH.M                                          :Глубина
BK.Ohm*M                                         :BK     (БК)
DS.mm                                            :DS  (ДС)
GGK.g/cm3                                        :GGKp
ГК.mcr/h                                         :GK          (ГК)
GZ1.Ohm*M                                        :GZ1   ГЗ1(A0.4M0.1N)
GZ2.Ohm*M                                        :GZ2   ГЗ2(A1.0M0.1N)
GZ3.Ohm*M                                        :GZ3   ГЗ3(A2.0M0.5N)
GZ4.Ohm*M                                        :GZ4   ГЗ4(A4.0M0.5N)
GZ5.Ohm*M                                        :GZ5   ГЗ5(A8.0M0.5N)
GZR.                                             :GZR   ГЗK(N0.5M2.0A)
ИК.Ohm*M                                         :IK
НГК.ue                                           :NGK     (НГК)
NNKM.                                            :NNKm  (ННКм)
PS.mv                                            :PS       (ПС)
PZ.Ohm*M                                         :PZ    (КС)
RS.Ohm*M                                         :RS (Резистивиметр)
W.%                                              :W
~ASCII LOG DATA
# ...
111.4       49.41       151.317     2.343       5.954       78.868      123.281     59.548      37.664      17.83       26.803      39.803      1.9         2.669       163.553     83.134      1.134       22.741      
111.5       53.005      151.264     2.375       6.21        77.643      119.499     73.439      36.255      17.545      25.903      38.159      1.893       2.663       173.543     79.94       1.132       22.979      
111.6       49.648      151.38      2.389       6.225       74.227      108.166     84.702      34.06       17.483      25.307      36.688      1.928       2.626       181.986     76.017      1.132       22.859      
111.7       39.088      151.315     2.389       6.372       70.473      98.487      92.16       31.783      17.641      25.533      35.329      1.971       2.586       188.399     72.125      1.133       23.446      
111.8       33.855      151.289     2.387       6.559       65.659      87.921      97.089      30.452      17.886      27.219      34.244      1.981       2.522       192.512     68.695      1.133       25.26       
111.9       31.098      151.19      2.392       6.706       60.945      83.718      101.684     30.481      17.998      31.767      33.366      1.921       2.482       194.889     65.682      1.132       26.986      
112.0       31.622      151.307     2.404       6.604       57.561      83.769      108.08      30.81       18.02       38.855      32.678      1.815       2.489       196.132     61.877      1.132       27.243      
112.1       34.0        151.74      2.419       6.261       56.259      84.695      115.157     31.687      17.941      45.059      32.072      1.737       2.526       196.56      57.883      1.133       25.87       
112.2       38.328      151.704     2.428       5.915       55.361      87.578      118.062     31.85       17.905      47.296      31.477      1.695       2.543       196.707     53.107      1.132       24.212      
112.3       45.188      151.828     2.415       5.467       54.541      86.143      117.46      31.588      17.977      46.874      30.616      1.704       2.516       197.077     48.879      1.133       23.819      
112.4       41.109      151.956     2.394       5.414       50.727      77.744      112.724     29.996      18.206      43.998      29.859      1.706       2.464       197.692     46.1        1.135       25.197      
112.5       37.72       151.667     2.366       5.733       47.903      63.96       100.384     27.2        18.291      38.1        29.197      1.698       2.43        198.765     45.509      1.134       27.148      
112.6       36.78       152.023     2.349       6.124       44.997      49.493      85.35       24.165      18.284      32.591      28.726      1.69        2.388       200.364     45.758      1.134       27.993      
112.7       33.15       158.653     2.339       6.241       44.653      41.816      71.304      21.52       17.902      28.289      28.141      1.634       2.363       202.532     46.756      1.135       27.535      
112.8       30.02       166.628     2.343       6.039       44.854      39.573      61.343      19.789      17.16       25.498      27.481      1.561       2.372       205.121     46.711      1.135       27.041      
112.9       32.519      167.905     2.354       5.914       44.385      37.363      55.631      18.889      16.489      23.602      26.815      1.533       2.394       208.408     46.101      1.135       27.28       
113.0       29.026      160.911     2.366       5.82        41.809      35.324      51.537      18.029      16.049      22.064      26.178      1.569       2.377       212.264     43.692      1.133       28.052      
113.1       24.136      153.874     2.374       5.664       38.087      34.535      47.865      17.266      15.719      21.2        25.784      1.586       2.33        216.644     40.443      1.133       29.184      
113.2       22.1        152.491     2.371       5.496       33.606      33.888      43.989      16.843      15.479      20.977      25.363      1.554       2.277       221.433     38.182      1.135       30.225      
113.3       20.612      151.827     2.362       5.416       29.555      33.229      39.698      16.998      15.385      21.008      25.363      1.48        2.264       226.364     36.842      1.134       30.847      
113.4       21.854      151.389     2.348       5.397       26.336      32.503      35.828      18.058      15.372      21.314      25.49       1.448       2.236       230.842     36.19       1.135       31.129      
113.5       22.42       151.169     2.343       5.391       24.139      31.244      33.233      20.515      15.524      22.326      25.983      1.457       2.206       234.584     35.948      1.136       31.014      
113.6       21.432      151.478     2.35        5.233       23.313      30.07       31.945      24.059      15.718      23.789      26.435      1.491       2.184       237.598     35.942      1.136       30.7        
113.7       22.804      151.982     2.361       5.059       23.413      29.262      31.331      27.843      15.945      25.453      26.885      1.496       2.185       239.899     35.906      1.134       30.308      
113.8       27.9        152.559     2.373       4.946       23.978      28.505      30.745      31.303      16.251      27.061      27.227      1.467       2.205       241.151     35.859      1.132       29.922      
113.9       27.451      152.72      2.378       4.983       24.76       27.786      29.874      33.75       16.913      28.226      27.37       1.443       2.224       241.585     35.881      1.132       29.7        
114.0       24.526      153.142     2.374       4.974       25.195      26.875      28.786      34.757      18.301      29.021      27.513      1.45        2.234       241.585     36.0        1.13        29.683      
114.1       24.027      156.347     2.363       4.99        25.029      24.777      28.038      35.315      20.128      30.124      27.599      1.47        2.232       241.479     36.318      1.129       29.86       
114.2       21.994      155.718     2.348       5.304       24.297      23.356      28.406      36.668      21.855      33.772      28.157      1.477       2.21        240.687     37.167      1.127       30.108      
114.3       21.687      155.467     2.333       5.73        24.031      23.382      30.785      40.533      23.029      40.669      28.726      1.456       2.187       238.494     38.154      1.126       30.193      
114.4       22.468      153.759     2.329       6.175       24.537      24.492      35.62       46.027      24.163      48.128      29.658      1.45        2.192       234.7       38.462      1.129       30.004      
114.5       25.942      154.609     2.33        6.284       26.757      28.974      41.452      51.324      26.139      53.888      30.401      1.483       2.227       229.957     38.371      1.131       29.358      
114.6       32.242      154.155     2.337       6.271       27.776      30.988      46.089      54.491      28.902      56.814      31.36       1.524       2.275       224.274     37.972      1.131       28.301      
114.7       30.918      154.999     2.345       6.102       29.124      31.65       49.035      56.884      31.741      59.015      32.087      1.527       2.299       218.13      37.841      1.131       27.743      
114.8       34.493      156.625     2.35        5.919       30.622      31.998      50.776      59.789      34.027      61.156      32.94       1.506       2.309       211.862     38.273      1.133       28.425      
114.9       32.062      155.13      2.362       5.881       31.601      32.138      52.309      64.476      35.858      63.652      33.53       1.501       2.317       206.187     40.503      1.135       29.165      
115.0       33.079      151.549     2.375       5.94        37.304      33.274      53.718      69.034      37.228      65.388      34.182      1.552       2.376       201.379     42.783      1.135       28.051      
