~Version Information Section
VERS.                                         2.0:CWLS log ASCII Standart – VERSION 2.0
WRAP.                                          NO:One line per depth step
~Well Information Section
STRT.M                                        0.6:Начальная глубина
STOP.M                                      202.6:Конечная глубина
STEP.M                                          0:Шаг квантования по глубине
NULL.                                    -9999.25:Признак "Нет данных"
WELL.                                       130Мх:Скважина
~Parameter Information Section
~Curve Information Section
DEPTH.M                                          :Глубина
БК.Омм                                           :BK     (БК)
DСР.мм                                           :DS  (ДС)
W.g/cm3                                          :GGKp
ГК.гамма                                         :GK          (ГК)
А0.4М0.1N.Омм.ohmm                               :GZ1   ГЗ1(A0.4M0.1N)
А1.0М0.1N.Омм.ohmm                               :GZ2   ГЗ2(A1.0M0.1N)
А2.0М0.5N.Омм.ohmm                               :GZ3   ГЗ3(A2.0M0.5N)
А4.0М0.5N.Oмм.ohmm                               :GZ4   ГЗ4(A4.0M0.5N)
А8.0М1.0N.Омм.ohmm                               :GZ5   ГЗ5(A8.0M0.5N)
N0.5M2.0A.Омм.ohmm                               :GZK   ГЗK(N0.5M2.0A)
ИК.мСм/м                                         :IK
НГК.усл.ед                                       :NNKb  (ННКб)
ННКМ.усл.ед                                      :NNKm  (ННКм)
ПС.мВ                                            :PS       (ПС)
КС.Омм                                           :PZ    (КС)
R.Омм                                            :RS (Резистивиметр)
U1.мВ                                            :U1
U2.mV                                            :U2
U3.мВ                                            :U3
КП.%                                             :Кп
~ASCII LOG DATA
# ...
119.0       320.927     131.801     2.321       3.041       248.621     148.825     126.808     82.827      77.395      82.674      38.18       4.825       2.548       262.363     194.176     1.08        2106.112    1729.075    1435.139    20.884      
119.1       200.386     131.854     2.31        3.348       248.621     167.07      121.759     81.067      71.114      71.637      36.922      4.557       2.489       264.283     194.4       1.08        1994.499    1624.895    1336.841    21.219      
119.2       179.959     132.225     2.304       3.532       242.58      180.061     110.368     74.672      61.683      61.502      35.538      4.25        2.41        266.115     194.4       1.08        1696.925    1403.659    1180.612    22.985      
119.3       154.228     132.522     2.306       3.598       226.355     184.821     96.304      65.243      52.416      52.441      34.003      3.853       2.31        267.845     192.296     1.08        1398.803    1118.929    941.201     24.564      
119.4       122.365     132.501     2.306       3.88        206.445     184.821     82.756      56.058      43.527      44.517      32.571      3.54        2.221       269.444     188.096     1.08        1141.037    876.69      711.978     26.601      
119.5       103.957     132.718     2.306       4.063       185.812     184.718     70.681      47.659      35.69       37.974      31.264      3.438       2.142       270.896     181.872     1.08        1022.798    705.493     534.309     27.661      
119.6       95.374      133.715     2.3         4.274       160.551     174.679     60.102      39.826      29.481      33.199      29.711      3.384       2.094       272.184     173.928     1.08        982.375     637.985     426.325     27.379      
119.7       85.278      134.837     2.287       4.547       133.043     152.223     50.754      32.561      24.691      30.464      28.012      3.355       2.082       273.297     164.52      1.08        906.402     629.035     488.124     26.191      
119.8       52.68       133.026     2.266       4.84        107.131     127.343     43.966      26.61       20.728      29.607      26.402      3.295       1.993       274.229     154.28      1.08        830.429     634.875     544.421     25.417      
119.9       32.313      132.637     2.249       5.176       82.929      104.968     40.67       22.781      18.502      29.607      24.899      3.142       1.888       274.979     143.496     1.08        752.947     625.452     587.665     25.876      
120.0       27.288      132.638     2.235       5.324       64.576      89.599      39.823      21.005      17.066      29.598      23.613      3.037       1.84        275.55      132.928     1.08        603.064     609.369     630.911     28.016      
120.1       33.327      133.01      2.228       5.789       56.274      82.596      39.823      20.536      16.025      29.393      22.634      2.932       1.8         275.956     122.904     1.08        468.095     545.384     642.928     29.605      
120.2       41.465      132.44      2.229       5.822       53.891      79.706      39.659      20.284      15.03       29.336      22.033      2.912       1.803       276.22      113.68      1.08        406.114     476.321     563.543     32.023      
120.3       39.776      132.598     2.235       5.48        51.81       76.869      38.497      19.618      14.053      29.744      21.618      2.909       1.823       276.372     105.096     1.08        344.139     440.286     585.875     32.978      
120.4       37.88       133.463     2.241       4.807       48.978      71.597      36.882      18.739      13.272      30.079      21.246      2.913       1.861       276.442     97.48       1.08        284.882     427.399     657.783     32.956      
120.5       59.24       133.338     2.248       4.663       45.26       64.092      36.239      18.141      12.777      30.341      20.881      2.922       1.901       276.453     90.704      1.08        303.208     453.335     732.802     31.703      
120.6       60.572      134.388     2.262       5.034       41.154      55.254      36.213      17.648      12.083      30.945      20.541      2.827       1.856       276.453     84.704      1.08        448.674     534.501     794.349     31.998      
120.7       30.127      136.618     2.272       5.443       36.73       45.711      35.951      16.692      11.122      31.505      20.184      2.583       1.793       276.453     79.448      1.08        483.524     563.372     871.38      32.909      
120.8       23.512      135.285     2.284       5.747       32.296      36.865      34.462      15.082      10.069      31.657      19.725      2.491       1.709       276.419     75.16       1.08        468.941     561.152     932.731     32.813      
120.9       21.976      135.985     2.291       5.951       28.539      30.255      31.34       12.902      9.197       31.657      19.365      2.383       1.622       276.343     71.68       1.08        452.338     541.646     899.665     31.259      
121.0       20.667      135.026     2.293       5.831       25.012      26.078      28.221      10.794      8.663       32.159      19.25       2.349       1.619       276.227     69.056      1.08        386.128     487.038     805.576     30.374      
121.1       20.041      133.411     2.287       5.8         21.552      22.822      26.111      9.043       8.663       34.47       19.257      2.271       1.63        276.077     67.312      1.08        259.66      388.892     687.545     29.16       
121.2       19.118      133.295     2.286       6.189       18.759      20.295      24.956      7.35        8.663       39.562      19.375      2.304       1.63        275.906     66.816      1.08        360.111     370.686     529.53      26.538      
121.3       16.964      133.026     2.288       6.542       16.836      18.384      24.688      5.706       8.663       48.167      19.634      2.393       1.629       275.734     66.816      1.08        549.755     395.944     364.312     22.591      
121.4       15.399      133.087     2.297       6.251       16.154      17.623      24.688      4.262       8.861       62.527      20.29       2.457       1.629       275.584     66.816      1.08        684.37      427.46      282.092     18.431      
121.5       19.57       132.723     2.315       5.391       16.154      17.623      24.688      2.868       9.883       84.168      21.398      2.572       1.628       275.474     66.816      1.08        808.97      458.977     268.832     15.677      
121.6       26.913      131.765     2.343       4.927       16.154      17.623      25.052      1.916       11.536      111.262     23.065      2.7         1.743       275.405     66.816      1.08        952.023     523.756     297.754     14.075      
121.7       28.982      131.338     2.367       5.107       16.305      17.658      26.609      1.693       13.45       140.88      25.258      2.916       1.865       275.369     67.72       1.08        1042.334    617.493     370.038     14.407      
121.8       28.883      131.557     2.387       5.027       18.256      18.766      30.104      1.693       15.574      167.72      27.722      3.098       1.905       275.353     70.504      1.08        1017.719    713.889     474.995     14.879      
121.9       40.23       131.665     2.402       4.218       23.195      21.211      35.435      1.693       17.738      185.288     30.31       3.484       1.973       275.349     75.6        1.08        1048.131    813.429     576.49      15.455      
122.0       83.601      131.836     2.402       3.139       31.69       24.199      41.299      2.118       20.133      191.618     33.357      3.992       2.157       275.337     83.36       1.08        1082.545    940.971     662.94      16.081      
122.1       165.79      131.632     2.393       2.325       46.816      27.702      46.652      3.269       22.764      192.092     37.037      4.591       2.332       275.293     93.24       1.08        1050.781    1116.59     730.96      16.548      
