~Version Information Section
VERS.                                         2.0:CWLS log ASCII Standart – VERSION 2.0
WRAP.                                          NO:One line per depth step
~Well Information Section
STRT.M                                        7.7:Начальная глубина
STOP.M                                      168.6:Конечная глубина
STEP.M                                          0:Шаг квантования по глубине
NULL.                                    -9999.25:Признак "Нет данных"
WELL.                                       137Мх:Скважина
~Parameter Information Section
~Curve Information Section
DEPTH.M                                          :Глубина
ГК.мкР/ч                                         :GK
U1.                                              :U1
U12.                                             :U12
U2.                                              :U2
W.усл.ед                                         :W
ЗОНД.                                            :Зонд N0
НГК.                                             :НГК
ННКМ.усл.ед                                      :ННКм
ПЛОТНОСТЬ.г/см3                                  :плотность
РЕЗИСТИВИМЕТР.Ом                                 :Резистивиметр
~ASCII LOG DATA
# ...
160.2       5.139       332.811     173.9       104.54      26.565      -9999.25    1.343       1.56        2.168       -9999.25    
160.3       4.648       288.114     168.931     127.402     26.391      -9999.25    1.346       1.575       2.174       -9999.25    
160.4       4.502       186.898     164.096     171.46      25.843      -9999.25    1.324       1.582       2.172       -9999.25    
160.5       4.654       147.456     167.469     193.899     25.496      -9999.25    1.303       1.638       2.161       -9999.25    
160.6       5.096       169.788     179.051     194.719     25.718      -9999.25    1.305       1.649       2.156       -9999.25    
160.7       5.279       190.642     191.779     197.94      25.918      -9999.25    1.314       1.645       2.161       -9999.25    
160.8       5.229       175.329     186.913     205.825     26.301      -9999.25    1.32        1.627       2.177       -9999.25    
160.9       5.27        155.164     173.397     201.741     26.935      -9999.25    1.333       1.561       2.193       -9999.25    
161.0       5.429       166.318     168.825     181.023     27.021      -9999.25    1.326       1.561       2.198       -9999.25    
161.1       5.61        198.89      172.278     154.207     26.404      -9999.25    1.303       1.608       2.195       -9999.25    
161.2       5.78        209.267     182.604     165.442     26.062      -9999.25    1.309       1.62        2.187       -9999.25    
161.3       5.983       197.45      199.804     214.729     26.311      -9999.25    1.34        1.643       2.18        -9999.25    
161.4       5.924       189.829     206.987     238.318     27.017      -9999.25    1.403       1.598       2.182       -9999.25    
161.5       5.787       198.702     196.361     208.692     27.868      -9999.25    1.456       1.53        2.181       -9999.25    
161.6       5.734       210.316     170.146     145.898     28.289      -9999.25    1.482       1.533       2.19        -9999.25    
161.7       5.603       208.181     146.152     103.15      28.141      -9999.25    1.486       1.536       2.199       -9999.25    
161.8       5.589       157.991     141.628     169.254     27.235      -9999.25    1.5         1.697       2.211       -9999.25    
161.9       5.68        134.766     154.226     226.24      26.228      -9999.25    1.496       1.737       2.224       -9999.25    
162.0       5.783       138.508     183.946     274.108     25.533      -9999.25    1.499       1.721       2.228       -9999.25    
162.1       5.408       206.245     194.945     208.336     25.402      -9999.25    1.473       1.716       2.234       -9999.25    
162.2       5.118       256.855     205.836     171.644     25.469      -9999.25    1.444       1.69        2.235       -9999.25    
162.3       5.091       290.337     216.621     164.033     25.668      -9999.25    1.453       1.69        2.239       -9999.25    
162.4       5.016       303.966     245.894     201.221     25.723      -9999.25    1.475       1.733       2.24        -9999.25    
162.5       4.988       277.387     239.499     208.241     25.946      -9999.25    1.472       1.711       2.23        -9999.25    
162.6       4.957       273.78      223.409     189.376     26.205      -9999.25    1.433       1.6         2.222       -9999.25    
162.7       4.931       293.146     197.626     144.626     26.159      -9999.25    1.433       1.622       2.217       -9999.25    
162.8       5.083       301.68      191.014     142.976     26.08       -9999.25    1.455       1.668       2.236       -9999.25    
162.9       5.305       236.198     177.598     180.145     25.631      -9999.25    1.528       1.711       2.272       -9999.25    
163.0       5.567       159.339     150.893     177.246     24.453      -9999.25    1.599       1.797       2.317       -9999.25    
163.1       5.474       145.119     117.701     95.463      23.075      -9999.25    1.574       1.863       2.355       -9999.25    
163.2       5.447       -9999.25    -9999.25    -9999.25    22.142      -9999.25    1.509       1.994       2.375       -9999.25    
163.3       5.459       -9999.25    -9999.25    -9999.25    21.988      -9999.25    1.484       1.975       2.377       -9999.25    
163.4       5.634       -9999.25    -9999.25    -9999.25    22.625      -9999.25    1.46        1.961       2.35        -9999.25    
163.5       5.904       -9999.25    -9999.25    -9999.25    24.231      -9999.25    1.417       1.704       2.312       -9999.25    
163.6       6.801       -9999.25    -9999.25    -9999.25    25.521      -9999.25    1.351       1.511       2.274       -9999.25    
163.7       7.424       -9999.25    -9999.25    -9999.25    26.582      -9999.25    1.327       1.513       2.244       -9999.25    
163.8       7.415       -9999.25    -9999.25    -9999.25    27.6        -9999.25    1.339       1.514       2.225       -9999.25    
163.9       7.26        -9999.25    -9999.25    -9999.25    27.99       -9999.25    1.369       1.534       2.216       -9999.25    
164.0       6.98        -9999.25    -9999.25    -9999.25    27.655      -9999.25    1.381       1.538       2.21        -9999.25    
164.1       7.063       -9999.25    -9999.25    -9999.25    27.476      -9999.25    1.363       1.579       2.212       -9999.25    
164.2       6.996       -9999.25    -9999.25    -9999.25    27.43       -9999.25    1.322       1.567       2.219       -9999.25    
164.3       6.693       -9999.25    -9999.25    -9999.25    26.739      -9999.25    1.297       1.491       2.231       -9999.25    
164.4       6.532       -9999.25    -9999.25    -9999.25    25.871      -9999.25    1.29        1.52        2.236       -9999.25    
164.5       6.383       -9999.25    -9999.25    -9999.25    25.545      -9999.25    1.304       1.635       2.232       -9999.25    
164.6       5.896       -9999.25    -9999.25    -9999.25    26.104      -9999.25    1.343       1.62        2.228       -9999.25    
164.7       5.326       -9999.25    -9999.25    -9999.25    26.467      -9999.25    1.377       1.599       2.225       -9999.25    
164.8       5.413       -9999.25    -9999.25    -9999.25    26.605      -9999.25    1.388       1.612       2.227       -9999.25    
164.9       5.635       -9999.25    -9999.25    -9999.25    26.879      -9999.25    1.402       1.632       2.232       -9999.25    
165.0       5.679       -9999.25    -9999.25    -9999.25    26.928      -9999.25    1.425       1.633       2.231       -9999.25    
165.1       5.775       -9999.25    -9999.25    -9999.25    26.569      -9999.25    1.446       1.633       2.231       -9999.25    
165.2       6.211       -9999.25    -9999.25    -9999.25    26.327      -9999.25    1.46        1.616       2.231       -9999.25    
165.3       6.804       -9999.25    -9999.25    -9999.25    26.12       -9999.25    1.437       1.612       2.248       -9999.25    
165.4       7.058       -9999.25    -9999.25    -9999.25    25.848      -9999.25    1.403       1.678       2.272       -9999.25    
165.5       7.113       -9999.25    -9999.25    -9999.25    25.551      -9999.25    1.394       1.695       2.306       -9999.25    
165.6       7.087       -9999.25    -9999.25    -9999.25    24.789      -9999.25    1.402       1.686       2.328       -9999.25    
165.7       7.014       -9999.25    -9999.25    -9999.25    23.873      -9999.25    1.432       1.695       2.35        -9999.25    
165.8       7.056       -9999.25    -9999.25    -9999.25    23.407      -9999.25    1.46        1.752       2.363       -9999.25    
165.9       7.033       -9999.25    -9999.25    -9999.25    23.425      -9999.25    1.438       1.774       2.369       -9999.25    
166.0       6.89        -9999.25    -9999.25    -9999.25    23.536      -9999.25    1.399       1.828       2.36        -9999.25    
166.1       6.255       -9999.25    -9999.25    -9999.25    24.219      -9999.25    1.362       1.811       2.336       -9999.25    
166.2       -9999.25    -9999.25    -9999.25    -9999.25    25.029      -9999.25    1.349       1.768       2.31        -9999.25    
