~Version Information Section
VERS.                                         2.0:CWLS log ASCII Standart – VERSION 2.0
WRAP.                                          NO:One line per depth step
~Well Information Section
STRT.M                                        0.2:Начальная глубина
STOP.M                                      176.0:Конечная глубина
STEP.M                                          0:Шаг квантования по глубине
NULL.                                    -9999.25:Признак "Нет данных"
WELL.                                       112Мх:Скважина
~Parameter Information Section
~Curve Information Section
DEPTH.M                                          :Глубина
BK.Ohm*M                                         :BK     (БК)
DS.mm                                            :DS  (ДС)
GGK.g/cm3                                        :GGKp
ГК.mcr/h                                         :GK          (ГК)
GZ1.Ohm*M                                        :GZ1   ГЗ1(A0.4M0.1N)
GZ2.Ohm*M                                        :GZ2   ГЗ2(A1.0M0.1N)
GZ3.Ohm*M                                        :GZ3   ГЗ3(A2.0M0.5N)
GZ4.Ohm*M                                        :GZ4   ГЗ4(A4.0M0.5N)
GZ5.Ohm*M                                        :GZ5   ГЗ5(A8.0M0.5N)
GZR.Ohm*M                                        :GZK   ГЗK(N0.5M2.0A)
ИК.Ohm*M                                         :IK
НГК.ue                                           :NGK     (НГК)
NNKM.                                            :NNKm  (ННКм)
PS.mv                                            :PS       (ПС)
PZ.Ohm*M                                         :PZ    (КС)
U1.mV                                            :U1
U2.mV                                            :U2
U3.mV                                            :U3
КП.%                                             :Кп
~ASCII LOG DATA
# ...
61.4        16.117      141.025     2.402       5.151       17.374      17.025      17.51       14.431      7.505       22.159      13.02       1.099       1.937       365.74      43.36       213.852     2520.926    297.334     44.538      
61.5        15.987      141.367     2.375       4.947       16.805      16.284      17.375      14.084      7.506       22.646      12.861      1.076       2.028       362.54      43.64       264.077     2514.469    237.337     45.673      
61.6        18.982      141.662     2.338       5.051       16.367      15.591      17.282      13.754      7.506       23.044      12.847      1.075       2.004       359.14      44.0        314.302     2514.469    237.337     43.633      
61.7        21.313      142.383     2.308       5.491       16.078      14.988      17.231      13.466      7.51        23.347      12.975      1.097       1.973       356.14      44.4        390.0       2549.161    261.624     41.043      
61.8        19.546      142.343     2.294       6.14        15.938      14.508      17.218      13.25       7.531       23.576      13.194      1.106       1.937       353.6       44.76       390.0       2583.854    285.91      41.181      
61.9        19.253      143.592     2.293       6.525       15.91       14.175      17.218      13.115      7.59        23.758      13.495      1.121       1.89        351.44      45.12       400.0       2630.0      338.082     42.757      
62.0        19.471      143.864     2.301       6.462       15.91       13.988      17.219      13.058      7.7         23.917      13.78       1.154       1.84        349.5       45.52       420.0       2630.0      390.255     45.119      
62.1        17.663      144.247     2.31        6.42        15.921      13.924      17.228      13.048      7.87        24.072      13.959      1.187       1.799       347.38      46.0        430.0       2630.0      416.731     45.438      
62.2        16.368      144.473     2.323       6.171       16.02       13.924      17.251      13.047      8.1         24.228      14.154      1.162       1.783       344.66      46.6        430.0       2630.0      391.036     45.274      
62.3        17.33       144.716     2.341       5.944       16.344      13.925      17.269      13.04       8.375       24.376      14.397      1.091       1.767       341.28      47.4        440.0       2640.0      391.036     44.433      
62.4        18.255      144.146     2.37        5.273       16.952      13.945      17.268      13.028      8.67        24.493      14.702      1.056       1.759       337.42      48.32       450.0       2660.0      397.934     40.747      
62.5        18.956      141.584     2.413       4.604       17.862      14.036      17.261      13.022      8.959       24.566      15.184      1.056       1.882       333.28      49.32       450.0       2680.0      490.0       37.353      
62.6        20.918      141.509     2.457       4.142       19.063      14.256      17.22       13.001      9.222       24.599      15.732      1.086       2.064       329.16      50.44       460.0       2680.0      510.0       35.023      
62.7        28.869      141.91      2.486       3.869       20.48       14.591      17.111      12.933      9.445       24.608      16.364      1.061       2.281       325.52      51.6        480.0       2690.0      530.0       36.221      
62.8        39.919      142.196     2.494       4.031       21.987      15.008      16.937      12.814      9.628       24.619      17.188      1.05        2.42        322.64      52.88       480.0       2720.0      570.0       37.494      
62.9        37.94       142.437     2.489       4.178       23.464      15.455      16.738      12.663      9.785       24.641      18.117      1.043       2.315       320.58      54.32       490.0       2670.0      600.0       38.061      
63.0        29.667      141.888     2.474       4.347       24.816      15.894      16.577      12.516      9.935       24.65       18.804      1.079       2.25        319.34      55.92       470.0       2670.0      610.0       37.479      
63.1        24.562      140.683     2.45        4.318       25.999      16.32       16.508      12.431      10.101      24.658      19.307      1.093       2.29        318.8       57.48       440.0       2700.0      600.0       37.117      
63.2        24.574      140.567     2.413       4.258       27.031      16.77       16.508      12.427      10.311      24.732      19.71       1.133       2.313       318.68      59.0        420.0       2700.0      590.0       37.191      
63.3        28.007      140.692     2.367       4.325       27.957      17.338      16.514      12.427      10.6        25.01       20.041      1.15        2.318       318.68      60.04       410.0       2730.0      560.0       38.898      
63.4        29.597      139.958     2.325       4.505       28.837      18.168      16.578      12.442      11.016      25.619      20.484      1.151       2.242       318.68      60.52       410.0       2730.0      560.0       39.989      
63.5        27.911      139.997     2.299       4.713       29.792      19.44       16.857      12.571      11.614      26.613      20.946      1.145       2.126       318.74      60.52       400.0       2730.0      570.0       41.0        
63.6        29.24       139.911     2.304       4.869       31.011      21.298      17.546      13.0        12.456      27.886      21.342      1.174       2.111       318.98      60.52       390.0       2730.0      570.0       39.901      
63.7        31.34       139.755     2.328       4.644       32.741      23.835      18.756      13.835      13.606      29.015      21.622      1.251       2.135       319.38      60.4        390.0       2730.0      580.0       37.251      
63.8        31.324      139.729     2.366       4.482       35.334      27.095      20.561      15.155      15.102      29.511      21.934      1.253       2.186       319.82      59.76       298.959     2565.43     346.071     34.179      
63.9        31.589      139.592     2.402       4.086       39.178      30.972      22.947      16.983      16.893      29.505      22.163      1.218       2.309       320.24      58.68       298.959     2565.43     301.638     31.754      
64.0        38.672      139.601     2.437       3.986       44.28       35.017      25.715      19.161      18.835      29.383      22.204      1.158       2.522       320.6       57.64       360.512     2575.251    292.902     30.386      
64.1        62.089      139.569     2.453       3.764       49.967      38.443      28.409      21.286      20.653      28.615      22.145      1.15        2.687       320.9       56.76       397.693     2581.67     284.167     29.389      
64.2        86.894      139.756     2.443       3.716       54.932      40.444      30.383      22.797      21.933      26.504      22.022      1.18        2.757       321.22      56.12       434.875     2588.089    275.431     27.906      
64.3        95.589      139.937     2.42        3.696       57.644      41.017      31.205      23.379      22.49       23.198      21.924      1.286       2.795       321.84      55.8        374.814     2559.088    274.16      26.787      
64.4        95.183      140.062     2.394       3.936       58.242      40.954      31.217      23.366      22.59       19.238      21.853      1.387       2.78        323.0       55.8        277.573     2559.088    272.89      28.622      
64.5        87.932      140.045     2.372       4.173       58.1        40.391      31.129      23.193      22.492      15.315      21.705      1.471       2.742       324.78      55.8        277.573     2780.0      272.89      31.899      
64.6        78.688      140.009     2.355       4.502       56.891      38.522      30.415      22.358      21.942      11.911      21.429      1.501       2.701       327.22      55.8        300.298     2780.0      293.7       38.254      
64.7        75.651      141.087     2.347       4.578       53.172      35.287      28.412      20.438      20.677      9.332       21.011      1.591       2.531       330.24      55.84       550.0       2750.0      314.51      41.741      
