~Version Information Section
VERS.                                         2.0:CWLS log ASCII Standart – VERSION 2.0
WRAP.                                          NO:One line per depth step
~Well Information Section
STRT.M                                        2.1:Начальная глубина
STOP.M                                      196.8:Конечная глубина
STEP.M                                          0:Шаг квантования по глубине
NULL.                                    -9999.25:Признак "Нет данных"
WELL.                                       154Мх:Скважина
~Parameter Information Section
~Curve Information Section
DEPTH.M                                          :Глубина
BK.lgОмм                                         :BK     (БК)
DСР.мм                                           :DS  (ДС)
ГГКП.g/cm3                                       :GGKp
ГК.мкР/час                                       :GK          (ГК)
ГЗ1.Омм                                          :GZ1   ГЗ1(A0.4M0.1N)
ГЗ2.Омм                                          :GZ2   ГЗ2(A1.0M0.1N)
ГЗ3.Омм                                          :GZ3   ГЗ3(A2.0M0.5N)
ГЗ4.Oмм                                          :GZ4   ГЗ4(A4.0M0.5N)
ГЗ5.Oмм                                          :GZ5   ГЗ5(A8.0M0.5N)
ГЗК.Омм                                          :GZR   ГЗK(N0.5M2.0A)
ИК.мСм/м                                         :IK
НГК.усл.ед.                                      :NGK     (НГК)
РЕЗ.Омм                                          :RS (Резистивиметр)
W.                                               :W
ННКМ.усл.ед                                      :NNKm  (ННКм)
PS.мB                                            :PS       (ПС)
~ASCII LOG DATA
# ...
138.1       87.895      152.727     2.448       4.257       96.15       45.834      67.422      20.063      18.11       77.4        33.861      1.547       1.0         19.967      1.611       62.645      
138.2       104.738     152.778     2.421       4.19        96.15       45.314      66.982      20.063      17.41       75.32       33.861      1.464       1.0         20.597      1.599       63.255      
138.3       132.26      152.76      2.412       4.412       96.15       44.274      64.782      20.183      17.27       74.28       33.612      1.392       1.0         21.951      1.577       63.746      
138.4       169.618     152.753     2.396       4.519       96.15       44.274      63.022      20.183      16.99       72.2        33.492      1.347       1.0         23.875      1.54        64.228      
138.5       158.208     152.751     2.366       4.607       96.15       43.754      61.702      20.063      16.85       69.08       33.093      1.305       1.0         26.255      1.496       64.77       
138.6       129.005     152.66      2.342       4.884       96.15       43.754      60.822      18.863      16.85       68.04       32.763      1.255       1.0         28.559      1.438       65.286      
138.7       84.564      152.625     2.331       5.168       96.15       43.754      60.382      17.903      16.71       67.0        32.389      1.2         1.0         30.648      1.365       65.776      
138.8       59.86       152.622     2.313       5.146       96.15       43.234      60.382      17.783      16.71       67.0        32.389      1.148       1.0         31.766      1.299       66.218      
138.9       46.099      152.549     2.303       5.3         96.15       43.234      59.942      17.663      16.71       65.96       31.688      1.107       1.0         31.961      1.251       66.61       
139.0       47.571      152.622     2.291       5.517       96.15       42.194      59.502      17.543      16.57       64.92       31.257      1.086       1.0         31.24       1.218       67.009      
139.1       48.72       152.605     2.266       5.622       96.15       42.194      59.502      17.423      16.43       63.88       30.739      1.067       1.0         31.301      1.201       67.319      
139.2       43.439      152.634     2.242       5.641       96.15       42.194      59.502      17.303      16.43       63.88       30.312      1.101       1.0         31.704      1.193       67.577      
139.3       37.292      152.635     2.245       5.858       96.15       42.194      59.062      17.183      16.43       63.88       29.876      1.106       1.0         32.751      1.178       67.758      
139.4       32.367      152.569     2.24        5.997       96.57       42.194      59.062      16.943      16.43       63.88       29.36       1.097       1.0         33.757      1.158       67.861      
139.5       30.037      152.787     2.24        6.12        96.57       42.194      59.062      16.943      16.43       62.84       29.36       1.121       1.0         33.855      1.134       67.94       
139.6       28.022      152.833     2.251       5.897       96.57       42.194      59.062      16.823      16.43       61.8        29.057      1.153       1.0         32.473      1.117       67.994      
139.7       26.623      152.873     2.261       5.652       96.99       42.194      59.062      16.823      16.43       61.8        28.774      1.168       1.0         30.324      1.119       68.06       
139.8       27.884      152.858     2.264       5.435       96.99       42.194      59.062      16.823      16.43       61.8        28.511      1.233       1.0         27.985      1.146       68.111      
139.9       38.006      152.937     2.276       5.045       96.99       42.194      59.062      16.823      16.43       61.8        28.511      1.286       1.0         25.809      1.204       68.085      
140.0       48.973      152.985     2.318       4.498       97.41       42.714      59.062      16.823      16.43       62.84       28.252      1.301       1.0         24.384      1.277       68.06       
140.1       70.019      153.037     2.374       4.251       97.41       43.234      59.062      16.823      16.43       63.88       28.388      1.348       1.0         23.933      1.339       68.034      
140.2       80.979      153.103     2.434       4.161       97.83       43.754      59.502      16.823      16.43       63.88       28.511      1.38        1.0         23.814      1.39        68.008      
140.3       88.0        153.264     2.479       4.13        97.83       44.274      59.942      16.943      16.43       63.88       28.844      1.384       1.0         23.928      1.438       67.982      
140.4       109.118     153.397     2.483       4.208       97.83       44.794      59.942      16.943      16.43       63.88       28.86       1.402       1.0         24.757      1.473       67.976      
140.5       132.019     153.441     2.457       4.662       97.83       44.794      60.382      17.063      16.43       62.84       28.86       1.384       1.0         26.142      1.475       68.0        
140.6       159.222     153.594     2.411       5.107       97.41       44.794      60.822      17.303      16.57       62.84       29.057      1.362       1.0         27.312      1.461       68.103      
140.7       133.676     153.728     2.357       5.371       96.99       44.794      60.382      17.303      16.57       60.76       29.072      1.331       1.0         28.176      1.432       68.284      
140.8       97.359      153.863     2.299       5.692       96.57       45.314      60.382      17.303      16.57       59.72       28.985      1.307       1.0         29.202      1.374       68.487      
140.9       60.667      153.897     2.283       5.918       96.15       45.314      59.942      17.303      16.57       59.72       28.93       1.264       1.0         29.78       1.302       68.693      
141.0       46.407      153.939     2.266       5.968       95.73       44.274      59.502      17.063      16.57       57.64       28.93       1.25        1.0         30.088      1.25        69.001      
141.1       42.776      153.96      2.255       5.871       95.73       43.754      59.062      17.063      16.57       57.64       28.65       1.221       1.0         30.54       1.216       69.291      
141.2       38.001      153.996     2.243       5.751       95.31       43.754      58.622      16.823      16.57       56.6        28.374      1.196       1.0         31.529      1.189       69.628      
141.3       35.012      154.065     2.239       5.511       94.89       42.714      58.622      16.703      16.57       56.6        28.103      1.198       1.0         32.188      1.173       69.983      
141.4       32.174      154.095     2.242       5.38        94.89       41.674      58.182      16.703      16.57       56.6        27.836      1.189       1.0         32.214      1.16        70.266      
141.5       30.692      154.041     2.24        5.247       94.89       41.674      57.302      16.463      16.57       55.56       27.836      1.179       1.0         31.116      1.155       70.553      
141.6       32.803      154.198     2.242       5.276       94.89       41.674      57.302      16.463      16.57       54.52       27.433      1.181       1.0         29.899      1.168       70.915      
141.7       36.571      154.304     2.258       5.499       94.89       41.674      56.862      16.463      16.43       54.52       27.241      1.207       1.0         28.971      1.195       71.242      
141.8       40.126      154.359     2.305       5.571       94.89       41.674      56.862      16.463      16.29       54.52       26.989      1.216       1.0         28.468      1.218       71.551      
141.9       47.125      154.429     2.363       5.606       94.89       41.674      56.422      16.463      16.29       54.52       26.752      1.234       1.0         28.254      1.235       71.887      
142.0       43.984      154.435     2.434       5.486       94.89       41.674      56.422      16.463      16.43       53.48       26.752      1.24        1.0         28.115      1.257       72.25       
