~Version Information Section
VERS.                                         2.0:CWLS log ASCII Standart – VERSION 2.0
WRAP.                                          NO:One line per depth step
~Well Information Section
STRT.M                                        0.4:Начальная глубина
STOP.M                                      191.4:Конечная глубина
STEP.M                                          0:Шаг квантования по глубине
NULL.                                    -9999.25:Признак "Нет данных"
WELL.                                       113Мх:Скважина
~Parameter Information Section
~Curve Information Section
DEPTH.M                                          :Глубина
БК.Омм                                           :BK     (БК)
DСР.мм                                           :DS  (ДС)
GGKP.g/cm3                                       :GGKp
ГК.гамма                                         :GK          (ГК)
А0.4М0.1N.Омм                                    :GZ1   ГЗ1(A0.4M0.1N)
А1.0М0.1N.Омм                                    :GZ2   ГЗ2(A1.0M0.1N)
А2.0М0.5N.Омм                                    :GZ3   ГЗ3(A2.0M0.5N)
А4.0М0.5N.Oмм                                    :GZ4   ГЗ4(A4.0M0.5N)
А8.0М1.0N.Омм                                    :GZ5   ГЗ5(A8.0M0.5N)
N0.5M2.0A.Омм                                    :GZK   ГЗK(N0.5M2.0A)
ИК.мСм/м                                         :IK
НГК.усл.ед                                       :NNKb  (ННКб)
ННКМ.усл.ед                                      :NNKm  (ННКм)
ПС.мВ                                            :PS       (ПС)
PZ.Омм                                           :PZ    (КС)
R.Омм                                            :RS (Резистивиметр)
U1.мВ                                            :U1
U2.mV                                            :U2
U3.мВ                                            :U3
КП.%                                             :Кп
~ASCII LOG DATA
# ...
115.6       36.534      136.449     2.307       5.372       34.639      34.931      35.56       7.385       8.643       36.293      26.473      2.677       1.679       113.929     82.886      1.12        450.883     284.767     300.09      30.748      
115.8       79.933      132.207     2.306       4.913       37.232      35.088      41.657      8.127       9.137       48.167      27.989      2.706       1.704       117.708     83.497      1.12        409.991     298.285     391.372     29.385      
116.0       109.195     132.077     2.313       4.458       41.608      36.483      46.113      9.688       10.035      61.605      29.996      2.906       1.836       119.065     84.626      1.12        332.581     334.8       501.984     29.528      
116.2       111.187     133.449     2.32        4.264       48.028      39.165      48.542      12.397      11.345      73.514      31.602      2.973       1.808       118.169     86.127      1.12        326.055     299.302     402.126     28.336      
116.4       136.13      131.485     2.314       4.263       56.092      41.658      49.972      15.955      12.863      78.292      33.474      3.005       1.801       115.44      87.587      1.12        343.676     226.481     229.143     27.531      
116.6       170.664     132.433     2.307       4.02        65.103      43.827      50.757      19.314      14.346      78.359      36.228      3.178       1.909       111.61      88.698      1.12        356.755     184.328     148.615     27.922      
116.8       144.504     131.384     2.303       3.962       71.684      47.194      51.009      22.036      15.549      74.789      37.897      3.11        1.89        107.399     89.387      1.12        271.73      237.545     243.08      28.518      
117.0       95.048      132.286     2.308       3.861       73.44       51.88       50.97       24.623      16.452      68.484      38.808      2.873       1.848       103.413     89.794      1.12        180.846     296.378     333.844     29.657      
117.2       81.693      130.728     2.301       3.884       73.311      57.912      50.619      28.165      16.858      64.115      39.322      2.871       1.868       100.036     90.315      1.12        144.0       280.029     330.289     30.464      
117.4       74.129      129.114     2.297       3.781       71.852      63.17       49.778      32.577      16.89       60.55       39.411      2.983       1.89        97.366      91.753      1.12        156.0       277.418     324.599     29.708      
117.6       75.118      128.697     2.294       4.027       69.85       64.542      48.375      35.947      16.67       56.005      39.552      3.036       1.912       95.293      95.648      1.12        144.0       313.524     333.293     29.042      
117.8       77.207      129.574     2.29        4.081       67.488      64.219      46.684      36.968      16.157      50.771      39.699      3.083       1.922       93.52       103.941     1.12        144.0       380.0       320.0       28.412      
118.0       75.681      129.372     2.284       4.225       65.066      60.967      45.761      37.101      15.989      46.568      40.089      3.105       1.92        91.609      118.266     1.12        164.0       380.0       292.0       27.533      
118.2       67.705      129.773     2.283       4.595       63.188      56.214      45.746      37.27       16.017      45.022      40.241      3.117       1.908       89.164      139.5       1.12        180.0       380.0       299.999     27.804      
118.4       59.613      131.131     2.288       4.908       62.969      54.345      46.126      37.666      16.769      45.022      40.686      3.026       1.861       86.064      167.953     1.12        164.0       372.0       420.001     27.618      
118.6       59.363      129.702     2.289       4.647       62.975      54.345      50.037      42.632      19.608      46.798      41.497      2.939       1.825       82.58       202.88      1.12        200.0       412.0       536.0       28.506      
118.8       60.194      130.209     2.303       4.408       80.669      56.857      59.872      54.561      24.263      55.812      42.911      3.132       1.841       79.246      241.638     1.12        240.001     432.0       539.999     28.723      
119.0       91.382      129.743     2.349       4.322       136.262     67.253      73.204      69.108      28.58       72.433      44.543      3.477       1.957       76.568      279.613     1.12        252.0       428.0       496.0       25.783      
119.2       227.229     132.095     2.43        4.343       226.035     82.282      84.33       80.81       31.016      89.454      46.796      4.347       2.211       74.781      311.66      1.12        228.0       420.0       488.0       22.903      
119.4       368.868     133.16      2.494       4.103       305.951     95.865      89.857      89.215      32.042      98.596      49.533      5.012       2.389       73.809      332.993     1.12        224.0       460.0       492.0       19.906      
119.6       458.39      132.164     2.516       3.817       365.896     108.157     92.26       94.731      32.552      99.584      50.287      5.037       2.39        73.426      343.35      1.12        232.0       508.0       528.0       18.392      
119.8       474.496     132.388     2.536       3.837       387.465     123.602     93.654      95.34       32.788      98.697      50.674      5.021       2.398       73.439      339.204     1.12        280.001     540.0       552.0       18.377      
120.0       424.905     133.499     2.554       3.909       386.866     137.094     93.737      93.076      32.846      93.743      50.111      4.98        2.37        73.815      316.515     1.12        348.0       564.0       528.0       17.958      
120.2       329.565     133.4       2.542       3.877       359.02      141.149     91.772      83.256      32.714      87.915      48.909      5.047       2.369       74.653      276.459     1.12        404.001     596.0       436.002     18.315      
120.4       230.256     132.086     2.499       3.577       291.88      139.658     84.576      70.869      31.951      82.71       47.061      4.817       2.337       76.072      227.15      1.12        364.0       588.0       368.0       19.253      
120.6       128.289     131.274     2.47        3.646       236.647     127.779     74.026      60.195      30.369      76.698      44.906      4.28        2.223       78.101      183.587     1.12        316.001     548.0       344.0       21.034      
120.8       120.133     133.564     2.447       3.671       203.199     109.583     64.389      51.563      28.347      67.893      43.273      3.847       2.136       80.615      155.015     1.12        259.999     503.999     336.0       22.98       
121.0       123.488     133.157     2.396       3.99        172.832     95.566      58.671      45.214      26.621      57.465      41.838      3.543       2.06        83.38       140.64      1.12        220.0       416.0       312.0       24.751      
121.2       98.121      132.78      2.347       4.341       133.041     87.707      56.484      41.154      25.965      49.75       40.225      3.307       1.944       86.142      133.676     1.12        176.001     332.001     320.0       25.712      
121.4       80.277      131.313     2.329       4.503       98.477      82.924      56.014      38.328      25.943      45.535      38.409      3.103       1.895       88.709      128.305     1.12        212.001     348.001     324.0       26.636      
121.6       78.047      131.278     2.32        4.409       80.839      77.723      55.713      35.349      26.28       42.776      36.734      3.061       1.863       90.977      122.445     1.12        295.999     380.0       375.999     27.436      
121.8       71.48       132.271     2.293       4.275       76.21       72.065      54.51       31.579      27.216      39.681      35.283      2.939       1.822       92.918      116.354     1.12        343.999     363.999     500.003     28.744      
