~Version Information Section
VERS.                                         2.0:CWLS log ASCII Standart – VERSION 2.0
WRAP.                                          NO:One line per depth step
~Well Information Section
STRT.M                                        1.0:Начальная глубина
STOP.M                                      192.9:Конечная глубина
STEP.M                                          0:Шаг квантования по глубине
NULL.                                    -9999.25:Признак "Нет данных"
WELL.                                       123Мх:Скважина
~Parameter Information Section
~Curve Information Section
DEPTH.M                                          :Глубина
BK.lgОмм                                         :BK     (БК)
ПРОФ_СР.мм                                       :DS  (ДС)
ГК.мкР/час                                       :GK          (ГК)
ГЗ1.Омм                                          :GZ1   ГЗ1(A0.4M0.1N)
ГЗ2.Омм                                          :GZ2   ГЗ2(A1.0M0.1N)
ГЗ3.Омм                                          :GZ3   ГЗ3(A2.0M0.5N)
ГЗ4.Oмм                                          :GZ4   ГЗ4(A4.0M0.5N)
ГЗ5.Oмм                                          :GZ5   ГЗ5(A8.0M0.5N)
ГЗК.Омм                                          :GZK   ГЗK(N0.5M2.0A)
ИК.мСм/м                                         :IK
НГК.усл.ед.                                      :NGK     (НГК)
PS.мВ                                            :PS       (ПС)
PZ.Омм                                           :PZ    (КС)
RIS.Омм                                          :RS (Резистивиметр)
U1.мВ                                            :U1
U2.мВ                                            :U2
U3.mv                                            :U3
W.                                               :W
П.%                                              :п
ННКМ.усл.ед                                      :ННКм
~ASCII LOG DATA
# ...
42.6        116.413     132.359     5.177       -9999.25    -9999.25    -9999.25    -9999.25    -9999.25    -9999.25    14.914      5.869       317.703     111.351     1.377       -9999.25    -9999.25    -9999.25    2.155       6.198       0.461       
42.7        128.825     131.797     4.913       -9999.25    -9999.25    -9999.25    -9999.25    -9999.25    -9999.25    15.22       6.232       320.343     113.231     1.377       -9999.25    -9999.25    -9999.25    2.158       6.037       0.46        
42.8        128.825     132.132     4.686       -9999.25    -9999.25    -9999.25    -9999.25    -9999.25    -9999.25    15.39       6.627       322.229     114.735     1.377       -9999.25    -9999.25    -9999.25    2.16        5.756       0.465       
42.9        144.877     132.33      4.368       -9999.25    -9999.25    -9999.25    -9999.25    -9999.25    -9999.25    15.54       6.906       323.737     115.863     1.377       -9999.25    -9999.25    -9999.25    2.165       5.492       0.488       
43.0        181.552     132.175     4.151       62.16       72.59       124.801     50.203      64.334      65.786      15.705      7.021       325.623     116.615     1.377       -9999.25    -9999.25    -9999.25    2.171       5.289       0.494       
43.1        193.197     131.331     4.004       92.472      72.08       126.801     52.203      64.334      66.786      15.776      7.029       327.509     116.991     1.377       4547.166    4210.046    3926.233    2.181       5.204       0.495       
43.2        192.753     132.001     3.982       112.32      71.74       128.801     53.869      64.001      67.786      15.995      6.915       329.395     116.991     1.377       3527.972    3257.381    3043.214    2.186       5.142       0.504       
43.3        224.905     132.107     4.093       115.2       71.4        130.134     55.536      63.667      68.453      16.07       6.761       330.526     116.991     1.377       2508.739    2304.679    2160.162    2.187       5.113       0.511       
43.4        213.796     131.451     4.219       113.4       71.06       131.468     56.536      63.334      69.453      16.093      6.73        331.28      116.991     1.377       1972.428    1748.548    1600.49     2.178       5.098       0.511       
43.5        208.449     131.82      4.434       111.6       70.72       132.134     57.203      63.334      70.119      16.183      6.9         332.412     116.991     1.377       1918.982    1588.928    1364.139    2.173       5.03        0.515       
43.6        232.274     131.675     4.61        109.08      70.72       132.801     57.869      63.001      70.786      16.183      7.039       333.543     116.991     1.377       2075.901    1547.746    1224.108    2.164       4.907       0.528       
43.7        229.087     131.76      4.748       106.92      70.72       132.801     58.203      62.667      70.786      16.121      7.2         333.92      116.991     1.377       1960.326    1228.485    857.06      2.15        4.784       0.52        
43.8        239.332     131.864     4.932       104.76      70.72       132.801     58.536      62.334      70.786      16.206      7.25        333.543     116.991     1.378       1810.733    983.96      602.096     2.144       4.729       0.51        
43.9        274.789     131.186     4.78        102.6       72.76       132.801     58.536      62.334      70.786      16.107      7.424       331.28      116.991     1.38        1899.638    1092.281    686.263     2.134       4.673       0.521       
44.0        277.971     130.511     4.533       97.56       75.14       132.801     58.536      62.334      70.786      16.131      7.541       327.509     116.991     1.382       1928.708    1276.756    893.594     2.122       4.646       0.522       
44.1        252.348     130.708     4.221       92.52       77.86       132.801     58.869      62.334      70.786      16.131      7.632       320.343     116.991     1.385       1659.44     1184.526    884.945     2.123       4.642       0.513       
44.2        305.492     131.175     4.295       87.84       78.54       132.801     59.203      62.334      70.786      16.168      7.751       312.046     117.367     1.388       1091.839    815.602     660.328     2.13        4.683       0.522       
44.3        356.451     130.459     4.457       84.96       78.88       132.801     59.536      62.334      70.786      16.306      7.831       303.372     118.119     1.392       884.57      756.798     712.917     2.141       4.725       0.529       
44.4        97.949      130.471     4.577       82.08       78.88       132.801     59.536      62.334      70.786      16.259      7.82        294.697     118.871     1.396       1037.649    1008.117    1042.707    2.139       4.735       0.523       
44.5        110.154     130.976     4.302       78.48       78.88       132.801     59.536      62.667      70.786      16.221      7.59        286.023     119.623     1.4         1482.14     1422.449    1430.927    2.125       4.707       0.514       
44.6        133.968     131.8       4.329       84.24       78.88       132.801     59.536      63.001      70.786      16.206      7.347       278.857     120.375     1.405       1857.662    1689.629    1600.33     2.122       4.75        0.51        
44.7        142.889     131.153     4.263       90.0        78.88       132.801     59.536      64.334      70.786      16.056      7.151       272.823     121.503     1.41        1906.743    1583.594    1377.26     2.12        4.851       0.516       
44.8        132.434     131.436     4.647       96.84       78.88       132.801     59.536      66.001      70.786      15.872      6.98        270.183     122.631     1.413       1698.322    1251.461    980.496     2.117       5.09        0.525       
44.9        122.462     131.356     4.537       95.04       78.88       132.801     59.536      67.667      70.786      15.858      6.723       267.92      123.759     1.415       1446.86     904.251     609.401     2.12        5.336       0.526       
45.0        111.686     131.135     4.533       93.24       78.54       132.801     59.536      68.667      70.786      15.705      6.519       265.657     125.639     1.416       1409.83     768.018     437.617     2.112       5.644       0.517       
45.1        103.039     131.317     4.25        91.8        77.86       132.801     59.536      69.667      70.786      15.586      6.485       263.772     127.895     1.416       1587.235    842.775     465.161     2.104       5.777       0.505       
45.2        99.083      131.306     4.086       90.72       77.18       132.801     59.536      72.001      71.119      15.39       6.468       261.886     129.399     1.416       1639.807    943.471     591.43      2.082       5.827       0.503       
45.3        95.499      131.188     3.948       90.0        76.84       132.801     59.536      74.334      71.786      15.481      6.424       260.0       131.279     1.416       1567.54     1070.11     816.436     2.071       5.66        0.506       
45.4        91.411      131.252     4.049       89.64       76.84       132.801     59.536      77.334      72.453      15.727      6.367       258.115     133.535     1.417       1463.376    1183.639    1031.181    2.072       5.561       0.517       
45.5        87.902      131.219     4.208       89.64       76.84       132.801     59.869      79.334      72.786      15.79       6.411       256.229     135.415     1.418       1452.139    1258.13     1136.958    2.074       5.41        0.525       
45.6        89.125      131.315     4.251       92.52       77.18       133.468     60.536      82.001      73.119      15.995      6.332       254.72      137.295     1.42        1753.054    1298.664    1055.178    2.072       5.371       0.515       
45.7        91.622      131.669     4.208       95.76       77.86       134.801     61.203      83.667      73.786      16.033      5.36        253.589     139.175     1.42        2273.181    1344.282    894.824     2.075       5.343       0.505       
