~Version Information Section
VERS.                                         2.0:CWLS log ASCII Standart – VERSION 2.0
WRAP.                                          NO:One line per depth step
~Well Information Section
STRT.M                                        1.0:Начальная глубина
STOP.M                                      151.7:Конечная глубина
STEP.M                                          0:Шаг квантования по глубине
NULL.                                    -9999.25:Признак "Нет данных"
WELL.                                       117Мх:Скважина
~Parameter Information Section
~Curve Information Section
DEPTH.M                                          :Глубина
DСР.мм                                           :Dср
ГК.гамма                                         :GK
ИК.мСм/м                                         :IK
N0.5M2.0A.Омм.                                   :N0.5M2.0A.Омм
R.Омм                                            :R
U1.                                              :U1
U2.                                              :U2
U3.                                              :U3
W.имп/1,25с                                      :W
А0.4М0.1N.Омм.                                   :А0.4М0.1N.Омм
А1.0М0.1N.Омм.                                   :А1.0М0.1N.Омм
А2.0М0.5N.Омм.                                   :А2.0М0.5N.Омм
А4.0М0.5N.Oмм.                                   :А4.0М0.5N.Oмм
А8.0М1.0N.Омм.                                   :А8.0М1.0N.Омм
БЗ.имп/мин                                       :БЗ
БК.Омм                                           :БК
КС.Омм                                           :КС
ПС.                                              :ПС
МЗ.имп/мин                                       :МЗ
НГК.имп/1,25с                                    :ННКб
ННКМ.имп/1,25с                                   :ННКм
ПЛОТНОСТЬГГК.г/см3                               :плотностьГГК
~ASCII LOG DATA
# ...
137.3       120.867     5.216       16.8        22.876      -9999.25    278.565     166.76      210.791     27.087      36.887      34.193      28.416      26.652      20.381      15640.0     42.28       27.836      109.238     6580.0      3.445       2.019       2.231       
137.4       120.882     5.194       16.829      21.558      -9999.25    282.337     171.887     215.323     26.773      41.946      43.766      32.473      24.976      20.225      14920.0     42.26       27.709      108.068     6540.0      3.486       2.012       2.235       
137.5       120.919     5.308       16.854      20.647      -9999.25    279.956     170.776     214.169     26.48       45.164      41.633      36.185      24.672      20.182      14940.0     41.477      27.652      108.081     6440.0      3.451       1.982       2.237       
137.6       121.047     5.472       16.844      21.392      -9999.25    277.576     169.665     213.016     26.247      43.035      30.082      39.064      23.95       20.965      15100.0     43.359      27.454      109.188     6340.0      3.433       1.953       2.239       
137.7       121.068     5.729       16.787      23.661      -9999.25    272.058     162.183     206.869     26.195      41.426      23.155      38.002      20.854      22.566      14660.0     46.412      27.0        111.245     6420.0      3.492       1.972       2.25        
137.8       121.043     6.051       16.723      27.311      -9999.25    266.54      154.7       200.722     26.225      41.85       23.375      37.459      15.8        22.938      14380.0     45.772      26.495      114.09      6160.0      3.556       2.01        2.265       
137.9       121.081     6.395       16.652      29.065      -9999.25    262.098     149.085     194.489     26.318      44.951      26.194      40.065      8.826       21.847      14140.0     43.722      26.036      117.617     5980.0      3.541       2.017       2.276       
138.0       121.229     6.772       16.571      26.426      -9999.25    254.431     145.728     189.663     26.495      50.039      29.638      41.526      6.127       21.549      13660.0     39.238      25.565      121.676     5840.0      3.433       1.989       2.288       
138.1       121.166     7.295       16.47       22.445      -9999.25    246.765     142.371     184.837     26.857      45.215      29.495      40.328      12.007      22.122      12900.0     30.875      25.091      126.055     5800.0      3.28        1.906       2.299       
138.2       121.071     7.745       16.35       19.201      -9999.25    244.58      142.676     184.168     27.401      33.757      23.565      37.512      18.201      21.165      12280.0     25.012      24.545      130.562     5900.0      3.127       1.834       2.305       
138.3       121.128     8.019       16.257      17.37       -9999.25    233.459     133.91      173.675     28.018      29.921      19.743      32.448      18.553      18.273      12500.0     24.416      24.048      135.018     6080.0      3.002       1.778       2.301       
138.4       121.119     8.16        16.165      17.466      -9999.25    221.266     123.279     163.269     28.543      30.913      20.35       27.713      15.774      15.885      12560.0     24.938      23.921      139.247     6140.0      2.924       1.791       2.29        
138.5       121.046     8.265       16.036      18.101      -9999.25    202.49      106.091     145.647     28.896      32.132      21.547      25.76       12.92       15.194      12880.0     24.578      24.008      143.065     6200.0      2.845       1.813       2.274       
138.6       120.912     8.214       15.951      18.101      -9999.25    183.715     88.902      128.025     29.031      32.452      22.913      25.055      11.349      16.073      13120.0     23.588      24.07       146.281     6240.0      2.757       1.795       2.261       
138.7       120.926     8.189       15.899      16.767      -9999.25    162.708     69.129      108.631     28.938      32.611      21.707      24.486      11.472      18.298      14040.0     22.295      24.108      148.687     6340.0      2.709       1.757       2.251       
138.8       120.743     8.233       15.859      14.662      -9999.25    150.634     58.423      99.059      28.474      31.452      19.982      22.415      11.335      20.288      14440.0     21.125      24.089      150.119     6280.0      2.719       1.707       2.242       
138.9       120.785     8.264       15.792      13.457      -9999.25    140.967     48.633      91.123      27.686      29.46       19.534      19.92       11.19       20.778      14640.0     20.437      24.089      150.492     6260.0      2.78        1.68        2.239       
139.0       120.805     8.223       15.651      13.447      -9999.25    141.138     46.961      90.983      26.782      27.806      18.876      18.396      11.504      20.471      15100.0     20.277      24.182      149.778     6300.0      2.849       1.653       2.249       
139.1       120.876     8.129       15.524      14.22       -9999.25    139.355     44.385      89.845      26.067      25.34       18.712      17.603      12.312      20.564      14960.0     20.652      24.192      148.023     6420.0      2.991       1.648       2.263       
139.2       120.836     7.954       15.44       17.228      -9999.25    139.807     44.397      90.481      25.665      23.855      18.975      17.608      14.05       21.312      14880.0     21.611      23.986      145.324     6440.0      3.196       1.703       2.277       
139.3       120.724     7.755       15.371      21.245      -9999.25    140.027     46.326      90.528      25.538      23.64       19.51       19.309      17.156      22.181      14320.0     23.037      23.52       141.794     6220.0      3.37        1.792       2.289       
139.4       120.691     7.527       15.336      25.203      -9999.25    137.842     47.339      88.939      25.561      24.513      21.298      22.619      20.192      23.12       13680.0     24.436      22.884      137.686     6020.0      3.436       1.904       2.301       
139.5       120.767     7.3         15.348      27.345      -9999.25    134.876     50.733      88.881      25.737      27.268      27.01       25.885      23.349      24.593      12600.0     25.094      22.255      133.317     6060.0      3.406       1.957       2.307       
139.6       120.7       7.042       15.386      26.978      -9999.25    133.863     55.03       89.821      25.917      32.114      34.527      27.721      28.947      26.463      12340.0     24.826      21.735      128.916     6060.0      3.362       1.975       2.305       
139.7       120.663     6.798       15.428      27.152      -9999.25    138.782     57.031      92.171      25.955      33.552      32.597      28.645      35.038      27.721      12280.0     24.086      21.422      124.687     5880.0      3.315       1.933       2.296       
139.8       120.649     6.551       15.443      25.399      -9999.25    143.934     57.117      95.112      25.749      28.764      23.212      28.758      36.323      27.861      12500.0     23.169      21.401      120.919     6040.0      3.294       1.892       2.284       
139.9       120.635     6.308       15.413      20.731      -9999.25    147.632     60.193      98.221      25.419      24.676      19.923      25.789      33.63       27.436      13040.0     22.334      21.692      117.962     6380.0      3.307       1.841       2.276       
140.0       120.63      6.082       15.349      16.708      -9999.25    152.112     60.889      99.802      25.17       27.752      21.719      22.534      33.845      26.959      14140.0     22.229      22.282      116.085     6540.0      3.397       1.823       2.268       
140.1       120.674     5.888       15.27       14.587      -9999.25    158.753     65.626      105.169     25.155      29.221      19.999      21.997      38.574      27.103      15140.0     23.126      22.861      115.406     6500.0      3.573       1.883       2.258       
