~Version Information Section
VERS.                                         2.0:CWLS log ASCII Standart – VERSION 2.0
WRAP.                                          NO:One line per depth step
~Well Information Section
STRT.M                                       -0.5:Начальная глубина
STOP.M                                      184.3:Конечная глубина
STEP.M                                          0:Шаг квантования по глубине
NULL.                                    -9999.25:Признак "Нет данных"
WELL.                                       133Мх:Скважина
~Parameter Information Section
~Curve Information Section
DEPTH.M                                          :Глубина
DS.mm                                            :DS  (ДС)
GGK.g/cm3                                        :GGKp
ГК.mcr/h                                         :GK          (ГК)
GZ1.Ohm*M                                        :GZ1   ГЗ1(A0.4M0.1N)
GZ2.Ohm*M                                        :GZ2   ГЗ2(A1.0M0.1N)
GZ3.Ohm*M                                        :GZ3   ГЗ3(A2.0M0.5N)
GZ4.Ohm*M                                        :GZ4   ГЗ4(A4.0M0.5N)
GZ5.Ohm*M                                        :GZ5   ГЗ5(A8.0M0.5N)
GZR.Ohm*M                                        :GZK   ГЗK(N0.5M2.0A)
ИК.Ohm*M                                         :IK
НГК.ue                                           :NGK     (НГК)
NNKM.                                            :NNKm  (ННКм)
PS.mv                                            :PS       (ПС)
PZ.Ohm*M                                         :PZ    (КС)
RS.Ohm*M                                         :RS (Резистивиметр)
U1.mV                                            :U1
U2.mV                                            :U2
U3.mV                                            :U3
BK.Ohm*M                                         :БК
ПОРИСТОСТЬ.                                      :Пористость ННК
~ASCII LOG DATA
# ...
169.1       125.893     2.381       4.424       182.68      95.103      40.093      33.751      24.558      53.295      32.44       2.288       3.292       146.721     34.428      1.186       500.0       1336.0      2078.0      50.076      18.352      
169.2       125.801     2.389       4.852       179.107     91.518      42.86       34.322      24.558      49.922      32.404      2.243       3.197       147.679     34.689      1.186       512.0       1345.999    2094.001    48.455      18.776      
169.3       125.76      2.406       5.259       175.108     87.99       46.53       34.469      25.08       47.861      32.404      2.217       3.178       148.702     35.045      1.186       522.0       1362.0      2102.0      46.108      18.8        
169.4       125.811     2.425       5.382       162.648     85.238      50.088      35.813      26.976      47.316      32.401      2.194       3.202       149.764     35.556      -9999.25    536.001     1374.0      2102.0      47.124      18.802      
169.5       125.897     2.44        5.372       147.289     84.509      52.986      38.667      30.137      47.316      32.388      2.189       3.194       150.851     36.335      -9999.25    547.999     1372.001    2109.999    55.098      19.145      
169.6       125.941     2.45        5.355       139.144     86.536      55.904      41.9        34.432      47.316      32.369      2.203       3.168       151.942     38.417      -9999.25    570.001     1361.999    2124.0      59.989      19.617      
169.7       125.926     2.459       5.462       137.495     90.199      60.124      45.869      40.002      48.248      32.364      2.265       3.154       153.024     40.627      -9999.25    587.999     1354.0      2136.0      46.729      19.637      
169.8       125.883     2.458       5.652       138.429     93.562      67.08       51.093      46.526      50.801      32.348      2.296       3.159       154.078     42.164      -9999.25    602.0       1362.0      2144.0      36.883      18.664      
169.9       125.852     2.442       5.976       138.429     96.355      77.573      57.44       53.072      53.292      32.305      2.36        3.229       155.099     43.736      -9999.25    604.0       1374.001    2146.0      33.872      17.687      
170.0       125.859     2.437       5.977       138.429     101.167     91.217      66.226      59.73       54.962      32.295      2.496       3.383       156.061     46.172      -9999.25    604.0       1380.0      2154.0      38.524      15.544      
170.1       125.893     2.425       5.842       141.515     111.054     106.695     78.821      65.133      55.956      32.289      2.721       3.553       156.958     50.78       -9999.25    606.0       1378.0      2162.0      49.354      13.895      
170.2       125.916     2.401       5.495       156.634     125.861     122.08      93.844      67.918      56.15       32.258      2.914       3.697       157.763     62.312      -9999.25    610.0       1381.999    2176.001    92.835      13.149      
170.3       125.893     2.38        5.234       180.377     141.531     135.949     108.412     67.982      56.15       32.202      3.01        3.781       158.47      72.188      -9999.25    620.0       1390.0      2189.999    157.262     12.54       
170.4       125.828     2.353       4.918       207.782     156.363     147.753     119.282     67.982      54.953      32.174      3.061       3.788       159.061     77.12       -9999.25    626.0       1392.0      2204.001    216.33      12.393      
170.5       125.759     2.339       4.656       237.121     172.959     155.306     124.553     67.982      51.753      32.174      3.11        3.805       159.55      78.284      -9999.25    626.0       1382.001    2217.999    279.758     12.418      
170.6       125.713     2.352       4.504       263.506     192.276     157.565     125.677     65.715      48.248      32.149      3.117       3.831       159.94      76.556      -9999.25    620.0       1378.0      2220.0      236.083     12.442      
170.7       125.686     2.353       4.654       291.852     210.601     157.565     125.677     61.716      45.06       31.977      3.024       3.858       160.241     66.308      -9999.25    614.0       1378.0      2215.999    164.714     12.466      
170.8       125.658     2.336       4.924       312.372     222.349     156.792     123.736     57.073      41.535      31.556      2.835       3.847       160.455     50.9        -9999.25    606.0       1380.0      2212.0      163.572     12.616      
170.9       125.616     2.308       4.979       317.283     225.958     152.382     117.202     52.554      37.655      30.989      2.642       3.743       160.599     41.42       -9999.25    600.0       1378.0      2210.0      198.949     13.416      
171.0       125.57      2.268       4.677       317.283     225.958     142.316     106.686     48.143      33.467      30.324      2.517       3.591       160.678     37.172      -9999.25    602.0       1376.0      2214.0      168.319     14.188      
171.1       125.544     2.242       4.585       311.943     225.874     127.634     94.253      43.833      29.277      29.586      2.451       3.44        160.682     34.436      -9999.25    608.0       1378.0      2214.0      120.736     15.91       
171.2       125.544     2.248       4.769       297.896     220.626     111.493     81.192      39.287      25.393      28.754      2.361       3.332       160.628     31.328      -9999.25    610.0       1376.0      2210.0      84.015      17.52       
171.3       125.566     2.274       5.079       278.493     206.013     96.613      68.94       35.148      22.042      27.852      2.221       3.26        160.51      28.472      -9999.25    596.0       1366.0      2200.001    51.183      18.374      
171.4       125.618     2.324       5.172       251.6       185.503     85.092      58.884      32.23       19.514      26.863      2.132       3.201       160.335     26.0        -9999.25    575.999     1353.999    2175.999    55.109      19.523      
171.5       125.692     2.388       5.037       224.433     165.118     78.055      51.203      30.513      18.001      25.804      2.128       3.155       160.097     24.272      -9999.25    558.001     1346.0      2154.001    75.214      20.606      
171.6       125.752     2.411       4.823       205.224     146.668     74.273      46.225      29.83       17.421      24.652      2.116       3.111       159.803     23.336      -9999.25    548.0       1342.0      2130.0      67.26       21.262      
171.7       125.763     2.383       4.687       190.443     129.77      72.999      44.393      29.271      17.339      23.467      2.087       3.076       159.445     22.364      -9999.25    546.0       1326.001    2118.0      61.592      21.803      
171.8       125.738     2.345       4.665       176.39      117.339     72.999      44.215      28.74       17.339      22.337      2.041       3.048       159.031     20.864      -9999.25    552.0       1314.0      2112.0      60.447      21.913      
171.9       125.767     2.308       4.722       162.058     110.454     72.643      44.215      28.057      17.339      21.316      2.016       3.044       158.544     18.764      -9999.25    556.0       1304.0      2108.0      36.437      21.358      
172.0       125.909     2.259       4.72        150.789     108.223     71.499      44.215      26.943      17.372      20.429      2.006       3.066       158.007     17.072      -9999.25    552.001     1308.0      2096.001    38.839      20.513      
172.1       126.063     2.244       4.601       141.613     106.053     70.489      43.722      25.621      17.388      19.676      2.026       3.089       157.409     16.472      -9999.25    546.0       1308.0      2076.969    38.755      19.946      
172.2       126.084     2.255       4.195       132.137     101.487     70.203      42.905      23.889      17.371      19.035      2.037       3.096       156.764     16.064      -9999.25    546.0       1312.0      2069.64     39.341      19.415      
