~Version Information Section
VERS.                                         2.0:CWLS log ASCII Standart – VERSION 2.0
WRAP.                                          NO:One line per depth step
~Well Information Section
STRT.M                                        2.0:Начальная глубина
STOP.M                                      201.2:Конечная глубина
STEP.M                                          0:Шаг квантования по глубине
NULL.                                    -9999.25:Признак "Нет данных"
WELL.                                       126Мх:Скважина
~Parameter Information Section
~Curve Information Section
DEPTH.M                                          :Глубина
BK.ohmm                                          :BK
ПРОФ_СР.мм                                       :DS  (ДС)
W.g/cm3                                          :GGKp
ГК.мкР/час                                       :GK          (ГК)
ГЗ1.Омм                                          :GZ1   ГЗ1(A0.4M0.1N)
ГЗ2.Омм                                          :GZ2   ГЗ2(A1.0M0.1N)
ГЗ3.Омм                                          :GZ3   ГЗ3(A2.0M0.5N)
ГЗ4.Oмм                                          :GZ4   ГЗ4(A4.0M0.5N)
ГЗ5.Oмм                                          :GZ5   ГЗ5(A8.0M0.5N)
ГЗК.Омм                                          :GZK   ГЗK(N0.5M2.0A)
ИК.ohmm                                          :IK
НГК.усл.ед.                                      :NGK
ННКМ.усл.ед                                      :NNKm  (ННКм)
PS.мВ                                            :PS       (ПС)
PZ.Омм                                           :PZ    (КС)
RIS.Омм                                          :RS (Резистивиметр)
U1.мВ                                            :U1
U2.мВ                                            :U2
U3.mv                                            :U3
~ASCII LOG DATA
# ...
165.2       17.338      121.434     2.338       7.53        37.8        13.6        24.801      16.536      4.334       17.307      7.508       1.026       2.144       178.246     7.951       1.516       480.776     505.653     635.997     
165.3       16.482      121.619     2.334       7.438       36.72       13.396      25.2        16.536      4.334       17.307      7.505       1.034       2.154       178.246     7.951       1.518       457.055     431.069     494.281     
165.4       16.032      121.578     2.322       7.319       36.72       12.58       27.201      16.536      4.334       17.35       7.498       1.064       2.121       178.246     7.951       1.518       564.003     452.483     425.715     
165.5       15.631      122.551     2.312       7.411       35.64       12.376      29.2        16.536      4.334       17.533      7.502       1.065       2.084       178.246     7.951       1.517       692.807     526.735     454.185     
165.6       15.704      122.637     2.31        7.654       35.64       11.152      31.2        16.736      4.334       17.611      7.466       1.097       2.069       178.246     7.951       1.515       706.369     545.21      488.672     
165.7       15.849      121.968     2.312       7.662       34.56       9.52        33.2        17.536      4.334       17.994      7.454       1.113       2.066       178.246     7.951       1.51        564.099     469.744     488.262     
165.8       15.922      123.167     2.327       7.609       34.56       9.316       35.2        17.536      4.334       18.288      7.411       1.108       2.095       178.246     8.327       1.505       430.627     385.808     459.104     
165.9       15.959      121.467     2.33        7.425       34.56       8.296       36.801      17.536      4.334       18.326      7.376       1.095       2.104       178.246     8.703       1.499       422.05      352.234     402.305     
166.0       16.032      121.098     2.34        7.45        34.56       7.48        36.801      17.536      4.334       18.477      7.358       1.073       2.08        178.246     9.079       1.496       498.505     369.889     356.287     
166.1       16.52       121.221     2.34        7.448       34.56       7.48        36.801      17.536      4.334       18.511      7.342       1.048       2.06        178.774     9.455       1.494       553.004     411.795     372.961     
166.2       18.072      121.091     2.351       7.558       34.56       7.48        36.801      17.536      4.334       18.722      7.334       1.014       2.053       179.83      9.831       1.493       559.184     440.547     419.336     
166.3       18.493      121.087     2.352       7.54        34.56       7.48        36.801      17.736      4.534       19.17       7.329       0.98        2.033       181.414     9.831       1.493       590.064     438.581     406.048     
166.4       15.241      121.234     2.349       7.646       34.56       7.888       36.801      18.536      5.334       19.714      7.335       0.962       2.01        182.998     10.207      1.493       661.065     430.417     350.16      
166.5       14.825      121.085     2.336       7.37        34.56       9.52        36.801      18.536      5.534       19.959      7.334       0.963       2.024       184.582     10.583      1.493       712.682     464.534     368.263     
166.6       15.136      120.956     2.321       7.28        34.56       9.724       36.801      18.536      6.334       21.273      7.335       0.995       2.047       185.638     10.959      1.493       712.099     533.453     472.329     
166.7       15.101      121.016     2.311       7.122       34.56       10.54       36.801      18.536      6.534       22.61       7.312       1.026       2.076       186.166     11.335      1.493       682.477     573.807     547.356     
166.8       15.066      121.033     2.305       7.32        33.48       10.744      36.801      18.536      7.334       23.078      7.306       1.04        2.106       186.166     11.711      1.493       653.767     551.991     522.148     
166.9       15.241      121.182     2.316       7.413       33.48       11.764      36.801      18.536      7.334       24.834      7.293       1.046       2.119       186.694     11.711      1.493       626.402     497.956     445.519     
167.0       15.205      121.132     2.307       7.514       33.48       12.988      37.2        18.536      7.534       24.357      7.294       1.059       2.092       187.75      11.711      1.493       601.435     461.502     398.848     
167.1       15.101      121.15      2.308       7.607       32.4        15.028      38.801      17.936      8.534       24.501      7.319       1.052       2.022       189.862     11.711      1.493       589.463     452.213     390.824     
167.2       15.56       121.124     2.313       7.689       32.4        17.937      38.801      15.536      9.734       25.216      7.363       1.006       2.034       192.502     11.711      1.493       616.055     488.163     433.253     
167.3       15.346      121.732     2.306       7.664       32.4        21.411      39.2        15.536      11.134      25.768      7.436       0.983       2.09        196.198     11.711      1.491       659.665     542.405     496.367     
167.4       14.355      122.149     2.312       7.517       31.32       14.662      40.801      15.536      10.334      26.042      7.519       1.015       2.078       199.894     11.711      1.487       648.596     558.955     541.906     
167.5       13.932      121.786     2.318       7.335       31.32       13.906      40.801      15.536      10.134      27.257      7.645       1.064       2.046       203.062     11.711      1.481       567.98      512.048     535.35      
167.6       13.996      121.791     2.315       7.541       31.32       13.843      42.0        15.536      9.334       27.72       7.785       1.077       2.0         206.758     11.711      1.473       482.094     409.291     436.408     
167.7       14.223      121.762     2.313       7.643       31.32       13.452      46.801      15.536      9.334       28.175      7.938       1.057       1.973       209.926     11.711      1.466       462.915     310.569     290.28      
167.8       14.256      121.837     2.323       8.017       31.32       12.906      46.001      15.736      9.334       30.441      8.109       1.035       1.998       212.566     11.711      1.46        554.181     286.239     189.183     
167.9       13.996      121.839     2.341       8.321       31.32       12.854      42.801      16.536      9.334       32.752      8.318       1.012       2.011       215.206     11.711      1.456       695.997     337.863     183.196     
168.0       14.028      121.81      2.354       8.513       33.48       12.603      42.401      16.736      9.334       34.87       8.537       0.99        2.004       217.846     12.087      1.455       767.306     409.546     257.453     
168.1       15.849      121.88      2.368       8.285       33.48       12.696      41.6        17.736      9.334       35.122      8.782       1.005       2.013       218.902     12.463      1.454       712.917     432.861     332.612     
168.2       36.644      121.807     2.35        7.396       33.48       13.723      47.999      18.536      9.334       36.401      9.066       1.034       2.033       218.374     14.719      1.454       556.293     414.386     404.367     
168.3       155.597     121.8       2.321       6.316       34.56       13.396      62.0        18.536      9.334       37.468      9.349       1.061       2.051       216.79      17.727      1.454       526.603     405.696     409.238     
168.4       167.494     121.77      2.282       5.373       36.72       11.837      69.601      18.536      9.334       37.758      9.835       1.128       2.063       213.622     21.111      1.454       620.757     406.545     348.8       
168.5       164.816     121.819     2.233       4.598       36.72       10.845      82.0        18.536      9.435       38.919      10.277      1.199       2.186       209.398     25.623      1.454       687.779     404.907     300.149     
