~Version Information Section
VERS.                                         2.0:CWLS log ASCII Standart – VERSION 2.0
WRAP.                                          NO:One line per depth step
~Well Information Section
STRT.M                                        0.6:Начальная глубина
STOP.M                                      202.6:Конечная глубина
STEP.M                                          0:Шаг квантования по глубине
NULL.                                    -9999.25:Признак "Нет данных"
WELL.                                       130Мх:Скважина
~Parameter Information Section
~Curve Information Section
DEPTH.M                                          :Глубина
БК.Омм                                           :BK     (БК)
DСР.мм                                           :DS  (ДС)
W.g/cm3                                          :GGKp
ГК.гамма                                         :GK          (ГК)
А0.4М0.1N.Омм.ohmm                               :GZ1   ГЗ1(A0.4M0.1N)
А1.0М0.1N.Омм.ohmm                               :GZ2   ГЗ2(A1.0M0.1N)
А2.0М0.5N.Омм.ohmm                               :GZ3   ГЗ3(A2.0M0.5N)
А4.0М0.5N.Oмм.ohmm                               :GZ4   ГЗ4(A4.0M0.5N)
А8.0М1.0N.Омм.ohmm                               :GZ5   ГЗ5(A8.0M0.5N)
N0.5M2.0A.Омм.ohmm                               :GZK   ГЗK(N0.5M2.0A)
ИК.мСм/м                                         :IK
НГК.усл.ед                                       :NNKb  (ННКб)
ННКМ.усл.ед                                      :NNKm  (ННКм)
ПС.мВ                                            :PS       (ПС)
КС.Омм                                           :PZ    (КС)
R.Омм                                            :RS (Резистивиметр)
U1.мВ                                            :U1
U2.mV                                            :U2
U3.мВ                                            :U3
КП.%                                             :Кп
~ASCII LOG DATA
# ...
96.6        20.266      137.98      2.236       6.053       19.398      18.777      20.228      16.001      10.702      12.732      14.482      1.797       1.341       273.962     52.528      1.08        706.25      537.051     425.939     39.266      
96.7        20.005      140.071     2.224       5.822       18.734      18.721      20.209      15.965      10.272      10.765      14.271      1.781       1.374       275.712     52.752      1.08        1010.259    682.137     483.564     38.185      
96.8        20.582      140.398     2.22        5.601       18.334      18.708      20.209      15.965      10.108      9.51        14.097      1.765       1.401       277.613     52.888      1.08        1350.187    894.38      614.737     36.144      
96.9        20.847      138.831     2.227       5.485       18.193      18.694      20.209      15.965      10.042      8.814       13.94       1.824       1.398       279.638     52.952      1.08        1680.769    1184.543    873.591     34.15       
97.0        20.644      138.552     2.235       5.332       18.193      18.811      20.461      16.188      9.977       8.524       13.8        1.912       1.397       281.737     52.96       1.08        2105.846    1479.307    1045.596    33.556      
97.1        21.77       139.389     2.24        5.633       18.193      19.034      21.081      16.731      9.926       8.385       13.69       1.921       1.408       283.858     52.96       1.08        2440.996    1674.154    1153.816    33.855      
97.2        23.251      137.281     2.246       5.718       18.039      19.14       21.518      17.081      9.881       8.226       13.615      1.944       1.423       285.935     52.92       1.08        2587.95     1784.72     1232.402    36.724      
97.3        23.741      138.364     2.248       5.932       17.761      19.096      21.586      17.112      9.857       8.076       13.565      1.973       1.456       287.911     52.832      1.08        2613.534    1810.69     1244.411    40.538      
97.4        24.447      138.416     2.256       5.941       17.623      18.806      21.586      17.112      9.817       7.888       13.543      1.993       1.504       289.694     52.68       1.08        2608.735    1739.286    1130.377    41.959      
97.5        27.363      140.019     2.265       5.924       17.608      18.114      21.236      16.854      9.678       7.613       13.505      1.965       1.553       291.201     52.464      1.08        2490.542    1642.288    1083.604    39.705      
97.6        26.095      139.605     2.273       5.911       17.487      17.029      20.289      16.152      9.488       7.353       13.429      1.942       1.553       292.344     52.176      1.08        2430.954    1641.18     1097.539    35.636      
97.7        20.926      141.915     2.277       5.976       17.172      15.694      18.831      14.986      9.488       7.252       13.316      1.951       1.478       293.036     51.808      1.08        2329.176    1662.057    1157.798    34.535      
97.8        18.392      143.147     2.28        6.149       16.579      14.276      17.049      13.68       9.488       7.252       13.172      1.936       1.418       293.293     51.376      1.08        2270.094    1692.144    1235.821    32.731      
97.9        17.652      147.718     2.273       6.196       15.745      13.155      15.837      13.097      9.488       7.252       13.023      1.872       1.388       293.293     50.92       1.08        2222.959    1721.924    1278.41     30.83       
98.0        17.389      146.199     2.267       6.06        14.801      12.757      15.549      13.097      9.775       7.287       12.885      1.82        1.363       293.293     50.456      1.08        2168.863    1723.987    1309.908    24.909      
98.1        17.058      139.223     2.274       5.978       14.18       12.757      15.549      13.097      11.206      7.728       12.747      1.763       1.349       293.188     50.024      1.08        1995.034    1637.034    1287.905    20.57       
98.2        16.734      138.355     2.294       5.885       14.066      12.757      15.549      13.443      14.221      9.577       12.598      1.797       1.382       292.809     49.664      1.08        1816.438    1475.874    1169.861    18.002      
98.3        16.243      137.672     2.322       5.763       14.066      12.777      16.601      15.709      19.102      14.102      12.46       2.008       1.449       292.265     49.384      1.08        1597.28     1258.935    977.333     18.935      
98.4        15.64       135.994     2.355       5.445       14.066      14.003      20.318      21.013      25.42       21.602      12.423      2.259       1.496       291.663     49.16       1.08        1366.18     1012.715    773.81      23.163      
98.5        16.777      136.378     2.377       5.16        14.788      17.844      27.277      29.723      32.114      29.664      12.545      2.528       1.537       291.011     48.976      1.08        1132.459    761.501     564.195     26.138      
98.6        22.828      136.876     2.375       4.771       17.315      20.705      34.294      38.641      38.21       35.292      12.768      2.732       1.666       290.294     48.792      1.08        877.029     551.103     387.927     29.743      
98.7        37.833      136.895     2.357       4.243       20.747      20.931      37.704      42.791      43.772      37.277      13.122      3.103       1.847       289.492     48.56       1.08        698.081     419.387     303.05      30.994      
98.8        72.926      137.072     2.33        3.743       23.99       20.931      38.391      43.351      46.757      37.277      13.524      3.193       1.971       288.576     48.264      1.08        559.717     347.085     274.904     33.047      
98.9        107.746     137.066     2.302       3.499       26.603      20.791      38.391      43.351      46.757      37.072      13.743      3.208       2.036       287.532     47.92       1.08        483.698     336.389     291.635     34.064      
99.0        68.954      136.139     2.281       3.96        27.598      20.08       37.04       41.552      46.757      34.673      13.69       3.054       1.883       286.349     47.536      1.08        508.582     419.784     366.972     36.315      
99.1        25.506      136.19      2.27        4.708       27.598      17.695      32.608      36.339      45.551      28.957      13.39       2.648       1.675       285.01      47.128      1.08        623.64      521.832     460.405     37.19       
99.2        19.548      136.754     2.261       5.345       27.043      12.983      24.786      27.504      40.761      22.586      12.98       2.461       1.561       283.496     46.736      1.08        737.947     622.079     531.107     35.834      
99.3        20.56       137.888     2.252       5.519       24.731      9.997       16.774      18.193      34.114      18.29       12.547      2.239       1.47        281.811     46.376      1.08        813.519     717.414     616.993     33.861      
99.4        19.614      140.225     2.247       5.456       21.445      9.911       11.882      12.718      26.071      16.642      12.171      2.159       1.46        279.97      46.04       1.08        803.932     778.919     738.616     35.838      
99.5        15.341      140.892     2.254       5.318       18.613      9.911       9.696       10.562      18.594      16.355      11.93       1.974       1.47        278.001     45.736      1.08        685.115     766.922     835.586     39.218      
99.6        14.32       141.736     2.261       5.347       16.3        9.911       8.878       9.692       13.75       16.08       11.818      1.987       1.419       275.953     45.472      1.08        576.067     728.765     893.22      40.475      
99.7        16.419      138.844     2.259       5.338       15.051      10.45       8.483       9.203       11.561      15.669      11.852      2.008       1.375       273.893     45.232      1.08        506.914     660.969     848.678     37.802      
