~Version Information Section
VERS.                                         2.0:CWLS log ASCII Standart – VERSION 2.0
WRAP.                                          NO:One line per depth step
~Well Information Section
STRT.M                                        0.4:Начальная глубина
STOP.M                                      191.4:Конечная глубина
STEP.M                                          0:Шаг квантования по глубине
NULL.                                    -9999.25:Признак "Нет данных"
WELL.                                       113Мх:Скважина
~Parameter Information Section
~Curve Information Section
DEPTH.M                                          :Глубина
БК.Омм                                           :BK     (БК)
DСР.мм                                           :DS  (ДС)
GGKP.g/cm3                                       :GGKp
ГК.гамма                                         :GK          (ГК)
А0.4М0.1N.Омм                                    :GZ1   ГЗ1(A0.4M0.1N)
А1.0М0.1N.Омм                                    :GZ2   ГЗ2(A1.0M0.1N)
А2.0М0.5N.Омм                                    :GZ3   ГЗ3(A2.0M0.5N)
А4.0М0.5N.Oмм                                    :GZ4   ГЗ4(A4.0M0.5N)
А8.0М1.0N.Омм                                    :GZ5   ГЗ5(A8.0M0.5N)
N0.5M2.0A.Омм                                    :GZK   ГЗK(N0.5M2.0A)
ИК.мСм/м                                         :IK
НГК.усл.ед                                       :NNKb  (ННКб)
ННКМ.усл.ед                                      :NNKm  (ННКм)
ПС.мВ                                            :PS       (ПС)
PZ.Омм                                           :PZ    (КС)
R.Омм                                            :RS (Резистивиметр)
U1.мВ                                            :U1
U2.mV                                            :U2
U3.мВ                                            :U3
КП.%                                             :Кп
~ASCII LOG DATA
# ...
134.8       39.221      137.991     2.367       5.539       31.354      21.116      21.566      19.063      14.333      32.307      22.238      2.359       1.593       178.763     73.206      1.12        257.291     197.276     264.189     32.443      
135.0       40.292      137.376     2.364       5.891       33.035      24.049      21.587      19.208      14.349      32.325      22.678      2.526       1.625       178.739     72.916      1.12        176.518     168.105     221.407     31.755      
135.2       40.605      138.239     2.35        6.11        33.972      26.687      21.855      19.319      14.587      32.479      22.942      2.477       1.62        178.408     72.542      1.12        174.889     151.503     169.699     31.102      
135.4       40.817      138.529     2.339       5.841       34.643      28.417      22.405      19.451      15.059      32.842      23.164      2.467       1.649       177.81      72.221      1.12        211.555     163.948     152.133     31.217      
135.6       41.157      138.677     2.342       5.673       35.46       29.421      23.172      19.61       15.428      33.334      23.365      2.518       1.66        176.948     72.05       1.12        229.356     172.466     160.408     30.411      
135.8       42.273      137.391     2.345       5.209       36.522      30.119      24.217      19.808      15.573      33.932      23.523      2.613       1.634       175.768     71.943      1.12        226.824     177.054     186.375     29.926      
136.0       43.135      137.458     2.349       5.226       37.593      30.778      25.597      20.124      15.615      34.599      23.757      2.646       1.675       174.227     71.724      1.12        223.912     197.203     240.909     30.125      
136.2       43.839      136.559     2.353       5.395       38.287      31.499      26.878      20.442      15.686      35.238      23.92       2.62        1.687       172.349     71.239      1.12        317.064     231.784     248.507     30.712      
136.4       43.375      137.376     2.359       5.602       38.473      32.239      27.787      20.53       16.005      35.536      24.189      2.529       1.7         170.258     70.467      1.12        509.867     240.902     184.131     31.258      
136.6       42.686      137.251     2.345       5.766       38.444      32.82       28.382      20.512      16.724      35.514      24.403      2.48        1.668       168.128     69.548      1.12        537.178     216.636     131.85      31.839      
136.8       41.293      137.193     2.329       5.796       38.242      33.153      28.89       20.369      17.581      35.059      24.459      2.501       1.655       166.094     68.683      1.12        368.831     181.45      146.926     32.551      
137.0       39.766      137.41      2.315       5.61        38.045      33.344      29.514      20.274      18.251      34.087      24.52       2.419       1.67        164.205     67.959      1.12        195.285     183.165     230.873     32.326      
137.2       38.559      137.784     2.325       5.459       38.026      33.543      30.352      20.271      18.928      33.106      24.597      2.454       1.668       162.461     67.3        1.12        152.413     178.461     276.701     31.939      
137.4       39.081      136.891     2.352       5.788       38.075      33.831      31.355      20.302      19.844      32.322      24.648      2.667       1.681       160.875     66.574      1.12        229.729     186.144     250.795     30.375      
137.6       41.449      136.271     2.376       5.801       38.528      34.202      32.3        20.676      20.787      31.771      24.731      2.785       1.742       159.495     65.71       1.12        355.689     206.654     195.486     29.247      
137.8       43.463      136.158     2.386       5.39        39.466      34.547      33.183      21.611      21.459      31.408      24.782      2.78        1.757       158.367     64.711      1.12        377.468     220.743     208.836     29.36       
138.0       44.494      137.578     2.381       5.333       40.582      34.782      33.993      22.908      21.68       31.091      24.665      2.752       1.725       157.485     63.615      1.12        283.202     211.089     256.849     28.951      
138.2       46.16       138.152     2.373       5.149       40.929      34.82       34.403      23.823      21.686      30.635      24.462      2.814       1.766       156.786     62.49       1.12        237.609     213.109     279.972     27.981      
138.4       47.479      136.804     2.354       4.96        40.784      34.754      34.428      24.107      21.556      29.929      24.245      2.916       1.784       156.194     61.472      1.12        246.647     208.041     253.312     27.965      
138.6       44.721      137.979     2.323       5.33        39.546      34.387      34.335      24.135      21.317      29.303      23.874      2.709       1.702       155.676     60.717      1.12        267.303     189.709     202.523     29.15       
138.8       39.735      139.262     2.296       5.819       38.204      34.0        34.075      24.105      21.123      29.202      23.258      2.348       1.608       155.248     60.294      1.12        325.953     191.634     169.906     31.981      
139.0       36.704      139.679     2.281       6.125       37.409      33.742      33.763      24.066      20.936      29.203      22.655      2.193       1.556       154.94      60.142      1.12        397.406     224.092     172.864     34.382      
139.2       37.124      137.775     2.289       6.143       36.461      33.296      32.964      23.903      20.691      29.585      22.441      2.191       1.549       154.755     60.176      1.12        435.997     253.703     220.844     35.104      
139.4       39.333      136.589     2.298       6.073       34.799      32.328      31.568      23.47       20.468      30.444      22.428      2.243       1.591       154.668     60.244      1.12        377.288     232.709     221.908     34.163      
139.6       38.62       135.517     2.311       5.901       33.055      30.819      30.2        23.047      20.404      31.191      22.31       2.282       1.617       154.636     60.291      1.12        318.506     240.392     247.435     33.046      
139.8       34.486      133.342     2.324       5.845       32.09       29.611      29.724      22.983      20.411      31.657      21.948      2.336       1.58        154.63      60.167      1.12        227.889     261.155     355.152     32.769      
140.0       33.373      135.59      2.321       5.775       32.042      29.382      29.724      23.038      20.616      32.229      21.747      2.27        1.533       154.636     59.815      1.12        201.239     274.349     457.308     32.472      
140.2       36.44       135.055     2.313       5.838       32.246      29.382      30.14       23.704      21.199      33.201      21.979      2.284       1.561       154.664     59.357      1.12        227.591     220.595     369.274     33.246      
140.4       39.415      135.149     2.333       5.677       33.819      29.931      30.848      24.194      21.74       33.932      22.409      2.433       1.603       154.737     58.962      1.12        306.301     174.337     216.326     32.196      
140.6       40.564      135.687     2.345       5.485       35.161      30.132      30.944      24.206      21.868      34.012      22.802      2.511       1.659       154.883     58.76       1.12        243.557     144.494     175.9       31.259      
140.8       41.94       134.358     2.333       5.422       35.792      30.131      30.544      23.584      21.814      33.873      23.221      2.549       1.664       155.119     58.816      1.12        289.779     221.481     255.144     31.039      
141.0       38.976      136.376     2.329       5.584       36.098      29.72       29.344      22.399      21.654      33.607      23.233      2.548       1.651       155.454     59.131      1.12        327.496     285.344     304.164     30.457      
