~Version Information Section
VERS.                                         2.0:CWLS log ASCII Standart – VERSION 2.0
WRAP.                                          NO:One line per depth step
~Well Information Section
STRT.M                                        0.2:Начальная глубина
STOP.M                                      176.0:Конечная глубина
STEP.M                                          0:Шаг квантования по глубине
NULL.                                    -9999.25:Признак "Нет данных"
WELL.                                       112Мх:Скважина
~Parameter Information Section
~Curve Information Section
DEPTH.M                                          :Глубина
BK.Ohm*M                                         :BK     (БК)
DS.mm                                            :DS  (ДС)
GGK.g/cm3                                        :GGKp
ГК.mcr/h                                         :GK          (ГК)
GZ1.Ohm*M                                        :GZ1   ГЗ1(A0.4M0.1N)
GZ2.Ohm*M                                        :GZ2   ГЗ2(A1.0M0.1N)
GZ3.Ohm*M                                        :GZ3   ГЗ3(A2.0M0.5N)
GZ4.Ohm*M                                        :GZ4   ГЗ4(A4.0M0.5N)
GZ5.Ohm*M                                        :GZ5   ГЗ5(A8.0M0.5N)
GZR.Ohm*M                                        :GZK   ГЗK(N0.5M2.0A)
ИК.Ohm*M                                         :IK
НГК.ue                                           :NGK     (НГК)
NNKM.                                            :NNKm  (ННКм)
PS.mv                                            :PS       (ПС)
PZ.Ohm*M                                         :PZ    (КС)
U1.mV                                            :U1
U2.mV                                            :U2
U3.mV                                            :U3
КП.%                                             :Кп
~ASCII LOG DATA
# ...
136.2       19.132      136.516     2.376       6.22        14.758      17.103      3.983       1.081       1.179       10.721      11.255      1.131       2.086       363.36      57.96       520.0       2720.0      420.0       42.198      
136.3       20.03       136.636     2.369       6.095       14.689      16.699      4.086       1.022       1.082       11.073      11.242      1.117       2.071       364.22      56.76       580.0       2720.0      390.557     41.685      
136.4       19.606      136.851     2.366       5.884       14.667      16.268      4.349       0.973       1.008       11.427      11.249      1.167       2.032       365.06      55.72       510.0       2720.0      390.557     41.721      
136.5       18.988      137.128     2.369       6.095       14.667      15.828      4.765       0.928       0.947       11.767      11.235      1.2         2.019       365.84      54.84       460.0       2775.621    392.976     42.196      
136.6       18.929      137.483     2.385       6.024       14.668      15.416      5.368       0.885       0.894       12.094      11.195      1.208       2.026       366.48      53.96       460.0       2802.218    401.419     42.339      
136.7       19.004      136.997     2.406       5.91        14.674      15.057      6.197       0.844       0.849       12.414      11.17       1.153       2.022       366.98      53.12       460.0       2828.276    417.412     41.54       
136.8       19.387      137.072     2.428       5.743       14.703      14.771      7.3         0.804       0.813       12.729      11.196      1.096       2.015       367.4       52.28       440.0       2845.184    433.406     40.807      
136.9       19.837      137.104     2.445       5.736       14.778      14.56       8.697       0.766       0.784       13.028      11.218      1.059       2.059       367.76      51.44       440.0       2786.238    468.183     41.374      
137.0       20.164      136.954     2.451       5.758       14.897      14.409      10.36       0.733       0.761       13.297      11.264      1.083       2.088       368.08      50.6        480.0       2766.419    529.525     42.937      
137.1       20.858      137.294     2.451       5.424       15.055      14.306      12.196      0.71        0.744       13.524      11.36       1.074       2.043       368.42      49.88       540.0       2766.419    565.252     43.525      
137.2       21.522      137.686     2.442       5.375       15.237      14.242      14.023      0.696       0.733       13.705      11.438      1.079       2.012       368.8       49.24       550.0       2806.662    564.237     42.747      
137.3       20.617      137.313     2.427       5.458       15.423      14.207      15.615      0.692       0.725       13.841      11.469      1.075       2.009       369.18      48.72       540.0       2846.904    540.679     43.449      
137.4       19.777      137.108     2.413       5.667       15.595      14.193      16.784      0.692       0.718       13.945      11.506      1.096       2.022       369.52      48.36       500.0       2849.217    477.885     45.289      
137.5       19.932      137.176     2.402       5.785       15.74       14.192      17.443      0.693       0.712       14.032      11.56       1.081       2.051       369.82      48.16       480.0       2816.479    433.108     46.133      
137.6       20.447      137.4       2.393       5.778       15.859      14.192      17.663      0.698       0.706       14.116      11.561      1.097       2.062       370.08      48.04       480.0       2753.942    422.514     44.333      
137.7       20.701      137.315     2.383       5.965       15.955      14.193      17.662      0.721       0.698       14.208      11.589      1.105       2.056       370.3       48.0        530.0       2733.96     422.514     41.237      
137.8       20.579      137.809     2.374       5.947       16.036      14.202      17.635      0.768       0.69        14.313      11.642      1.144       2.043       370.48      48.0        530.0       2733.96     444.72      40.078      
137.9       20.374      136.683     2.365       5.9         16.109      14.229      17.488      0.847       0.683       14.431      11.669      1.12        2.033       370.6       48.0        510.0       2802.18     534.91      40.059      
138.0       20.225      137.17      2.36        5.904       16.173      14.274      17.16       0.964       0.676       14.559      11.684      1.108       2.037       370.64      48.0        480.0       2870.401    625.101     40.591      
138.1       20.135      137.124     2.366       5.942       16.224      14.332      16.793      1.117       0.672       14.692      11.72       1.126       2.04        370.64      48.0        480.0       2880.556    547.613     39.998      
138.2       20.359      136.808     2.385       5.82        16.261      14.397      16.472      1.311       0.671       14.83       11.729      1.126       2.027       370.64      48.0        570.0       2858.677    475.86      39.479      
138.3       20.554      136.16      2.406       5.814       16.285      14.462      16.198      1.552       0.67        14.975      11.735      1.15        2.026       370.6       48.0        540.0       2856.076    475.86      40.201      
138.4       20.33       136.855     2.418       5.827       16.298      14.519      15.964      1.849       0.67        15.133      11.758      1.113       2.054       370.48      48.0        500.0       2843.448    501.236     42.286      
138.5       19.698      136.614     2.419       5.974       16.304      14.561      15.765      2.226       0.67        15.313      11.762      1.159       2.059       370.3       48.0        450.0       2801.746    488.225     43.766      
138.6       19.299      135.774     2.406       5.836       16.308      14.585      15.598      2.716       0.67        15.524      11.727      1.09        2.03        370.1       48.0        450.0       2760.043    462.851     41.817      
138.7       19.528      134.615     2.389       5.853       16.31       14.593      15.463      3.372       0.672       15.771      11.731      1.102       2.027       369.9       48.0        480.0       2742.711    441.82      39.752      
138.8       20.023      133.219     2.378       6.031       16.31       14.593      15.357      4.261       0.674       16.058      11.733      1.094       2.045       369.68      48.0        480.0       2742.711    435.591     40.505      
138.9       20.242      130.399     2.378       6.207       16.307      14.589      15.271      5.437       0.676       16.383      11.725      1.127       2.076       369.44      48.0        480.0       2808.448    435.591     43.353      
139.0       20.073      130.053     2.388       6.271       16.297      14.571      15.195      6.911       0.677       16.75       11.754      1.108       2.113       369.22      48.0        460.0       2838.892    447.719     42.246      
139.1       20.022      129.895     2.399       6.302       16.272      14.531      15.114      8.638       0.678       17.158      11.769      1.057       2.097       369.02      48.0        460.0       2824.607    530.128     38.59       
139.2       20.186      129.745     2.407       6.027       16.224      14.468      15.016      10.488      0.678       17.613      11.76       1.084       2.074       368.8       48.0        520.0       2824.607    538.844     36.286      
139.3       20.28       129.596     2.416       6.016       16.146      14.384      14.89       12.252      0.678       18.122      11.794      1.115       2.102       368.56      48.0        500.0       2826.258    489.786     38.145      
139.4       20.344      129.483     2.42        5.844       16.039      14.287      14.738      13.719      0.676       18.692      11.819      1.156       2.122       368.3       48.0        500.0       2827.909    458.055     39.804      
139.5       20.526      129.397     2.416       6.289       15.915      14.189      14.568      14.736      0.674       19.329      11.823      1.15        2.109       367.98      48.0        500.0       2833.168    458.055     40.886      
