~Version Information Section
VERS.                                         2.0:CWLS log ASCII Standart – VERSION 2.0
WRAP.                                          NO:One line per depth step
~Well Information Section
STRT.M                                       -0.1:Начальная глубина
STOP.M                                      197.8:Конечная глубина
STEP.M                                          0:Шаг квантования по глубине
NULL.                                    -9999.25:Признак "Нет данных"
WELL.                                       134Мх:Скважина
~Parameter Information Section
~Curve Information Section
DEPTH.M                                          :Глубина
BK.Ohm*M                                         :BK     (БК)
DS.mm                                            :DS  (ДС)
GGK.g/cm3                                        :GGKp
ГК.mcr/h                                         :GK          (ГК)
GZ1.Ohm*M                                        :GZ1   ГЗ1(A0.4M0.1N)
GZ2.Ohm*M                                        :GZ2   ГЗ2(A1.0M0.1N)
GZ3.Ohm*M                                        :GZ3   ГЗ3(A2.0M0.5N)
GZ4.Ohm*M                                        :GZ4   ГЗ4(A4.0M0.5N)
GZ5.Ohm*M                                        :GZ5   ГЗ5(A8.0M0.5N)
GZR.Ohm*M                                        :GZK   ГЗK(N0.5M2.0A)
ИК.Ohm*M                                         :IK
КП.%                                             :Кп
НГК.ue                                           :NGK     (НГК)
NNKM.                                            :NNKm  (ННКм)
PS.mv                                            :PS       (ПС)
PZ.Ohm*M                                         :PZ    (КС)
RS.Ohm*M                                         :RS (Резистивиметр)
U1.mV                                            :U1
U2.mV                                            :U2
U3.mV                                            :U3
~ASCII LOG DATA
# ...
73.5        27.292      151.982     2.308       3.516       32.49       30.29       26.712      10.374      13.671      20.757      21.557      32.189      1.25        2.187       305.973     52.89       1.06        869.024     736.36      737.217     
73.6        27.834      152.036     2.314       3.342       33.681      31.13       27.626      10.712      14.069      20.711      21.478      32.31       1.257       2.194       305.088     53.216      1.06        887.32      732.244     647.199     
73.7        29.133      152.074     2.309       3.622       34.84       31.903      28.792      11.122      14.309      20.555      21.351      31.394      1.217       2.207       304.293     53.476      1.06        884.095     736.792     591.459     
73.8        30.07       152.189     2.293       3.618       35.768      32.424      30.006      11.623      14.386      20.228      21.258      30.748      1.217       2.224       303.566     53.671      1.06        895.166     730.968     643.299     
73.9        31.535      152.27      2.275       3.564       36.17       32.594      30.931      12.246      14.393      19.704      21.066      31.253      1.192       2.226       302.89      53.807      1.06        817.07      689.679     703.443     
74.0        78.978      152.621     2.261       3.698       36.205      32.594      31.333      13.012      14.334      19.045      20.726      31.909      1.253       2.214       302.25      53.896      1.06        646.515     616.141     661.077     
74.1        99.185      152.822     2.253       3.68        36.205      32.532      31.385      13.899      14.108      18.375      20.274      32.074      1.216       2.206       301.642     53.949      1.06        513.174     527.113     531.937     
74.2        51.671      152.776     2.254       3.667       35.845      32.215      31.385      14.849      13.689      17.799      19.886      31.723      1.229       2.203       301.062     53.977      1.06        485.573     466.421     416.467     
74.3        29.149      152.907     2.262       3.511       34.76       31.531      31.163      15.775      13.156      17.403      19.568      30.925      1.166       2.2         300.514     53.991      1.06        529.474     456.002     364.575     
74.4        28.196      153.029     2.268       3.598       33.08       30.584      30.49       16.594      12.594      17.229      19.129      30.484      1.189       2.18        299.997     53.997      1.06        580.988     475.237     363.35      
74.5        28.261      153.167     2.27        3.718       31.103      29.604      29.508      17.265      12.057      17.2        18.606      30.949      1.206       2.134       299.515     53.999      1.06        636.312     518.46      421.535     
74.6        27.328      153.975     2.273       3.668       29.162      28.785      28.519      17.754      11.567      17.2        18.135      32.139      1.204       2.075       299.072     54.0        1.06        774.618     580.127     494.851     
74.7        25.511      153.992     2.276       3.839       27.493      28.172      27.671      18.059      11.12       17.2        17.636      34.517      1.2         2.015       298.674     54.0        1.06        939.77      615.777     507.294     
74.8        23.348      153.232     2.286       4.186       26.146      27.711      26.98       18.188      10.71       17.216      17.219      35.85       1.196       1.984       298.328     54.0        1.06        986.768     628.301     438.963     
74.9        22.167      153.211     2.292       4.389       25.013      27.286      26.414      18.203      10.333      17.233      16.832      36.328      1.209       1.978       298.046     54.0        1.06        954.679     640.267     416.139     
75.0        21.938      153.266     2.297       4.369       23.989      26.765      25.874      18.203      9.988       17.233      16.493      34.872      1.161       1.969       297.843     54.001      1.06        938.319     645.825     531.797     
75.1        21.774      153.168     2.291       4.502       22.952      25.997      25.272      18.098      9.663       17.226      16.212      33.443      1.118       1.957       297.712     54.003      1.06        875.647     648.706     678.938     
75.2        21.972      153.049     2.279       4.451       21.757      24.883      24.571      17.759      9.351       17.181      15.972      34.089      1.066       1.949       297.661     54.009      1.06        708.888     643.107     707.537     
75.3        21.668      153.031     2.266       4.707       20.413      23.499      23.751      17.212      9.048       17.09       15.771      35.93       1.056       1.933       297.661     54.022      1.06        566.591     620.743     674.998     
75.4        20.763      153.067     2.271       4.609       19.007      21.971      22.856      16.537      8.761       16.964      15.609      37.513      1.033       1.9         297.661     54.054      1.06        521.754     592.665     715.753     
75.5        19.77       153.262     2.278       4.987       17.626      20.418      22.009      15.851      8.508       16.861      15.431      37.555      1.012       1.853       297.661     54.118      1.06        499.249     570.239     771.493     
75.6        18.674      153.464     2.269       5.113       16.388      19.014      21.319      15.285      8.307       16.831      15.302      38.223      1.017       1.799       297.696     54.237      1.06        459.62      530.226     743.37      
75.7        17.604      154.478     2.238       5.431       15.401      17.884      20.834      14.931      8.178       16.831      15.164      39.986      0.992       1.742       297.818     54.437      1.06        443.289     472.132     598.07      
75.8        16.675      160.613     2.2         5.405       14.68       17.02       20.601      14.82       8.125       16.831      15.1        42.673      0.984       1.684       298.018     54.744      1.06        465.894     423.737     411.957     
75.9        16.288      167.663     2.174       5.403       14.203      16.385      20.554      14.82       8.115       16.917      15.082      43.125      0.984       1.672       298.296     55.174      1.06        479.11      381.202     268.917     
76.0        16.51       168.35      2.167       5.607       13.937      15.952      20.554      14.82       8.115       17.227      15.168      41.985      1.03        1.696       298.629     55.729      1.06        461.684     347.623     204.998     
76.1        16.73       159.65      2.186       5.604       13.85       15.644      20.554      14.857      8.132       17.797      15.344      39.387      1.083       1.71        298.989     56.38       1.06        433.094     350.013     266.695     
76.2        16.578      151.482     2.217       5.667       13.85       15.434      20.639      15.059      8.207       18.615      15.56       37.776      1.089       1.717       299.358     57.061      1.06        464.919     421.274     405.265     
76.3        16.543      150.337     2.236       5.34        13.85       15.338      20.896      15.479      8.365       19.639      15.9        38.57       1.028       1.73        299.731     57.673      1.06        577.249     545.135     572.943     
76.4        17.128      149.663     2.238       5.033       13.85       15.316      21.299      16.08       8.616       20.794      16.348      40.17       0.985       1.748       300.12      58.069      1.06        655.548     641.358     716.994     
76.5        18.628      149.259     2.237       4.627       13.943      15.316      21.814      16.83       8.964       22.026      16.774      40.604      1.003       1.769       300.55      58.184      1.06        660.155     672.998     780.376     
76.6        20.866      148.979     2.244       4.444       14.225      15.316      22.424      17.694      9.398       23.307      17.265      39.745      1.074       1.8         301.051     58.184      1.06        670.844     686.379     772.641     
