~Version Information Section
VERS.                                         2.0:CWLS log ASCII Standart – VERSION 2.0
WRAP.                                          NO:One line per depth step
~Well Information Section
STRT.M                                       -2.2:Начальная глубина
STOP.M                                      205.6:Конечная глубина
STEP.M                                          0:Шаг квантования по глубине
NULL.                                    -9999.25:Признак "Нет данных"
WELL.                                       108Мх:Скважина
~Parameter Information Section
~Curve Information Section
DEPTH.M                                          :Глубина
BK.Ohm*M                                         :BK     (БК)
DS.mm                                            :DS  (ДС)
GGK.g/cm3                                        :GGKp
ГК.mcr/h                                         :GK          (ГК)
GZ1.Ohm*M                                        :GZ1   ГЗ1(A0.4M0.1N)
GZ2.Ohm*M                                        :GZ2   ГЗ2(A1.0M0.1N)
GZ3.Ohm*M                                        :GZ3   ГЗ3(A2.0M0.5N)
GZ4.Ohm*M                                        :GZ4   ГЗ4(A4.0M0.5N)
GZ5.Ohm*M                                        :GZ5   ГЗ5(A8.0M0.5N)
GZR.Ohm*M                                        :GZK   ГЗK(N0.5M2.0A)
ИК.Ohm*M                                         :IK
НГК.ue                                           :NGK     (НГК)
NNKM.                                            :NNKm  (ННКм)
PS.mv                                            :PS       (ПС)
PZ.Ohm*M                                         :PZ    (КС)
RS.Ohm*M                                         :RS (Резистивиметр)
U1.mV                                            :U1
U2.mV                                            :U2
U3.mV                                            :U3
КП.%                                             :Кп
~ASCII LOG DATA
# ...
42.2        -9999.25    134.715     -9999.25    -9999.25    132.785     8.381       60.292      603.477     10.418      723.765     -9999.25    -9999.25    -9999.25    227.529     162.118     7.522       1344.568    936.349     799.749     -9999.25    
42.23       167667.219  -9999.25    2.065       2.974       -9999.25    -9999.25    -9999.25    -9999.25    -9999.25    -9999.25    18.194      7.013       5.485       -9999.25    -9999.25    -9999.25    -9999.25    -9999.25    -9999.25    3.13        
42.3        -9999.25    134.837     -9999.25    -9999.25    132.785     8.381       60.292      603.477     10.418      723.765     -9999.25    -9999.25    -9999.25    267.728     147.111     7.522       1298.637    916.835     793.429     -9999.25    
42.33       179915.734  -9999.25    2.049       3.046       -9999.25    -9999.25    -9999.25    -9999.25    -9999.25    -9999.25    18.103      6.983       5.382       -9999.25    -9999.25    -9999.25    -9999.25    -9999.25    -9999.25    3.165       
42.4        -9999.25    134.781     -9999.25    -9999.25    132.785     8.381       60.292      603.477     10.418      723.765     -9999.25    -9999.25    -9999.25    308.421     138.286     7.522       1206.047    897.078     774.469     -9999.25    
42.43       195580.141  -9999.25    2.037       3.188       -9999.25    -9999.25    -9999.25    -9999.25    -9999.25    -9999.25    18.013      7.03        5.379       -9999.25    -9999.25    -9999.25    -9999.25    -9999.25    -9999.25    3.221       
42.5        -9999.25    135.419     -9999.25    -9999.25    132.785     8.381       60.292      603.477     10.418      723.765     -9999.25    -9999.25    -9999.25    349.291     133.309     7.522       1126.595    890.405     749.189     -9999.25    
42.53       156651.781  -9999.25    2.038       3.151       -9999.25    -9999.25    -9999.25    -9999.25    -9999.25    -9999.25    17.924      7.094       5.42        -9999.25    -9999.25    -9999.25    -9999.25    -9999.25    -9999.25    3.257       
42.6        -9999.25    134.772     -9999.25    -9999.25    132.785     8.381       60.292      603.477     10.418      723.765     -9999.25    -9999.25    -9999.25    400.463     131.0       7.522       1119.262    906.471     742.869     -9999.25    
42.63       291257.219  -9999.25    2.042       3.144       -9999.25    -9999.25    -9999.25    -9999.25    -9999.25    -9999.25    17.836      6.961       5.427       -9999.25    -9999.25    -9999.25    -9999.25    -9999.25    -9999.25    3.505       
42.7        -9999.25    133.8       -9999.25    -9999.25    132.785     8.381       60.292      603.477     10.418      723.765     -9999.25    -9999.25    -9999.25    453.276     130.494     7.522       1103.065    920.999     742.869     -9999.25    
42.73       679674.5    -9999.25    2.031       2.983       -9999.25    -9999.25    -9999.25    -9999.25    -9999.25    -9999.25    17.748      6.78        5.369       -9999.25    -9999.25    -9999.25    -9999.25    -9999.25    -9999.25    3.896       
42.8        -9999.25    133.765     -9999.25    -9999.25    132.785     8.381       60.292      603.477     10.418      723.765     -9999.25    -9999.25    -9999.25    509.969     130.326     7.522       1110.958    922.388     742.869     -9999.25    
42.83       239.329     -9999.25    2.039       2.89        -9999.25    -9999.25    -9999.25    -9999.25    -9999.25    -9999.25    17.662      6.819       5.362       -9999.25    -9999.25    -9999.25    -9999.25    -9999.25    -9999.25    4.233       
42.9        -9999.25    133.945     -9999.25    -9999.25    132.785     8.381       60.292      603.477     10.418      723.765     -9999.25    -9999.25    -9999.25    564.719     130.326     7.522       1164.368    952.609     742.869     -9999.25    
42.93       217.338     -9999.25    2.078       2.691       -9999.25    -9999.25    -9999.25    -9999.25    -9999.25    -9999.25    17.576      7.0         5.524       -9999.25    -9999.25    -9999.25    -9999.25    -9999.25    -9999.25    4.129       
43.0        -9999.25    133.77      -9999.25    -9999.25    132.785     8.381       60.292      603.477     10.418      723.765     -9999.25    -9999.25    -9999.25    620.483     130.326     7.522       1195.496    1032.942    742.869     -9999.25    
43.03       204.288     -9999.25    2.105       2.541       -9999.25    -9999.25    -9999.25    -9999.25    -9999.25    -9999.25    17.491      7.159       5.701       -9999.25    -9999.25    -9999.25    -9999.25    -9999.25    -9999.25    3.812       
43.1        -9999.25    133.604     -9999.25    -9999.25    132.785     8.381       60.292      603.477     10.418      723.765     -9999.25    -9999.25    -9999.25    652.336     130.326     7.522       1231.479    1118.083    742.869     -9999.25    
43.13       182.076     -9999.25    2.105       2.539       -9999.25    -9999.25    -9999.25    -9999.25    -9999.25    -9999.25    17.407      7.139       5.743       -9999.25    -9999.25    -9999.25    -9999.25    -9999.25    -9999.25    3.382       
43.2        -9999.25    134.917     -9999.25    -9999.25    132.785     8.381       60.292      603.477     10.418      723.765     -9999.25    -9999.25    -9999.25    667.703     130.326     7.522       1311.772    1173.261    742.869     -9999.25    
43.23       307.315     -9999.25    2.172       2.636       -9999.25    -9999.25    -9999.25    -9999.25    -9999.25    -9999.25    17.324      7.119       5.724       -9999.25    -9999.25    -9999.25    -9999.25    -9999.25    -9999.25    3.081       
43.3        -9999.25    136.671     -9999.25    -9999.25    132.785     8.381       60.292      603.477     10.418      723.765     -9999.25    -9999.25    -9999.25    682.625     130.326     7.522       1421.811    1187.446    896.999     -9999.25    
43.33       1265.865    -9999.25    2.226       2.744       -9999.25    -9999.25    -9999.25    -9999.25    -9999.25    -9999.25    17.241      7.15        5.69        -9999.25    -9999.25    -9999.25    -9999.25    -9999.25    -9999.25    2.805       
43.4        -9999.25    137.669     -9999.25    -9999.25    132.785     8.381       60.292      603.477     10.418      723.765     -9999.25    -9999.25    -9999.25    697.549     130.326     7.522       1462.857    1166.598    1036.102    -9999.25    
43.43       2227.77     -9999.25    2.19        2.811       -9999.25    -9999.25    -9999.25    -9999.25    -9999.25    -9999.25    17.16       7.251       5.607       -9999.25    -9999.25    -9999.25    -9999.25    -9999.25    -9999.25    2.668       
43.5        -9999.25    137.598     -9999.25    -9999.25    132.785     8.381       60.292      603.477     10.418      723.765     -9999.25    -9999.25    -9999.25    698.796     130.447     7.522       1495.967    1136.178    1099.709    -9999.25    
43.53       1031.804    -9999.25    2.137       2.946       -9999.25    -9999.25    -9999.25    -9999.25    -9999.25    -9999.25    17.079      7.386       5.532       -9999.25    -9999.25    -9999.25    -9999.25    -9999.25    -9999.25    2.419       
43.6        -9999.25    136.907     -9999.25    -9999.25    132.785     8.381       60.292      603.477     10.418      723.765     -9999.25    -9999.25    -9999.25    700.053     127.874     7.522       1471.532    1072.695    956.033     -9999.25    
43.63       1119.101    -9999.25    2.101       3.16        -9999.25    -9999.25    -9999.25    -9999.25    -9999.25    -9999.25    16.999      7.565       5.522       -9999.25    -9999.25    -9999.25    -9999.25    -9999.25    -9999.25    1.89        
43.7        -9999.25    137.384     -9999.25    -9999.25    132.785     8.381       60.292      603.477     10.418      723.765     -9999.25    -9999.25    -9999.25    694.678     118.246     7.522       1384.678    1002.34     820.922     -9999.25    
43.73       727.437     -9999.25    2.037       3.225       -9999.25    -9999.25    -9999.25    -9999.25    -9999.25    -9999.25    16.919      7.646       5.477       -9999.25    -9999.25    -9999.25    -9999.25    -9999.25    -9999.25    1.834       
