~Version Information Section
VERS.                                         2.0:CWLS log ASCII Standart – VERSION 2.0
WRAP.                                          NO:One line per depth step
~Well Information Section
STRT.M                                        2.0:Начальная глубина
STOP.M                                      201.2:Конечная глубина
STEP.M                                          0:Шаг квантования по глубине
NULL.                                    -9999.25:Признак "Нет данных"
WELL.                                       126Мх:Скважина
~Parameter Information Section
~Curve Information Section
DEPTH.M                                          :Глубина
BK.ohmm                                          :BK
ПРОФ_СР.мм                                       :DS  (ДС)
W.g/cm3                                          :GGKp
ГК.мкР/час                                       :GK          (ГК)
ГЗ1.Омм                                          :GZ1   ГЗ1(A0.4M0.1N)
ГЗ2.Омм                                          :GZ2   ГЗ2(A1.0M0.1N)
ГЗ3.Омм                                          :GZ3   ГЗ3(A2.0M0.5N)
ГЗ4.Oмм                                          :GZ4   ГЗ4(A4.0M0.5N)
ГЗ5.Oмм                                          :GZ5   ГЗ5(A8.0M0.5N)
ГЗК.Омм                                          :GZK   ГЗK(N0.5M2.0A)
ИК.ohmm                                          :IK
НГК.усл.ед.                                      :NGK
ННКМ.усл.ед                                      :NNKm  (ННКм)
PS.мВ                                            :PS       (ПС)
PZ.Омм                                           :PZ    (КС)
RIS.Омм                                          :RS (Резистивиметр)
U1.мВ                                            :U1
U2.мВ                                            :U2
U3.mv                                            :U3
~ASCII LOG DATA
# ...
138.0       32.359      130.402     2.318       6.097       65.88       50.32       60.801      49.536      47.334      46.786      12.114      1.235       2.365       220.486     59.463      1.431       1252.614    1007.273    851.849     
138.1       36.141      128.149     2.304       5.905       65.88       50.32       60.801      49.336      47.534      46.786      12.274      1.242       2.321       220.486     59.463      1.429       1231.535    1008.658    870.124     
138.2       42.462      129.202     2.29        5.918       65.88       50.32       60.801      48.536      48.334      46.786      12.377      1.24        2.327       221.014     60.591      1.427       1294.037    1052.59     906.523     
138.3       43.652      128.512     2.291       5.918       65.88       50.116      60.801      48.536      48.334      46.586      12.436      1.265       2.352       221.542     62.095      1.425       1386.213    1041.601    842.189     
138.4       43.954      129.036     2.288       5.846       65.88       49.096      60.801      48.536      48.334      45.786      12.493      1.288       2.359       222.598     63.599      1.42        1422.966    959.743     698.685     
138.5       39.355      129.799     2.289       6.048       65.88       48.076      60.801      48.536      48.734      45.586      12.536      1.28        2.363       223.654     65.479      1.414       1300.046    815.632     545.821     
138.6       40.832      127.957     2.296       5.732       65.88       47.056      60.801      48.536      50.534      44.786      12.623      1.29        2.373       224.71      67.359      1.408       1058.57     681.115     475.387     
138.7       45.186      128.619     2.305       5.887       65.88       46.24       60.801      48.536      51.334      44.786      12.698      1.278       2.368       225.238     69.239      1.403       839.75      613.927     503.082     
138.8       43.251      129.379     2.327       5.449       66.96       46.24       61.2        48.536      51.534      44.786      12.8        1.345       2.337       225.766     71.119      1.398       717.007     587.191     541.641     
138.9       38.905      128.919     2.364       5.426       68.04       46.24       66.001      48.536      52.534      44.986      12.91       1.312       2.335       225.766     72.999      1.394       617.918     518.675     494.758     
139.0       39.902      128.872     2.369       5.271       75.6        46.648      79.2        48.536      53.734      46.185      12.926      1.314       2.367       225.766     76.007      1.392       506.184     397.982     365.754     
139.1       47.098      129.393     2.382       5.45        77.76       48.484      80.801      48.536      55.334      47.786      12.973      1.272       2.386       226.294     79.015      1.391       415.259     295.101     252.868     
139.2       53.456      128.806     2.386       5.608       78.84       49.708      80.801      48.536      55.534      47.986      12.921      1.265       2.39        226.822     81.647      1.39        360.582     249.802     214.501     
139.3       63.826      130.031     2.378       5.572       82.08       51.748      80.801      49.136      56.534      49.186      12.973      1.222       2.384       227.35      83.903      1.39        374.829     273.121     243.81      
139.4       69.823      128.425     2.373       5.778       85.32       53.584      80.401      52.136      57.534      52.386      13.005      1.224       2.375       227.878     86.159      1.39        480.425     370.295     331.875     
139.5       78.886      127.956     2.353       6.132       86.4        54.808      78.801      55.136      58.734      58.386      13.018      1.197       2.279       228.406     87.287      1.39        581.957     459.285     408.951     
139.6       82.224      125.441     2.318       6.452       90.72       57.052      78.801      57.536      60.334      56.586      13.116      1.224       2.183       228.406     88.039      1.39        561.763     441.61      393.632     
139.7       58.614      126.941     2.304       6.2         91.8        59.704      78.801      57.936      60.334      54.986      13.128      1.237       2.173       228.406     89.167      1.39        470.662     353.865     311.742     
139.8       44.463      128.259     2.302       6.067       90.72       60.52       78.801      59.736      60.334      51.386      13.113      1.249       2.163       228.406     90.671      1.39        460.534     320.907     265.01      
139.9       43.053      128.201     2.292       5.937       77.76       60.316      78.401      60.736      59.934      49.386      13.087      1.204       2.161       228.406     92.175      1.39        501.639     356.792     352.276     
140.0       42.756      127.878     2.29        5.713       76.68       59.296      76.801      61.336      57.735      47.586      13.048      1.148       2.192       228.406     92.927      1.39        449.201     369.069     552.227     
140.1       39.174      127.242     2.277       5.359       70.2        57.868      76.801      60.136      54.935      46.386      12.964      1.174       2.25        228.406     92.927      1.39        393.409     375.368     717.613     
140.2       38.905      126.714     2.285       5.393       64.8        55.42       76.801      57.737      52.335      44.586      12.844      1.225       2.297       228.406     92.175      1.39        507.26      449.915     736.057     
140.3       37.757      128.153     2.309       5.992       63.72       55.012      76.801      54.136      47.935      43.186      12.72       1.229       2.33        228.406     91.047      1.39        665.953     539.426     685.346     
140.4       36.559      127.228     2.333       6.508       60.48       53.176      76.801      52.336      46.134      40.586      12.585      1.199       2.349       228.406     89.543      1.39        635.27      545.612     732.955     
140.5       39.719      127.808     2.353       6.701       60.48       52.156      76.801      51.336      44.735      39.586      12.488      1.14        2.358       228.406     88.039      1.39        447.167     482.269     855.838     
140.6       42.17       127.722     2.4         6.919       60.48       51.136      76.001      50.336      41.935      38.186      12.397      1.091       2.328       228.406     86.911      1.39        330.146     447.414     909.333     
140.7       43.053      127.661     2.41        6.961       60.48       49.708      72.801      49.536      40.334      35.586      12.339      1.016       2.252       228.406     85.783      1.391       371.66      478.814     841.251     
140.8       43.853      128.433     2.413       7.152       60.48       47.056      72.001      49.536      40.134      34.586      12.25       0.995       2.113       227.878     83.903      1.393       469.024     523.781     739.79      
140.9       46.559      126.369     2.415       6.719       60.48       45.832      68.401      49.536      39.134      33.386      12.237      1.014       2.022       227.35      82.399      1.398       576.264     559.341     643.849     
141.0       50.582      124.513     2.394       6.381       61.56       43.181      66.401      49.536      37.935      31.586      12.204      1.055       2.028       226.822     80.895      1.404       635.027     544.144     536.699     
141.1       43.652      126.574     2.374       5.99        62.64       38.896      64.401      49.536      36.334      30.386      12.174      1.061       2.033       226.294     79.015      1.412       617.946     470.627     408.499     
141.2       30.2        128.154     2.339       6.081       62.64       37.876      62.401      49.536      36.334      28.786      12.102      1.063       2.035       225.766     77.135      1.42        562.955     397.397     322.402     
141.3       26.73       129.259     2.289       6.212       62.64       36.652      60.801      49.536      36.334      28.786      11.999      1.064       2.029       225.766     75.255      1.427       541.067     383.243     315.289     
