~Version Information Section
VERS.                                         2.0:CWLS log ASCII Standart – VERSION 2.0
WRAP.                                          NO:One line per depth step
~Well Information Section
STRT.M                                        0.1:Начальная глубина
STOP.M                                      168.3:Конечная глубина
STEP.M                                          0:Шаг квантования по глубине
NULL.                                    -9999.25:Признак "Нет данных"
WELL.                                        152К:Скважина
~Parameter Information Section
~Curve Information Section
DEPTH.M                                          :Глубина
БК.Омм                                           :BK     (БК)
DСР.мм                                           :DS  (ДС)
ПЛОТНОСТЬ.г/см^3                                 :GGKp
ГК.мкР/ч                                         :GK          (ГК)
А0.4М0.1N.Омм                                    :GZ1   ГЗ1(A0.4M0.1N)
А1.0М0.1N.Омм                                    :GZ2   ГЗ2(A1.0M0.1N)
А2.0М0.5N.Омм                                    :GZ3   ГЗ3(A2.0M0.5N)
А4.0М0.5N.Oмм                                    :GZ4   ГЗ4(A4.0M0.5N)
А8.0М1.0N.Омм                                    :GZ5   ГЗ5(A8.0M0.5N)
N0.5M2.0A.Омм                                    :GZR   ГЗK(N0.5M2.0A)
ИК.мСм/м                                         :IK
БЗ.ue                                            :NNKb  (ННКб)
МЗ.ue                                            :NNKm  (ННКм)
ПС.mv                                            :PS       (ПС)
N11.0M0.5A.Омм                                   :PZ    (КС)
R.Омм                                            :RS (Резистивиметр)
ПОРИСТОСТЬ.                                      :W
~ASCII LOG DATA
# ...
107.4       26.791      154.859     2.206       7.537       25.027      17.193      19.198      17.14       15.825      22.868      16.043      3.001       1.817       100.612     26.847      1.172       33.157      
107.5       26.106      154.882     2.191       6.966       24.444      16.797      18.387      16.238      14.29       22.667      15.977      2.92        1.815       99.687      27.238      1.173       33.773      
107.6       24.879      154.95      2.183       6.57        24.047      16.707      17.555      15.587      12.312      22.627      15.825      2.749       1.805       98.811      27.281      1.174       35.144      
107.7       24.073      154.982     2.188       6.269       23.441      16.726      16.625      15.158      11.455      22.698      15.717      2.693       1.798       98.036      27.162      1.174       35.829      
107.8       23.728      154.982     2.2         6.652       22.403      16.922      15.752      14.814      10.891      22.813      15.443      2.714       1.785       97.399      27.123      1.174       35.954      
107.9       23.341      154.973     2.211       6.843       21.393      17.229      15.222      14.534      10.566      22.885      15.351      2.703       1.771       96.937      26.978      1.174       35.893      
108.0       22.885      154.923     2.22        6.856       20.883      17.455      14.938      14.437      10.205      22.908      15.263      2.777       1.764       96.701      26.714      1.174       36.333      
108.1       23.868      154.912     2.227       6.69        20.997      17.549      14.723      14.428      10.123      22.654      15.2        2.773       1.766       96.738      26.618      1.174       36.717      
108.2       26.024      154.897     2.23        6.685       21.392      17.557      14.52       14.468      9.863       21.867      15.189      2.694       1.792       97.097      26.838      1.174       37.167      
108.3       26.975      154.912     2.223       6.912       21.965      17.607      14.423      14.626      9.75        20.673      15.212      2.721       1.823       97.797      27.222      1.175       37.199      
108.4       27.632      154.949     2.211       7.156       22.44       17.764      14.434      14.853      9.899       19.604      15.275      2.753       1.831       98.837      27.392      1.175       36.434      
108.5       29.018      154.936     2.203       7.259       22.622      18.009      14.495      15.028      9.951       19.072      15.31       2.758       1.832       100.184     27.298      1.176       35.53       
108.6       29.508      154.924     2.215       6.9         22.574      18.217      14.62       15.051      9.707       18.955      15.367      2.852       1.825       101.768     27.182      1.175       35.09       
108.7       28.376      154.923     2.234       6.346       22.444      18.31       14.741      15.112      9.951       19.336      15.384      2.832       1.803       103.501     27.098      1.175       35.226      
108.8       27.467      154.867     2.246       6.259       22.313      18.326      14.841      15.08       10.248      20.216      15.338      2.745       1.8         105.322     26.995      1.174       35.853      
108.9       27.516      154.867     2.251       6.647       22.231      18.306      14.948      14.732      9.902       21.397      15.334      2.668       1.793       107.207     26.953      1.175       36.137      
109.0       27.499      154.871     2.259       7.184       22.084      18.083      15.096      14.307      9.748       22.705      15.304      2.665       1.782       109.171     26.908      1.175       36.063      
109.1       27.506      154.845     2.264       7.469       21.745      17.505      15.338      14.307      9.748       24.586      15.373      2.711       1.772       111.237     26.86       1.177       35.33       
109.2       27.523      154.81      2.262       7.73        21.404      17.131      15.721      14.552      9.748       26.911      15.441      2.751       1.75        113.434     26.945      1.179       34.439      
109.3       27.174      154.885     2.261       7.577       21.264      17.323      16.147      14.737      9.381       28.698      15.463      2.866       1.745       115.764     27.098      1.18        34.046      
109.4       26.42       154.89      2.264       7.11        21.239      18.071      16.455      15.12       9.535       29.414      15.467      2.943       1.745       118.207     27.243      1.18        33.937      
109.5       25.709      155.271     2.279       6.478       21.799      19.378      17.0        15.485      9.535       29.238      15.466      2.962       1.77        120.658     27.498      1.178       33.861      
109.6       25.95       155.252     2.293       6.179       23.066      20.338      17.713      15.61       9.48        28.414      15.537      3.07        1.817       123.034     27.878      1.175       33.628      
109.7       27.899      154.667     2.307       6.065       24.238      20.548      17.998      15.5        9.11        26.831      15.682      3.172       1.861       125.259     28.041      1.174       33.415      
109.8       30.351      153.715     2.305       5.952       24.706      20.523      17.676      15.117      8.931       24.692      15.955      3.028       1.901       127.285     27.837      1.174       33.729      
109.9       31.186      152.4       2.29        6.119       24.461      19.378      16.534      14.214      8.738       22.535      16.374      2.958       1.913       129.072     27.389      1.174       34.269      
110.0       31.001      152.076     2.267       6.325       23.383      17.16       14.621      13.0        8.416       21.203      16.794      2.835       1.886       130.578     27.028      1.175       35.332      
110.1       29.109      152.076     2.247       6.535       21.688      14.43       12.761      12.38       8.102       20.816      17.148      2.665       1.855       131.757     27.103      1.181       35.987      
110.2       24.851      152.125     2.229       6.6         19.787      12.285      11.336      12.345      7.685       20.428      17.44       2.668       1.817       132.556     27.694      1.196       37.228      
110.3       21.278      152.205     2.221       6.652       18.246      11.75       10.677      12.856      7.685       19.999      17.609      2.669       1.776       132.927     28.813      1.206       38.446      
110.4       19.7        152.263     2.235       6.718       17.743      11.728      10.683      14.549      7.82        19.534      17.747      2.67        1.769       132.838     30.352      1.213       39.354      
110.5       19.137      152.301     2.267       6.58        18.061      12.68       11.29       16.659      8.15        18.28       18.163      2.682       1.808       132.296     32.088      1.216       40.318      
110.6       19.065      152.236     2.289       5.783       20.296      15.043      12.552      17.962      8.985       17.014      18.512      2.791       1.855       131.399     33.924      1.214       40.1        
110.7       22.399      151.912     2.302       4.749       25.767      17.892      13.643      18.336      10.091      16.419      19.106      2.95        1.923       130.242     35.792      1.214       39.475      
110.8       39.226      151.18      2.3         3.876       35.597      20.287      14.169      18.226      10.526      16.251      20.251      3.122       2.009       128.932     37.94       1.213       38.087      
110.9       77.949      150.429     2.281       3.565       49.143      21.694      14.265      17.983      11.539      16.301      22.067      3.182       2.076       127.555     41.342      1.213       37.203      
111.0       120.402     149.932     2.254       3.495       62.5        22.265      14.265      17.851      11.621      16.545      23.479      3.277       2.119       126.172     47.137      1.211       36.527      
