~Version Information Section
VERS.                                         2.0:CWLS log ASCII Standart – VERSION 2.0
WRAP.                                          NO:One line per depth step
~Well Information Section
STRT.M                                        0.1:Начальная глубина
STOP.M                                      168.3:Конечная глубина
STEP.M                                          0:Шаг квантования по глубине
NULL.                                    -9999.25:Признак "Нет данных"
WELL.                                        152К:Скважина
~Parameter Information Section
~Curve Information Section
DEPTH.M                                          :Глубина
БК.Омм                                           :BK     (БК)
DСР.мм                                           :DS  (ДС)
ПЛОТНОСТЬ.г/см^3                                 :GGKp
ГК.мкР/ч                                         :GK          (ГК)
А0.4М0.1N.Омм                                    :GZ1   ГЗ1(A0.4M0.1N)
А1.0М0.1N.Омм                                    :GZ2   ГЗ2(A1.0M0.1N)
А2.0М0.5N.Омм                                    :GZ3   ГЗ3(A2.0M0.5N)
А4.0М0.5N.Oмм                                    :GZ4   ГЗ4(A4.0M0.5N)
А8.0М1.0N.Омм                                    :GZ5   ГЗ5(A8.0M0.5N)
N0.5M2.0A.Омм                                    :GZR   ГЗK(N0.5M2.0A)
ИК.мСм/м                                         :IK
БЗ.ue                                            :NNKb  (ННКб)
МЗ.ue                                            :NNKm  (ННКм)
ПС.mv                                            :PS       (ПС)
N11.0M0.5A.Омм                                   :PZ    (КС)
R.Омм                                            :RS (Резистивиметр)
ПОРИСТОСТЬ.                                      :W
~ASCII LOG DATA
# ...
114.8       24.14       157.203     2.299       6.798       19.228      15.524      19.191      1.249       2.765       15.38       12.669      3.32        1.851       144.16      24.893      1.174       30.178      
114.9       24.84       157.245     2.289       6.698       19.719      15.549      20.445      1.259       2.733       15.327      12.758      3.217       1.863       146.762     24.75       1.174       30.627      
115.0       25.853      157.285     2.276       6.615       19.912      15.471      20.656      1.294       2.751       15.216      12.799      3.103       1.866       149.427     24.59       1.175       31.73       
115.1       26.434      157.345     2.274       6.726       19.912      15.302      20.353      1.377       2.63        15.135      12.837      3.012       1.855       152.103     24.57       1.174       32.776      
115.2       25.524      157.702     2.274       6.84        19.925      15.232      19.48       1.473       2.532       15.113      12.912      2.944       1.832       154.724     24.57       1.174       33.289      
115.3       24.469      157.704     2.27        6.866       19.928      15.274      18.566      1.569       2.534       15.188      12.952      2.933       1.819       157.202     24.505      1.174       33.962      
115.4       24.576      157.704     2.269       6.584       19.894      15.33       17.89       1.71        2.563       15.333      12.928      2.834       1.816       159.453     24.647      1.174       33.892      
115.5       24.962      157.404     2.277       6.403       19.827      15.343      17.278      1.909       2.464       15.482      12.919      2.883       1.818       161.397     25.024      1.175       33.717      
115.6       24.902      156.779     2.279       6.632       19.682      15.342      16.761      2.164       2.464       15.671      12.901      2.982       1.816       163.004     24.932      1.174       33.05       
115.7       24.503      156.482     2.268       6.856       19.532      15.342      16.373      2.489       2.566       15.937      12.887      2.911       1.81        164.282     24.536      1.175       32.638      
115.8       24.094      156.436     2.263       7.153       19.485      15.423      16.158      2.956       2.601       16.268      12.871      3.029       1.798       165.252     24.525      1.175       33.217      
115.9       23.862      156.391     2.269       7.087       19.603      15.69       16.037      3.571       2.462       16.613      12.853      2.948       1.8         165.935     24.681      1.175       33.636      
116.0       23.93       156.312     2.273       7.08        19.904      15.938      15.95       4.298       2.433       16.955      12.814      2.888       1.807       166.341     24.663      1.175       34.077      
116.1       24.21       156.248     2.27        6.973       20.092      16.002      15.875      5.078       2.497       17.267      12.797      3.052       1.827       166.442     24.681      1.174       33.713      
116.2       24.474      156.104     2.27        6.902       20.098      15.986      15.747      5.894       2.414       17.568      12.757      3.029       1.855       166.192     24.706      1.175       33.171      
116.3       24.667      155.967     2.279       7.037       19.995      15.809      15.54       6.822       2.279       17.889      12.756      3.065       1.871       165.57      24.571      1.173       32.46       
116.4       24.615      155.816     2.289       7.259       19.769      15.617      15.3        7.981       2.14        18.268      12.728      3.11        1.873       164.61      24.514      1.173       31.832      
116.5       23.868      155.745     2.292       7.38        19.599      15.551      15.108      9.584       1.975       18.716      12.673      3.193       1.866       163.377     24.533      1.174       31.098      
116.6       23.272      155.681     2.291       7.147       19.516      15.498      14.959      11.832      1.975       19.195      12.66       3.163       1.856       161.949     24.449      1.174       30.562      
116.7       23.247      155.681     2.295       6.893       19.319      15.456      14.818      14.626      1.89        19.742      12.627      3.216       1.846       160.378     24.264      1.175       30.324      
116.8       23.33       155.649     2.298       6.745       18.948      15.251      14.743      17.363      2.015       20.436      12.618      3.24        1.843       158.673     24.004      1.176       30.467      
116.9       22.923      155.597     2.299       6.823       18.59       14.978      14.734      19.238      2.084       21.48       12.608      3.16        1.84        156.826     23.94       1.178       31.73       
117.0       22.082      155.577     2.298       7.026       18.443      14.889      14.831      19.995      2.077       22.923      12.58       3.05        1.834       154.823     23.999      1.18        33.02       
117.1       21.759      155.636     2.299       6.956       18.663      14.992      15.033      20.121      2.015       24.464      12.576      2.866       1.83        152.675     23.837      1.181       35.322      
117.2       21.803      155.636     2.306       6.683       18.869      15.086      15.149      19.942      2.046       25.798      12.564      2.773       1.838       150.432     23.791      1.184       36.225      
117.3       22.042      155.63      2.314       6.102       18.854      15.047      15.16       19.475      2.039       26.821      12.585      2.8         1.853       148.194     23.838      1.187       35.976      
117.4       22.555      155.615     2.316       5.947       18.805      14.808      14.937      18.822      1.969       27.558      12.673      2.938       1.862       146.051     23.582      1.187       34.003      
117.5       23.69       155.538     2.317       6.074       18.623      14.203      14.37       18.189      2.039       27.862      12.739      3.075       1.868       144.061     23.231      1.188       32.518      
117.6       24.161      155.373     2.32        6.578       18.491      13.756      13.715      17.469      2.105       27.889      12.801      3.063       1.856       142.256     23.114      1.189       32.183      
117.7       23.319      155.109     2.316       7.139       18.645      13.705      13.24       16.58       2.018       27.916      12.869      3.0         1.84        140.622     23.146      1.19        32.957      
117.8       22.753      154.915     2.315       7.365       18.926      13.704      13.013      15.658      1.908       28.037      12.913      2.869       1.816       139.144     23.325      1.192       33.53       
117.9       22.813      154.885     2.328       7.335       19.077      13.74       12.916      15.008      1.985       28.671      12.983      2.859       1.803       137.825     23.771      1.194       33.837      
118.0       23.132      154.659     2.336       6.733       19.162      13.832      12.837      14.724      1.842       30.27       13.019      2.927       1.804       136.684     24.248      1.195       33.262      
118.1       23.39       154.608     2.336       6.409       19.226      13.981      12.714      14.42       1.758       32.512      13.072      2.98        1.799       135.743     24.404      1.197       32.754      
118.2       23.575      154.608     2.331       6.203       19.165      14.1        12.532      14.01       1.758       34.671      13.149      3.125       1.806       134.999     24.238      1.199       32.463      
118.3       23.827      154.655     2.317       6.428       19.096      14.135      12.333      13.539      1.82        36.374      13.369      3.092       1.826       134.444     24.212      1.203       32.544      
118.4       24.274      154.67      2.292       6.546       19.052      14.147      12.076      13.04       1.725       37.593      13.49       2.989       1.842       134.049     24.306      1.203       33.43       
