~Version Information Section
VERS.                                         2.0:CWLS log ASCII Standart – VERSION 2.0
WRAP.                                          NO:One line per depth step
~Well Information Section
STRT.M                                        0.6:Начальная глубина
STOP.M                                      196.8:Конечная глубина
STEP.M                                          0:Шаг квантования по глубине
NULL.                                    -9999.25:Признак "Нет данных"
WELL.                                        142К:Скважина
~Parameter Information Section
~Curve Information Section
DEPTH.M                                          :Глубина
BK.Ohm*M                                         :BK     (БК)
DS.mm                                            :DS  (ДС)
GGK.g/cm3                                        :GGKp
ГК.mcr/h                                         :GK          (ГК)
GZ1.Ohm*M                                        :GZ1   ГЗ1(A0.4M0.1N)
GZ2.Ohm*M                                        :GZ2   ГЗ2(A1.0M0.1N)
GZ3.Ohm*M                                        :GZ3   ГЗ3(A2.0M0.5N)
GZ4.Ohm*M                                        :GZ4   ГЗ4(A4.0M0.5N)
GZ5.Ohm*M                                        :GZ5   ГЗ5(A8.0M0.5N)
GZR.                                             :GZR   ГЗK(N0.5M2.0A)
ИК.Ohm*M                                         :IK
НГК.ue                                           :NGK     (НГК)
NNKM.                                            :NNKm  (ННКм)
PS.mv                                            :PS       (ПС)
PZ.Ohm*M                                         :PZ    (КС)
RS.Ohm*M                                         :RS (Резистивиметр)
W.%                                              :W
~ASCII LOG DATA
# ...
115.3       663.828     226.292     2.49        6.244       207.003     54.79       49.262      20.34       54.281      100.548     39.061      1.261       1.401       -249.879    124.593     1.115       27.35       
115.4       631.347     218.273     2.51        5.885       235.713     64.957      50.503      23.302      55.844      102.27      41.568      1.245       1.399       -243.065    147.887     1.115       27.813      
115.5       585.774     210.908     2.522       5.688       258.514     78.013      52.008      26.967      57.274      104.873     43.448      1.237       1.425       -236.268    174.448     1.115       28.269      
115.6       562.083     210.372     2.525       5.076       275.661     93.973      54.093      31.331      58.78       108.617     44.615      1.306       1.458       -229.604    202.876     1.115       27.567      
115.7       553.113     210.247     2.517       3.734       288.054     112.233     56.967      36.453      60.586      113.547     45.345      1.306       1.471       -223.22     231.011     1.115       26.845      
115.8       535.756     209.841     2.507       2.838       296.687     131.793     60.689      42.405      62.864      119.235     45.645      1.297       1.489       -217.285    256.545     1.115       26.357      
115.9       485.881     209.768     2.5         2.29        302.495     151.587     65.18       49.266      65.554      124.424     46.096      1.309       1.503       -212.034    276.901     1.115       25.139      
116.0       407.272     209.673     2.496       2.29        306.253     170.202     70.295      57.075      68.192      127.474     46.466      1.326       1.592       -207.686    290.048     1.115       23.76       
116.1       351.786     209.89      2.493       2.268       308.024     185.828     75.872      65.515      69.891      128.223     46.773      1.329       1.681       -204.411    296.136     1.115       23.059      
116.2       370.638     209.62      2.487       2.262       308.142     196.279     81.595      73.471      70.332      128.032     46.475      1.332       1.705       -202.24     297.523     1.115       22.699      
116.3       438.902     209.786     2.478       2.29        307.905     200.382     86.7        79.226      70.35       126.327     46.288      1.362       1.737       -201.226    297.359     1.116       22.371      
116.4       459.604     209.915     2.47        2.684       305.821     200.34      90.086      81.538      69.873      120.626     46.391      1.368       1.76        -201.029    295.921     1.116       21.966      
116.5       384.375     210.293     2.466       3.013       298.901     199.531     91.278      81.512      67.549      110.149     46.553      1.258       1.785       -201.029    291.318     1.116       21.674      
116.6       278.431     210.312     2.466       3.07        285.589     194.707     91.207      81.024      62.826      96.038      46.369      1.32        1.793       -201.106    283.357     1.116       21.942      
116.7       237.641     210.227     2.466       2.874       265.211     182.141     90.471      78.176      56.087      80.285      45.278      1.445       1.784       -201.656    272.44      1.116       22.1        
116.8       279.885     209.868     2.459       2.854       238.701     163.711     87.507      70.883      48.28       64.781      43.997      1.331       1.776       -203.196    257.678     1.116       22.074      
116.9       344.725     210.648     2.445       3.177       208.426     142.483     81.216      60.469      40.317      50.987      42.579      1.217       1.77        -205.739    238.073     1.116       21.875      
117.0       361.078     213.138     2.432       3.423       177.472     121.667     72.534      49.06       32.894      39.696      40.838      1.444       1.764       -209.196    213.599     1.116       21.382      
117.1       314.93      215.058     2.428       3.65        148.927     103.64      63.018      38.723      26.478      31.1        39.076      1.49        1.753       -213.374    185.761     1.116       20.921      
117.2       227.881     215.997     2.439       3.762       124.654     89.483      54.118      30.452      21.267      24.966      37.339      1.445       1.733       -218.068    157.469     1.116       20.417      
117.3       145.785     216.708     2.462       3.799       104.967     79.084      46.631      24.358      17.229      20.789      35.785      1.422       1.735       -223.136    131.52      1.116       19.793      
117.4       91.919      217.32      2.489       3.728       89.593      71.581      40.759      20.063      14.21       18.052      34.116      1.377       1.778       -228.554    110.145     1.116       19.036      
117.5       72.689      218.185     2.511       3.7         77.693      65.917      36.281      16.974      12.0        16.355      32.526      1.47        1.806       -234.249    94.547      1.116       18.556      
117.6       75.601      221.292     2.523       3.957       68.301      61.123      32.818      14.54       10.391      15.443      31.285      1.54        1.787       -240.038    84.524      1.116       17.722      
117.7       87.659      223.701     2.524       4.245       60.598      56.627      30.079      12.473      9.243       15.13       30.127      1.576       1.772       -245.707    78.627      1.116       16.713      
117.8       97.281      223.688     2.524       4.311       54.264      52.38       27.934      10.681      8.467       15.13       29.317      1.592       1.771       -251.144    75.448      1.116       15.728      
117.9       95.751      225.27      2.528       4.043       49.164      48.65       26.372      9.176       7.993       15.149      28.686      1.691       1.769       -256.3      73.783      1.116       14.903      
118.0       82.2        223.425     2.536       3.57        45.173      45.601      25.425      7.949       7.779       15.366      27.92       1.774       1.812       -261.175    72.767      1.116       14.145      
118.1       62.262      221.87      2.544       3.204       42.227      43.326      25.088      6.914       7.738       16.356      27.095      1.858       1.869       -265.939    71.966      1.116       15.668      
118.2       46.694      222.437     2.545       2.875       40.437      41.906      25.088      5.955       7.738       18.878      26.354      1.691       1.873       -270.662    71.359      1.116       17.518      
118.3       39.973      227.64      2.538       3.061       39.753      41.284      25.102      4.965       7.752       23.434      25.956      1.608       1.854       -275.254    70.946      1.116       20.111      
118.4       40.059      233.584     2.522       3.508       39.753      41.142      25.263      3.856       7.859       30.463      25.83       1.546       1.824       -279.513    70.72       1.116       22.978      
118.5       40.627      227.986     2.5         4.519       39.775      41.142      25.981      2.628       8.182       40.048      25.934      1.537       1.723       -283.137    70.652      1.116       25.19       
118.6       38.237      224.935     2.477       4.928       40.044      41.168      27.695      1.388       8.767       51.791      26.101      1.543       1.643       -285.631    70.652      1.116       24.626      
118.7       33.694      225.24      2.462       4.933       41.359      41.399      30.505      0.305       9.645       65.094      26.302      1.46        1.59        -286.797    70.659      1.116       24.116      
118.8       31.149      227.104     2.46        4.549       44.734      42.151      34.531      -0.422      10.831      79.408      26.579      1.335       1.536       -287.026    70.725      1.116       23.105      
118.9       40.649      236.6       2.471       4.464       50.578      43.507      39.82       -0.685      12.331      94.396      27.072      1.311       1.511       -286.927    70.994      1.116       21.882      
