~Version Information Section
VERS.                                         2.0:CWLS log ASCII Standart – VERSION 2.0
WRAP.                                          NO:One line per depth step
~Well Information Section
STRT.M                                        0.1:Начальная глубина
STOP.M                                      168.3:Конечная глубина
STEP.M                                          0:Шаг квантования по глубине
NULL.                                    -9999.25:Признак "Нет данных"
WELL.                                        152К:Скважина
~Parameter Information Section
~Curve Information Section
DEPTH.M                                          :Глубина
БК.Омм                                           :BK     (БК)
DСР.мм                                           :DS  (ДС)
ПЛОТНОСТЬ.г/см^3                                 :GGKp
ГК.мкР/ч                                         :GK          (ГК)
А0.4М0.1N.Омм                                    :GZ1   ГЗ1(A0.4M0.1N)
А1.0М0.1N.Омм                                    :GZ2   ГЗ2(A1.0M0.1N)
А2.0М0.5N.Омм                                    :GZ3   ГЗ3(A2.0M0.5N)
А4.0М0.5N.Oмм                                    :GZ4   ГЗ4(A4.0M0.5N)
А8.0М1.0N.Омм                                    :GZ5   ГЗ5(A8.0M0.5N)
N0.5M2.0A.Омм                                    :GZR   ГЗK(N0.5M2.0A)
ИК.мСм/м                                         :IK
БЗ.ue                                            :NNKb  (ННКб)
МЗ.ue                                            :NNKm  (ННКм)
ПС.mv                                            :PS       (ПС)
N11.0M0.5A.Омм                                   :PZ    (КС)
R.Омм                                            :RS (Резистивиметр)
ПОРИСТОСТЬ.                                      :W
~ASCII LOG DATA
# ...
133.3       230.792     146.924     2.169       3.494       226.825     148.695     115.853     104.427     101.534     75.841      67.29       3.988       2.201       90.226      259.64      1.278       28.258      
133.4       145.079     147.182     2.173       3.421       220.498     147.242     116.108     105.67      102.202     73.527      67.191      4.196       2.199       90.877      260.25      1.276       27.143      
133.5       128.66      147.26      2.173       3.324       220.347     149.298     118.15      107.029     101.622     71.491      66.565      4.255       2.193       91.529      263.659     1.271       26.827      
133.6       136.296     147.468     2.167       3.23        227.929     156.006     122.206     107.564     101.318     69.435      66.335      4.173       2.194       92.127      269.174     1.266       27.207      
133.7       168.559     147.629     2.161       3.157       246.852     164.923     126.582     107.764     101.059     67.595      65.578      4.019       2.182       92.625      276.771     1.267       28.869      
133.8       252.09      147.419     2.155       3.238       260.975     169.407     130.051     107.81      101.728     66.469      64.986      3.881       2.18        92.987      285.913     1.265       30.217      
133.9       318.982     147.419     2.164       3.408       263.752     169.625     131.938     107.396     101.728     65.482      64.625      3.913       2.197       93.235      291.51      1.268       30.699      
134.0       326.514     147.419     2.185       3.721       254.701     166.444     132.464     106.942     100.639     63.811      64.025      4.001       2.225       93.406      290.018     1.27        30.448      
134.1       227.484     147.425     2.205       3.865       232.521     158.204     132.055     106.42      99.668      61.748      63.123      4.056       2.273       93.549      282.8       1.274       29.732      
134.2       118.949     147.23      2.214       3.819       212.057     149.643     130.641     105.762     99.24       60.077      61.599      4.133       2.306       93.718      273.156     1.274       29.134      
134.3       106.647     147.36      2.227       3.784       204.72      145.095     128.813     104.679     96.666      59.057      60.201      4.242       2.318       93.93       266.546     1.273       28.213      
134.4       105.125     147.352     2.225       3.918       209.198     143.678     127.677     103.05      94.196      58.498      58.696      4.309       2.314       94.171      266.008     1.27        27.667      
134.5       122.662     147.532     2.19        4.004       222.271     143.145     127.363     101.127     90.666      58.2        57.594      4.407       2.308       94.415      268.172     1.27        26.811      
134.6       155.455     147.483     2.167       3.995       238.554     142.984     127.398     99.459      87.867      57.822      56.638      4.568       2.307       94.637      271.596     1.268       26.043      
134.7       228.623     147.483     2.176       3.777       249.129     142.692     127.432     97.153      84.966      55.414      55.383      4.687       2.321       94.829      277.805     1.267       25.676      
134.8       279.096     147.309     2.174       3.602       252.021     142.071     126.974     93.535      82.467      50.787      54.022      4.653       2.338       95.004      282.826     1.265       25.714      
134.9       258.459     147.078     2.168       3.497       251.363     141.741     125.656     89.671      79.853      45.605      52.935      4.609       2.355       95.194      283.71      1.261       26.028      
135.0       241.465     146.865     2.187       3.462       249.998     142.806     123.639     85.807      76.787      41.463      50.997      4.409       2.348       95.412      281.673     1.259       26.685      
135.1       243.91      146.865     2.196       3.445       249.292     144.995     121.836     81.835      73.137      38.68       49.259      4.292       2.334       95.675      277.03      1.26        26.992      
135.2       244.841     146.91      2.195       3.588       249.623     147.151     120.427     77.091      66.857      35.79       46.977      4.283       2.318       95.994      267.347     1.26        26.941      
135.3       241.173     146.923     2.205       3.792       251.403     148.182     118.005     72.322      62.045      33.65       44.789      4.282       2.285       96.363      255.22      1.24        26.702      
135.4       236.947     146.923     2.232       4.073       253.677     147.393     113.265     67.628      56.487      32.121      43.592      4.26        2.254       96.785      247.129     1.24        26.545      
135.5       228.527     146.86      2.265       4.314       254.501     144.73      105.593     62.308      51.766      29.986      42.412      4.366       2.231       97.28       238.46      1.233       26.611      
135.6       222.505     146.574     2.285       4.363       248.302     131.692     95.259      56.681      45.375      26.96       41.504      4.369       2.223       97.866      223.305     1.235       26.923      
135.7       205.206     145.976     2.295       4.264       211.629     109.152     82.686      50.592      40.144      23.414      40.466      4.261       2.245       98.571      203.646     1.234       27.088      
135.8       142.199     145.383     2.301       3.933       150.479     87.107      68.39       44.376      35.869      20.137      37.69       4.306       2.27        99.434      163.038     1.232       27.468      
135.9       84.307      145.383     2.294       3.54        94.48       73.136      55.254      39.042      32.191      17.69       36.155      4.151       2.276       100.482     107.156     1.231       27.798      
136.0       60.402      145.791     2.275       3.292       66.973      66.141      46.07       35.801      28.638      16.435      35.051      4.064       2.261       101.703     80.354      1.232       28.144      
136.1       50.553      146.498     2.246       3.312       62.938      57.89       41.109      33.998      25.287      15.74       34.032      4.028       2.228       103.061     79.15       1.229       28.819      
136.2       61.404      147.269     2.204       3.71        60.478      50.516      38.587      33.166      23.453      15.397      33.459      3.953       2.204       104.504     79.764      1.231       29.188      
136.3       66.77       147.269     2.175       3.93        59.853      46.049      37.001      33.248      23.453      15.488      32.89       3.963       2.201       105.972     80.954      1.234       29.158      
136.4       61.939      147.158     2.177       3.849       60.01       44.246      36.488      33.466      24.157      16.028      32.877      4.117       2.218       107.426     80.82       1.237       28.295      
136.5       59.506      147.103     2.197       3.673       60.544      44.119      36.679      34.442      26.772      17.543      33.199      4.342       2.224       108.855     80.265      1.231       27.534      
136.6       61.788      147.103     2.248       3.59        61.571      44.991      37.91       36.45       33.422      20.136      33.735      4.714       2.259       110.239     80.465      1.223       26.016      
136.7       64.673      147.147     2.3         3.374       62.22       46.065      40.774      40.309      39.775      23.514      34.341      5.164       2.316       111.558     81.032      1.246       23.853      
136.8       64.674      147.32      2.342       3.159       61.995      46.596      46.124      49.563      47.693      28.483      35.275      5.837       2.406       112.792     81.283      1.258       22.341      
136.9       65.95       147.426     2.386       3.136       59.763      47.923      53.341      62.68       55.005      34.115      35.963      6.604       2.547       113.901     80.015      1.263       19.181      
