~Version Information Section
VERS.                                         2.0:CWLS log ASCII Standart – VERSION 2.0
WRAP.                                          NO:One line per depth step
~Well Information Section
STRT.M                                        0.6:Начальная глубина
STOP.M                                      196.8:Конечная глубина
STEP.M                                          0:Шаг квантования по глубине
NULL.                                    -9999.25:Признак "Нет данных"
WELL.                                        142К:Скважина
~Parameter Information Section
~Curve Information Section
DEPTH.M                                          :Глубина
BK.Ohm*M                                         :BK     (БК)
DS.mm                                            :DS  (ДС)
GGK.g/cm3                                        :GGKp
ГК.mcr/h                                         :GK          (ГК)
GZ1.Ohm*M                                        :GZ1   ГЗ1(A0.4M0.1N)
GZ2.Ohm*M                                        :GZ2   ГЗ2(A1.0M0.1N)
GZ3.Ohm*M                                        :GZ3   ГЗ3(A2.0M0.5N)
GZ4.Ohm*M                                        :GZ4   ГЗ4(A4.0M0.5N)
GZ5.Ohm*M                                        :GZ5   ГЗ5(A8.0M0.5N)
GZR.                                             :GZR   ГЗK(N0.5M2.0A)
ИК.Ohm*M                                         :IK
НГК.ue                                           :NGK     (НГК)
NNKM.                                            :NNKm  (ННКм)
PS.mv                                            :PS       (ПС)
PZ.Ohm*M                                         :PZ    (КС)
RS.Ohm*M                                         :RS (Резистивиметр)
W.%                                              :W
~ASCII LOG DATA
# ...
152.3       21.694      236.086     2.457       7.861       21.544      18.816      19.04       14.671      9.758       24.847      14.966      1.126       1.272       -312.708    29.184      1.112       27.959      
152.4       21.267      240.947     2.465       8.205       21.334      18.749      18.554      14.33       9.599       25.087      14.878      1.086       1.254       -312.892    29.149      1.112       28.524      
152.5       21.058      244.651     2.472       8.272       21.187      18.688      18.142      14.017      9.46        25.399      14.859      1.166       1.24        -312.936    29.121      1.112       27.835      
152.6       21.078      244.508     2.469       8.115       21.087      18.631      17.817      13.727      9.34        25.794      14.821      1.166       1.242       -312.907    29.1        1.112       28.216      
152.7       21.284      242.386     2.453       8.131       21.026      18.581      17.584      13.464      9.236       26.3        14.745      1.148       1.245       -312.804    29.088      1.112       29.493      
152.8       21.563      239.226     2.426       8.049       20.997      18.538      17.436      13.237      9.144       26.956      14.698      1.133       1.227       -312.616    29.085      1.112       28.958      
152.9       21.757      231.848     2.395       7.799       20.99       18.498      17.355      13.057      9.055       27.785      14.708      1.095       1.21        -312.236    29.085      1.112       28.216      
153.0       21.903      227.23      2.369       7.657       20.99       18.463      17.32       12.919      8.963       28.796      14.797      1.222       1.214       -311.716    29.085      1.112       27.691      
153.1       22.199      226.9       2.358       7.937       20.99       18.431      17.309      12.808      8.858       29.891      14.86       1.318       1.219       -311.019    29.089      1.112       26.141      
153.2       22.709      226.6       2.361       8.364       20.99       18.387      17.305      12.703      8.735       30.787      14.871      1.255       1.272       -310.278    29.101      1.112       24.505      
153.3       23.284      225.437     2.376       8.257       20.989      18.311      17.293      12.569      8.593       31.179      14.87       1.266       1.326       -309.535    29.126      1.112       24.681      
153.4       23.634      222.347     2.393       7.85        20.985      18.173      17.249      12.366      8.437       31.185      14.885      1.329       1.303       -308.797    29.161      1.112       25.721      
153.5       23.597      218.275     2.405       7.586       20.978      17.925      17.121      12.049      8.271       31.133      14.916      1.262       1.279       -308.061    29.206      1.112       26.725      
153.6       23.282      217.14      2.41        7.633       20.937      17.528      16.856      11.565      8.102       30.692      14.943      1.092       1.276       -307.346    29.257      1.112       26.798      
153.7       23.13       216.253     2.41        7.652       20.815      16.981      16.415      10.862      7.934       29.364      14.956      1.102       1.271       -306.618    29.308      1.112       26.957      
153.8       23.6        215.954     2.408       7.387       20.603      16.33       15.798      9.917       7.775       27.205      15.034      1.113       1.287       -305.853    29.359      1.112       27.344      
153.9       24.604      215.636     2.411       7.126       20.335      15.665      15.069      8.769       7.632       24.508      15.227      1.197       1.304       -305.118    29.411      1.112       26.93       
154.0       25.562      215.487     2.418       7.283       20.087      15.106      14.343      7.515       7.52        21.644      15.504      1.214       1.341       -304.334    29.465      1.112       25.974      
154.1       25.771      215.179     2.428       7.567       19.947      14.749      13.74       6.293       7.446       18.841      15.841      1.3         1.387       -303.461    29.529      1.112       25.836      
154.2       25.007      215.035     2.431       8.235       19.947      14.632      13.344      5.266       7.418       16.289      16.261      1.304       1.373       -302.399    29.61       1.112       27.177      
154.3       23.333      214.497     2.424       8.68        19.952      14.632      13.192      4.573       7.414       14.089      16.607      1.326       1.352       -301.089    29.716      1.112       28.457      
154.4       21.149      213.477     2.41        8.633       20.038      14.644      13.192      4.284       7.414       12.283      16.829      1.277       1.321       -299.288    29.865      1.112       28.662      
154.5       19.072      211.942     2.396       8.025       20.586      14.759      13.193      4.282       7.429       10.902      17.047      1.178       1.283       -296.904    30.091      1.112       29.015      
154.6       17.88       207.945     2.389       6.997       22.316      15.18       13.221      4.282       7.511       9.977       17.236      1.184       1.27        -293.838    30.441      1.112       29.819      
154.7       19.117      203.231     2.394       6.001       25.79       16.033      13.38       4.315       7.716       9.48        17.459      1.187       1.262       -290.016    30.972      1.112       29.243      
154.8       25.541      200.871     2.408       5.044       31.424      17.303      13.797      4.591       8.096       9.339       18.003      1.207       1.325       -285.517    31.744      1.112       27.584      
154.9       39.486      199.81      2.423       4.569       39.387      18.959      14.435      5.405       8.717       9.339       19.006      1.223       1.388       -280.766    32.827      1.112       26.733      
155.0       60.155      199.093     2.428       4.465       49.305      20.903      15.281      6.707       9.668       9.356       20.257      1.282       1.414       -276.178    34.325      1.112       26.681      
155.1       81.876      199.009     2.421       4.569       60.303      23.091      16.321      8.391       11.075      9.522       21.837      1.304       1.445       -272.001    36.395      1.112       26.402      
155.2       97.68       199.352     2.405       4.643       71.408      25.632      17.576      10.292      13.114      10.15       23.724      1.326       1.457       -268.42     39.224      1.112       25.873      
155.3       103.737     201.524     2.388       4.797       81.864      28.727      19.14       12.244      16.013      11.518      25.514      1.279       1.464       -265.328    42.981      1.112       26.185      
155.4       102.511     208.268     2.379       5.188       91.12       32.651      21.194      14.258      20.046      13.814      26.727      1.255       1.455       -262.412    47.743      1.112       26.72       
155.5       99.112      211.452     2.383       5.958       99.021      37.797      23.997      16.567      25.523      17.242      27.606      1.163       1.441       -259.469    53.435      1.112       26.671      
155.6       94.521      210.223     2.401       6.196       105.995     44.579      27.876      19.671      32.729      21.944      28.229      1.179       1.455       -256.531    59.815      1.112       26.083      
155.7       87.248      208.013     2.428       6.078       112.839     53.266      33.223      24.345      41.793      28.007      28.651      1.255       1.476       -253.636    66.547      1.112       25.427      
155.8       79.035      209.305     2.457       5.591       120.493     64.029      40.349      31.372      52.576      35.262      28.508      1.237       1.487       -251.001    73.346      1.112       23.843      
155.9       78.771      210.208     2.488       5.616       129.453     76.582      49.144      40.942      64.477      43.006      27.989      1.22        1.496       -248.898    80.114      1.112       21.831      
