~Version Information Section
VERS.                                         2.0:CWLS log ASCII Standart – VERSION 2.0
WRAP.                                          NO:One line per depth step
~Well Information Section
STRT.M                                        0.1:Начальная глубина
STOP.M                                      168.3:Конечная глубина
STEP.M                                          0:Шаг квантования по глубине
NULL.                                    -9999.25:Признак "Нет данных"
WELL.                                        152К:Скважина
~Parameter Information Section
~Curve Information Section
DEPTH.M                                          :Глубина
БК.Омм                                           :BK     (БК)
DСР.мм                                           :DS  (ДС)
ПЛОТНОСТЬ.г/см^3                                 :GGKp
ГК.мкР/ч                                         :GK          (ГК)
А0.4М0.1N.Омм                                    :GZ1   ГЗ1(A0.4M0.1N)
А1.0М0.1N.Омм                                    :GZ2   ГЗ2(A1.0M0.1N)
А2.0М0.5N.Омм                                    :GZ3   ГЗ3(A2.0M0.5N)
А4.0М0.5N.Oмм                                    :GZ4   ГЗ4(A4.0M0.5N)
А8.0М1.0N.Омм                                    :GZ5   ГЗ5(A8.0M0.5N)
N0.5M2.0A.Омм                                    :GZR   ГЗK(N0.5M2.0A)
ИК.мСм/м                                         :IK
БЗ.ue                                            :NNKb  (ННКб)
МЗ.ue                                            :NNKm  (ННКм)
ПС.mv                                            :PS       (ПС)
N11.0M0.5A.Омм                                   :PZ    (КС)
R.Омм                                            :RS (Резистивиметр)
ПОРИСТОСТЬ.                                      :W
~ASCII LOG DATA
# ...
44.5        20.451      240.615     2.252       5.162       21.643      18.2        14.049      72.124      2087.204    19.437      15.781      2.189       1.667       18.226      22.194      1.167       43.409      
44.6        20.749      238.874     2.246       5.044       22.364      19.224      15.232      74.408      2090.065    20.251      16.067      2.171       1.668       17.805      22.666      1.165       43.754      
44.7        20.829      238.179     2.246       5.217       23.683      20.944      16.531      72.153      2103.191    20.523      16.202      2.219       1.678       17.294      23.219      1.166       42.628      
44.8        21.008      238.068     2.243       5.356       24.888      22.128      17.631      43.744      2097.608    20.368      16.304      2.31        1.679       16.644      23.523      1.165       41.709      
44.9        22.325      238.175     2.238       5.469       25.349      22.459      18.154      15.844      2097.02     19.832      16.492      2.33        1.687       15.859      23.386      1.165       40.394      
45.0        24.531      238.246     2.235       5.179       25.302      21.976      18.219      14.049      2082.57     18.877      16.513      2.31        1.682       14.99       23.012      1.165       39.243      
45.1        25.699      239.047     2.23        5.11        25.095      21.147      18.117      13.967      2089.833    17.84       16.722      2.37        1.67        14.105      22.722      1.165       38.657      
45.2        24.385      240.469     2.23        5.246       24.87       20.687      18.014      13.937      2089.833    16.963      16.776      2.347       1.651       13.271      22.578      1.164       37.325      
45.3        22.382      242.056     2.223       5.665       24.766      20.51       18.161      15.277      2116.932    16.371      16.679      2.379       1.619       12.533      22.551      1.165       36.38       
45.4        21.448      243.017     2.211       6.011       24.465      20.245      18.529      36.436      2141.168    16.095      16.53       2.409       1.607       11.922      22.679      1.165       35.874      
45.5        21.236      243.754     2.201       6.067       23.69       19.704      18.891      93.927      2160.96     15.997      16.334      2.411       1.583       11.455      22.765      1.166       35.822      
45.6        21.314      244.876     2.19        6.117       23.019      19.363      19.049      164.854     2172.49     16.028      16.061      2.39        1.563       11.149      22.563      1.165       36.08       
45.7        21.087      246.456     2.173       6.062       22.74       19.492      19.065      198.107     2170.982    16.307      15.852      2.369       1.561       11.031      22.229      1.166       37.253      
45.8        20.346      247.23      2.163       5.825       22.45       20.096      19.078      208.935     2176.206    16.933      15.643      2.324       1.556       11.136      22.06       1.166       39.185      
45.9        19.518      247.23      2.163       5.524       22.584      21.277      19.162      223.652     2203.191    17.524      15.396      2.221       1.567       11.49       21.941      1.165       40.427      
46.0        19.164      246.664     2.158       5.169       23.063      21.994      19.236      240.502     2224.053    17.736      15.182      2.202       1.585       12.091      21.692      1.163       42.27       
46.1        19.674      244.902     2.153       5.091       22.978      22.003      19.239      275.488     2227.24     17.649      14.977      2.139       1.599       12.906      21.429      1.164       43.058      
46.2        20.451      243.548     2.15        5.085       22.328      21.235      19.02       323.797     2233.335    17.236      14.857      2.115       1.621       13.885      21.015      1.165       42.898      
46.3        20.981      243.548     2.147       5.224       21.79       19.662      18.416      355.536     2239.794    16.63       14.689      2.163       1.629       14.978      20.306      1.166       41.102      
46.4        21.593      245.203     2.15        5.606       21.236      18.246      17.601      360.99      2225.105    16.301      14.468      2.251       1.62        16.167      19.695      1.167       39.572      
46.5        20.715      246.566     2.156       6.092       20.73       17.522      16.832      359.7       2225.105    16.241      14.3        2.342       1.605       17.445      19.541      1.167       37.81       
46.6        18.431      248.591     2.167       6.247       20.373      17.31       16.347      351.518     2271.751    16.218      14.234      2.307       1.585       18.815      19.534      1.167       37.296      
46.7        17.319      248.968     2.183       6.064       19.732      16.913      16.084      324.698     2346.756    16.232      14.107      2.278       1.563       20.288      19.386      1.168       37.448      
46.8        17.221      249.196     2.201       5.523       18.788      16.172      15.743      268.885     2427.94     16.267      13.966      2.243       1.548       21.87       19.224      1.169       37.872      
46.9        16.986      249.196     2.214       5.362       17.848      15.265      15.331      183.036     2456.537    16.272      13.924      2.233       1.536       23.551      19.0        1.169       38.609      
47.0        16.651      249.459     2.237       5.318       17.224      14.509      15.143      92.974      2456.537    16.318      14.009      2.252       1.525       25.306      18.74       1.172       39.356      
47.1        16.422      249.763     2.262       5.521       16.98       14.217      15.153      33.65       2493.849    16.542      14.11       2.198       1.528       27.098      18.736      1.172       40.929      
47.2        16.401      250.043     2.286       5.548       17.205      14.422      15.407      14.432      2515.854    16.974      14.186      2.215       1.549       28.892      19.105      1.172       42.708      
47.3        16.753      250.215     2.312       5.198       18.068      15.088      15.979      24.404      2498.419    17.413      14.116      2.243       1.586       30.655      19.732      1.172       43.525      
47.4        17.739      250.336     2.328       4.653       19.551      16.03       16.69       91.231      2478.179    17.624      14.035      2.225       1.628       32.37       20.47       1.173       43.423      
47.5        19.204      250.401     2.331       4.175       21.271      16.854      17.423      204.599     2478.179    17.651      14.031      2.369       1.685       34.046      21.161      1.173       42.723      
47.6        21.313      250.501     2.322       4.248       22.83       17.654      18.048      298.044     2347.036    17.514      14.112      2.542       1.739       35.7        21.703      1.172       40.444      
47.7        23.927      250.59      2.31        4.248       24.338      18.683      18.426      334.965     2227.729    17.109      14.331      2.573       1.777       37.344      22.213      1.171       38.85       
47.8        25.107      250.714     2.3         4.287       25.838      19.769      18.531      283.471     2167.617    16.514      14.704      2.624       1.804       38.967      22.697      1.169       38.249      
47.9        24.945      250.897     2.293       4.18        26.927      20.439      18.415      179.169     2113.873    15.852      14.973      2.613       1.8         40.555      22.941      1.167       37.81       
48.0        24.889      251.363     2.297       4.371       27.339      20.593      18.017      81.09       2036.317    15.123      15.203      2.576       1.79        42.104      22.975      1.167       37.696      
48.1        24.646      251.709     2.298       4.631       27.157      20.346      17.372      33.137      1438.135    14.397      15.296      2.516       1.775       43.643      22.827      1.167       37.519      
