~Version Information Section
VERS.                                         2.0:CWLS log ASCII Standart – VERSION 2.0
WRAP.                                          NO:One line per depth step
~Well Information Section
STRT.M                                        0.6:Начальная глубина
STOP.M                                      196.8:Конечная глубина
STEP.M                                          0:Шаг квантования по глубине
NULL.                                    -9999.25:Признак "Нет данных"
WELL.                                        142К:Скважина
~Parameter Information Section
~Curve Information Section
DEPTH.M                                          :Глубина
BK.Ohm*M                                         :BK     (БК)
DS.mm                                            :DS  (ДС)
GGK.g/cm3                                        :GGKp
ГК.mcr/h                                         :GK          (ГК)
GZ1.Ohm*M                                        :GZ1   ГЗ1(A0.4M0.1N)
GZ2.Ohm*M                                        :GZ2   ГЗ2(A1.0M0.1N)
GZ3.Ohm*M                                        :GZ3   ГЗ3(A2.0M0.5N)
GZ4.Ohm*M                                        :GZ4   ГЗ4(A4.0M0.5N)
GZ5.Ohm*M                                        :GZ5   ГЗ5(A8.0M0.5N)
GZR.                                             :GZR   ГЗK(N0.5M2.0A)
ИК.Ohm*M                                         :IK
НГК.ue                                           :NGK     (НГК)
NNKM.                                            :NNKm  (ННКм)
PS.mv                                            :PS       (ПС)
PZ.Ohm*M                                         :PZ    (КС)
RS.Ohm*M                                         :RS (Резистивиметр)
W.%                                              :W
~ASCII LOG DATA
# ...
89.4        16.055      242.025     2.41        6.729       19.983      14.353      5.275       3.394       4.362       14.524      13.701      1.264       1.286       -296.615    27.108      1.115       29.288      
89.5        16.884      242.287     2.411       7.352       19.991      15.003      5.267       3.374       4.076       14.137      13.529      1.169       1.302       -298.988    26.888      1.115       29.873      
89.6        19.262      243.774     2.407       7.814       20.051      15.767      5.267       3.374       3.91        13.731      13.493      1.17        1.311       -301.102    26.83       1.115       30.775      
89.7        23.007      250.53      2.398       7.927       20.204      16.552      5.274       3.375       3.784       13.337      13.601      1.175       1.306       -302.987    26.819      1.115       31.616      
89.8        26.663      249.044     2.388       7.513       20.362      17.282      5.338       3.381       3.675       12.991      13.815      1.172       1.302       -304.622    26.819      1.115       31.76       
89.9        28.431      245.107     2.38        7.288       20.436      17.911      5.548       3.405       3.574       12.722      14.05       1.154       1.262       -305.802    26.82       1.115       31.699      
90.0        27.486      245.561     2.373       7.364       20.435      18.421      5.956       3.448       3.479       12.538      14.165      1.113       1.212       -306.509    26.825      1.115       30.249      
90.1        24.988      246.683     2.37        7.23        20.419      18.783      6.614       3.51        3.394       12.424      14.135      0.95        1.231       -306.78     26.837      1.115       28.796      
90.2        22.614      246.651     2.368       6.993       20.324      18.973      7.569       3.595       3.32        12.35       13.946      0.95        1.269       -306.822    26.843      1.115       27.81       
90.3        21.442      244.096     2.369       7.012       20.065      19.026      8.836       3.697       3.259       12.286      13.696      1.175       1.28        -306.799    26.843      1.115       26.719      
90.4        21.368      242.718     2.372       7.159       19.624      19.02       10.368      3.809       3.208       12.21       13.454      1.163       1.286       -306.632    26.837      1.115       26.023      
90.5        21.773      241.836     2.379       6.998       19.02       18.958      12.065      3.918       3.169       12.11       13.228      1.113       1.291       -306.219    26.811      1.115       27.134      
90.6        22.003      241.202     2.388       6.63        18.306      18.728      13.798      4.003       3.139       11.979      13.019      1.121       1.271       -305.691    26.743      1.115       28.246      
90.7        21.622      241.101     2.401       6.483       17.515      18.26       15.415      4.052       3.115       11.823      12.836      1.16        1.251       -305.124    26.624      1.115       27.961      
90.8        20.754      241.625     2.418       6.633       16.697      17.613      16.77       4.071       3.097       11.658      12.663      1.167       1.308       -304.631    26.451      1.115       27.793      
90.9        19.943      241.694     2.44        6.727       15.933      16.89       17.787      4.074       3.083       11.508      12.475      1.196       1.365       -304.13     26.228      1.115       26.519      
91.0        19.794      241.721     2.467       6.661       15.28       16.174      18.469      4.074       3.074       11.401      12.316      1.196       1.37        -303.691    25.957      1.115       24.819      
91.1        20.142      241.852     2.497       6.549       14.772      15.556      18.865      4.074       3.07        11.355      12.194      1.329       1.38        -303.465    25.645      1.115       23.964      
91.2        20.239      242.464     2.525       6.493       14.418      15.099      19.059      4.075       3.069       11.355      12.09       1.339       1.385       -303.419    25.304      1.115       24.411      
91.3        19.509      241.833     2.543       6.786       14.212      14.815      19.147      4.075       3.069       11.356      11.947      1.38        1.349       -303.419    24.956      1.115       25.408      
91.4        18.214      242.254     2.55        7.073       14.131      14.654      19.207      4.078       3.07        11.374      11.761      1.326       1.313       -303.44     24.622      1.115       27.956      
91.5        17.045      239.168     2.548       7.111       14.125      14.567      19.284      4.107       3.072       11.465      11.554      1.11        1.266       -303.574    24.315      1.115       30.504      
91.6        16.453      237.846     2.542       6.799       14.124      14.509      19.396      4.205       3.076       11.704      11.369      1.122       1.22        -303.92     24.046      1.115       29.91       
91.7        16.622      236.686     2.532       6.54        14.121      14.446      19.512      4.398       3.078       12.101      11.239      1.169       1.237       -304.497    23.811      1.115       29.004      
91.8        17.605      235.614     2.526       6.537       14.132      14.338      19.565      4.706       3.078       12.632      11.184      1.173       1.26        -305.255    23.587      1.115       26.36       
91.9        19.151      235.28      2.521       6.565       14.179      14.153      19.561      5.151       3.077       13.24       11.211      1.193       1.299       -306.042    23.349      1.115       22.577      
92.0        20.641      237.229     2.516       6.619       14.242      13.869      19.522      5.741       3.074       13.851      11.286      1.22        1.383       -306.887    23.08       1.115       19.648      
92.1        21.499      239.829     2.503       6.697       14.286      13.485      19.35       6.478       3.065       14.397      11.353      1.329       1.434       -307.805    22.764      1.115       20.19       
92.2        21.439      242.863     2.487       6.779       14.291      13.01       18.954      7.367       3.051       14.836      11.396      1.329       1.486       -308.749    22.406      1.115       21.29       
92.3        20.662      244.603     2.469       6.915       14.288      12.488      18.349      8.4         3.036       15.164      11.38       1.407       1.539       -309.549    22.04       1.115       24.473      
92.4        20.005      248.759     2.456       7.044       14.265      12.009      17.622      9.531       3.027       15.411      11.329      1.379       1.422       -310.178    21.703      1.115       27.956      
92.5        20.845      261.793     2.445       7.151       14.213      11.641      16.921      10.704      3.026       15.613      11.305      1.24        1.276       -310.68     21.431      1.115       31.626      
92.6        23.527      287.171     2.429       6.976       14.164      11.401      16.36       11.89       3.026       15.813      11.368      1.196       1.23        -311.05     21.25       1.115       34.382      
92.7        25.781      288.493     2.402       6.733       14.135      11.29       15.975      13.07       3.027       16.045      11.494      1.021       1.198       -311.323    21.165      1.115       35.008      
92.8        25.424      257.461     2.368       6.8         14.122      11.262      15.737      14.207      3.03        16.305      11.575      1.018       1.182       -311.579    21.15       1.115       34.325      
92.9        22.209      252.271     2.341       7.057       14.12       11.259      15.589      15.229      3.037       16.528      11.554      1.003       1.114       -311.826    21.15       1.115       33.553      
93.0        19.058      252.409     2.337       7.246       14.115      11.248      15.457      15.982      3.038       16.627      11.447      1.003       1.047       -312.034    21.152      1.115       31.6        
