~Version Information Section
VERS.                                         2.0:CWLS log ASCII Standart – VERSION 2.0
WRAP.                                          NO:One line per depth step
~Well Information Section
STRT.M                                        0.6:Начальная глубина
STOP.M                                      196.8:Конечная глубина
STEP.M                                          0:Шаг квантования по глубине
NULL.                                    -9999.25:Признак "Нет данных"
WELL.                                        142К:Скважина
~Parameter Information Section
~Curve Information Section
DEPTH.M                                          :Глубина
BK.Ohm*M                                         :BK     (БК)
DS.mm                                            :DS  (ДС)
GGK.g/cm3                                        :GGKp
ГК.mcr/h                                         :GK          (ГК)
GZ1.Ohm*M                                        :GZ1   ГЗ1(A0.4M0.1N)
GZ2.Ohm*M                                        :GZ2   ГЗ2(A1.0M0.1N)
GZ3.Ohm*M                                        :GZ3   ГЗ3(A2.0M0.5N)
GZ4.Ohm*M                                        :GZ4   ГЗ4(A4.0M0.5N)
GZ5.Ohm*M                                        :GZ5   ГЗ5(A8.0M0.5N)
GZR.                                             :GZR   ГЗK(N0.5M2.0A)
ИК.Ohm*M                                         :IK
НГК.ue                                           :NGK     (НГК)
NNKM.                                            :NNKm  (ННКм)
PS.mv                                            :PS       (ПС)
PZ.Ohm*M                                         :PZ    (КС)
RS.Ohm*M                                         :RS (Резистивиметр)
W.%                                              :W
~ASCII LOG DATA
# ...
163.4       20.674      159.993     2.416       7.835       16.577      12.333      9.86        4.825       0.698       44.045      14.926      1.223       1.414       -312.534    27.224      1.112       24.572      
163.5       20.498      159.453     2.404       7.175       16.585      12.333      9.861       4.144       0.843       52.106      15.425      1.205       1.413       -311.621    27.503      1.112       24.407      
163.6       20.523      158.2       2.374       6.012       16.674      12.345      9.883       3.702       1.043       64.225      16.011      1.252       1.411       -310.578    27.824      1.112       25.169      
163.7       20.764      154.451     2.328       5.398       17.07       12.46       10.029      3.555       1.285       81.032      16.651      1.261       1.422       -309.416    28.219      1.112       25.388      
163.8       21.04       153.286     2.276       4.82        18.208      12.871      10.46       3.555       1.554       102.319     17.376      1.33        1.433       -308.069    28.723      1.112       24.135      
163.9       21.187      153.345     2.227       4.694       20.799      13.729      11.243      3.574       1.836       126.852     18.229      1.381       1.49        -306.403    29.386      1.112       21.899      
164.0       21.449      153.492     2.189       4.618       25.781      15.13       12.426      3.756       2.129       152.548     19.144      1.564       1.548       -304.316    30.277      1.112       20.158      
164.1       23.972      153.487     2.164       4.703       34.015      17.122      14.01       4.449       2.454       176.931     20.234      1.598       1.663       -301.788    31.481      1.112       18.09       
164.2       35.677      153.483     2.147       4.771       46.016      19.677      15.915      5.922       2.848       197.828     21.602      1.65        1.779       -298.899    33.113      1.112       16.563      
164.3       65.331      153.513     2.134       4.695       61.712      22.751      18.021      8.168       3.374       213.898     23.397      1.693       1.808       -295.634    35.344      1.112       14.477      
164.4       111.184     153.546     2.122       4.572       80.102      26.331      20.205      11.061      4.112       224.761     25.853      1.715       1.836       -292.081    38.427      1.112       13.252      
164.5       158.19      153.632     2.113       4.536       99.371      30.542      22.369      14.32       5.173       230.814     28.75       1.774       1.817       -288.268    42.693      1.112       12.203      
164.6       185.484     153.818     2.112       4.568       117.603     35.705      24.454      17.577      6.72        233.132     32.004      1.786       1.792       -284.168    48.476      1.112       11.474      
164.7       189.314     153.921     2.118       4.502       133.173     42.244      26.446      20.511      8.942       233.409     35.143      1.754       1.816       -279.798    56.059      1.112       11.106      
164.8       179.295     154.121     2.131       4.442       145.067     50.61       28.364      22.963      11.995      233.287     37.638      1.786       1.844       -275.503    65.544      1.112       11.396      
164.9       170.289     154.271     2.147       4.477       153.165     61.17       30.242      24.93       15.944      232.273     40.034      1.95        1.855       -271.534    76.7        1.112       12.086      
165.0       166.776     154.371     2.162       4.59        158.129     73.981      32.102      26.459      20.696      229.237     42.335      2.028       1.87        -268.15     88.969      1.112       12.886      
165.1       166.601     154.439     2.171       4.561       160.757     88.647      33.952      27.597      25.906      224.35      43.766      2.086       1.83        -265.658    101.629     1.112       13.246      
165.2       166.037     154.383     2.173       4.4         161.737     104.419     35.776      28.364      31.031      218.056     45.384      1.912       1.78        -264.074    113.919     1.112       13.139      
165.3       164.578     154.462     2.167       4.363       161.867     120.307     37.548      28.765      35.495      210.799     47.05       1.825       1.765       -263.142    125.202     1.112       13.036      
165.4       164.594     154.445     2.159       4.565       161.831     135.181     39.228      28.881      38.786      203.203     48.223      1.914       1.757       -262.699    135.106     1.112       12.681      
165.5       167.148     154.408     2.15        4.957       161.536     148.079     40.793      28.875      40.695      196.005     49.5        1.929       1.777       -262.562    143.541     1.112       12.933      
165.6       169.643     154.387     2.147       5.203       160.677     158.464     42.271      28.817      41.434      189.819     50.541      2.006       1.803       -262.511    150.563     1.112       14.026      
165.7       168.242     154.038     2.152       4.938       159.391     166.189     43.78       28.622      41.56       185.003     51.287      1.932       1.794       -262.444    156.29      1.112       14.686      
165.8       161.587     153.723     2.169       4.616       158.015     171.468     45.526      28.297      41.498      181.567     52.244      1.858       1.776       -262.37     160.844     1.112       15.12       
165.9       152.334     153.535     2.193       4.361       156.951     174.785     47.797      27.977      41.152      179.206     52.759      1.998       1.776       -262.305    164.347     1.112       15.665      
166.0       143.244     153.122     2.216       4.461       156.412     176.718     50.928      27.745      40.418      177.446     53.396      2.068       1.781       -262.229    166.935     1.112       15.578      
166.1       136.224     152.982     2.235       4.561       156.316     177.716     55.23       27.601      39.535      175.759     53.804      1.878       1.789       -262.042    168.746     1.112       15.365      
166.2       132.498     153.052     2.245       4.492       156.316     178.069     60.893      27.503      38.674      173.595     54.115      1.883       1.8         -261.698    169.942     1.112       15.762      
166.3       132.842     153.217     2.251       4.372       156.348     178.108     67.944      27.401      37.83       170.467     54.549      1.908       1.797       -261.191    170.708     1.112       16.102      
166.4       136.35      153.259     2.255       4.287       156.624     178.087     76.237      27.261      36.956      166.089     54.864      1.82        1.79        -260.478    171.185     1.112       16.217      
166.5       140.237     153.184     2.263       4.3         157.459     177.912     85.442      27.068      36.027      160.399     55.246      1.733       1.831       -259.568    171.481     1.112       15.836      
166.6       142.918     152.988     2.27        4.328       158.725     177.369     95.097      26.822      35.038      153.576     55.396      1.856       1.887       -258.537    171.709     1.112       15.086      
166.7       145.837     153.234     2.272       4.385       159.972     176.48      104.669     26.55       34.008      146.111     55.944      1.917       1.884       -257.511    171.957     1.112       14.363      
166.8       155.478     153.205     2.266       4.584       160.775     175.414     113.665     26.295      32.976      138.716     56.208      1.848       1.863       -256.586    172.284     1.112       13.888      
166.9       179.008     153.302     2.254       4.659       161.036     174.353     121.679     26.09       31.991      132.068     56.808      1.834       1.861       -255.828    172.738     1.112       13.256      
167.0       209.688     153.592     2.243       4.508       161.016     173.424     128.454     25.956      31.096      126.667     57.382      1.81        1.866       -255.307    173.339     1.112       12.924      
