~Version Information Section
VERS.                                         2.0:CWLS log ASCII Standart – VERSION 2.0
WRAP.                                          NO:One line per depth step
~Well Information Section
STRT.M                                        0.6:Начальная глубина
STOP.M                                      196.8:Конечная глубина
STEP.M                                          0:Шаг квантования по глубине
NULL.                                    -9999.25:Признак "Нет данных"
WELL.                                        142К:Скважина
~Parameter Information Section
~Curve Information Section
DEPTH.M                                          :Глубина
BK.Ohm*M                                         :BK     (БК)
DS.mm                                            :DS  (ДС)
GGK.g/cm3                                        :GGKp
ГК.mcr/h                                         :GK          (ГК)
GZ1.Ohm*M                                        :GZ1   ГЗ1(A0.4M0.1N)
GZ2.Ohm*M                                        :GZ2   ГЗ2(A1.0M0.1N)
GZ3.Ohm*M                                        :GZ3   ГЗ3(A2.0M0.5N)
GZ4.Ohm*M                                        :GZ4   ГЗ4(A4.0M0.5N)
GZ5.Ohm*M                                        :GZ5   ГЗ5(A8.0M0.5N)
GZR.                                             :GZR   ГЗK(N0.5M2.0A)
ИК.Ohm*M                                         :IK
НГК.ue                                           :NGK     (НГК)
NNKM.                                            :NNKm  (ННКм)
PS.mv                                            :PS       (ПС)
PZ.Ohm*M                                         :PZ    (КС)
RS.Ohm*M                                         :RS (Резистивиметр)
W.%                                              :W
~ASCII LOG DATA
# ...
181.9       21.196      159.487     2.612       7.516       17.497      15.329      23.253      14.298      12.106      13.626      13.462      1.455       1.553       -257.313    60.638      1.112       19.02       
182.0       28.267      162.38      2.614       7.06        18.157      15.269      22.992      14.294      12.062      13.339      13.527      1.436       1.529       -256.651    60.172      1.112       17.808      
182.1       44.388      165.715     2.609       7.019       18.552      15.078      22.177      14.239      11.83       12.713      13.7        1.315       1.551       -255.884    59.588      1.112       18.735      
182.2       66.162      172.635     2.6         7.64        18.671      14.738      20.81       13.991      11.335      11.888      13.968      1.368       1.595       -255.011    58.893      1.112       19.135      
182.3       80.675      171.049     2.583       8.228       18.659      14.3        19.147      13.453      10.659      11.071      14.249      1.475       1.697       -254.169    58.134      1.112       19.536      
182.4       77.193      170.856     2.557       8.898       18.55       13.903      17.543      12.818      9.965       10.432      14.401      1.415       1.779       -253.046    57.393      1.112       22.108      
182.5       58.265      169.389     2.524       9.353       18.182      13.659      16.217      12.301      9.381       10.019      14.289      1.326       1.585       -251.643    56.764      1.112       24.69       
182.6       37.774      173.211     2.492       9.58        17.541      13.571      15.212      11.984      8.976       9.799       13.979      1.2         1.383       -249.959    56.304      1.112       25.048      
182.7       26.289      170.706     2.468       9.621       16.816      13.571      14.489      11.869      8.774       9.723       13.61       1.136       1.332       -247.975    56.026      -9999.25    25.053      
182.8       24.477      174.649     2.459       9.783       16.181      13.571      13.998      11.869      8.731       9.723       13.281      1.077       1.289       -246.048    55.92       -9999.25    25.055      
182.9       27.345      174.692     2.459       9.935       15.711      13.581      13.693      11.869      8.731       9.723       13.078      1.099       1.274       -244.177    55.916      -9999.25    25.139      
183.0       30.489      164.225     2.465       9.867       15.422      13.641      13.561      11.881      8.741       9.733       13.005      1.211       1.259       -242.362    55.916      -9999.25    24.919      
183.1       31.874      165.35      2.468       9.4         15.288      13.78       13.561      11.979      8.836       9.82        12.97       1.248       1.278       -240.603    55.925      -9999.25    24.714      
183.2       31.291      163.198     2.47        8.928       15.26       13.952      13.562      12.294      9.169       10.134      12.945      1.285       1.301       -238.888    55.994      -9999.25    24.861      
183.3       29.927      161.342     2.474       8.247       15.26       14.154      13.587      12.912      9.812       10.835      12.9        1.237       1.325       -237.216    56.182      -9999.25    22.384      
183.4       29.061      160.957     2.48        7.668       15.266      14.372      13.771      13.938      10.787      12.113      12.864      1.19        1.344       -235.588    56.444      -9999.25    19.529      
183.5       29.312      161.216     2.488       6.657       15.321      14.598      14.319      15.404      12.08       14.071      12.874      1.455       1.462       -234.316    56.75       -9999.25    15.875      
183.6       30.504      161.202     2.499       5.907       15.514      14.838      15.255      17.249      13.621      16.651      12.966      1.507       1.579       -233.399    57.065      -9999.25    12.031      
183.7       31.968      160.958     2.514       5.176       15.931      15.073      16.566      19.258      15.284      19.562      13.109      1.659       1.857       -232.838    57.354      -9999.25    7.396       
183.8       32.479      160.783     2.534       4.877       16.692      15.272      18.145      21.065      16.888      22.264      13.254      1.87        2.135       -232.651    57.593      -9999.25    5.382       
183.9       31.688      160.896     2.559       4.577       17.938      15.422      19.768      22.296      18.206      24.157      13.344      2.294       2.286       -232.482    57.787      -9999.25    3.802       
184.0       36.716      161.019     2.584       4.421       19.764      15.522      21.149      22.793      19.029      24.96       13.38       2.524       2.467       -232.707    57.949      -9999.25    3.057       
184.1       65.835      161.027     2.605       4.415       22.16       15.59       22.01       22.801      19.339      25.011      13.462      2.831       2.561       -233.324    58.079      -9999.25    2.568       
184.2       123.4       161.159     2.618       4.595       24.894      15.631      22.3        22.753      19.387      24.947      13.725      3.017       2.637       -234.041    58.184      -9999.25    2.793       
184.3       186.284     161.497     2.619       4.759       27.416      15.655      22.285      22.36       19.314      24.434      14.175      3.11        2.644       -234.856    58.273      -9999.25    3.092       
184.4       215.511     162.01      2.611       4.932       29.085      15.662      22.133      21.254      18.942      23.017      14.771      3.078       2.637       -235.77     58.343      -9999.25    3.273       
184.5       202.076     164.812     2.601       4.983       29.695      15.648      21.543      19.669      18.172      21.094      15.429      3.045       2.607       -236.783    58.388      -9999.25    4.526       
184.6       173.466     174.833     2.594       5.032       29.675      15.61       20.341      17.902      17.152      19.158      15.867      2.911       2.57        -237.895    58.418      -9999.25    5.964       
184.7       156.919     169.329     2.587       5.533       29.452      15.558      18.767      16.171      16.09       17.528      16.063      2.72        2.478       -239.106    58.434      -9999.25    8.459       
184.8       156.317     171.775     2.573       6.275       28.482      15.492      17.116      14.621      15.091      16.308      16.127      2.433       2.371       -240.416    58.438      -9999.25    11.183      
184.9       157.504     173.058     2.551       7.324       26.414      15.402      15.596      13.318      14.2        15.428      16.132      2.177       2.071       -241.866    58.437      -9999.25    13.59       
185.0       149.858     173.745     2.527       7.868       23.806      15.278      14.324      12.297      13.437      14.802      16.084      1.92        1.736       -243.456    58.431      -9999.25    14.815      
185.1       129.183     174.762     2.505       8.086       21.294      15.106      13.331      11.536      12.798      14.35       15.948      1.586       1.637       -244.813    58.417      -9999.25    16.169      
185.2       98.582      174.36      2.495       8.038       19.275      14.893      12.595      10.982      12.199      13.988      15.68       1.519       1.585       -245.936    58.409      -9999.25    16.666      
185.3       66.371      175.99      2.496       8.099       17.888      14.639      12.061      10.584      11.594      13.67       15.296      1.383       1.578       -247.025    58.409      -9999.25    17.178      
185.4       44.116      172.324     2.503       8.331       17.068      14.369      11.691      10.315      11.234      13.405      14.899      1.361       1.581       -248.081    58.411      -9999.25    18.054      
185.5       33.3        170.478     2.507       8.605       16.688      14.109      11.458      10.156      10.982      13.21       14.51       1.276       1.557       -249.103    58.421      -9999.25    18.991      
