~Version Information Section
VERS.                                         2.0:CWLS log ASCII Standart – VERSION 2.0
WRAP.                                          NO:One line per depth step
~Well Information Section
STRT.M                                        0.1:Начальная глубина
STOP.M                                      168.3:Конечная глубина
STEP.M                                          0:Шаг квантования по глубине
NULL.                                    -9999.25:Признак "Нет данных"
WELL.                                        152К:Скважина
~Parameter Information Section
~Curve Information Section
DEPTH.M                                          :Глубина
БК.Омм                                           :BK     (БК)
DСР.мм                                           :DS  (ДС)
ПЛОТНОСТЬ.г/см^3                                 :GGKp
ГК.мкР/ч                                         :GK          (ГК)
А0.4М0.1N.Омм                                    :GZ1   ГЗ1(A0.4M0.1N)
А1.0М0.1N.Омм                                    :GZ2   ГЗ2(A1.0M0.1N)
А2.0М0.5N.Омм                                    :GZ3   ГЗ3(A2.0M0.5N)
А4.0М0.5N.Oмм                                    :GZ4   ГЗ4(A4.0M0.5N)
А8.0М1.0N.Омм                                    :GZ5   ГЗ5(A8.0M0.5N)
N0.5M2.0A.Омм                                    :GZR   ГЗK(N0.5M2.0A)
ИК.мСм/м                                         :IK
БЗ.ue                                            :NNKb  (ННКб)
МЗ.ue                                            :NNKm  (ННКм)
ПС.mv                                            :PS       (ПС)
N11.0M0.5A.Омм                                   :PZ    (КС)
R.Омм                                            :RS (Резистивиметр)
ПОРИСТОСТЬ.                                      :W
~ASCII LOG DATA
# ...
70.4        25.684      221.688     2.313       6.594       19.835      17.139      34.221      29.785      16.641      168.905     22.956      3.191       1.809       150.906     42.941      1.228       32.334      
70.5        25.801      220.19      2.339       6.298       21.277      22.148      44.331      34.207      16.576      185.776     23.932      3.602       1.835       149.288     45.85       1.236       30.698      
70.6        28.528      219.726     2.364       5.508       24.686      28.687      53.764      39.032      19.281      188.286     25.297      4.462       1.935       147.13      49.256      1.239       27.262      
70.7        31.433      218.419     2.386       4.322       30.131      34.077      58.66       43.942      21.525      180.504     26.713      5.12        2.128       144.417     53.078      1.241       24.625      
70.8        49.286      217.447     2.399       3.194       38.065      37.054      59.497      46.725      22.625      160.824     28.617      5.791       2.343       141.175     56.765      1.244       21.147      
70.9        119.416     215.449     2.386       2.501       49.348      38.57       58.286      47.794      21.533      136.008     31.156      6.225       2.475       137.48      61.548      1.245       19.25       
71.0        223.183     211.925     2.361       2.277       62.874      39.808      55.073      45.406      22.895      112.228     34.343      6.012       2.525       133.465     78.553      1.248       19.172      
71.1        285.247     208.401     2.344       2.039       82.248      41.815      52.316      42.14       21.549      93.126      37.598      5.773       2.505       129.29      111.898     1.249       19.712      
71.2        293.149     203.58      2.329       1.863       106.985     45.294      51.125      40.675      19.208      79.736      41.675      5.548       2.454       125.106     144.983     1.249       20.719      
71.3        291.367     201.091     2.326       1.74        130.659     50.99       50.214      40.088      17.476      72.062      45.554      5.318       2.418       121.017     172.027     1.249       21.245      
71.4        296.378     198.547     2.344       1.984       145.976     61.069      49.042      41.056      18.681      67.982      48.358      5.329       2.407       117.078     198.594     1.244       22.069      
71.5        299.57      198.455     2.362       2.23        154.201     80.096      47.467      42.919      16.946      65.158      50.03       5.201       2.389       113.299     221.389     1.242       22.948      
71.6        298.41      198.455     2.369       2.295       162.124     106.664     46.298      45.153      15.29       62.769      51.477      4.959       2.384       109.67      234.967     1.237       23.599      
71.7        289.846     198.458     2.366       2.189       167.553     134.811     46.005      47.874      16.139      60.565      52.876      4.757       2.382       106.191     242.535     1.235       24.222      
71.8        281.588     198.579     2.363       2.099       169.484     155.57      46.11       51.608      17.583      59.481      53.789      4.69        2.365       102.901     249.298     1.234       24.448      
71.9        273.447     198.675     2.356       2.087       165.435     165.422     46.966      56.414      16.558      59.628      54.366      4.673       2.335       99.851      251.536     1.234       24.78       
72.0        253.617     198.769     2.338       2.014       156.247     169.186     48.888      61.448      18.291      60.823      54.576      4.581       2.306       97.105      248.194     1.231       25.949      
72.1        219.868     198.873     2.318       2.068       146.896     170.342     52.141      67.837      19.555      64.965      54.672      4.324       2.282       94.691      241.354     1.231       26.874      
72.2        166.26      199.024     2.311       2.27        140.049     171.847     58.355      78.639      21.845      72.167      53.987      4.187       2.266       92.612      232.399     1.231       27.701      
72.3        133.835     199.405     2.318       2.466       127.632     174.661     67.786      96.415      24.368      81.076      53.095      4.333       2.267       90.872      223.738     1.245       26.974      
72.4        142.528     200.248     2.341       2.558       117.854     183.769     79.914      117.251     28.079      90.251      52.587      4.771       2.291       89.517      214.294     1.242       25.888      
72.5        165.16      201.78      2.381       2.633       121.751     201.965     94.809      137.604     30.634      97.563      51.805      5.25        2.339       88.619      202.216     1.238       23.452      
72.6        149.554     204.439     2.42        2.728       133.312     225.927     114.84      148.692     35.266      100.5       49.439      5.824       2.427       88.252      191.901     1.229       21.896      
72.7        122.697     208.64      2.448       2.728       160.42      245.883     140.809     149.483     36.164      99.41       47.567      6.32        2.542       88.476      190.671     1.222       19.655      
72.8        180.811     213.865     2.456       2.397       184.34      252.781     167.852     146.485     39.594      94.672      45.947      6.375       2.618       89.33       193.268     1.215       18.441      
72.9        314.416     216.635     2.44        2.019       188.818     250.438     186.004     132.996     42.266      83.488      44.342      6.297       2.646       90.801      188.065     1.214       18.162      
73.0        384.231     216.635     2.411       1.888       185.896     243.428     191.113     114.349     40.144      68.931      43.161      5.802       2.593       92.805      174.664     1.206       19.308      
73.1        331.716     215.057     2.384       2.102       176.253     220.052     187.524     96.933      37.837      55.114      41.478      5.096       2.476       95.219      157.585     1.204       21.523      
73.2        249.438     209.556     2.367       2.429       164.736     185.441     177.636     79.492      36.655      44.064      39.728      4.595       2.345       97.914      129.988     1.198       23.226      
73.3        182.378     205.1       2.352       2.766       153.697     152.842     158.281     65.737      32.164      37.587      38.585      4.199       2.226       100.754     97.78       1.196       25.237      
73.4        134.899     203.534     2.34        3.115       132.135     126.838     132.715     53.528      28.691      33.573      37.173      3.964       2.157       103.642     84.012      1.196       26.127      
73.5        107.583     203.534     2.327       3.946       98.421      106.261     104.92      41.682      24.925      31.781      33.753      3.829       2.113       106.505     79.049      1.2         26.629      
73.6        93.417      208.308     2.312       4.951       65.963      82.306      81.083      30.348      21.379      31.961      32.204      3.638       2.075       109.29      67.785      1.201       26.923      
73.7        72.079      214.269     2.295       5.973       48.075      63.261      65.963      22.396      18.411      33.034      30.772      3.478       2.007       111.972     59.441      1.203       27.293      
73.8        48.497      219.925     2.276       6.254       42.248      55.882      55.395      19.687      17.246      36.784      29.304      3.311       1.913       114.545     56.208      1.208       29.314      
73.9        36.813      221.245     2.269       6.017       39.254      54.865      49.649      18.764      15.391      41.967      27.881      3.041       1.829       116.985     53.809      1.199       31.904      
74.0        32.068      221.245     2.287       5.416       37.561      54.865      47.185      18.723      14.06       45.477      26.796      2.924       1.788       119.294     51.581      1.197       33.596      
