~Version Information Section
VERS.                                         2.0:CWLS log ASCII Standart – VERSION 2.0
WRAP.                                          NO:One line per depth step
~Well Information Section
STRT.M                                        0.6:Начальная глубина
STOP.M                                      196.8:Конечная глубина
STEP.M                                          0:Шаг квантования по глубине
NULL.                                    -9999.25:Признак "Нет данных"
WELL.                                        142К:Скважина
~Parameter Information Section
~Curve Information Section
DEPTH.M                                          :Глубина
BK.Ohm*M                                         :BK     (БК)
DS.mm                                            :DS  (ДС)
GGK.g/cm3                                        :GGKp
ГК.mcr/h                                         :GK          (ГК)
GZ1.Ohm*M                                        :GZ1   ГЗ1(A0.4M0.1N)
GZ2.Ohm*M                                        :GZ2   ГЗ2(A1.0M0.1N)
GZ3.Ohm*M                                        :GZ3   ГЗ3(A2.0M0.5N)
GZ4.Ohm*M                                        :GZ4   ГЗ4(A4.0M0.5N)
GZ5.Ohm*M                                        :GZ5   ГЗ5(A8.0M0.5N)
GZR.                                             :GZR   ГЗK(N0.5M2.0A)
ИК.Ohm*M                                         :IK
НГК.ue                                           :NGK     (НГК)
NNKM.                                            :NNKm  (ННКм)
PS.mv                                            :PS       (ПС)
PZ.Ohm*M                                         :PZ    (КС)
RS.Ohm*M                                         :RS (Резистивиметр)
W.%                                              :W
~ASCII LOG DATA
# ...
70.9        51.273      255.805     2.389       6.99        13.266      12.001      13.208      8.935       2.31        16.743      14.639      1.261       1.168       -307.844    19.288      1.116       33.266      
71.0        52.975      243.086     2.377       6.521       12.871      11.596      12.72       8.587       2.165       16.606      14.488      1.282       1.137       -309.306    19.283      1.116       33.652      
71.1        53.995      246.78      2.351       6.46        12.481      11.208      12.215      8.33        2.04        16.495      14.517      1.123       1.123       -310.773    19.235      1.116       33.427      
71.2        54.489      251.486     2.326       6.782       12.132      10.862      11.748      8.195       1.934       16.445      14.622      1.083       1.126       -312.251    19.051      1.116       33.006      
71.3        55.005      245.703     2.315       7.179       11.858      10.585      11.361      8.177       1.846       16.445      14.553      1.138       1.129       -313.748    18.66       1.116       33.122      
71.4        55.698      232.452     2.323       7.258       11.675      10.384      11.077      8.177       1.771       16.447      14.476      1.166       1.135       -315.259    18.097      1.116       33.197      
71.5        56.145      231.417     2.343       7.054       11.58       10.244      10.897      8.19        1.71        16.472      14.441      1.154       1.141       -316.647    17.445      1.116       32.753      
71.6        56.139      227.454     2.364       6.799       11.558      10.157      10.807      8.31        1.664       16.606      14.307      1.151       1.138       -317.771    16.779      1.116       32.21       
71.7        56.869      226.469     2.381       6.03        11.558      10.118      10.782      8.71        1.633       16.974      14.207      1.248       1.134       -318.445    16.174      1.116       30.46       
71.8        58.855      225.992     2.392       5.336       11.563      10.111      10.782      9.465       1.619       17.635      14.214      1.297       1.178       -318.725    15.704      1.116       28.873      
71.9        61.435      225.463     2.402       4.731       11.605      10.111      10.783      10.575      1.616       18.605      14.283      1.39        1.269       -318.778    15.408      1.116       26.8        
72.0        62.794      225.393     2.413       4.65        11.752      10.113      10.794      11.948      1.616       19.852      14.431      1.421       1.33        -318.729    15.296      1.116       24.542      
72.1        63.324      225.251     2.424       4.697       12.037      10.127      10.834      13.418      1.617       21.306      14.691      1.417       1.407       -318.476    15.296      1.116       22.761      
72.2        63.945      225.09      2.434       4.706       12.455      10.17       10.92       14.822      1.622       22.871      15.042      1.415       1.469       -317.885    15.301      1.116       22.897      
72.3        65.297      225.097     2.438       4.321       12.987      10.249      11.052      15.987      1.641       24.445      15.48       1.408       1.464       -316.939    15.361      1.116       23.032      
72.4        66.344      225.158     2.436       3.839       13.611      10.377      11.241      16.808      1.675       25.981      15.985      1.404       1.458       -315.868    15.621      1.116       22.783      
72.5        66.556      225.301     2.429       3.896       14.305      10.568      11.499      17.322      1.73        27.484      16.597      1.415       1.44        -314.693    16.23       1.116       22.864      
72.6        65.817      225.233     2.418       4.338       15.055      10.831      11.848      17.602      1.81        28.972      17.303      1.418       1.41        -313.365    17.19       1.116       22.677      
72.7        64.413      224.749     2.407       4.756       15.903      11.192      12.304      17.728      1.922       30.49       18.033      1.426       1.413       -311.782    18.471      1.116       22.027      
72.8        63.363      224.098     2.399       4.605       16.941      11.682      12.874      17.779      2.075       32.085      18.819      1.427       1.445       -309.905    19.965      1.116       21.447      
72.9        64.798      223.755     2.397       4.482       18.261      12.307      13.546      17.821      2.276       33.757      19.666      1.437       1.461       -307.608    21.523      1.116       21.885      
73.0        69.249      223.301     2.399       4.48        19.953      13.054      14.292      17.881      2.522       35.485      20.515      1.439       1.447       -304.82     23.045      1.116       22.372      
73.1        75.364      222.372     2.403       4.493       22.102      13.922      15.075      17.975      2.808       37.211      21.319      1.392       1.433       -301.649    24.467      1.116       22.723      
73.2        79.463      222.142     2.406       4.474       24.739      14.897      15.855      18.111      3.121       38.817      22.068      1.38        1.436       -298.363    25.791      1.116       23.019      
73.3        80.617      222.055     2.406       4.321       27.805      15.964      16.6        18.288      3.45        40.182      22.98       1.427       1.44        -295.154    27.093      1.116       21.876      
73.4        79.126      222.106     2.405       4.157       31.17       17.133      17.29       18.507      3.818       41.193      23.989      1.436       1.444       -292.152    28.459      1.116       20.628      
73.5        77.207      222.868     2.409       4.308       34.639      18.44       17.908      18.772      4.276       41.745      25.17       1.42        1.451       -289.459    29.918      1.116       20.372      
73.6        76.437      224.273     2.422       4.593       37.974      19.918      18.452      19.061      4.881       41.904      26.15       1.415       1.472       -286.894    31.484      1.116       20.397      
73.7        77.461      225.176     2.44        5.147       40.93       21.606      18.925      19.355      5.692       41.893      27.093      1.418       1.514       -284.195    33.126      1.116       20.687      
73.8        80.462      226.728     2.457       5.449       43.35       23.534      19.332      19.664      6.741       41.782      27.749      1.418       1.539       -281.296    34.786      1.116       22.791      
73.9        83.806      225.993     2.466       6.073       45.191      25.703      19.684      19.951      7.968       41.37       28.338      1.49        1.532       -278.275    36.411      1.116       25.136      
74.0        86.926      226.473     2.464       6.455       46.497      28.061      19.999      20.111      9.244       40.552      29.23       1.49        1.525       -275.177    37.983      1.116       27.374      
74.1        88.724      228.5       2.457       6.776       47.389      30.526      20.3        20.135      10.4        39.411      30.045      1.285       1.455       -272.262    39.465      1.116       29.258      
74.2        90.441      224.871     2.449       6.776       48.082      33.004      20.619      20.122      11.238      37.999      30.006      1.285       1.369       -269.842    40.852      1.116       28.616      
74.3        92.341      224.4       2.446       6.504       48.776      35.389      20.992      20.005      11.646      36.328      29.845      1.197       1.343       -267.955    42.14       1.116       26.951      
74.4        94.357      223.63      2.45        6.164       49.64       37.585      21.457      19.606      11.728      34.427      29.58       1.175       1.323       -266.646    43.352      1.116       25.55       
74.5        94.608      222.624     2.453       5.579       50.858      39.535      22.051      18.828      11.708      32.309      29.606      1.332       1.333       -266.004    44.517      1.116       23.598      
