~Version Information Section
VERS.                                         2.0:CWLS log ASCII Standart – VERSION 2.0
WRAP.                                          NO:One line per depth step
~Well Information Section
STRT.M                                        0.6:Начальная глубина
STOP.M                                      196.8:Конечная глубина
STEP.M                                          0:Шаг квантования по глубине
NULL.                                    -9999.25:Признак "Нет данных"
WELL.                                        142К:Скважина
~Parameter Information Section
~Curve Information Section
DEPTH.M                                          :Глубина
BK.Ohm*M                                         :BK     (БК)
DS.mm                                            :DS  (ДС)
GGK.g/cm3                                        :GGKp
ГК.mcr/h                                         :GK          (ГК)
GZ1.Ohm*M                                        :GZ1   ГЗ1(A0.4M0.1N)
GZ2.Ohm*M                                        :GZ2   ГЗ2(A1.0M0.1N)
GZ3.Ohm*M                                        :GZ3   ГЗ3(A2.0M0.5N)
GZ4.Ohm*M                                        :GZ4   ГЗ4(A4.0M0.5N)
GZ5.Ohm*M                                        :GZ5   ГЗ5(A8.0M0.5N)
GZR.                                             :GZR   ГЗK(N0.5M2.0A)
ИК.Ohm*M                                         :IK
НГК.ue                                           :NGK     (НГК)
NNKM.                                            :NNKm  (ННКм)
PS.mv                                            :PS       (ПС)
PZ.Ohm*M                                         :PZ    (КС)
RS.Ohm*M                                         :RS (Резистивиметр)
W.%                                              :W
~ASCII LOG DATA
# ...
144.9       35.988      235.222     2.408       7.487       34.346      30.479      27.797      21.038      22.086      30.649      21.008      1.285       1.349       -288.735    42.104      1.115       27.05       
145.0       36.599      235.84      2.394       7.369       34.649      30.595      28.99       21.107      22.342      31.175      20.881      1.3         1.337       -287.709    41.941      1.115       27.556      
145.1       38.285      236.006     2.382       7.683       34.994      30.606      29.919      21.104      22.399      31.462      20.883      1.181       1.292       -287.004    41.788      1.115       27.242      
145.2       41.529      236.229     2.375       7.734       35.302      30.595      30.412      21.065      22.4        31.542      21.042      1.181       1.248       -286.728    41.619      1.115       26.339      
145.3       47.404      236.53      2.376       7.384       35.53       30.504      30.538      20.892      22.338      31.535      21.231      1.125       1.274       -286.686    41.421      1.115       26.176      
145.4       55.069      236.453     2.383       7.293       35.667      30.246      30.524      20.5        22.053      31.472      21.448      1.137       1.307       -286.686    41.205      1.115       26.192      
145.5       60.055      236.827     2.392       7.72        35.718      29.861      30.397      19.944      21.527      31.274      21.572      1.163       1.345       -286.776    40.991      1.115       26.335      
145.6       57.512      237.182     2.397       8.069       35.718      29.444      30.008      19.349      20.861      30.975      21.575      1.291       1.377       -287.213    40.807      1.115       27.329      
145.7       48.194      238.109     2.399       7.741       35.716      29.136      29.424      18.856      20.177      30.705      21.503      1.377       1.344       -288.091    40.691      1.115       28.394      
145.8       38.804      240.764     2.396       7.235       35.7        29.006      28.876      18.522      19.564      30.537      21.222      1.29        1.303       -289.337    40.654      1.115       28.592      
145.9       34.471      240.716     2.392       7.024       35.665      28.992      28.496      18.35       19.073      30.48       20.808      1.273       1.294       -290.778    40.654      1.115       28.006      
146.0       34.93       238.576     2.389       6.886       35.625      28.992      28.284      18.305      18.719      30.48       20.638      1.131       1.292       -292.21     40.659      1.115       27.112      
146.1       36.333      237.652     2.391       6.735       35.586      29.001      28.196      18.305      18.477      30.482      20.7        1.186       1.301       -293.569    40.703      1.115       25.482      
146.2       36.757      237.317     2.399       6.596       35.553      29.074      28.169      18.309      18.313      30.503      20.776      1.297       1.312       -294.777    40.852      1.115       23.813      
146.3       36.431      237.164     2.413       6.606       35.519      29.275      28.159      18.339      18.185      30.584      20.768      1.325       1.349       -295.9      41.11       1.115       23.083      
146.4       36.101      236.608     2.43        6.809       35.471      29.523      28.151      18.431      18.06       30.749      20.7        1.353       1.392       -296.938    41.371      1.115       23.217      
146.5       36.14       235.023     2.445       7.074       35.386      29.712      28.135      18.585      17.909      30.951      20.726      1.315       1.401       -297.83     41.497      1.114       23.634      
146.6       36.351      234.21      2.451       7.27        35.235      29.783      28.1        18.774      17.717      31.123      20.837      1.3         1.402       -298.588    41.496      1.114       24.82       
146.7       36.618      233.155     2.444       7.455       34.995      29.78       28.04       18.96       17.476      31.196      20.84       1.341       1.386       -299.206    41.466      1.114       25.806      
146.8       36.76       231.128     2.427       7.648       34.66       29.75       27.945      19.101      17.18       31.194      20.746      1.307       1.366       -299.712    41.268      1.114       25.647      
146.9       36.932      230.465     2.407       7.783       34.266      29.622      27.808      19.191      16.834      31.173      20.665      1.223       1.347       -300.159    40.717      1.114       25.958      
147.0       37.284      230.236     2.393       7.603       33.883      29.36       27.649      19.237      16.452      31.06       20.55       1.259       1.33        -300.644    39.856      1.114       26.713      
147.1       37.511      227.926     2.388       7.337       33.567      29.048      27.505      19.25       16.055      30.773      20.468      1.332       1.339       -301.15     38.823      1.114       26.977      
147.2       37.125      226.487     2.39        7.025       33.352      28.777      27.401      19.253      15.671      30.344      20.503      1.21        1.36        -301.729    37.815      1.114       27.343      
147.3       35.958      226.286     2.396       7.058       33.256      28.605      27.358      19.26       15.328      29.84       20.507      1.148       1.355       -302.345    36.968      1.114       27.848      
147.4       34.508      226.297     2.405       7.187       33.242      28.549      27.358      19.263      15.047      29.333      20.463      1.199       1.333       -302.941    36.348      1.114       27.512      
147.5       33.43       226.686     2.417       7.494       33.242      28.549      27.359      19.263      14.837      28.855      20.359      1.207       1.342       -303.494    35.956      1.114       26.047      
147.6       33.031      226.551     2.43        7.744       33.245      28.551      27.371      19.267      14.697      28.419      20.224      1.246       1.371       -303.97     35.756      1.114       24.647      
147.7       33.223      226.795     2.44        8.018       33.266      28.569      27.429      19.281      14.615      28.017      20.229      1.266       1.386       -304.298    35.694      1.114       24.329      
147.8       33.534      227.078     2.437       8.107       33.307      28.639      27.564      19.304      14.573      27.632      20.234      1.297       1.391       -304.431    35.694      1.114       24.713      
147.9       33.738      226.906     2.424       7.975       33.328      28.763      27.742      19.315      14.557      27.253      20.205      1.226       1.368       -304.453    35.695      1.114       25.003      
148.0       33.975      227.622     2.402       7.616       33.327      28.893      27.926      19.315      14.553      26.872      20.283      1.19        1.319       -304.41     35.714      1.114       25.748      
148.1       34.372      229.409     2.385       7.173       33.32       28.999      28.078      19.314      14.553      26.486      20.395      1.187       1.281       -304.178    35.792      1.114       26.714      
148.2       34.586      231.499     2.379       7.14        33.286      29.064      28.185      19.309      14.553      26.11       20.349      1.187       1.26        -303.675    35.963      1.114       26.648      
148.3       34.141      234.316     2.386       7.272       33.21       29.094      28.244      19.292      14.554      25.764      20.317      1.234       1.276       -302.935    36.208      1.114       26.195      
148.4       33.301      238.212     2.399       7.593       33.126      29.105      28.265      19.272      14.556      25.462      20.443      1.231       1.317       -302.033    36.521      1.114       26.163      
148.5       32.591      239.766     2.408       7.712       33.08       29.117      28.267      19.263      14.561      25.216      20.571      1.228       1.324       -301.128    36.877      1.114       26.125      
