~Version Information Section
VERS.                                         2.0:CWLS log ASCII Standart – VERSION 2.0
WRAP.                                          NO:One line per depth step
~Well Information Section
STRT.M                                        0.1:Начальная глубина
STOP.M                                      168.3:Конечная глубина
STEP.M                                          0:Шаг квантования по глубине
NULL.                                    -9999.25:Признак "Нет данных"
WELL.                                        152К:Скважина
~Parameter Information Section
~Curve Information Section
DEPTH.M                                          :Глубина
БК.Омм                                           :BK     (БК)
DСР.мм                                           :DS  (ДС)
ПЛОТНОСТЬ.г/см^3                                 :GGKp
ГК.мкР/ч                                         :GK          (ГК)
А0.4М0.1N.Омм                                    :GZ1   ГЗ1(A0.4M0.1N)
А1.0М0.1N.Омм                                    :GZ2   ГЗ2(A1.0M0.1N)
А2.0М0.5N.Омм                                    :GZ3   ГЗ3(A2.0M0.5N)
А4.0М0.5N.Oмм                                    :GZ4   ГЗ4(A4.0M0.5N)
А8.0М1.0N.Омм                                    :GZ5   ГЗ5(A8.0M0.5N)
N0.5M2.0A.Омм                                    :GZR   ГЗK(N0.5M2.0A)
ИК.мСм/м                                         :IK
БЗ.ue                                            :NNKb  (ННКб)
МЗ.ue                                            :NNKm  (ННКм)
ПС.mv                                            :PS       (ПС)
N11.0M0.5A.Омм                                   :PZ    (КС)
R.Омм                                            :RS (Резистивиметр)
ПОРИСТОСТЬ.                                      :W
~ASCII LOG DATA
# ...
140.7       39.185      149.49      2.354       6.422       18.462      9.034       22.485      8.317       23.962      18.219      16.412      5.061       2.322       121.477     36.314      1.196       17.957      
140.8       37.535      149.927     2.335       6.894       17.811      7.662       13.502      5.515       15.819      16.869      15.575      4.249       2.098       123.815     37.832      1.193       22.052      
140.9       39.369      150.451     2.32        7.345       17.769      7.87        9.7         4.905       11.929      16.966      14.916      3.804       1.968       126.186     42.487      1.194       24.855      
141.0       40.178      150.604     2.325       7.631       17.969      8.538       9.483       4.787       8.882       17.613      14.554      3.758       1.921       128.632     47.382      1.194       25.98       
141.1       41.555      150.634     2.338       7.735       18.093      9.626       9.599       4.689       7.659       18.63       14.373      3.755       1.913       131.202     49.356      1.193       26.535      
141.2       42.356      150.606     2.355       7.702       17.857      11.062      9.715       4.714       7.2         19.384      14.182      3.758       1.921       133.953     48.852      1.192       27.093      
141.3       41.974      150.598     2.373       7.525       17.41       12.817      9.623       4.774       7.178       19.773      14.031      3.729       1.94        136.906     47.614      1.191       27.605      
141.4       41.144      150.466     2.376       7.582       16.845      14.285      9.297       4.78        7.222       19.949      13.933      3.571       1.959       140.027     46.391      1.19        28.593      
141.5       40.989      150.366     2.358       7.634       16.072      14.804      8.694       4.814       7.412       20.138      13.934      3.442       1.969       143.261     45.488      1.19        29.249      
141.6       41.322      150.299     2.338       7.8         15.328      14.737      8.079       4.926       7.814       20.762      13.969      3.286       1.952       146.522     44.881      1.188       30.502      
141.7       40.357      150.299     2.319       7.964       15.003      14.266      7.687       5.194       8.157       22.77       14.055      3.104       1.922       149.685     44.524      1.183       32.131      
141.8       37.996      150.569     2.306       7.865       14.94       13.742      7.54        5.875       8.399       27.581      14.319      3.025       1.873       152.64      44.346      1.199       33.396      
141.9       36.081      151.23      2.317       7.524       14.798      13.356      7.611       7.131       8.853       34.882      14.713      2.964       1.835       155.285     44.25       1.206       34.691      
142.0       34.955      151.495     2.351       6.997       14.195      12.773      7.896       9.291       9.352       43.044      14.928      3.155       1.826       157.521     44.098      1.206       34.93       
142.1       33.515      152.049     2.383       6.359       13.27       12.159      8.388       12.005      10.107      50.19       15.15       3.455       1.903       159.237     43.799      1.206       32.145      
142.2       31.375      152.049     2.384       5.912       12.342      11.351      9.06        14.327      10.722      55.452      15.395      4.071       2.019       160.329     43.564      1.207       27.741      
142.3       27.978      150.829     2.363       5.46        11.816      10.702      9.931       15.693      11.431      59.127      15.679      4.722       2.131       160.716     43.565      1.21        25.044      
142.4       40.691      149.463     2.326       5.45        14.277      10.711      11.248      16.351      12.081      61.472      16.072      4.894       2.232       160.383     43.71       1.213       22.809      
142.5       115.44      147.631     2.257       5.384       19.126      10.86       13.21       16.884      12.593      63.558      17.067      4.83        2.261       159.376     43.824      1.213       22.608      
142.6       177.06      145.874     2.179       5.447       25.918      11.162      15.729      17.663      13.432      66.167      19.073      4.694       2.229       157.747     46.005      1.222       22.987      
142.7       180.206     144.725     2.128       5.184       32.761      12.081      18.467      18.964      14.24       69.579      20.945      4.583       2.197       155.552     50.307      1.226       23.689      
142.8       188.524     144.513     2.102       4.887       38.585      13.432      21.029      20.833      15.592      73.069      23.491      4.564       2.188       152.865     54.996      1.23        24.015      
142.9       202.215     144.513     2.09        4.768       44.55       14.737      23.275      22.876      16.508      74.635      26.682      4.602       2.194       149.761     60.736      1.23        23.994      
143.0       219.659     144.903     2.09        4.849       50.705      17.945      25.069      25.121      17.273      74.541      29.195      4.73        2.21        146.312     65.911      1.23        23.935      
143.1       244.886     144.947     2.094       5.077       58.439      22.962      26.252      27.29       17.97       72.876      31.065      4.68        2.232       142.565     70.339      1.229       24.035      
143.2       269.562     144.947     2.095       4.964       66.236      29.906      26.784      28.957      18.87       69.167      32.999      4.516       2.252       138.563     74.808      1.234       24.821      
143.3       289.042     144.832     2.101       4.884       72.239      36.835      26.897      29.768      19.552      64.995      34.838      4.261       2.248       134.338     78.351      1.236       25.489      
143.4       303.424     144.635     2.107       4.738       75.474      42.353      26.851      29.604      19.849      61.172      36.664      4.108       2.219       129.903     81.231      1.237       27.087      
143.5       291.124     144.558     2.111       4.539       77.006      47.252      26.805      29.188      20.104      57.617      38.662      3.849       2.175       125.269     99.141      1.239       29.184      
143.6       260.941     144.558     2.114       4.207       78.458      51.376      26.835      28.692      20.237      54.87       40.259      3.582       2.14        120.454     132.896     1.239       30.886      
143.7       228.443     144.737     2.118       4.046       80.238      56.133      26.986      28.22       20.434      53.224      41.078      3.539       2.108       115.518     153.116     1.24        32.021      
143.8       176.171     145.044     2.121       4.403       81.777      61.004      27.293      27.937      20.759      52.003      41.982      3.503       2.092       110.584     157.195     1.242       32.956      
143.9       185.482     145.304     2.12        4.909       82.612      65.518      27.656      27.883      21.079      50.766      42.759      3.355       2.098       105.777     156.694     1.244       33.243      
144.0       175.501     145.379     2.124       5.023       82.952      69.12       28.035      27.895      22.485      49.344      43.526      3.45        2.106       101.205     159.34      1.245       33.151      
144.1       122.746     145.522     2.128       4.643       94.665      71.944      28.384      28.019      23.151      47.966      43.875      3.443       2.118       96.945      171.553     1.242       32.528      
144.2       120.31      145.665     2.128       4.179       109.452     74.799      29.69       28.817      24.269      46.922      44.254      3.397       2.108       93.077      183.954     1.243       32.204      
144.3       117.214     145.95      2.128       3.941       126.028     78.218      31.936      31.24       24.836      46.276      45.204      3.511       2.095       89.669      190.406     1.241       31.806      
