~Version Information Section
VERS.                                         2.0:CWLS log ASCII Standart – VERSION 2.0
WRAP.                                          NO:One line per depth step
~Well Information Section
STRT.M                                        0.6:Начальная глубина
STOP.M                                      196.8:Конечная глубина
STEP.M                                          0:Шаг квантования по глубине
NULL.                                    -9999.25:Признак "Нет данных"
WELL.                                        142К:Скважина
~Parameter Information Section
~Curve Information Section
DEPTH.M                                          :Глубина
BK.Ohm*M                                         :BK     (БК)
DS.mm                                            :DS  (ДС)
GGK.g/cm3                                        :GGKp
ГК.mcr/h                                         :GK          (ГК)
GZ1.Ohm*M                                        :GZ1   ГЗ1(A0.4M0.1N)
GZ2.Ohm*M                                        :GZ2   ГЗ2(A1.0M0.1N)
GZ3.Ohm*M                                        :GZ3   ГЗ3(A2.0M0.5N)
GZ4.Ohm*M                                        :GZ4   ГЗ4(A4.0M0.5N)
GZ5.Ohm*M                                        :GZ5   ГЗ5(A8.0M0.5N)
GZR.                                             :GZR   ГЗK(N0.5M2.0A)
ИК.Ohm*M                                         :IK
НГК.ue                                           :NGK     (НГК)
NNKM.                                            :NNKm  (ННКм)
PS.mv                                            :PS       (ПС)
PZ.Ohm*M                                         :PZ    (КС)
RS.Ohm*M                                         :RS (Резистивиметр)
W.%                                              :W
~ASCII LOG DATA
# ...
170.8       171.862     154.051     2.196       4.574       211.065     150.281     119.303     106.056     30.05       170.785     60.107      1.202       1.613       -250.128    168.986     1.112       24.78       
170.9       167.584     153.937     2.191       4.732       222.045     156.514     118.713     106.668     29.222      170.763     60.208      1.356       1.633       -249.492    172.599     1.113       25.643      
171.0       160.519     153.78      2.185       4.795       235.798     163.565     118.318     107.731     28.204      170.576     60.478      1.365       1.603       -248.7      177.068     1.113       26.03       
171.1       159.409     153.695     2.18        4.732       251.341     171.17      118.146     109.325     27.07       169.984     61.099      1.412       1.58        -247.718    183.065     1.113       25.651      
171.2       170.547     153.611     2.177       4.582       267.241     179.043     118.146     111.389     25.931      169.001     61.595      1.386       1.566       -246.552    191.4       1.113       24.832      
171.3       188.485     153.617     2.174       4.544       281.889     186.822     118.152     113.751     24.898      167.864     61.728      1.359       1.557       -245.209    202.768     1.113       23.961      
171.4       204.202     153.687     2.173       4.459       293.944     194.094     118.235     116.149     24.053      166.824     61.607      1.382       1.567       -243.833    217.297     1.113       23.404      
171.5       213.073     153.542     2.172       4.382       302.799     200.563     118.675     118.303     23.43       165.967     61.862      1.398       1.576       -242.485    234.225     1.113       23.178      
171.6       215.147     153.458     2.176       4.413       308.687     206.094     119.891     120.041     23.015      165.269     62.016      1.405       1.593       -241.181    252.082     1.113       22.847      
171.7       211.562     153.598     2.184       4.601       312.275     210.715     122.1       121.317     22.762      164.608     62.649      1.407       1.611       -240.033    269.116     1.113       22.942      
171.8       203.178     153.686     2.2         4.771       314.446     214.614     125.449     122.144     22.621      163.789     62.336      1.371       1.617       -239.122    283.715     1.113       22.786      
171.9       192.954     153.736     2.217       4.718       315.937     218.009     129.919     122.504     22.551      162.603     62.286      1.382       1.622       -238.413    294.843     1.113       22.316      
172.0       185.202     153.829     2.23        4.588       316.932     220.794     135.206     122.527     22.528      160.847     62.228      1.436       1.647       -237.857    302.367     1.113       22.287      
172.1       182.506     153.962     2.233       4.446       317.258     222.474     140.732     122.485     22.524      158.419     62.123      1.421       1.672       -237.326    306.78      1.113       22.476      
172.2       185.61      153.858     2.231       4.473       317.205     222.946     145.625     122.112     22.524      155.404     62.062      1.407       1.666       -236.531    308.741     1.113       22.594      
172.3       194.213     153.855     2.224       4.615       316.679     222.865     148.981     120.879     22.534      152.087     61.683      1.391       1.659       -236.49     309.169     1.113       22.963      
172.4       206.246     153.885     2.22        4.667       314.624     222.116     150.452     118.507     22.595      148.909     61.721      1.383       1.614       -231.227    309.108     1.113       22.799      
172.5       216.799     153.93      2.221       4.607       310.05      219.486     150.638     114.852     22.761      146.341     61.211      1.433       1.569       -225.912    308.564     1.113       22.23       
172.6       221.085     153.801     2.226       4.413       302.736     214.412     150.55      110.062     23.095      144.699     61.369      1.421       1.59        -220.67     306.749     1.113       21.848      
172.7       217.13      153.634     2.232       4.276       293.337     207.476     149.837     104.599     23.685      144.098     61.155      1.359       1.611       -215.639    303.368     1.113       21.538      
172.8       207.703     153.604     2.237       4.162       283.288     199.862     147.887     99.096      24.628      144.098     61.207      1.393       1.625       -210.951    298.591     1.113       21.491      
172.9       194.411     153.745     2.24        4.177       274.106     192.838     145.405     94.211      25.999      144.117     60.953      1.46        1.639       -206.7      292.911     1.112       21.977      
173.0       178.31      153.745     2.241       4.583       267.025     187.352     143.315     90.47       27.847      144.34      60.924      1.49        1.651       -202.673    287.081     1.112       22.478      
173.1       160.96      153.757     2.239       4.993       262.655     183.864     142.081     88.105      30.191      145.346     60.54       1.504       1.659       -198.995    281.946     1.112       22.802      
173.2       146.316     153.918     2.237       5.239       261.032     182.389     141.739     87.102      32.999      147.656     59.726      1.519       1.632       -195.808    278.147     1.112       23.81       
173.3       137.167     154.002     2.235       5.037       261.032     182.236     141.739     86.989      36.188      151.038     59.895      1.509       1.609       -193.268    275.961     1.112       24.553      
173.4       133.577     153.867     2.236       4.845       261.033     182.236     141.785     86.989      39.666      155.103     59.909      1.445       1.584       -191.493    275.304     1.112       24.799      
173.5       134.322     153.837     2.24        4.67        261.192     182.341     142.198     87.057      43.36       159.187     60.533      1.431       1.559       -190.523    275.304     1.112       24.995      
173.6       138.191     154.003     2.246       4.55        262.426     183.22      143.599     87.622      47.19       162.571     60.346      1.404       1.576       -190.315    275.354     1.112       25.848      
173.7       144.346     154.564     2.253       4.522       265.872     185.845     146.195     89.291      51.084      164.739     60.317      1.339       1.596       -190.755    275.832     1.112       26.018      
173.8       152.325     154.574     2.258       4.527       270.983     190.108     149.771     91.954      55.018      165.663     60.049      1.297       1.585       -191.694    277.53      1.112       26.384      
173.9       162.961     154.246     2.26        4.47        277.169     195.676     154.029     95.378      58.966      165.801     60.441      1.409       1.571       -192.967    280.745     1.112       27.296      
174.0       178.214     154.186     2.26        4.423       283.565     201.991     158.413     99.217      62.83       165.764     60.683      1.409       1.569       -194.432    285.009     1.112       27.315      
174.1       198.907     153.951     2.256       4.48        289.349     208.352     162.444     103.023     66.508      165.468     60.79       1.451       1.567       -196.012    289.738     1.112       26.496      
174.2       220.445     153.704     2.25        4.73        293.928     214.141     165.772     106.401     69.897      164.668     61.312      1.431       1.578       -197.67     294.074     1.112       25.739      
174.3       234.114     153.668     2.238       4.938       297.004     218.895     168.256     109.003     72.888      163.659     61.41       1.392       1.588       -199.366    297.407     1.112       24.801      
174.4       233.717     153.62      2.226       4.938       298.663     222.437     169.981     110.602     75.391      162.697     62.073      1.335       1.616       -201.035    299.471     1.112       24.17       
