~Version Information Section
VERS.                                         2.0:CWLS log ASCII Standart – VERSION 2.0
WRAP.                                          NO:One line per depth step
~Well Information Section
STRT.M                                        0.1:Начальная глубина
STOP.M                                      168.3:Конечная глубина
STEP.M                                          0:Шаг квантования по глубине
NULL.                                    -9999.25:Признак "Нет данных"
WELL.                                        152К:Скважина
~Parameter Information Section
~Curve Information Section
DEPTH.M                                          :Глубина
БК.Омм                                           :BK     (БК)
DСР.мм                                           :DS  (ДС)
ПЛОТНОСТЬ.г/см^3                                 :GGKp
ГК.мкР/ч                                         :GK          (ГК)
А0.4М0.1N.Омм                                    :GZ1   ГЗ1(A0.4M0.1N)
А1.0М0.1N.Омм                                    :GZ2   ГЗ2(A1.0M0.1N)
А2.0М0.5N.Омм                                    :GZ3   ГЗ3(A2.0M0.5N)
А4.0М0.5N.Oмм                                    :GZ4   ГЗ4(A4.0M0.5N)
А8.0М1.0N.Омм                                    :GZ5   ГЗ5(A8.0M0.5N)
N0.5M2.0A.Омм                                    :GZR   ГЗK(N0.5M2.0A)
ИК.мСм/м                                         :IK
БЗ.ue                                            :NNKb  (ННКб)
МЗ.ue                                            :NNKm  (ННКм)
ПС.mv                                            :PS       (ПС)
N11.0M0.5A.Омм                                   :PZ    (КС)
R.Омм                                            :RS (Резистивиметр)
ПОРИСТОСТЬ.                                      :W
~ASCII LOG DATA
# ...
33.4        8.324       228.775     1.746       3.742       3.957       -0.053      -0.135      1561.787    2072.963    -0.158      -9999.25    1.718       1.369       90.911      0.236       1.143       46.938      
33.5        8.23        228.775     1.742       3.368       3.961       -0.052      -0.134      1563.356    2075.321    -0.159      -9999.25    1.648       1.373       91.623      0.234       1.143       48.018      
33.6        8.177       228.775     1.734       3.321       3.965       -0.051      -0.129      1560.196    2105.466    -0.161      -9999.25    1.618       1.375       92.422      0.234       1.143       48.172      
33.7        8.154       228.775     1.738       3.527       3.967       -0.052      -0.126      1558.84     2107.604    -0.161      -9999.25    1.676       1.372       93.283      0.234       1.142       46.336      
33.8        8.218       228.775     1.742       3.678       3.967       -0.053      -0.127      1557.198    2115.984    -0.16       -9999.25    1.759       1.366       94.174      0.234       1.142       43.634      
33.9        8.26        228.775     1.726       3.665       3.966       -0.054      -0.13       1555.556    2115.984    -0.156      -9999.25    1.853       1.361       95.052      0.233       1.148       42.193      
34.0        8.204       228.775     1.691       3.684       3.966       -0.054      -0.131      1555.938    2065.117    -0.154      -9999.25    1.925       1.361       95.873      0.232       1.142       41.47       
34.1        8.134       228.775     1.687       3.788       3.966       -0.054      -0.131      1559.447    2062.145    -0.152      -9999.25    1.895       1.363       96.604      0.231       1.14        41.527      
34.2        8.184       228.775     1.762       3.731       3.967       -0.053      -0.131      1562.574    2040.918    -0.151      -9999.25    1.874       1.373       97.221      0.231       1.141       41.689      
34.3        8.273       228.775     1.842       3.359       3.968       -0.054      -0.128      1560.806    2012.148    -0.152      -9999.25    1.938       1.385       97.703      0.232       1.14        41.483      
34.4        8.168       228.775     1.872       2.758       3.97        -0.057      -0.124      1554.994    2017.555    -0.152      -9999.25    1.951       1.395       98.038      0.231       1.137       41.468      
34.5        7.928       228.775     1.879       2.261       3.971       -0.062      -0.123      1550.303    2024.267    -0.151      -9999.25    1.892       1.406       98.216      0.23        1.137       42.181      
34.6        7.862       228.775     1.851       2.342       3.968       -0.064      -0.124      1547.134    2010.643    -0.154      -9999.25    1.863       1.407       98.214      0.231       1.137       42.841      
34.7        8.099       228.775     1.778       2.762       3.963       -0.065      -0.126      1546.572    1997.706    -0.157      -9999.25    1.804       1.404       98.019      0.231       1.136       43.904      
34.8        8.674       228.775     1.707       3.148       3.958       -0.068      -0.126      1546.497    1997.706    -0.159      -9999.25    1.715       1.392       97.625      0.232       1.137       44.053      
34.9        8.894       228.775     1.665       3.12        3.949       -0.067      -0.126      1541.788    1995.689    -0.163      -9999.25    1.743       1.379       97.019      0.231       1.136       43.76       
35.0        8.605       228.775     1.631       2.929       3.94        -0.066      -0.129      1536.387    1993.201    -0.165      -104.998    1.77        1.359       96.193      0.231       1.136       42.718      
35.1        8.403       228.775     1.615       2.922       3.93        -0.066      -0.131      1536.282    1992.941    -0.165      -106.155    1.724       1.334       95.132      0.231       1.134       42.021      
35.2        8.307       228.911     1.612       3.179       3.92        -0.066      -0.126      1538.902    1985.6      -0.162      -107.837    1.765       1.319       93.835      0.23        1.133       41.825      
35.3        8.271       229.052     1.624       3.156       3.912       -0.063      -0.127      1536.818    1974.815    -0.16       -109.457    1.795       1.302       92.304      0.229       1.132       41.554      
35.4        8.299       229.189     1.663       2.982       3.904       -0.061      -0.131      1540.182    1965.0      -0.159      -111.348    1.788       1.297       90.54       0.227       1.131       41.403      
35.5        8.354       229.193     1.712       2.733       3.896       -0.061      -0.128      1545.873    1962.035    -0.158      -113.323    1.849       1.301       88.558      0.225       1.13        42.217      
35.6        8.372       229.204     1.747       2.935       3.888       -0.06       -0.128      1545.35     1965.988    -0.158      -115.438    1.794       1.315       86.381      0.225       1.129       43.794      
35.7        8.26        229.214     1.787       3.21        3.878       -0.062      -0.132      1541.934    1965.988    -0.159      -118.23     1.707       1.331       84.044      0.224       1.129       45.045      
35.8        8.223       229.201     1.819       3.46        3.869       -0.066      -0.13       1539.511    1960.61     -0.161      -119.794    1.661       1.338       81.59       0.224       1.127       46.43       
35.9        8.25        229.175     1.822       3.272       3.861       -0.068      -0.128      1539.736    1965.254    -0.162      -121.355    1.64        1.344       79.08       0.222       1.128       47.08       
36.0        8.142       229.133     1.814       3.129       3.854       -0.068      -0.131      1539.736    1961.775    -0.163      -123.336    1.586       1.334       76.598      0.222       1.125       48.512      
36.1        8.055       229.107     1.805       3.054       3.845       -0.068      -0.131      1540.537    1961.775    -0.162      -125.772    1.51        1.325       74.223      0.222       1.125       50.106      
36.2        7.84        229.08      1.789       3.432       3.834       -0.071      -0.131      1543.504    1967.643    -0.161      -128.601    1.49        1.309       72.027      0.219       1.123       51.165      
36.3        7.681       229.065     1.77        3.709       3.825       -0.07       -0.132      1546.557    1956.787    -0.161      -131.867    1.419       1.294       70.057      0.217       1.121       51.081      
36.4        7.694       229.061     1.766       3.947       3.816       -0.066      -0.131      1544.846    1939.796    -0.158      -133.356    1.467       1.288       68.336      0.218       1.12        49.569      
36.5        7.632       229.071     1.783       4.02        3.805       -0.064      -0.131      1542.247    1957.647    -0.155      -135.434    1.525       1.273       66.88       0.219       1.119       47.99       
36.6        7.635       229.071     1.797       4.099       3.795       -0.065      -0.131      1541.94     1956.792    -0.157      -137.928    1.592       1.262       65.674      0.216       1.119       45.933      
36.7        7.727       229.074     1.801       4.5         3.786       -0.065      -0.131      1541.633    1938.295    -0.158      -140.344    1.659       1.258       64.698      0.213       1.12        45.074      
36.8        7.742       229.071     1.818       4.715       3.778       -0.065      -0.134      1541.781    1937.734    -0.155      -142.207    1.71        1.261       63.914      0.212       1.117       46.215      
36.9        7.598       229.082     1.844       4.831       3.769       -0.065      -0.139      1544.694    1937.734    -0.156      -143.949    1.617       1.284       63.278      0.211       1.118       48.758      
37.0        7.439       229.08      1.862       4.706       3.758       -0.065      -0.144      1547.533    1915.656    -0.158      -146.077    1.525       1.308       62.754      0.209       1.118       50.784      
