~Version Information Section
VERS.                                         2.0:CWLS log ASCII Standart – VERSION 2.0
WRAP.                                          NO:One line per depth step
~Well Information Section
STRT.M                                        0.1:Начальная глубина
STOP.M                                      168.3:Конечная глубина
STEP.M                                          0:Шаг квантования по глубине
NULL.                                    -9999.25:Признак "Нет данных"
WELL.                                        152К:Скважина
~Parameter Information Section
~Curve Information Section
DEPTH.M                                          :Глубина
БК.Омм                                           :BK     (БК)
DСР.мм                                           :DS  (ДС)
ПЛОТНОСТЬ.г/см^3                                 :GGKp
ГК.мкР/ч                                         :GK          (ГК)
А0.4М0.1N.Омм                                    :GZ1   ГЗ1(A0.4M0.1N)
А1.0М0.1N.Омм                                    :GZ2   ГЗ2(A1.0M0.1N)
А2.0М0.5N.Омм                                    :GZ3   ГЗ3(A2.0M0.5N)
А4.0М0.5N.Oмм                                    :GZ4   ГЗ4(A4.0M0.5N)
А8.0М1.0N.Омм                                    :GZ5   ГЗ5(A8.0M0.5N)
N0.5M2.0A.Омм                                    :GZR   ГЗK(N0.5M2.0A)
ИК.мСм/м                                         :IK
БЗ.ue                                            :NNKb  (ННКб)
МЗ.ue                                            :NNKm  (ННКм)
ПС.mv                                            :PS       (ПС)
N11.0M0.5A.Омм                                   :PZ    (КС)
R.Омм                                            :RS (Резистивиметр)
ПОРИСТОСТЬ.                                      :W
~ASCII LOG DATA
# ...
159.2       32.021      146.007     2.202       4.687       27.906      22.19       22.538      -9999.25    2.878       -9999.25    21.277      3.975       2.179       171.285     27.527      -9999.25    27.863      
159.3       32.175      146.148     2.207       4.518       27.602      21.967      22.261      -9999.25    2.866       -9999.25    21.124      4.099       2.166       170.597     27.16       -9999.25    28.118      
159.4       33.304      146.374     2.21        4.717       26.95       21.577      21.705      -9999.25    2.85        -9999.25    21.103      4.033       2.169       169.921     26.414      -9999.25    28.33       
159.5       34.771      146.549     2.214       4.544       26.215      21.363      21.02       -9999.25    2.861       -9999.25    21.177      3.939       2.179       169.299     25.992      -9999.25    29.092      
159.6       34.852      146.363     2.218       4.406       25.914      21.219      20.435      -9999.25    2.85        -9999.25    21.095      3.91        2.19        168.752     26.42       -9999.25    29.518      
159.7       33.704      146.376     2.218       4.005       25.952      21.075      20.087      -9999.25    2.871       -9999.25    21.095      3.868       2.194       168.064     27.058      -9999.25    29.386      
159.8       33.646      146.312     2.219       4.059       25.994      21.018      19.81       -9999.25    2.907       -9999.25    21.13       3.955       2.191       167.368     27.375      -9999.25    28.797      
159.9       35.419      146.237     2.216       4.101       26.013      20.757      19.496      -9999.25    2.94        -9999.25    21.247      3.996       2.194       166.701     27.562      -9999.25    28.293      
160.0       36.273      146.174     2.209       4.093       26.03       20.517      19.258      -9999.25    2.943       -9999.25    21.33       4.036       2.196       166.094     27.688      -9999.25    27.604      
160.1       35.02       146.322     2.203       4.043       26.005      20.48       19.138      -9999.25    2.956       -9999.25    21.33       4.092       2.178       165.57      27.702      -9999.25    27.657      
160.2       33.628      146.403     2.198       4.165       25.957      20.606      19.066      -9999.25    2.974       -9999.25    21.342      3.964       2.162       165.149     27.691      -9999.25    27.98       
160.3       33.046      146.433     2.194       4.371       -9999.25    20.801      19.012      -9999.25    3.071       -9999.25    21.411      3.83        2.146       164.851     27.679      -9999.25    28.777      
160.4       33.186      146.497     2.186       4.439       -9999.25    20.907      18.901      -9999.25    3.234       -9999.25    21.528      3.822       2.13        164.695     -9999.25    -9999.25    28.844      
160.5       33.59       146.651     2.172       4.297       -9999.25    20.956      18.675      -9999.25    3.501       -9999.25    21.631      3.845       2.13        164.699     -9999.25    -9999.25    28.633      
160.6       34.07       146.795     2.161       4.175       -9999.25    20.97       18.507      -9999.25    3.794       -9999.25    21.799      3.982       2.131       164.883     -9999.25    -9999.25    27.938      
160.7       34.43       146.793     2.147       4.057       -9999.25    20.962      18.47       -9999.25    4.224       -9999.25    21.92       4.115       2.13        -9999.25    -9999.25    -9999.25    27.419      
160.8       34.919      146.793     2.141       4.271       -9999.25    20.943      18.651      -9999.25    4.664       -9999.25    22.105      4.147       2.154       -9999.25    -9999.25    -9999.25    27.143      
160.9       36.3        146.668     2.156       4.386       -9999.25    -9999.25    19.37       -9999.25    5.265       -9999.25    22.263      4.246       2.169       -9999.25    -9999.25    -9999.25    27.044      
161.0       37.084      146.452     2.183       4.443       -9999.25    -9999.25    20.624      -9999.25    5.917       -9999.25    22.511      4.228       2.192       -9999.25    -9999.25    -9999.25    26.998      
161.1       36.181      146.452     2.212       4.651       -9999.25    -9999.25    22.527      -9999.25    6.481       -9999.25    22.804      4.249       2.216       -9999.25    -9999.25    -9999.25    27.022      
161.2       35.596      147.102     2.249       4.967       -9999.25    -9999.25    25.054      -9999.25    6.82        -9999.25    23.078      4.322       2.23        -9999.25    -9999.25    -9999.25    27.071      
161.3       36.148      147.76      2.284       5.199       -9999.25    -9999.25    27.517      -9999.25    6.929       -9999.25    23.402      4.339       2.236       -9999.25    -9999.25    -9999.25    26.977      
161.4       36.481      148.499     2.301       4.894       -9999.25    -9999.25    29.148      -9999.25    6.974       -9999.25    23.751      4.524       2.258       -9999.25    -9999.25    -9999.25    26.017      
161.5       37.296      148.653     2.313       4.422       -9999.25    -9999.25    29.755      -9999.25    6.976       -9999.25    24.022      4.895       2.307       -9999.25    -9999.25    -9999.25    24.415      
161.6       41.257      148.771     2.326       3.962       -9999.25    -9999.25    29.915      -9999.25    6.98        -9999.25    24.505      5.213       2.355       -9999.25    -9999.25    -9999.25    23.39       
161.7       48.118      149.041     2.331       3.732       -9999.25    -9999.25    30.007      -9999.25    6.95        -9999.25    24.869      5.425       2.408       -9999.25    -9999.25    -9999.25    22.295      
161.8       50.652      149.204     2.334       3.818       -9999.25    -9999.25    30.039      -9999.25    6.968       -9999.25    25.338      5.483       2.467       -9999.25    -9999.25    -9999.25    21.884      
161.9       48.771      149.375     2.34        4.128       -9999.25    -9999.25    30.012      -9999.25    -9999.25    -9999.25    25.529      5.262       2.486       -9999.25    -9999.25    -9999.25    21.956      
162.0       46.465      149.377     2.352       4.559       -9999.25    -9999.25    29.96       -9999.25    -9999.25    -9999.25    25.623      5.092       2.449       -9999.25    -9999.25    -9999.25    22.799      
162.1       41.537      149.401     2.364       4.732       -9999.25    -9999.25    -9999.25    -9999.25    -9999.25    -9999.25    25.641      4.842       2.393       -9999.25    -9999.25    -9999.25    23.417      
162.2       37.62       149.487     2.378       4.742       -9999.25    -9999.25    -9999.25    -9999.25    -9999.25    -9999.25    25.577      4.762       2.333       -9999.25    -9999.25    -9999.25    24.025      
162.3       42.898      149.511     2.382       4.717       -9999.25    -9999.25    -9999.25    -9999.25    -9999.25    -9999.25    25.493      4.926       2.307       -9999.25    -9999.25    -9999.25    23.738      
162.4       62.146      149.564     2.377       4.553       -9999.25    -9999.25    -9999.25    -9999.25    -9999.25    -9999.25    25.439      5.076       2.334       -9999.25    -9999.25    -9999.25    23.165      
162.5       78.164      149.591     2.374       4.508       -9999.25    -9999.25    -9999.25    -9999.25    -9999.25    -9999.25    25.487      5.294       2.375       -9999.25    -9999.25    -9999.25    21.973      
162.6       76.333      149.591     2.375       4.5         -9999.25    -9999.25    -9999.25    -9999.25    -9999.25    -9999.25    25.603      5.409       2.418       -9999.25    -9999.25    -9999.25    21.092      
162.7       60.456      149.106     2.372       4.784       -9999.25    -9999.25    -9999.25    -9999.25    -9999.25    -9999.25    25.531      5.377       2.41        -9999.25    -9999.25    -9999.25    20.853      
162.8       44.89       148.997     2.359       4.964       -9999.25    -9999.25    -9999.25    -9999.25    -9999.25    -9999.25    25.29       5.225       2.378       -9999.25    -9999.25    -9999.25    21.35       
