~Version Information Section
VERS.                                         2.0:CWLS log ASCII Standart – VERSION 2.0
WRAP.                                          NO:One line per depth step
~Well Information Section
STRT.M                                        0.1:Начальная глубина
STOP.M                                      168.3:Конечная глубина
STEP.M                                          0:Шаг квантования по глубине
NULL.                                    -9999.25:Признак "Нет данных"
WELL.                                        152К:Скважина
~Parameter Information Section
~Curve Information Section
DEPTH.M                                          :Глубина
БК.Омм                                           :BK     (БК)
DСР.мм                                           :DS  (ДС)
ПЛОТНОСТЬ.г/см^3                                 :GGKp
ГК.мкР/ч                                         :GK          (ГК)
А0.4М0.1N.Омм                                    :GZ1   ГЗ1(A0.4M0.1N)
А1.0М0.1N.Омм                                    :GZ2   ГЗ2(A1.0M0.1N)
А2.0М0.5N.Омм                                    :GZ3   ГЗ3(A2.0M0.5N)
А4.0М0.5N.Oмм                                    :GZ4   ГЗ4(A4.0M0.5N)
А8.0М1.0N.Омм                                    :GZ5   ГЗ5(A8.0M0.5N)
N0.5M2.0A.Омм                                    :GZR   ГЗK(N0.5M2.0A)
ИК.мСм/м                                         :IK
БЗ.ue                                            :NNKb  (ННКб)
МЗ.ue                                            :NNKm  (ННКм)
ПС.mv                                            :PS       (ПС)
N11.0M0.5A.Омм                                   :PZ    (КС)
R.Омм                                            :RS (Резистивиметр)
ПОРИСТОСТЬ.                                      :W
~ASCII LOG DATA
# ...
77.8        73.548      190.295     2.221       5.174       51.399      64.178      54.841      54.324      19.002      62.45       44.52       3.358       1.994       115.172     67.712      1.223       32.012      
77.9        73.526      190.339     2.229       5.397       51.115      64.213      55.946      54.24       18.664      62.029      44.639      3.445       1.992       115.002     67.602      1.222       31.601      
78.0        74.44       190.403     2.232       5.194       50.787      64.31       57.928      53.896      18.78       61.478      44.717      3.518       2.007       114.764     67.561      1.222       31.238      
78.1        74.914      190.434     2.228       4.746       50.554      64.266      60.123      53.228      18.561      60.726      44.899      3.559       2.027       114.462     68.046      1.223       31.258      
78.2        74.826      190.446     2.219       4.305       50.63       64.873      61.616      52.821      18.796      60.04       44.897      3.531       2.05        114.101     68.538      1.221       31.361      
78.3        75.05       190.479     2.201       4.197       50.847      65.486      62.237      53.16       18.662      59.695      44.833      3.461       2.071       113.659     68.715      1.22        31.362      
78.4        76.057      190.48      2.179       4.221       50.916      65.444      62.763      53.773      18.873      59.618      44.865      3.483       2.064       113.122     69.163      1.22        31.275      
78.5        76.353      190.505     2.162       4.24        50.718      64.781      62.996      53.882      18.873      59.568      45.407      3.512       2.062       112.489     70.318      1.222       30.744      
78.6        75.763      190.504     2.155       4.193       50.472      63.225      62.797      53.719      18.788      59.588      45.535      3.564       2.049       111.782     71.665      1.221       30.56       
78.7        75.1        190.467     2.158       4.039       50.15       61.457      62.413      53.655      18.83       59.688      45.278      3.556       2.036       111.052     72.872      1.22        30.551      
78.8        72.693      190.43      2.166       3.863       49.8        60.362      62.201      53.592      19.005      60.091      45.356      3.495       2.04        110.354     74.467      1.222       30.591      
78.9        70.714      190.411     2.17        3.896       49.714      60.036      62.174      53.749      18.951      60.924      45.401      3.542       2.039       109.735     76.299      1.222       30.661      
79.0        70.963      190.411     2.184       3.989       49.908      60.111      62.747      54.575      19.545      62.083      45.407      3.502       2.034       109.238     78.002      1.221       30.788      
79.1        71.734      190.469     2.203       4.355       50.244      60.641      64.112      56.282      20.259      63.46       45.349      3.465       2.028       108.898     79.566      1.218       31.122      
79.2        72.053      190.537     2.217       4.639       51.037      62.413      65.842      58.489      21.215      64.781      45.366      3.494       2.023       108.727     80.362      1.217       31.408      
79.3        72.296      190.612     2.23        4.589       52.232      65.371      67.869      60.784      21.65       65.842      45.306      3.415       2.028       108.713     80.43       1.215       31.277      
79.4        75.479      190.688     2.24        4.08        53.661      68.48       69.662      62.626      22.882      66.298      45.298      3.464       2.036       108.853     80.366      1.213       30.838      
79.5        80.716      190.716     2.249       3.661       55.009      70.899      70.552      63.744      24.151      66.301      45.585      3.515       2.043       109.133     80.19       1.209       30.362      
79.6        83.835      190.787     2.26        3.858       56.198      72.108      70.738      64.306      25.158      65.791      45.401      3.509       2.032       109.552     79.315      1.207       30.043      
79.7        83.84       190.821     2.267       4.256       56.861      72.378      70.392      64.649      25.662      64.485      45.135      3.544       2.012       110.134     77.39       1.205       30.106      
79.8        81.878      190.843     2.262       4.529       56.734      72.053      69.53       64.99       25.662      62.818      45.165      3.457       1.998       110.899     75.293      1.204       30.599      
79.9        80.404      190.894     2.239       4.505       56.3        71.302      68.171      64.993      25.883      61.177      45.165      3.416       1.994       111.855     73.532      1.204       31.019      
80.0        79.485      190.975     2.214       4.45        55.418      69.905      66.456      64.654      25.925      59.645      45.165      3.415       1.992       112.988     72.077      1.203       31.207      
80.1        76.376      191.061     2.185       4.283       54.053      68.259      64.85       64.453      26.107      58.261      44.907      3.38        2.001       114.284     70.838      1.202       31.549      
80.2        72.686      191.123     2.156       4.158       52.834      67.477      63.897      64.156      26.532      57.326      44.168      3.347       1.994       115.729     69.596      1.199       32.292      
80.3        70.877      191.167     2.151       4.239       51.86       66.894      63.643      63.764      27.131      56.892      43.758      3.267       1.983       117.287     67.986      1.199       32.828      
80.4        69.986      191.174     2.164       4.457       51.052      66.204      63.473      63.483      27.387      56.601      43.55       3.186       1.984       118.933     66.242      1.198       33.176      
80.5        68.529      191.174     2.173       4.617       50.389      65.936      63.219      63.073      27.91       56.272      43.245      3.175       1.983       120.614     64.96       1.195       33.108      
80.6        68.411      191.155     2.184       4.83        49.553      65.443      62.929      62.387      28.088      56.11       42.911      3.256       1.975       122.279     63.539      1.197       32.561      
80.7        70.201      191.155     2.193       4.655       47.972      63.503      62.345      61.572      28.828      56.286      42.733      3.246       1.969       123.873     62.09       1.199       32.377      
80.8        69.332      191.155     2.188       4.411       45.94       60.792      61.427      60.837      29.649      56.761      42.396      3.192       1.96        125.327     60.86       1.2         32.322      
80.9        66.243      191.197     2.174       4.165       44.22       58.375      60.636      60.473      30.554      57.413      42.167      3.248       1.94        126.594     59.52       1.201       32.127      
81.0        63.839      191.282     2.163       4.133       43.388      57.039      60.201      60.316      31.05       57.766      41.974      3.332       1.942       127.635     58.683      1.202       31.872      
81.1        63.32       191.328     2.159       4.169       43.683      56.895      60.054      59.981      33.096      57.475      41.825      3.364       1.949       128.427     58.868      1.202       31.877      
81.2        65.944      191.355     2.155       4.082       44.712      56.881      60.181      59.799      35.642      56.594      41.681      3.368       1.971       128.953     59.791      1.201       32.673      
81.3        70.14       191.365     2.159       4.082       46.662      57.047      60.378      59.658      38.15       55.133      41.801      3.28        1.985       129.193     61.16       1.2         33.293      
81.4        73.772      191.484     2.173       4.149       48.957      57.291      60.519      59.222      40.852      53.697      41.82       3.149       2.001       129.145     62.546      1.2         33.812      
