~Version Information Section
VERS.                                         2.0:CWLS log ASCII Standart – VERSION 2.0
WRAP.                                          NO:One line per depth step
~Well Information Section
STRT.M                                        0.6:Начальная глубина
STOP.M                                      196.8:Конечная глубина
STEP.M                                          0:Шаг квантования по глубине
NULL.                                    -9999.25:Признак "Нет данных"
WELL.                                        142К:Скважина
~Parameter Information Section
~Curve Information Section
DEPTH.M                                          :Глубина
BK.Ohm*M                                         :BK     (БК)
DS.mm                                            :DS  (ДС)
GGK.g/cm3                                        :GGKp
ГК.mcr/h                                         :GK          (ГК)
GZ1.Ohm*M                                        :GZ1   ГЗ1(A0.4M0.1N)
GZ2.Ohm*M                                        :GZ2   ГЗ2(A1.0M0.1N)
GZ3.Ohm*M                                        :GZ3   ГЗ3(A2.0M0.5N)
GZ4.Ohm*M                                        :GZ4   ГЗ4(A4.0M0.5N)
GZ5.Ohm*M                                        :GZ5   ГЗ5(A8.0M0.5N)
GZR.                                             :GZR   ГЗK(N0.5M2.0A)
ИК.Ohm*M                                         :IK
НГК.ue                                           :NGK     (НГК)
NNKM.                                            :NNKm  (ННКм)
PS.mv                                            :PS       (ПС)
PZ.Ohm*M                                         :PZ    (КС)
RS.Ohm*M                                         :RS (Резистивиметр)
W.%                                              :W
~ASCII LOG DATA
# ...
96.8        63.598      226.914     2.444       5.717       52.201      36.341      16.224      11.509      12.164      22.932      23.991      1.448       1.635       -307.361    48.593      1.115       19.316      
96.9        80.67       229.182     2.457       6.637       53.799      38.29       16.57       11.509      14.343      22.999      24.692      1.635       1.642       -305.806    50.228      1.115       20.881      
97.0        82.649      227.425     2.448       8.176       55.815      39.924      17.004      11.512      16.754      23.35       25.381      1.616       1.599       -303.564    51.507      1.115       22.191      
97.1        68.37       227.09      2.424       9.155       58.316      41.39       17.599      11.559      19.203      24.244      25.662      1.499       1.565       -300.657    52.527      1.115       22.834      
97.2        48.343      227.615     2.399       9.268       61.655      42.949      18.538      11.811      21.533      25.668      25.379      1.413       1.455       -297.295    53.431      1.115       23.519      
97.3        37.539      226.596     2.394       8.512       66.052      44.961      20.102      12.525      23.636      27.533      24.737      1.243       1.308       -293.76     54.338      1.115       22.572      
97.4        42.739      224.515     2.416       6.737       71.126      47.622      22.586      13.855      25.443      29.652      24.093      1.243       1.295       -290.365    55.377      1.115       20.301      
97.5        62.817      228.548     2.459       5.395       75.965      50.922      26.172      15.857      26.962      31.819      23.594      1.243       1.356       -287.432    56.705      1.115       18.843      
97.6        91.904      236.018     2.508       4.111       79.015      54.16       30.79       18.367      28.249      33.964      23.29       1.516       1.415       -285.075    58.371      1.115       18.636      
97.7        121.492     239.908     2.54        4.439       79.858      56.169      36.012      20.904      29.358      36.179      23.204      1.516       1.531       -283.321    60.047      1.116       18.932      
97.8        144.5       242.117     2.545       5.214       79.72       56.767      41.048      22.885      30.32       38.782      23.336      1.448       1.623       -282.211    61.12       1.116       22.109      
97.9        158.519     244.481     2.526       6.253       78.499      56.692      44.966      23.944      31.129      42.356      23.508      1.371       1.525       -281.693    61.389      1.116       25.532      
98.0        164.139     244.223     2.495       6.698       74.541      55.997      47.093      24.209      31.683      47.495      23.561      1.217       1.404       -281.589    61.313      1.116       27.402      
98.1        156.78      243.509     2.462       6.877       67.756      53.569      47.661      24.174      31.91       54.47       23.431      1.131       1.34        -281.589    60.632      1.116       28.796      
98.2        131.08      239.447     2.434       7.007       59.774      49.041      47.598      22.952      31.946      62.825      23.064      1.074       1.273       -281.62     58.377      1.116       29.863      
98.3        89.897      241.784     2.416       7.265       52.641      43.335      47.032      16.247      31.861      70.957      22.305      1.265       1.254       -281.873    54.299      1.116       29.102      
98.4        51.199      248.148     2.412       7.214       47.359      37.625      45.155      6.56        31.393      76.551      21.15       1.273       1.282       -282.669    48.972      1.116       28.282      
98.5        28.708      245.999     2.421       7.038       43.869      32.507      41.838      6.0         30.277      78.602      19.782      1.128       1.304       -284.085    43.405      1.116       28.405      
98.6        22.343      240.087     2.438       6.678       41.674      28.212      37.654      6.0         28.446      78.516      18.702      1.122       1.278       -285.952    38.621      1.116       28.147      
98.7        22.311      237.096     2.456       6.56        40.129      24.604      33.096      5.88        25.989      77.589      18.14       1.11        1.252       -287.96     35.172      1.116       26.511      
98.8        23.959      239.759     2.469       6.362       38.847      21.553      28.346      5.12        23.082      73.758      17.912      1.189       1.267       -289.811    33.099      1.116       24.817      
98.9        32.893      237.835     2.479       6.185       37.771      19.106      23.535      3.94        19.943      65.741      18.202      1.228       1.286       -291.28     32.225      1.116       23.095      
99.0        53.188      236.575     2.486       6.004       36.856      17.319      18.907      3.56        16.788      55.59       18.893      1.204       1.338       -292.221    32.089      1.116       21.423      
99.1        77.053      231.716     2.494       6.033       36.089      16.236      14.743      3.0         13.815      45.978      19.713      1.237       1.432       -292.588    32.089      1.116       19.922      
99.2        88.471      230.662     2.503       6.115       35.429      15.875      11.282      3.0         11.208      38.68       20.885      1.427       1.486       -292.645    32.124      1.116       19.503      
99.3        78.215      232.571     2.511       6.133       34.784      15.875      8.694       3.0         9.098       34.279      22.052      1.467       1.523       -292.634    32.417      1.116       18.813      
99.4        55.794      232.331     2.521       6.055       34.188      15.893      7.002       3.0         7.545       32.567      22.64       1.665       1.552       -292.544    33.31       1.116       17.865      
99.5        36.922      228.469     2.526       5.922       33.772      16.075      6.079       2.94        6.532       32.445      22.737      1.62        1.589       -292.308    34.825      1.116       16.918      
99.6        29.05       222.379     2.531       5.752       33.603      16.777      5.758       2.56        5.983       32.445      22.639      1.576       1.627       -292.013    36.947      1.116       15.561      
99.7        28.997      222.435     2.532       5.34        33.603      18.217      5.756       2.0         5.78        32.565      22.728      1.694       1.671       -291.698    39.611      1.116       14.328      
99.8        31.077      223.876     2.537       5.088       33.61       20.261      5.756       2.0         5.746       33.557      23.101      1.754       1.746       -291.494    42.692      1.116       12.689      
99.9        32.934      224.323     2.545       5.04        33.703      22.786      5.784       2.0         5.746       36.493      23.744      1.846       1.802       -291.348    46.002      1.116       11.025      
100.0       33.747      224.201     2.562       4.927       34.171      25.584      6.016       2.0         5.77        41.295      24.551      1.882       1.866       -291.212    49.265      1.116       9.52        
100.1       33.564      224.214     2.583       4.602       35.437      28.556      6.72        2.0         5.9         47.89       25.334      1.973       1.905       -291.093    52.238      1.116       8.89        
100.2       32.992      224.341     2.606       4.489       37.749      31.631      7.946       2.0         6.184       56.008      26.027      1.996       1.958       -290.98     54.746      1.116       8.261       
100.3       33.639      224.466     2.623       4.621       41.314      34.627      9.805       2.0         6.593       65.239      26.747      2.042       2.011       -290.848    56.699      1.116       7.905       
100.4       38.765      224.779     2.635       4.65        46.101      37.428      12.372      2.0         7.088       75.122      27.602      2.264       2.012       -290.592    58.123      1.116       7.919       
