~Version Information Section
VERS.                                         2.0:CWLS log ASCII Standart – VERSION 2.0
WRAP.                                          NO:One line per depth step
~Well Information Section
STRT.M                                        0.6:Начальная глубина
STOP.M                                      196.8:Конечная глубина
STEP.M                                          0:Шаг квантования по глубине
NULL.                                    -9999.25:Признак "Нет данных"
WELL.                                        142К:Скважина
~Parameter Information Section
~Curve Information Section
DEPTH.M                                          :Глубина
BK.Ohm*M                                         :BK     (БК)
DS.mm                                            :DS  (ДС)
GGK.g/cm3                                        :GGKp
ГК.mcr/h                                         :GK          (ГК)
GZ1.Ohm*M                                        :GZ1   ГЗ1(A0.4M0.1N)
GZ2.Ohm*M                                        :GZ2   ГЗ2(A1.0M0.1N)
GZ3.Ohm*M                                        :GZ3   ГЗ3(A2.0M0.5N)
GZ4.Ohm*M                                        :GZ4   ГЗ4(A4.0M0.5N)
GZ5.Ohm*M                                        :GZ5   ГЗ5(A8.0M0.5N)
GZR.                                             :GZR   ГЗK(N0.5M2.0A)
ИК.Ohm*M                                         :IK
НГК.ue                                           :NGK     (НГК)
NNKM.                                            :NNKm  (ННКм)
PS.mv                                            :PS       (ПС)
PZ.Ohm*M                                         :PZ    (КС)
RS.Ohm*M                                         :RS (Резистивиметр)
W.%                                              :W
~ASCII LOG DATA
# ...
189.3       62.554      154.886     2.457       6.792       13.56       12.073      11.254      -9999.25    9.182       -9999.25    12.316      1.564       1.719       -254.665    53.764      -9999.25    15.304      
189.4       46.781      152.717     2.445       6.83        13.462      12.156      11.349      -9999.25    9.182       -9999.25    12.306      1.717       1.746       -254.521    53.754      -9999.25    15.777      
189.5       40.268      152.059     2.431       7.175       13.378      12.252      11.477      -9999.25    9.182       -9999.25    12.263      1.712       1.726       -254.449    53.732      -9999.25    16.642      
189.6       39.443      152.161     2.417       7.797       13.3        12.346      11.619      -9999.25    9.182       -9999.25    12.177      1.534       1.666       -254.449    53.677      -9999.25    17.616      
189.7       37.751      152.557     2.409       8.104       13.231      12.419      11.758      -9999.25    9.182       -9999.25    12.067      1.524       1.641       -254.449    53.574      -9999.25    18.835      
189.8       36.174      153.384     2.405       8.151       13.212      12.469      11.888      -9999.25    9.074       -9999.25    12.013      1.475       1.639       -254.449    53.423      -9999.25    20.359      
189.9       35.52       154.16      2.401       7.681       -9999.25    12.505      12.01       -9999.25    8.498       -9999.25    11.981      1.504       1.632       -254.449    53.254      -9999.25    20.988      
190.0       36.232      154.686     2.395       7.27        -9999.25    12.537      12.139      -9999.25    7.526       -9999.25    11.94       1.534       1.62        -254.449    53.096      -9999.25    20.69       
190.1       38.682      154.934     2.382       6.636       -9999.25    12.578      12.282      -9999.25    7.022       -9999.25    11.887      1.481       1.595       -254.449    52.929      -9999.25    20.83       
190.2       42.398      155.232     2.361       6.179       -9999.25    12.649      12.436      -9999.25    7.022       -9999.25    11.866      1.454       1.545       -254.449    52.649      -9999.25    21.742      
190.3       48.776      155.157     2.332       5.489       -9999.25    12.715      12.591      -9999.25    7.022       -9999.25    12.141      1.537       1.541       -254.449    52.378      -9999.25    22.139      
190.4       62.717      155.207     2.302       5.306       -9999.25    12.701      12.736      -9999.25    6.914       -9999.25    12.848      1.551       1.605       -254.449    -9999.25    -9999.25    23.039      
190.5       84.357      155.062     2.279       5.43        -9999.25    -9999.25    12.871      -9999.25    6.554       -9999.25    12.874      1.46        1.62        -254.449    -9999.25    -9999.25    24.459      
190.6       109.473     155.049     2.267       5.602       -9999.25    -9999.25    13.032      -9999.25    6.302       -9999.25    12.874      1.451       1.562       -254.449    -9999.25    -9999.25    24.857      
190.7       125.917     154.927     2.27        5.446       -9999.25    -9999.25    13.311      -9999.25    6.302       -9999.25    12.874      1.415       1.537       -254.449    -9999.25    -9999.25    24.002      
190.8       133.55      154.543     2.284       5.181       -9999.25    -9999.25    13.822      -9999.25    6.302       -9999.25    12.874      1.39        1.559       -254.449    -9999.25    -9999.25    22.919      
190.9       133.972     154.593     2.301       5.189       -9999.25    -9999.25    14.686      -9999.25    6.302       -9999.25    12.874      1.365       1.593       -254.449    -9999.25    -9999.25    21.831      
191.0       132.772     154.231     2.314       5.311       -9999.25    -9999.25    16.014      -9999.25    6.302       -9999.25    12.863      1.353       1.632       -254.449    -9999.25    -9999.25    20.87       
191.1       129.727     154.178     2.321       5.303       -9999.25    -9999.25    17.836      -9999.25    6.302       -9999.25    12.837      1.35        1.657       -254.449    -9999.25    -9999.25    20.516      
191.2       125.283     153.793     2.321       5.369       -9999.25    -9999.25    20.065      -9999.25    6.302       -9999.25    12.816      1.439       1.672       -254.449    -9999.25    -9999.25    20.557      
191.3       121.105     152.543     2.316       5.467       -9999.25    -9999.25    22.875      -9999.25    6.302       -9999.25    12.755      1.457       1.668       -254.449    -9999.25    -9999.25    20.457      
191.4       118.216     145.703     2.313       5.522       -9999.25    -9999.25    26.963      -9999.25    6.302       -9999.25    12.687      1.451       1.636       -254.449    -9999.25    -9999.25    19.948      
191.5       114.871     146.046     2.319       5.545       -9999.25    -9999.25    30.615      -9999.25    6.302       -9999.25    12.589      1.467       1.605       -254.449    -9999.25    -9999.25    19.018      
191.6       104.399     147.931     2.338       5.617       -9999.25    -9999.25    30.602      -9999.25    6.302       -9999.25    12.557      1.499       1.578       -9999.25    -9999.25    -9999.25    17.076      
191.7       85.724      149.303     2.369       5.642       -9999.25    -9999.25    -9999.25    -9999.25    6.302       -9999.25    12.434      1.572       1.619       -9999.25    -9999.25    -9999.25    15.046      
191.8       63.306      148.398     2.405       5.582       -9999.25    -9999.25    -9999.25    -9999.25    6.302       -9999.25    12.306      1.608       1.765       -9999.25    -9999.25    -9999.25    14.275      
191.9       48.255      148.902     2.43        5.79        -9999.25    -9999.25    -9999.25    -9999.25    6.302       -9999.25    12.282      1.732       1.879       -9999.25    -9999.25    -9999.25    13.98       
192.0       40.787      148.931     2.438       6.113       -9999.25    -9999.25    -9999.25    -9999.25    6.302       -9999.25    12.272      1.763       1.959       -9999.25    -9999.25    -9999.25    14.203      
192.1       38.53       150.052     2.43        6.633       -9999.25    -9999.25    -9999.25    -9999.25    6.302       -9999.25    12.239      1.813       1.963       -9999.25    -9999.25    -9999.25    15.445      
192.2       36.865      150.017     2.418       6.869       -9999.25    -9999.25    -9999.25    -9999.25    6.302       -9999.25    12.177      1.787       1.841       -9999.25    -9999.25    -9999.25    16.939      
192.3       36.585      151.099     2.414       7.097       -9999.25    -9999.25    -9999.25    -9999.25    6.302       -9999.25    12.096      1.659       1.763       -9999.25    -9999.25    -9999.25    17.1        
192.4       37.758      151.749     2.424       7.178       -9999.25    -9999.25    -9999.25    -9999.25    6.302       -9999.25    12.128      1.526       1.742       -9999.25    -9999.25    -9999.25    16.687      
192.5       39.924      150.802     2.447       7.272       -9999.25    -9999.25    -9999.25    -9999.25    6.302       -9999.25    12.151      1.326       1.704       -9999.25    -9999.25    -9999.25    16.543      
192.6       42.425      151.15      2.471       7.835       -9999.25    -9999.25    -9999.25    -9999.25    -9999.25    -9999.25    12.171      1.376       1.65        -9999.25    -9999.25    -9999.25    17.15       
192.7       44.58       150.549     2.485       8.463       -9999.25    -9999.25    -9999.25    -9999.25    -9999.25    -9999.25    12.226      1.409       1.635       -9999.25    -9999.25    -9999.25    17.809      
192.8       45.509      148.646     2.48        8.988       -9999.25    -9999.25    -9999.25    -9999.25    -9999.25    -9999.25    12.239      1.409       1.685       -9999.25    -9999.25    -9999.25    19.81       
192.9       45.176      148.115     2.461       8.934       -9999.25    -9999.25    -9999.25    -9999.25    -9999.25    -9999.25    12.222      1.409       1.657       -9999.25    -9999.25    -9999.25    22.004      
