~Version Information Section
VERS.                                         2.0:CWLS log ASCII Standart – VERSION 2.0
WRAP.                                          NO:One line per depth step
~Well Information Section
STRT.M                                        0.6:Начальная глубина
STOP.M                                      196.8:Конечная глубина
STEP.M                                          0:Шаг квантования по глубине
NULL.                                    -9999.25:Признак "Нет данных"
WELL.                                        142К:Скважина
~Parameter Information Section
~Curve Information Section
DEPTH.M                                          :Глубина
BK.Ohm*M                                         :BK     (БК)
DS.mm                                            :DS  (ДС)
GGK.g/cm3                                        :GGKp
ГК.mcr/h                                         :GK          (ГК)
GZ1.Ohm*M                                        :GZ1   ГЗ1(A0.4M0.1N)
GZ2.Ohm*M                                        :GZ2   ГЗ2(A1.0M0.1N)
GZ3.Ohm*M                                        :GZ3   ГЗ3(A2.0M0.5N)
GZ4.Ohm*M                                        :GZ4   ГЗ4(A4.0M0.5N)
GZ5.Ohm*M                                        :GZ5   ГЗ5(A8.0M0.5N)
GZR.                                             :GZR   ГЗK(N0.5M2.0A)
ИК.Ohm*M                                         :IK
НГК.ue                                           :NGK     (НГК)
NNKM.                                            :NNKm  (ННКм)
PS.mv                                            :PS       (ПС)
PZ.Ohm*M                                         :PZ    (КС)
RS.Ohm*M                                         :RS (Резистивиметр)
W.%                                              :W
~ASCII LOG DATA
# ...
52.4        200.528     224.069     -9999.25    4.876       105.748     111.754     70.189      19.281      26.12       167.258     -9999.25    1.682       1.349       -226.452    -9999.25    1.12        22.236      
52.5        197.411     224.117     -9999.25    4.759       115.469     117.129     80.26       20.845      26.628      167.258     -9999.25    1.676       1.373       -222.7      -9999.25    1.12        21.315      
52.6        191.546     224.59      -9999.25    4.778       125.062     122.552     89.172      22.702      26.986      166.778     49.463      1.644       1.393       -219.214    -9999.25    1.12        21.392      
52.7        186.188     224.991     -9999.25    4.856       133.736     128.779     96.943      25.045      27.165      164.991     51.075      1.616       1.41        -216.242    -9999.25    1.12        21.464      
52.8        187.427     225.051     -9999.25    4.661       140.908     135.868     104.068     27.906      27.209      161.79      52.334      1.504       1.427       -213.97     -9999.25    1.12        20.763      
52.9        191.795     224.883     -9999.25    4.404       146.65      143.812     111.019     31.224      27.191      157.422     53.456      1.516       1.418       -212.501    -9999.25    1.12        20.073      
53.0        187.068     224.855     -9999.25    4.27        150.969     152.442     117.984     34.573      27.057      151.891     54.298      1.564       1.407       -211.854    -9999.25    1.12        20.296      
53.1        167.71      225.422     2.283       4.38        153.117     160.457     124.94      37.275      26.667      145.437     54.723      1.545       1.393       -211.724    -9999.25    1.12        20.725      
53.2        142.677     224.548     2.292       4.57        153.538     166.363     131.464     39.027      25.997      138.618     55.015      1.469       1.375       -211.724    -9999.25    1.12        20.955      
53.3        124.112     224.191     2.302       4.65        153.538     169.733     136.65      39.903      25.155      131.949     55.399      1.446       1.351       -211.886    -9999.25    1.12        21.202      
53.4        114.98      223.797     2.311       4.53        152.797     170.771     139.925     40.138      24.263      125.67      55.757      1.356       1.325       -212.63     -9999.25    1.12        21.27       
53.5        110.475     222.605     2.315       4.313       150.238     170.771     141.49      40.138      23.437      119.859     55.972      1.397       1.337       -214.226    -9999.25    1.12        20.992      
53.6        106.202     222.786     2.31        4.139       145.456     170.297     141.898     40.15       22.785      114.558     55.928      1.478       1.392       -216.679    174.358     1.12        21.238      
53.7        102.222     222.929     2.298       4.164       138.856     167.846     141.898     40.163      22.361      109.788     55.72       1.474       1.422       -219.861    174.358     1.12        21.689      
53.8        99.37       222.258     2.285       4.24        131.666     163.143     141.766     40.163      22.138      105.637     55.273      1.46        1.413       -223.413    174.295     1.12        21.883      
53.9        96.66       221.508     2.275       4.323       124.888     157.475     141.289     40.163      22.052      102.353     54.594      1.535       1.408       -226.889    173.766     1.12        22.023      
54.0        92.667      221.086     2.269       4.412       119.079     151.669     140.945     40.336      22.028      100.02      54.06       1.685       1.409       -229.975    172.246     1.12        22.723      
54.1        87.931      221.278     2.266       4.397       114.764     146.543     140.945     41.176      22.009      98.4        53.66       1.638       1.41        -232.442    169.303     1.12        23.189      
54.2        84.866      221.473     2.263       4.295       112.077     142.563     140.945     43.112      21.981      97.203      53.385      1.448       1.415       -234.149    164.91      1.12        23.041      
54.3        86.413      222.041     2.26        4.261       110.529     139.59      141.126     46.228      21.912      96.221      53.039      1.507       1.42        -235.175    159.693     1.12        22.996      
54.4        93.788      222.619     2.259       4.427       109.552     137.212     142.157     50.321      21.709      95.221      52.329      1.626       1.402       -235.721    154.173     1.12        22.932      
54.5        104.85      222.706     2.263       4.666       108.855     134.985     144.344     54.993      21.291      94.1        51.409      1.563       1.384       -235.971    148.835     1.12        22.296      
54.6        113.482     222.686     2.275       4.795       108.207     132.619     147.115     59.756      20.633      92.852      50.635      1.469       1.391       -236.084    144.421     1.12        21.584      
54.7        113.467     222.594     2.293       4.8         107.538     130.155     149.596     64.119      19.753      91.362      49.95       1.473       1.399       -236.173    141.189     1.12        21.535      
54.8        104.141     222.345     2.313       4.911       107.042     127.772     150.856     67.749      18.75       89.539      49.186      1.49        1.397       -236.281    138.727     1.12        21.431      
54.9        91.124      222.209     2.333       4.871       106.655     125.298     151.07      70.598      17.775      87.355      48.669      1.472       1.392       -236.465    136.581     1.12        20.949      
55.0        81.404      221.813     2.353       4.563       106.083     122.66      151.07      72.79       16.929      84.779      48.37       1.401       1.401       -236.903    134.337     1.12        20.542      
55.1        77.417      221.221     2.368       4.189       105.275     119.807     150.225     74.248      16.24       81.827      48.019      1.439       1.417       -237.762    131.674     1.12        20.346      
55.2        77.025      221.2       2.37        4.106       104.191     116.438     147.433     74.81       15.693      78.562      47.617      1.496       1.431       -239.094    128.643     1.12        20.25       
55.3        76.736      220.497     2.358       4.25        102.59      112.339     142.585     74.863      15.226      74.999      46.97       1.512       1.443       -240.88     125.436     1.12        20.928      
55.4        74.596      219.96      2.335       4.332       100.303     107.749     136.153     74.863      14.776      71.283      46.13       1.579       1.444       -243.018    122.29      1.12        22.003      
55.5        70.547      219.918     2.31        4.28        97.309      103.152     128.816     74.548      14.323      67.737      45.216      1.562       1.422       -245.291    119.543     1.12        22.65       
55.6        65.414      219.991     2.289       4.239       93.707      99.012      121.386     73.607      13.872      64.698      44.312      1.478       1.395       -247.523    117.323     1.12        23.011      
55.7        60.276      220.026     2.279       4.339       89.726      95.613      114.641     72.193      13.446      62.388      43.689      1.535       1.35        -249.633    115.51      1.12        22.609      
55.8        56.267      220.083     2.275       4.608       85.728      93.005      109.164     70.75       13.102      60.832      43.29       1.65        1.33        -251.618    113.973     1.12        21.629      
55.9        54.848      220.077     2.269       4.85        82.199      91.098      105.278     69.63       12.881      59.887      42.834      1.661       1.413       -253.573    112.542     1.12        20.635      
56.0        57.145      220.126     2.253       4.854       79.451      89.562      102.846     69.016      12.783      59.415      42.274      1.706       1.479       -255.607    111.029     1.12        20.002      
