~Version Information Section
VERS.                                         2.0:CWLS log ASCII Standart – VERSION 2.0
WRAP.                                          NO:One line per depth step
~Well Information Section
STRT.M                                        0.6:Начальная глубина
STOP.M                                      196.8:Конечная глубина
STEP.M                                          0:Шаг квантования по глубине
NULL.                                    -9999.25:Признак "Нет данных"
WELL.                                        142К:Скважина
~Parameter Information Section
~Curve Information Section
DEPTH.M                                          :Глубина
BK.Ohm*M                                         :BK     (БК)
DS.mm                                            :DS  (ДС)
GGK.g/cm3                                        :GGKp
ГК.mcr/h                                         :GK          (ГК)
GZ1.Ohm*M                                        :GZ1   ГЗ1(A0.4M0.1N)
GZ2.Ohm*M                                        :GZ2   ГЗ2(A1.0M0.1N)
GZ3.Ohm*M                                        :GZ3   ГЗ3(A2.0M0.5N)
GZ4.Ohm*M                                        :GZ4   ГЗ4(A4.0M0.5N)
GZ5.Ohm*M                                        :GZ5   ГЗ5(A8.0M0.5N)
GZR.                                             :GZR   ГЗK(N0.5M2.0A)
ИК.Ohm*M                                         :IK
НГК.ue                                           :NGK     (НГК)
NNKM.                                            :NNKm  (ННКм)
PS.mv                                            :PS       (ПС)
PZ.Ohm*M                                         :PZ    (КС)
RS.Ohm*M                                         :RS (Резистивиметр)
W.%                                              :W
~ASCII LOG DATA
# ...
126.4       164.791     223.114     2.441       6.397       237.979     117.195     72.993      60.597      32.947      61.643      46.603      1.249       1.346       -232.94     183.512     1.118       24.078      
126.5       153.219     220.449     2.464       5.6         236.704     117.024     72.156      57.52       31.745      59.134      45.926      1.234       1.379       -232.94     193.428     1.118       22.202      
126.6       137.892     220.116     2.49        4.974       231.232     115.631     70.633      54.002      30.39       56.536      45.288      1.223       1.465       -232.962    201.744     1.118       19.492      
126.7       151.831     222.014     2.519       4.615       219.018     111.721     68.756      50.378      28.954      54.217      44.619      1.409       1.528       -233.128    207.72      1.118       16.54       
126.8       203.667     221.833     2.544       4.596       201.764     106.316     66.978      47.053      27.523      52.475      44.35       1.458       1.624       -233.585    210.405     1.118       13.502      
126.9       262.842     221.6       2.563       4.617       182.892     101.002     65.63       44.414      26.209      51.459      44.413      1.7         1.701       -234.268    210.668     1.118       12.293      
127.0       272.383     220.489     2.572       4.546       166.034     97.023      64.933      42.686      25.136      51.159      44.567      1.825       1.783       -235.077    210.429     1.118       11.196      
127.1       219.013     218.318     2.575       4.48        153.794     94.952      64.808      41.892      24.374      51.159      44.039      1.95        1.865       -235.869    208.449     1.118       11.417      
127.2       137.267     216.607     2.573       4.499       147.26      94.489      64.808      41.753      23.922      51.184      43.033      1.944       1.874       -236.505    202.634     1.118       11.87       
127.3       80.288      219.42      2.569       4.541       145.448     94.489      64.857      41.753      23.739      51.409      42.224      1.941       1.886       -236.963    193.695     1.118       12.411      
127.4       60.699      218.674     2.566       4.51        145.448     94.565      65.277      41.79       23.707      52.152      41.418      1.955       1.854       -237.293    183.436     1.118       13.012      
127.5       65.878      219.014     2.565       4.519       145.563     95.229      66.598      42.097      23.707      53.382      40.53       1.939       1.795       -237.583    174.04      1.118       13.924      
127.6       77.865      214.973     2.566       4.647       146.611     97.314      68.885      43.008      23.725      54.6        39.935      1.905       1.774       -237.888    166.636     1.118       14.427      
127.7       91.721      217.216     2.568       4.867       150.109     100.757     72.006      44.445      23.828      55.293      40.42       1.875       1.787       -238.241    161.468     1.118       14.823      
127.8       107.674     217.292     2.57        5.116       155.916     104.825     75.673      46.191      24.073      55.411      41.485      1.846       1.797       -238.641    158.2       1.118       15.113      
127.9       131.433     218.529     2.569       5.371       161.862     108.455     79.304      47.905      24.45       55.352      41.832      1.697       1.804       -239.095    156.263     1.118       15.398      
128.0       163.037     213.25      2.561       5.233       165.952     110.4       82.173      49.134      24.967      54.842      41.96       1.668       1.811       -239.713    155.011     1.118       15.253      
128.1       196.988     213.561     2.547       4.97        167.205     110.821     83.757      49.643      25.666      53.237      41.435      1.739       1.798       -240.581    153.959     1.118       15.217      
128.2       219.313     212.913     2.526       4.866       167.044     110.701     84.199      49.651      26.613      50.509      40.825      1.755       1.777       -241.831    152.764     1.118       16.211      
128.3       230.704     211.573     2.501       5.093       165.515     109.657     84.156      49.596      27.852      47.101      40.138      1.786       1.758       -243.659    151.048     1.118       17.309      
128.4       233.359     211.591     2.474       5.381       159.935     106.331     83.774      49.15       29.374      43.653      39.251      1.703       1.738       -246.093    148.245     1.118       18.471      
128.5       229.592     211.857     2.45        5.438       148.787     100.619     82.512      47.88       31.067      40.558      38.613      1.62        1.706       -248.938    143.85      1.118       19.655      
128.6       215.109     212.43      2.434       5.453       133.244     93.426      80.36       46.048      32.695      38.057      38.058      1.618       1.654       -251.961    137.46      1.118       20.685      
128.7       189.968     213.262     2.427       5.699       115.675     85.931      77.869      44.027      33.96       36.255      37.406      1.605       1.613       -254.961    128.807     1.118       20.815      
128.8       158.07      214.164     2.43        5.97        98.385      78.834      75.45       42.051      34.671      35.07       36.538      1.543       1.568       -257.653    118.119     1.118       21.242      
128.9       124.762     215.039     2.437       6.291       83.135      72.535      73.164      40.219      34.879      34.323      35.47       1.519       1.531       -259.929    106.338     1.118       22.086      
129.0       93.722      215.217     2.441       6.49        71.15       67.162      70.87       38.547      34.9        33.847      34.314      1.472       1.516       -261.799    94.496      1.118       22.985      
129.1       69.91       214.886     2.438       6.833       62.724      62.569      68.356      37.019      34.814      33.512      33.167      1.367       1.496       -263.352    83.648      1.118       24.148      
129.2       53.944      215.027     2.427       6.982       57.093      58.44       65.539      35.638      34.421      33.216      32.12       1.315       1.451       -264.571    74.75       1.118       25.288      
129.3       47.561      214.305     2.412       6.878       53.458      54.639      62.513      34.44       33.747      32.907      31.212      1.473       1.384       -265.507    68.215      1.118       25.678      
129.4       50.066      214.219     2.399       6.434       51.134      51.189      59.487      33.501      33.012      32.564      30.492      1.487       1.365       -266.158    63.714      1.118       25.484      
129.5       58.972      214.572     2.394       6.107       49.6        48.14       56.737      32.856      32.382      32.195      30.076      1.398       1.383       -266.568    60.808      1.118       25.069      
129.6       67.304      215.417     2.393       5.7         48.603      45.638      54.546      32.491      31.919      31.797      30.054      1.409       1.394       -266.76     58.992      1.118       24.286      
129.7       68.12       215.792     2.393       5.577       48.162      43.843      53.054      32.366      31.631      31.369      30.208      1.421       1.393       -266.846    57.808      1.118       23.657      
129.8       60.875      216.514     2.391       5.68        48.132      42.733      52.214      32.366      31.513      30.954      30.423      1.33        1.391       -266.879    57.002      1.119       23.722      
129.9       49.899      216.194     2.387       6.114       48.132      42.178      51.927      32.371      31.493      30.603      30.256      1.285       1.382       -266.907    56.552      1.119       23.942      
130.0       40.922      215.452     2.381       6.53        48.176      42.018      51.927      32.432      31.493      30.345      29.633      1.243       1.37        -266.907    56.419      1.119       24.505      
