~Version Information Section
VERS.                                         2.0:CWLS log ASCII Standart – VERSION 2.0
WRAP.                                          NO:One line per depth step
~Well Information Section
STRT.M                                        0.1:Начальная глубина
STOP.M                                      168.3:Конечная глубина
STEP.M                                          0:Шаг квантования по глубине
NULL.                                    -9999.25:Признак "Нет данных"
WELL.                                        152К:Скважина
~Parameter Information Section
~Curve Information Section
DEPTH.M                                          :Глубина
БК.Омм                                           :BK     (БК)
DСР.мм                                           :DS  (ДС)
ПЛОТНОСТЬ.г/см^3                                 :GGKp
ГК.мкР/ч                                         :GK          (ГК)
А0.4М0.1N.Омм                                    :GZ1   ГЗ1(A0.4M0.1N)
А1.0М0.1N.Омм                                    :GZ2   ГЗ2(A1.0M0.1N)
А2.0М0.5N.Омм                                    :GZ3   ГЗ3(A2.0M0.5N)
А4.0М0.5N.Oмм                                    :GZ4   ГЗ4(A4.0M0.5N)
А8.0М1.0N.Омм                                    :GZ5   ГЗ5(A8.0M0.5N)
N0.5M2.0A.Омм                                    :GZR   ГЗK(N0.5M2.0A)
ИК.мСм/м                                         :IK
БЗ.ue                                            :NNKb  (ННКб)
МЗ.ue                                            :NNKm  (ННКм)
ПС.mv                                            :PS       (ПС)
N11.0M0.5A.Омм                                   :PZ    (КС)
R.Омм                                            :RS (Резистивиметр)
ПОРИСТОСТЬ.                                      :W
~ASCII LOG DATA
# ...
122.2       134.632     146.899     2.01        3.714       115.745     151.71      67.544      32.064      38.075      170.554     65.85       6.414       2.444       89.899      160.665     1.233       16.875      
122.3       161.176     146.918     1.991       3.776       120.806     153.436     81.941      31.057      37.896      165.496     66.565      6.648       2.487       91.964      162.391     1.23        16.531      
122.4       226.656     147.066     1.966       4.052       123.101     153.237     93.648      29.279      37.37       157.835     67.417      6.743       2.501       94.19       163.36      1.229       15.98       
122.5       281.913     147.149     1.947       4.298       123.522     151.721     100.832     27.865      36.82       149.669     68.357      6.661       2.489       96.474      162.732     1.227       15.945      
122.6       275.467     147.199     1.936       4.364       123.309     149.898     106.84      27.308      36.041      142.472     69.531      6.598       2.468       98.727      162.048     1.228       16.104      
122.7       208.241     147.189     1.936       4.383       121.989     148.062     112.056     26.946      35.064      136.617     70.136      6.473       2.448       100.869     161.836     1.228       16.376      
122.8       155.346     147.224     1.95        4.263       118.742     144.922     115.86      26.848      34.292      131.866     70.378      6.381       2.427       102.861     162.201     1.228       16.535      
122.9       148.553     147.296     1.972       4.089       114.283     141.912     118.499     27.206      33.825      128.462     69.789      6.294       2.424       104.701     163.356     1.229       16.504      
123.0       139.516     147.418     1.993       4.001       111.47      140.806     120.769     27.444      33.342      126.491     69.979      6.37        2.417       106.369     164.327     1.229       16.521      
123.1       133.526     147.572     2.006       4.0         110.398     140.529     123.095     27.581      32.432      125.796     70.492      6.304       2.385       107.854     164.71      1.229       16.615      
123.2       133.656     147.648     2.029       3.948       109.444     140.253     125.524     28.27       31.904      126.34      70.857      6.149       2.377       109.154     164.957     1.23        17.116      
123.3       137.069     147.883     2.06        3.728       108.89      140.031     127.521     29.347      32.548      128.029     71.291      6.031       2.372       110.27      165.91      1.233       17.964      
123.4       140.044     148.04      2.084       3.459       107.894     138.869     129.022     30.686      32.548      131.513     71.169      5.631       2.356       111.229     167.44      1.236       18.502      
123.5       139.256     148.209     2.099       3.524       106.771     137.929     131.036     32.215      32.338      136.242     71.367      5.531       2.334       112.06      168.414     1.235       19.683      
123.6       135.027     148.273     2.111       3.801       106.512     138.334     134.674     34.06       33.047      140.586     71.083      5.371       2.308       112.786     168.249     1.236       20.691      
123.7       132.89      148.273     2.115       3.763       107.31      141.294     139.859     36.595      33.983      143.443     70.408      5.166       2.288       113.424     167.46      1.237       21.102      
123.8       134.437     148.307     2.107       3.465       109.507     146.979     145.434     39.883      34.547      144.347     70.343      5.263       2.289       114.005     167.488     1.237       21.149      
123.9       139.32      148.364     2.075       3.586       112.431     153.696     151.071     43.842      34.498      144.295     70.507      5.527       2.314       114.521     168.062     1.235       20.228      
124.0       171.225     148.364     2.034       4.133       116.501     160.316     156.663     48.829      35.225      142.655     70.982      5.798       2.343       114.91      168.487     1.233       18.846      
124.1       279.89      148.358     2.0         4.556       122.501     164.654     160.639     55.035      35.2        138.388     70.947      6.125       2.377       115.105     169.098     1.231       18.018      
124.2       353.645     148.295     1.984       4.283       128.623     165.959     161.918     61.66       34.851      132.164     70.947      6.324       2.401       115.042     169.559     1.231       17.166      
124.3       336.982     148.285     1.98        3.895       131.769     164.017     161.015     67.71       33.968      125.407     71.989      6.252       2.417       114.683     169.543     1.23        17.325      
124.4       304.69      148.285     1.981       3.717       132.249     157.667     157.901     72.91       34.422      119.672     72.706      5.968       2.407       114.029     168.298     1.231       17.787      
124.5       250.146     148.278     1.994       3.907       131.054     149.337     153.684     77.656      33.366      116.59      72.585      5.673       2.377       113.103     166.072     1.234       19.509      
124.6       186.227     148.333     2.009       3.984       126.988     142.104     150.962     82.765      33.366      116.029     72.902      5.187       2.337       111.956     164.811     1.237       21.035      
124.7       145.297     148.38      2.016       3.868       122.096     138.796     150.247     89.002      32.933      117.286     73.741      5.095       2.314       110.625     164.569     1.237       21.717      
124.8       132.43      148.376     2.016       3.658       119.749     139.318     151.132     96.494      33.571      120.72      72.438      5.157       2.308       109.156     164.19      1.236       21.556      
124.9       126.988     148.345     2.011       3.516       119.31      141.272     154.443     104.053     32.173      124.071     70.822      5.292       2.317       107.571     164.37      1.236       21.242      
125.0       125.161     148.374     2.013       3.57        120.118     144.563     158.709     110.829     33.629      125.423     70.215      5.447       2.341       105.905     165.092     1.236       21.22       
125.1       130.74      148.357     2.021       3.708       121.865     146.424     160.746     116.625     32.173      125.601     70.087      5.258       2.355       104.21      164.359     1.238       22.176      
125.2       143.456     148.357     2.032       3.96        123.083     145.23      160.942     121.05      32.819      124.542     69.979      4.983       2.352       102.531     162.07      1.237       23.144      
125.3       150.129     148.339     2.054       4.131       124.357     142.665     159.793     123.871     32.038      122.355     70.626      4.575       2.335       100.902     160.316     1.236       24.282      
125.4       147.622     148.317     2.082       4.093       125.447     140.355     156.434     125.575     32.34       120.236     71.083      4.376       2.309       99.335      160.044     1.237       25.676      
125.5       144.064     148.261     2.099       3.779       126.619     137.248     152.599     127.577     31.788      119.245     71.083      4.499       2.289       97.798      160.674     1.238       25.496      
125.6       146.728     148.19      2.103       3.773       127.795     133.069     148.926     130.129     31.788      119.361     70.691      4.616       2.275       96.229      162.063     1.24        23.87       
125.7       152.979     148.173     2.104       4.06        127.22      128.936     145.841     132.668     31.553      120.482     69.886      5.028       2.287       94.595      164.27      1.246       22.733      
125.8       147.334     148.2       2.1         4.327       125.99      126.749     143.841     134.496     31.502      122.91      69.886      5.264       2.3         92.91       165.985     1.248       21.359      
