~Version Information Section
VERS.                                         2.0:CWLS log ASCII Standart – VERSION 2.0
WRAP.                                          NO:One line per depth step
~Well Information Section
STRT.M                                        0.6:Начальная глубина
STOP.M                                      196.8:Конечная глубина
STEP.M                                          0:Шаг квантования по глубине
NULL.                                    -9999.25:Признак "Нет данных"
WELL.                                        142К:Скважина
~Parameter Information Section
~Curve Information Section
DEPTH.M                                          :Глубина
BK.Ohm*M                                         :BK     (БК)
DS.mm                                            :DS  (ДС)
GGK.g/cm3                                        :GGKp
ГК.mcr/h                                         :GK          (ГК)
GZ1.Ohm*M                                        :GZ1   ГЗ1(A0.4M0.1N)
GZ2.Ohm*M                                        :GZ2   ГЗ2(A1.0M0.1N)
GZ3.Ohm*M                                        :GZ3   ГЗ3(A2.0M0.5N)
GZ4.Ohm*M                                        :GZ4   ГЗ4(A4.0M0.5N)
GZ5.Ohm*M                                        :GZ5   ГЗ5(A8.0M0.5N)
GZR.                                             :GZR   ГЗK(N0.5M2.0A)
ИК.Ohm*M                                         :IK
НГК.ue                                           :NGK     (НГК)
NNKM.                                            :NNKm  (ННКм)
PS.mv                                            :PS       (ПС)
PZ.Ohm*M                                         :PZ    (КС)
RS.Ohm*M                                         :RS (Резистивиметр)
W.%                                              :W
~ASCII LOG DATA
# ...
133.8       32.434      226.827     2.464       6.924       27.102      24.254      21.906      14.682      17.908      17.737      22.768      1.36        1.349       -278.626    48.228      1.119       23.27       
133.9       33.13       225.329     2.464       6.866       27.919      24.518      22.957      15.802      20.44       20.55       22.924      1.356       1.364       -278.981    49.467      1.119       23.916      
134.0       34.964      224.664     2.459       7.007       29.596      25.361      25.26       18.115      24.162      24.527      23.196      1.343       1.373       -279.125    51.279      1.119       24.141      
134.1       37.87       223.91      2.453       7.326       32.15       26.852      29.027      21.591      28.817      29.41       23.596      1.329       1.378       -279.147    53.593      1.119       24.427      
134.2       41.31       223.251     2.45        7.702       35.503      28.88       34.004      25.857      33.703      34.406      24.11       1.308       1.382       -279.063    56.222      1.119       24.652      
134.3       44.871      223.432     2.453       7.706       39.383      31.084      39.17       29.944      37.778      38.275      24.662      1.297       1.385       -278.705    58.888      1.119       23.783      
134.4       50.562      222.02      2.46        7.592       43.421      32.839      42.966      32.626      40.081      40.139      25.209      1.285       1.397       -278.047    61.19       1.119       22.542      
134.5       63.463      220.71      2.468       7.203       47.226      33.817      44.491      33.586      40.594      40.446      25.572      1.27        1.409       -277.048    62.794      1.119       21.272      
134.6       86.965      219.986     2.475       6.905       50.482      34.136      44.483      33.559      40.596      40.339      25.938      1.24        1.421       -275.791    63.579      1.119       20.269      
134.7       120.786     220.376     2.48        6.622       52.961      34.132      44.256      33.248      40.108      39.457      26.433      1.304       1.436       -274.361    63.739      1.119       20.046      
134.8       148.695     220.452     2.48        6.45        54.574      34.067      42.791      31.896      37.907      36.921      26.917      1.43        1.458       -272.95     63.709      1.119       20.077      
134.9       153.347     220.551     2.476       6.187       55.336      33.781      39.045      29.046      34.076      33.345      26.942      1.377       1.49        -271.605    63.46       1.119       19.865      
135.0       127.226     221.784     2.471       6.074       55.49       33.351      34.199      25.671      29.581      29.883      26.497      1.35        1.514       -270.415    62.744      1.119       20.134      
135.1       87.662      222.699     2.467       6.077       55.456      33.212      29.682      22.752      25.323      27.215      25.975      1.486       1.543       -269.548    61.72       1.119       20.585      
135.2       58.882      223.248     2.463       6.242       55.169      33.212      26.225      20.526      21.81       25.366      25.32       1.55        1.564       -269.094    60.658      1.119       20.582      
135.3       50.619      223.783     2.455       6.368       54.289      33.235      23.825      18.918      19.134      24.124      24.766      1.733       1.582       -268.971    59.709      1.119       20.818      
135.4       62.481      224.125     2.446       6.699       52.822      33.427      22.172      17.697      17.158      23.214      24.125      1.599       1.597       -268.96     58.911      1.119       22.062      
135.5       82.147      224.932     2.436       7.034       50.886      33.996      20.901      16.604      15.685      22.469      23.591      1.332       1.477       -268.96     58.227      1.119       23.518      
135.6       97.329      225.336     2.43        7.371       48.567      34.819      19.784      15.546      14.546      21.882      23.435      1.299       1.356       -269.003    57.635      1.119       25.029      
135.7       94.993      225.897     2.431       7.4         45.978      35.586      18.805      14.549      13.628      21.491      23.354      1.291       1.334       -269.224    57.087      1.119       26.274      
135.8       78.123      227.247     2.436       7.371       43.268      36.045      18.031      13.669      12.887      21.306      22.938      1.296       1.296       -269.674    56.531      1.119       26.626      
135.9       59.579      228.422     2.44        7.294       40.571      36.144      17.515      12.965      12.331      21.274      22.324      1.257       1.278       -270.286    55.929      1.119       26.586      
136.0       47.861      231.676     2.434       7.304       37.984      36.124      17.278      12.476      11.96       21.274      21.656      1.098       1.27        -271.072    55.224      1.119       26.743      
136.1       42.869      233.973     2.421       7.484       35.675      35.953      17.253      12.201      11.747      21.285      20.992      1.122       1.267       -272.001    54.384      1.119       26.602      
136.2       40.366      235.473     2.404       7.649       33.728      35.422      17.253      12.112      11.657      21.38       20.355      1.169       1.276       -273.14     53.468      1.119       26.408      
136.3       38.879      235.523     2.395       7.772       32.09       34.565      17.277      12.112      11.639      21.682      19.859      1.151       1.283       -274.507    52.519      1.119       26.789      
136.4       36.996      235.639     2.399       7.57        30.725      33.569      17.483      12.114      11.639      22.212      19.486      1.142       1.268       -276.106    51.548      1.118       27.271      
136.5       34.245      235.737     2.416       7.283       29.64       32.557      18.122      12.134      11.641      22.944      19.097      1.226       1.253       -277.954    50.597      1.118       27.638      
136.6       31.421      235.785     2.438       6.899       28.762      31.509      19.221      12.214      11.657      23.822      18.646      1.239       1.278       -280.086    49.708      1.118       27.901      
136.7       29.706      235.608     2.454       6.622       28.03       30.344      20.716      12.339      11.689      24.75       18.27       1.306       1.309       -282.503    48.874      1.118       27.633      
136.8       29.482      235.337     2.46        6.168       27.423      29.011      22.434      12.413      11.711      25.624      18.071      1.266       1.316       -285.054    48.087      1.118       27.445      
136.9       30.105      233.605     2.451       5.957       26.939      27.526      24.051      12.431      11.716      26.355      17.982      1.226       1.319       -287.576    47.354      1.118       26.812      
137.0       30.565      233.199     2.435       6.086       26.567      25.962      25.266      12.425      11.711      26.893      18.018      1.18        1.333       -289.976    46.661      1.118       25.884      
137.1       30.075      233.262     2.417       6.76        26.325      24.45       25.954      12.371      11.678      27.24       18.032      1.157       1.382       -292.15     46.016      1.118       24.747      
137.2       28.705      233.053     2.403       7.441       26.224      23.168      26.177      12.198      11.584      27.432      18.061      1.229       1.419       -294.0      45.442      1.118       24.055      
137.3       27.047      233.204     2.395       7.778       26.224      22.25       26.174      11.909      11.422      27.521      18.107      1.259       1.395       -295.54     44.984      1.118       23.654      
137.4       25.753      233.068     2.392       7.822       26.225      21.719      26.14       11.569      11.217      27.559      18.134      1.338       1.371       -296.827    44.678      1.118       24.055      
