~Version Information Section
VERS.                                         2.0:CWLS log ASCII Standart – VERSION 2.0
WRAP.                                          NO:One line per depth step
~Well Information Section
STRT.M                                        0.6:Начальная глубина
STOP.M                                      196.8:Конечная глубина
STEP.M                                          0:Шаг квантования по глубине
NULL.                                    -9999.25:Признак "Нет данных"
WELL.                                        142К:Скважина
~Parameter Information Section
~Curve Information Section
DEPTH.M                                          :Глубина
BK.Ohm*M                                         :BK     (БК)
DS.mm                                            :DS  (ДС)
GGK.g/cm3                                        :GGKp
ГК.mcr/h                                         :GK          (ГК)
GZ1.Ohm*M                                        :GZ1   ГЗ1(A0.4M0.1N)
GZ2.Ohm*M                                        :GZ2   ГЗ2(A1.0M0.1N)
GZ3.Ohm*M                                        :GZ3   ГЗ3(A2.0M0.5N)
GZ4.Ohm*M                                        :GZ4   ГЗ4(A4.0M0.5N)
GZ5.Ohm*M                                        :GZ5   ГЗ5(A8.0M0.5N)
GZR.                                             :GZR   ГЗK(N0.5M2.0A)
ИК.Ohm*M                                         :IK
НГК.ue                                           :NGK     (НГК)
NNKM.                                            :NNKm  (ННКм)
PS.mv                                            :PS       (ПС)
PZ.Ohm*M                                         :PZ    (КС)
RS.Ohm*M                                         :RS (Резистивиметр)
W.%                                              :W
~ASCII LOG DATA
# ...
107.9       101.196     212.749     2.236       3.843       143.829     66.967      66.005      46.179      12.163      57.035      34.823      1.258       1.493       -276.404    78.675      1.115       24.147      
108.0       100.914     212.424     2.249       3.856       149.371     70.265      65.037      48.131      11.827      55.458      34.66       1.404       1.529       -276.212    84.77       1.115       24.026      
108.1       103.102     211.933     2.264       3.999       155.284     74.713      64.351      50.289      11.277      53.536      34.063      1.423       1.557       -276.165    91.471      1.115       24.05       
108.2       101.328     211.628     2.278       4.122       161.763     79.707      63.675      52.392      10.577      51.071      33.527      1.374       1.55        -276.162    97.846      1.115       24.16       
108.3       99.51       211.36      2.287       4.179       167.092     83.677      62.701      53.723      9.77        48.03       32.827      1.382       1.542       -276.162    102.653     1.115       24.644      
108.4       102.277     210.992     2.286       4.158       169.238     85.331      61.147      54.057      8.89        44.578      31.745      1.398       1.552       -276.185    104.788     1.115       24.988      
108.5       108.124     210.474     2.28        4.073       169.121     85.299      58.729      53.968      7.972       41.037      30.535      1.411       1.571       -276.307    104.89      1.115       25.607      
108.6       112.222     210.296     2.273       4.002       167.75      84.805      55.293      53.179      7.059       37.788      29.432      1.418       1.579       -276.584    104.675     1.115       26.491      
108.7       113.13      210.184     2.267       3.927       161.513     82.135      50.941      50.562      6.206       35.151      28.573      1.421       1.57        -277.071    102.912     1.115       27.17       
108.8       110.823     210.284     2.263       3.867       146.822     75.444      46.012      45.846      5.459       33.28       27.822      1.414       1.563       -277.852    97.831      1.115       26.994      
108.9       106.417     210.595     2.262       3.805       124.902     65.818      41.017      39.735      4.848       32.133      27.219      1.377       1.584       -278.924    90.191      1.115       26.574      
109.0       100.088     211.228     2.262       3.815       99.451      55.271      36.507      33.401      4.383       31.548      26.755      1.334       1.61        -280.224    81.332      1.115       25.295      
109.1       89.399      211.549     2.265       3.848       75.313      45.76       32.873      27.872      4.061       31.33       26.208      1.249       1.587       -281.672    72.802      1.115       23.96       
109.2       72.378      212.413     2.274       3.858       56.129      38.381      30.265      23.672      3.862       31.294      25.445      1.401       1.553       -283.124    65.576      1.115       22.88       
109.3       50.619      213.168     2.29        3.924       43.647      33.355      28.61       20.872      3.765       31.294      24.43       1.501       1.548       -284.387    59.94       1.115       22.107      
109.4       31.837      213.267     2.31        4.111       37.039      30.192      27.695      19.231      3.74        31.299      23.052      1.361       1.555       -285.179    56.006      1.115       21.734      
109.5       21.251      213.5       2.333       4.511       34.665      28.332      27.283      18.383      3.739       31.34       21.701      1.353       1.562       -285.523    53.611      1.115       22.16       
109.6       19.977      213.919     2.354       4.927       34.388      27.315      27.179      18.005      3.739       31.469      20.876      1.454       1.58        -285.59     52.376      1.115       22.626      
109.7       25.442      214.543     2.375       5.347       34.388      26.814      27.179      17.892      3.756       31.69       20.752      1.442       1.595       -285.551    51.91       1.115       23.199      
109.8       34.876      212.513     2.395       5.619       34.455      26.656      27.187      17.892      3.843       32.015      21.3        1.38        1.542       -285.326    51.861      1.115       23.754      
109.9       43.995      212.658     2.421       5.524       34.964      26.656      27.261      17.894      4.036       32.506      22.566      1.447       1.472       -284.731    51.861      1.115       23.004      
110.0       48.504      214.948     2.451       5.321       36.214      26.672      27.546      17.92       4.367       33.298      24.412      1.513       1.476       -283.746    51.885      1.115       22.11       
110.1       47.19       214.616     2.483       5.113       37.696      26.841      28.19       18.068      4.875       34.64       26.089      1.333       1.512       -282.673    52.077      1.115       21.499      
110.2       42.967      216.746     2.506       5.363       39.437      27.544      29.348      18.509      5.588       36.801      27.235      1.288       1.536       -281.582    52.637      1.115       20.831      
110.3       39.162      226.28      2.513       5.826       41.898      29.229      31.248      19.395      6.524       39.954      28.104      1.401       1.583       -280.447    53.546      1.115       21.08       
110.4       37.411      228.547     2.498       6.491       46.077      32.204      34.104      20.926      7.687       44.055      28.863      1.409       1.62        -279.217    54.841      1.115       24.093      
110.5       37.965      221.067     2.467       6.978       53.157      36.68       38.062      23.283      9.063       48.804      29.683      1.454       1.545       -277.865    56.558      1.115       26.711      
110.6       42.488      213.314     2.428       7.157       64.263      42.604      43.102      26.558      10.623      53.67       30.389      1.343       1.47        -276.264    58.706      1.115       27.745      
110.7       54.765      212.787     2.393       7.099       80.123      49.631      49.037      30.687      12.329      58.028      31.386      1.231       1.38        -274.247    61.308      1.115       28.678      
110.8       75.524      212.518     2.366       6.91        100.423     57.215      55.53       35.44       14.134      61.345      32.59       1.269       1.268       -271.753    64.606      1.115       29.332      
110.9       100.284     212.483     2.352       6.626       123.488     64.799      62.153      40.492      15.991      63.3        33.929      1.288       1.269       -268.873    69.155      1.115       28.477      
111.0       121.286     212.469     2.348       6.181       147.123     71.984      68.523      45.46       17.855      63.987      35.402      1.291       1.327       -265.713    75.497      1.114       27.524      
111.1       137.369     212.005     2.35        5.866       168.887     78.698      74.369      50.016      19.699      63.982      36.963      1.304       1.369       -262.326    84.152      1.114       27.525      
111.2       150.376     211.681     2.353       5.752       186.589     85.24       79.43       54.007      21.509      63.874      37.962      1.371       1.406       -258.952    95.482      1.114       27.485      
111.3       159.802     211.496     2.358       5.422       198.668     92.072      83.307      57.32       23.282      63.227      38.292      1.387       1.435       -255.76     109.044     1.114       26.689      
111.4       162.285     212.092     2.362       5.086       204.785     99.479      85.575      59.651      25.003      61.532      38.238      1.404       1.46        -252.869    123.152     1.114       25.726      
111.5       159.289     213.46      2.36        4.926       206.382     107.211     86.296      60.657      26.62       58.952      38.011      1.351       1.491       -250.464    135.818     1.114       25.84       
