~Version Information Section
VERS.                                         2.0:CWLS log ASCII Standart – VERSION 2.0
WRAP.                                          NO:One line per depth step
~Well Information Section
STRT.M                                        0.1:Начальная глубина
STOP.M                                      168.3:Конечная глубина
STEP.M                                          0:Шаг квантования по глубине
NULL.                                    -9999.25:Признак "Нет данных"
WELL.                                        152К:Скважина
~Parameter Information Section
~Curve Information Section
DEPTH.M                                          :Глубина
БК.Омм                                           :BK     (БК)
DСР.мм                                           :DS  (ДС)
ПЛОТНОСТЬ.г/см^3                                 :GGKp
ГК.мкР/ч                                         :GK          (ГК)
А0.4М0.1N.Омм                                    :GZ1   ГЗ1(A0.4M0.1N)
А1.0М0.1N.Омм                                    :GZ2   ГЗ2(A1.0M0.1N)
А2.0М0.5N.Омм                                    :GZ3   ГЗ3(A2.0M0.5N)
А4.0М0.5N.Oмм                                    :GZ4   ГЗ4(A4.0M0.5N)
А8.0М1.0N.Омм                                    :GZ5   ГЗ5(A8.0M0.5N)
N0.5M2.0A.Омм                                    :GZR   ГЗK(N0.5M2.0A)
ИК.мСм/м                                         :IK
БЗ.ue                                            :NNKb  (ННКб)
МЗ.ue                                            :NNKm  (ННКм)
ПС.mv                                            :PS       (ПС)
N11.0M0.5A.Омм                                   :PZ    (КС)
R.Омм                                            :RS (Резистивиметр)
ПОРИСТОСТЬ.                                      :W
~ASCII LOG DATA
# ...
88.9        43.758      228.444     2.272       6.647       28.915      27.699      30.102      29.596      26.711      29.663      24.393      2.566       1.664       79.168      43.895      1.192       36.414      
89.0        41.985      228.444     2.27        6.335       28.446      26.823      31.36       32.105      29.406      35.743      25.042      2.539       1.673       79.313      44.316      1.199       36.827      
89.1        37.391      228.092     2.272       5.898       28.19       27.967      33.957      36.062      33.421      43.482      25.495      2.584       1.679       79.174      44.621      1.198       36.892      
89.2        35.812      223.882     2.282       5.755       28.979      30.184      38.122      41.946      37.788      52.452      25.768      2.709       1.693       78.778      45.329      1.201       36.314      
89.3        39.442      218.334     2.296       5.557       30.635      33.597      43.586      49.343      44.913      61.914      26.11       2.799       1.728       78.137      46.706      1.206       35.274      
89.4        46.722      213.561     2.304       5.437       33.397      36.977      49.699      57.339      49.752      71.029      26.426      2.905       1.775       77.266      48.342      1.207       34.676      
89.5        62.911      211.58      2.309       5.082       37.369      40.51       56.703      64.547      54.85       78.27       26.993      2.974       1.81        76.185      49.919      1.205       33.688      
89.6        97.961      211.4       2.301       4.798       43.545      45.755      64.411      70.162      55.737      81.38       27.865      3.036       1.834       74.93       52.079      1.2         32.767      
89.7        118.087     211.4       2.291       4.456       52.15       51.892      70.018      72.573      57.397      81.606      28.598      3.176       1.854       73.57       54.427      1.193       32.195      
89.8        122.551     211.154     2.287       4.004       59.998      55.76       71.785      72.509      58.263      79.007      29.097      3.206       1.869       72.208      56.487      1.195       31.277      
89.9        146.31      211.742     2.287       3.601       63.128      56.243      70.305      69.967      57.443      71.642      29.408      3.215       1.887       70.931      58.367      1.197       30.808      
90.0        168.81      211.734     2.288       3.702       62.666      54.052      65.049      63.327      55.957      62.158      29.512      3.212       1.899       69.793      58.512      1.194       30.47       
90.1        169.87      211.64      2.291       4.132       60.593      49.367      56.46       54.561      53.302      53.104      29.61       3.085       1.869       68.831      56.161      1.191       30.507      
90.2        144.892     211.64      2.288       4.536       57.172      46.499      47.241      45.804      48.429      45.797      29.551      3.034       1.828       68.019      53.983      1.184       30.559      
90.3        104.971     214.695     2.276       4.72        54.816      44.438      38.886      38.822      42.9        40.928      29.312      3.101       1.791       67.32       53.571      1.189       30.876      
90.4        65.765      217.179     2.266       4.921       51.722      42.75       32.571      33.889      36.77       38.629      28.976      2.999       1.768       66.717      53.206      1.191       31.999      
90.5        47.707      220.091     2.256       5.154       44.898      41.13       28.299      30.715      30.811      38.159      28.62       2.837       1.763       66.213      51.578      1.192       32.855      
90.6        47.103      220.617     2.247       5.312       36.209      37.155      24.658      27.617      26.248      37.205      27.624      2.731       1.75        65.831      49.294      1.194       34.591      
90.7        37.909      219.741     2.241       5.333       29.995      33.197      21.495      24.407      23.36       35.092      26.979      2.558       1.719       65.609      47.418      1.194       35.821      
90.8        28.762      217.018     2.243       5.145       28.076      31.594      19.048      21.844      21.125      32.543      26.439      2.506       1.697       65.534      46.326      1.195       36.647      
90.9        28.855      214.789     2.246       5.151       27.962      31.824      17.595      20.012      19.272      30.626      26.025      2.505       1.674       65.556      46.057      1.196       37.063      
91.0        33.288      212.136     2.246       5.241       28.864      31.908      17.084      19.316      18.352      29.859      25.693      2.473       1.664       65.645      47.125      1.196       36.946      
91.1        38.434      212.136     2.246       5.404       31.454      31.791      17.006      19.071      17.848      29.684      26.101      2.558       1.667       65.795      49.235      1.196       36.191      
91.2        43.408      217.46      2.249       5.244       34.547      31.858      17.184      19.176      17.848      29.68       26.818      2.631       1.676       65.98       51.291      1.196       35.415      
91.3        47.057      222.81      2.251       5.1         36.442      31.897      17.759      19.596      18.487      29.901      27.675      2.73        1.688       66.196      53.394      1.197       34.163      
91.4        48.974      227.326     2.243       5.084       37.179      32.152      18.792      20.206      19.32       30.335      28.704      2.797       1.699       66.44       55.094      1.198       33.632      
91.5        50.665      228.495     2.237       5.011       37.641      33.296      20.473      21.606      20.336      31.182      29.432      2.75        1.713       66.685      55.585      1.2         33.609      
91.6        52.571      229.87      2.234       4.767       38.31       36.74       23.009      23.682      20.915      32.49       30.207      2.708       1.71        66.902      56.186      1.2         34.44       
91.7        54.129      230.327     2.234       4.672       40.039      42.3        26.659      25.648      21.603      33.648      30.788      2.621       1.699       67.053      57.709      1.196       34.744      
91.8        55.621      231.751     2.229       4.83        43.677      48.633      31.115      26.816      22.261      34.132      31.048      2.607       1.698       67.092      59.352      1.196       34.532      
91.9        57.385      233.63      2.226       4.997       48.391      53.532      35.895      27.05       22.469      34.017      31.316      2.706       1.696       67.017      60.962      1.195       33.547      
92.0        58.954      234.133     2.236       4.846       51.7        55.426      40.43       27.11       23.285      33.293      31.448      2.727       1.684       66.853      62.172      1.195       32.957      
92.1        64.488      234.452     2.242       4.633       52.657      55.751      44.22       27.107      23.92       31.984      31.382      2.705       1.671       66.638      62.501      1.197       33.416      
92.2        87.772      234.452     2.243       4.588       52.131      54.948      46.767      27.055      24.456      30.891      31.233      2.592       1.653       66.393      62.447      1.197       34.741      
92.3        98.6        233.896     2.241       4.735       50.677      53.767      48.15       27.006      24.456      30.495      30.962      2.511       1.637       66.157      62.462      1.197       35.71       
92.4        74.271      233.112     2.244       4.931       49.585      53.39       49.474      27.325      25.414      30.69       30.515      2.441       1.63        65.961      62.971      1.201       35.909      
92.5        56.143      232.352     2.261       5.129       49.421      54.738      51.287      28.215      26.483      31.689      29.388      2.527       1.626       65.821      64.227      1.203       34.882      
