~Version Information Section
VERS.                                         2.0:CWLS log ASCII Standart – VERSION 2.0
WRAP.                                          NO:One line per depth step
~Well Information Section
STRT.M                                        0.6:Начальная глубина
STOP.M                                      196.8:Конечная глубина
STEP.M                                          0:Шаг квантования по глубине
NULL.                                    -9999.25:Признак "Нет данных"
WELL.                                        142К:Скважина
~Parameter Information Section
~Curve Information Section
DEPTH.M                                          :Глубина
BK.Ohm*M                                         :BK     (БК)
DS.mm                                            :DS  (ДС)
GGK.g/cm3                                        :GGKp
ГК.mcr/h                                         :GK          (ГК)
GZ1.Ohm*M                                        :GZ1   ГЗ1(A0.4M0.1N)
GZ2.Ohm*M                                        :GZ2   ГЗ2(A1.0M0.1N)
GZ3.Ohm*M                                        :GZ3   ГЗ3(A2.0M0.5N)
GZ4.Ohm*M                                        :GZ4   ГЗ4(A4.0M0.5N)
GZ5.Ohm*M                                        :GZ5   ГЗ5(A8.0M0.5N)
GZR.                                             :GZR   ГЗK(N0.5M2.0A)
ИК.Ohm*M                                         :IK
НГК.ue                                           :NGK     (НГК)
NNKM.                                            :NNKm  (ННКм)
PS.mv                                            :PS       (ПС)
PZ.Ohm*M                                         :PZ    (КС)
RS.Ohm*M                                         :RS (Резистивиметр)
W.%                                              :W
~ASCII LOG DATA
# ...
78.3        83.397      218.804     2.449       5.278       19.118      18.008      14.199      12.655      7.259       18.445      16.545      1.421       1.433       -297.281    25.655      1.115       23.209      
78.4        85.115      219.458     2.449       5.42        19.118      18.012      14.219      12.655      7.259       19.031      16.369      1.442       1.443       -298.726    25.655      1.115       22.35       
78.5        83.82       219.848     2.448       5.344       19.129      18.063      14.38       12.665      7.267       19.96       16.236      1.44        1.45        -300.268    25.669      1.115       21.998      
78.6        80.854      220.877     2.445       5.15        19.217      18.282      14.854      12.751      7.309       21.116      16.225      1.439       1.456       -301.907    25.789      1.115       23.268      
78.7        77.998      221.836     2.443       4.918       19.476      18.779      15.597      13.024      7.398       22.302      16.22       1.409       1.454       -303.539    26.168      1.115       24.537      
78.8        75.42       224.365     2.443       4.899       19.909      19.51       16.536      13.508      7.529       23.27       16.258      1.404       1.452       -305.171    26.785      1.115       24.605      
78.9        72.996      225.465     2.445       5.041       20.559      20.407      17.591      14.198      7.689       23.825      16.389      1.501       1.431       -306.724    27.531      1.115       24.702      
79.0        70.9        225.04      2.445       5.192       21.454      21.383      18.687      15.064      7.856       23.991      16.618      1.501       1.396       -308.136    28.315      1.116       24.38       
79.1        69.605      225.948     2.439       5.315       22.602      22.364      19.774      16.033      8.005       23.979      16.826      1.507       1.402       -309.243    29.024      1.116       23.227      
79.2        69.74       228.638     2.426       5.277       23.953      23.263      20.82       16.998      8.107       23.865      17.128      1.507       1.452       -309.992    29.606      1.116       22.429      
79.3        71.241      233.333     2.41        5.727       25.383      24.028      21.811      17.793      8.153       23.471      17.435      1.501       1.481       -310.379    30.064      1.116       23.275      
79.4        72.972      235.305     2.394       6.209       26.706      24.647      22.718      18.259      8.162       22.755      17.762      1.501       1.431       -310.561    30.452      1.116       24.274      
79.5        71.747      237.328     2.381       7.409       27.693      25.08       23.469      18.405      8.157       21.875      18.029      1.296       1.38        -310.604    30.822      1.116       25.689      
79.6        67.031      242.739     2.373       8.128       28.171      25.271      23.961      18.395      8.127       20.974      18.108      1.255       1.289       -310.529    31.209      1.116       27.104      
79.7        60.268      240.826     2.364       8.61        28.254      25.29       24.154      18.295      8.047       20.108      17.989      1.116       1.198       -310.238    31.603      1.116       28.92       
79.8        56.973      242.418     2.351       8.373       28.228      25.278      24.161      17.945      7.924       19.307      17.891      1.116       1.187       -309.822    31.93       1.116       30.333      
79.9        57.66       240.686     2.337       7.664       28.013      25.177      24.145      17.307      7.784       18.615      17.822      1.172       1.167       -309.349    32.1        1.116       31.535      
80.0        60.849      240.977     2.327       7.192       27.379      24.881      24.015      16.567      7.647       18.087      17.67       1.172       1.154       -308.942    32.134      1.116       32.213      
80.1        62.855      239.255     2.326       7.267       26.42       24.424      23.666      15.927      7.526       17.76       17.36       1.187       1.145       -308.698    32.123      1.116       32.695      
80.2        62.856      238.909     2.332       7.816       25.35       23.885      23.229      15.486      7.433       17.647      17.098      1.187       1.138       -308.62     32.027      1.116       32.155      
80.3        61.164      238.735     2.341       7.712       24.35       23.366      22.852      15.283      7.371       17.647      16.971      1.167       1.138       -308.612    31.738      1.116       31.537      
80.4        58.386      238.201     2.352       7.06        23.505      22.907      22.62       15.249      7.339       17.652      16.797      1.163       1.138       -308.615    31.272      1.116       30.67       
80.5        55.01       237.924     2.361       6.465       22.849      22.501      22.546      15.249      7.33        17.704      16.603      1.181       1.148       -308.643    30.729      1.116       29.823      
80.6        51.539      237.648     2.367       6.521       22.392      22.163      22.546      15.261      7.329       17.923      16.438      1.181       1.162       -308.753    30.22       1.116       29.999      
80.7        48.591      237.157     2.373       6.625       22.108      21.859      22.55       15.36       7.329       18.396      16.278      1.079       1.176       -309.02     29.8        1.116       30.653      
80.8        46.974      234.404     2.379       6.672       21.993      21.557      22.583      15.65       7.333       19.047      16.054      1.053       1.203       -309.438    29.462      1.116       30.166      
80.9        46.891      230.859     2.385       6.851       21.993      21.25       22.696      16.101      7.349       19.765      15.843      1.32        1.216       -309.905    29.171      1.116       29.356      
81.0        48.026      230.112     2.392       6.984       21.993      20.928      22.878      16.671      7.381       20.4        15.759      1.308       1.203       -310.329    28.895      1.116       28.454      
81.1        49.651      230.468     2.4         7.041       22.008      20.602      23.029      17.307      7.42        20.833      15.749      1.246       1.193       -310.607    28.612      1.116       26.426      
81.2        50.944      232.48      2.412       6.965       22.123      20.35       23.099      17.923      7.457       21.032      15.839      1.246       1.242       -310.784    28.311      1.116       24.19       
81.3        50.608      235.497     2.424       7.098       22.445      20.173      23.098      18.452      7.488       21.066      15.979      1.234       1.303       -310.83     28.023      1.116       25.04       
81.4        47.315      233.668     2.434       7.305       22.905      20.029      23.082      18.858      7.511       21.058      16.088      1.234       1.339       -310.773    27.786      1.116       26.519      
81.5        41.253      233.268     2.437       7.419       23.397      19.926      22.987      19.109      7.525       20.99       16.164      1.234       1.378       -310.515    27.625      1.116       27.648      
81.6        34.396      233.273     2.433       7.305       23.808      19.876      22.74       19.206      7.531       20.801      16.125      1.234       1.373       -310.029    27.545      1.116       28.797      
81.7        29.821      233.522     2.423       7.098       24.074      19.878      22.389      19.211      7.536       20.548      16.051      1.184       1.29        -309.345    27.525      1.116       29.951      
81.8        29.369      234.023     2.412       6.984       24.178      19.897      22.007      19.203      7.537       20.307      15.886      1.184       1.229       -308.578    27.516      1.116       29.23       
81.9        32.276      234.626     2.4         6.947       24.173      19.957      21.622      19.136      7.535       20.112      15.776      1.092       1.242       -307.933    27.499      1.116       28.509      
