~Version Information Section
VERS.                                         2.0:CWLS log ASCII Standart – VERSION 2.0
WRAP.                                          NO:One line per depth step
~Well Information Section
STRT.M                                        0.1:Начальная глубина
STOP.M                                      168.3:Конечная глубина
STEP.M                                          0:Шаг квантования по глубине
NULL.                                    -9999.25:Признак "Нет данных"
WELL.                                        152К:Скважина
~Parameter Information Section
~Curve Information Section
DEPTH.M                                          :Глубина
БК.Омм                                           :BK     (БК)
DСР.мм                                           :DS  (ДС)
ПЛОТНОСТЬ.г/см^3                                 :GGKp
ГК.мкР/ч                                         :GK          (ГК)
А0.4М0.1N.Омм                                    :GZ1   ГЗ1(A0.4M0.1N)
А1.0М0.1N.Омм                                    :GZ2   ГЗ2(A1.0M0.1N)
А2.0М0.5N.Омм                                    :GZ3   ГЗ3(A2.0M0.5N)
А4.0М0.5N.Oмм                                    :GZ4   ГЗ4(A4.0M0.5N)
А8.0М1.0N.Омм                                    :GZ5   ГЗ5(A8.0M0.5N)
N0.5M2.0A.Омм                                    :GZR   ГЗK(N0.5M2.0A)
ИК.мСм/м                                         :IK
БЗ.ue                                            :NNKb  (ННКб)
МЗ.ue                                            :NNKm  (ННКм)
ПС.mv                                            :PS       (ПС)
N11.0M0.5A.Омм                                   :PZ    (КС)
R.Омм                                            :RS (Резистивиметр)
ПОРИСТОСТЬ.                                      :W
~ASCII LOG DATA
# ...
26.0        -9999.25    -9999.25    1.793       3.769       -9999.25    -9999.25    -9999.25    1570.235    -9999.25    -0.167      -9999.25    1.439       1.237       -9999.25    -9999.25    1.108       49.748      
26.1        -9999.25    -9999.25    1.791       3.756       -9999.25    -9999.25    -9999.25    1573.329    -9999.25    -0.165      -9999.25    1.385       1.23        -9999.25    -9999.25    1.111       52.633      
26.2        -9999.25    -9999.25    1.793       3.829       -9999.25    -9999.25    -9999.25    1579.238    -9999.25    -0.167      -9999.25    1.342       1.224       -9999.25    -9999.25    1.115       53.875      
26.3        -9999.25    -9999.25    1.798       3.48        -9999.25    -9999.25    -9999.25    1587.64     -9999.25    -0.169      -9999.25    1.32        1.222       -9999.25    -9999.25    1.116       53.828      
26.4        -9999.25    -9999.25    1.787       3.041       -9999.25    -9999.25    -9999.25    1600.927    -9999.25    -0.169      -9999.25    1.363       1.225       -9999.25    -9999.25    1.118       52.064      
26.5        -9999.25    -9999.25    1.772       2.903       -9999.25    -9999.25    -9999.25    1619.983    -9999.25    -0.168      -9999.25    1.443       1.225       -9999.25    -9999.25    1.119       50.304      
26.6        -9999.25    -9999.25    1.775       2.958       -9999.25    -9999.25    -9999.25    1657.883    -9999.25    -0.164      -9999.25    1.543       1.232       -9999.25    -9999.25    1.12        48.366      
26.7        -9999.25    -9999.25    1.786       3.04        -9999.25    -9999.25    -9999.25    1702.214    -9999.25    -0.158      -9999.25    1.597       1.249       -9999.25    -9999.25    1.123       47.733      
26.8        -9999.25    -9999.25    1.798       2.893       -9999.25    -9999.25    -9999.25    1731.981    -9999.25    -0.152      -9999.25    1.566       1.266       -9999.25    -9999.25    1.124       47.673      
26.9        -9999.25    -9999.25    1.803       2.745       -9999.25    -9999.25    -9999.25    1747.8      -9999.25    -0.148      -9999.25    1.608       1.282       -9999.25    -9999.25    1.125       47.64       
27.0        -9999.25    -9999.25    1.804       2.722       -9999.25    -9999.25    -9999.25    1765.383    -9999.25    -0.146      -9999.25    1.599       1.3         -9999.25    -9999.25    1.127       46.964      
27.1        -9999.25    -9999.25    1.798       2.756       -9999.25    -9999.25    -9999.25    1781.891    -9999.25    -0.142      -9999.25    1.607       1.312       -9999.25    -9999.25    1.127       46.054      
27.2        -9999.25    -9999.25    1.787       2.873       -9999.25    -9999.25    -9999.25    1794.926    -9999.25    -0.14       -9999.25    1.666       1.306       -9999.25    -9999.25    1.129       45.705      
27.3        -9999.25    -9999.25    1.761       2.904       -9999.25    -9999.25    -9999.25    1807.354    -9999.25    -0.141      -9999.25    1.602       1.304       -9999.25    -9999.25    1.131       45.995      
27.4        -9999.25    -9999.25    1.73        2.866       -9999.25    -9999.25    -9999.25    1797.224    -9999.25    -0.139      -9999.25    1.574       1.292       -9999.25    -9999.25    1.13        47.109      
27.5        -9999.25    -9999.25    1.725       2.876       -9999.25    -9999.25    -9999.25    1783.173    -9999.25    -0.139      -9999.25    1.513       1.272       -9999.25    -9999.25    1.133       47.645      
27.6        -9999.25    -9999.25    1.726       2.972       -9999.25    -9999.25    -9999.25    1781.411    -9999.25    -0.144      -9999.25    1.495       1.262       -9999.25    -9999.25    1.135       47.625      
27.7        -9999.25    -9999.25    1.715       3.182       -9999.25    -9999.25    -9999.25    1773.694    -9999.25    -0.145      -9999.25    1.536       1.249       -9999.25    -9999.25    1.133       47.211      
27.8        -9999.25    -9999.25    1.702       3.347       -9999.25    -9999.25    -9999.25    1771.834    -9999.25    -0.148      -9999.25    1.566       1.241       -9999.25    -9999.25    1.134       45.396      
27.9        -9999.25    -9999.25    1.709       3.249       -9999.25    -9999.25    -9999.25    1779.366    -9999.25    -0.155      -9999.25    1.65        1.247       -9999.25    -9999.25    1.138       44.025      
28.0        -9999.25    -9999.25    1.732       2.999       -9999.25    -9999.25    -9999.25    1778.006    -9999.25    -0.158      -9999.25    1.714       1.251       -9999.25    -9999.25    1.138       43.76       
28.1        -9999.25    -9999.25    1.748       2.879       -9999.25    -9999.25    -9999.25    1785.296    -9999.25    -0.152      -9999.25    1.596       1.255       -9999.25    -9999.25    1.136       44.625      
28.2        -9999.25    -9999.25    1.761       2.871       -9999.25    -9999.25    -9999.25    1795.622    -9999.25    -0.156      -9999.25    1.574       1.259       -9999.25    -9999.25    1.137       45.446      
28.3        -9999.25    -9999.25    1.761       3.128       3.781       -9999.25    -9999.25    1795.622    -9999.25    -0.16       -9999.25    1.566       1.251       -9999.25    -9999.25    1.138       45.591      
28.4        -9999.25    -9999.25    1.753       3.352       3.79        -9999.25    -9999.25    1810.517    -9999.25    -0.159      -9999.25    1.546       1.245       -9999.25    -9999.25    1.138       45.055      
28.5        -9999.25    -9999.25    1.741       3.588       3.796       -9999.25    -9999.25    1837.275    -9999.25    -0.159      -9999.25    1.587       1.243       -9999.25    0.215       1.139       44.865      
28.6        -9999.25    -9999.25    1.731       3.694       3.805       -9999.25    -9999.25    1858.973    -9999.25    -0.159      -9999.25    1.569       1.23        -9999.25    0.216       1.137       45.701      
28.7        -9999.25    -9999.25    1.725       3.816       3.813       -9999.25    -9999.25    1870.628    -9999.25    -0.155      -9999.25    1.53        1.224       95.564      0.218       1.139       47.01       
28.8        -9999.25    -9999.25    1.721       3.79        3.82        -9999.25    -9999.25    1868.83     -9999.25    -0.152      -9999.25    1.444       1.211       95.113      0.218       1.139       49.609      
28.9        -9999.25    -9999.25    1.738       3.568       3.827       -0.094      -9999.25    1862.201    -9999.25    -0.15       -9999.25    1.434       1.211       94.633      0.221       1.138       50.596      
29.0        -9999.25    -9999.25    1.759       3.266       3.835       -0.095      -9999.25    1858.239    -9999.25    -0.147      -9999.25    1.497       1.232       94.127      0.222       1.14        50.365      
29.1        -9999.25    -9999.25    1.767       3.274       3.845       -0.088      -9999.25    1845.16     -9999.25    -0.15       -9999.25    1.548       1.256       93.59       0.221       1.141       49.009      
29.2        -9999.25    228.295     1.764       3.44        3.856       -0.084      -9999.25    1833.035    -9999.25    -0.151      -9999.25    1.595       1.28        93.01       0.222       1.14        48.407      
29.3        -9999.25    228.775     1.731       3.625       3.865       -0.079      -9999.25    1838.594    -9999.25    -0.151      -9999.25    1.598       1.303       92.389      0.225       1.137       49.217      
29.4        -9999.25    228.775     1.668       3.652       3.87        -0.077      -9999.25    1850.959    -9999.25    -0.151      -9999.25    1.5         1.311       91.732      0.23        1.139       51.452      
29.5        -9999.25    228.775     1.61        3.661       3.873       -0.075      -9999.25    1862.164    -9999.25    -0.151      -9999.25    1.463       1.308       91.051      0.233       1.141       53.105      
29.6        -9999.25    228.775     1.556       3.493       3.874       -0.072      -9999.25    1866.562    -9999.25    -0.146      -9999.25    1.386       1.304       90.353      0.228       1.14        54.21       
