~Version Information Section
VERS.                                         2.0:CWLS log ASCII Standart – VERSION 2.0
WRAP.                                          NO:One line per depth step
~Well Information Section
STRT.M                                        0.1:Начальная глубина
STOP.M                                      168.3:Конечная глубина
STEP.M                                          0:Шаг квантования по глубине
NULL.                                    -9999.25:Признак "Нет данных"
WELL.                                        152К:Скважина
~Parameter Information Section
~Curve Information Section
DEPTH.M                                          :Глубина
БК.Омм                                           :BK     (БК)
DСР.мм                                           :DS  (ДС)
ПЛОТНОСТЬ.г/см^3                                 :GGKp
ГК.мкР/ч                                         :GK          (ГК)
А0.4М0.1N.Омм                                    :GZ1   ГЗ1(A0.4M0.1N)
А1.0М0.1N.Омм                                    :GZ2   ГЗ2(A1.0M0.1N)
А2.0М0.5N.Омм                                    :GZ3   ГЗ3(A2.0M0.5N)
А4.0М0.5N.Oмм                                    :GZ4   ГЗ4(A4.0M0.5N)
А8.0М1.0N.Омм                                    :GZ5   ГЗ5(A8.0M0.5N)
N0.5M2.0A.Омм                                    :GZR   ГЗK(N0.5M2.0A)
ИК.мСм/м                                         :IK
БЗ.ue                                            :NNKb  (ННКб)
МЗ.ue                                            :NNKm  (ННКм)
ПС.mv                                            :PS       (ПС)
N11.0M0.5A.Омм                                   :PZ    (КС)
R.Омм                                            :RS (Резистивиметр)
ПОРИСТОСТЬ.                                      :W
~ASCII LOG DATA
# ...
51.9        13.681      250.197     2.25        5.407       16.363      12.295      11.73       10.156      257.291     16.233      10.687      1.89        1.516       102.51      15.454      1.166       46.674      
52.0        14.672      250.228     2.241       5.517       16.316      12.001      11.325      9.953       257.291     16.01       10.684      2.016       1.538       103.003     15.076      1.166       43.2        
52.1        15.447      250.648     2.227       5.888       16.044      11.371      10.755      9.72        176.377     15.88       10.789      2.045       1.538       103.475     14.761      1.167       41.846      
52.2        15.016      251.449     2.209       6.359       15.647      10.897      10.381      9.631       92.208      15.965      10.895      1.991       1.511       103.921     14.605      1.167       42.171      
52.3        14.163      252.336     2.199       6.525       15.415      10.76       10.316      9.75        23.517      16.481      10.996      1.909       1.472       104.348     14.646      1.168       43.877      
52.4        13.623      252.336     2.198       6.396       15.357      10.905      10.405      10.108      19.785      17.325      11.102      1.918       1.46        104.777     14.837      1.167       44.651      
52.5        13.212      251.338     2.2         6.266       15.483      11.426      10.775      10.624      19.785      18.068      11.128      1.998       1.474       105.253     15.038      1.168       44.54       
52.6        13.177      247.701     2.204       6.325       15.755      12.155      11.332      11.07       16.515      18.397      11.074      2.062       1.502       105.821     15.129      1.17        43.184      
52.7        13.396      244.962     2.22        6.464       16.146      12.832      11.686      11.239      17.712      18.367      11.08       2.19        1.54        106.54      15.016      1.168       41.824      
52.8        13.514      240.51      2.247       6.453       16.426      13.156      11.765      11.186      16.973      18.052      11.186      2.281       1.572       107.469     14.77       1.167       41.172      
52.9        14.18       235.33      2.267       6.226       16.355      12.704      11.551      10.89       14.694      17.569      11.389      2.26        1.605       108.664     14.628      1.167       40.746      
53.0        15.832      230.004     2.276       5.819       16.104      11.57       10.967      10.368      12.161      17.372      11.728      2.283       1.637       110.161     14.608      1.169       40.78       
53.1        17.292      228.795     2.279       5.589       15.787      10.209      10.522      10.089      11.026      17.756      12.095      2.262       1.64        111.971     14.699      1.172       41.2        
53.2        18.049      228.795     2.286       5.527       15.617      9.529       10.447      10.173      10.017      19.622      12.493      2.162       1.632       114.062     15.264      1.175       42.766      
53.3        17.648      229.569     2.291       5.772       15.843      9.793       10.881      10.781      10.017      23.308      12.886      2.117       1.61        116.364     16.462      1.176       43.99       
53.4        16.344      229.569     2.292       5.914       17.074      11.23       12.038      12.086      11.101      26.906      13.171      2.159       1.606       118.769     17.911      1.175       44.985      
53.5        15.913      229.374     2.299       5.856       19.528      13.873      13.491      13.394      11.991      28.299      13.451      2.299       1.635       121.169     19.395      1.174       43.487      
53.6        17.35       226.794     2.31        5.232       22.099      16.05       14.419      14.209      13.116      28.195      13.721      2.469       1.692       123.473     20.754      1.173       39.944      
53.7        21.114      223.161     2.321       4.65        24.018      16.758      14.619      15.59       14.736      26.67       14.18       2.768       1.791       125.647     21.554      1.173       37.592      
53.8        26.103      221.038     2.315       4.455       24.887      16.624      14.383      16.672      18.668      23.994      14.94       2.818       1.83        127.704     21.885      1.176       34.937      
53.9        31.308      220.382     2.305       4.962       25.106      15.993      13.74       16.481      48.115      22.048      15.93       2.879       1.836       129.66      22.338      1.178       34.631      
54.0        31.21       219.819     2.296       5.403       25.623      15.49       13.282      16.934      79.989      21.271      16.957      2.768       1.809       131.529     23.127      1.179       34.969      
54.1        26.687      218.011     2.294       5.44        26.086      15.484      13.232      17.563      79.989      21.186      17.858      2.683       1.773       133.319     24.711      1.18        36.181      
54.2        24.019      213.617     2.299       5.037       26.258      15.894      13.76       17.296      91.484      21.766      18.511      2.723       1.758       135.04      27.347      1.184       36.677      
54.3        23.02       210.19      2.314       4.8         26.705      17.131      15.161      18.167      64.282      23.052      18.903      2.79        1.767       136.706     29.831      1.183       35.883      
54.4        24.48       206.933     2.341       4.74        28.323      19.115      17.111      20.179      34.867      24.537      19.144      3.025       1.804       138.326     31.449      1.185       34.07       
54.5        27.693      203.848     2.37        4.914       31.109      22.689      19.358      21.96       34.867      25.92       19.335      3.165       1.85        139.908     32.714      1.191       32.656      
54.6        30.29       202.038     2.393       4.993       34.166      27.768      21.783      22.771      61.437      27.142      19.643      3.369       1.908       141.469     33.782      1.19        31.015      
54.7        32.77       200.173     2.411       4.804       37.341      33.508      24.107      23.181      110.629     27.927      19.944      3.478       1.934       143.043     34.675      1.186       30.625      
54.8        39.593      200.173     2.411       4.39        41.547      38.568      25.959      23.684      131.488     28.095      20.211      3.419       1.939       144.64      35.907      1.181       30.847      
54.9        46.495      199.862     2.401       3.77        47.944      41.938      26.742      23.343      131.488     27.424      20.401      3.356       1.957       146.215     37.443      1.174       31.357      
55.0        51.853      200.188     2.386       3.842       54.277      43.328      26.678      22.049      105.857     25.517      20.577      3.344       1.977       147.708     38.461      1.17        31.336      
55.1        60.601      200.659     2.357       4.015       56.763      42.678      25.793      19.926      42.809      22.918      20.833      3.232       1.989       149.031     38.628      1.17        31.254      
55.2        63.978      201.799     2.313       4.322       54.007      38.347      23.233      18.247      19.434      20.537      20.998      3.081       1.977       150.095     37.422      1.171       31.861      
55.3        55.129      204.468     2.279       4.511       46.037      30.766      19.434      17.242      18.235      19.518      21.032      2.869       1.911       150.844     34.388      1.171       32.699      
55.4        39.071      210.144     2.259       4.781       35.422      23.81       16.211      16.708      17.975      19.845      20.909      2.57        1.806       151.268     31.389      1.171       35.12       
55.5        25.479      215.798     2.243       5.284       27.969      20.755      15.049      16.936      18.959      23.715      20.552      2.419       1.72        151.419     30.283      1.175       37.108      
