~Version Information Section
VERS.                                         2.0:CWLS log ASCII Standart – VERSION 2.0
WRAP.                                          NO:One line per depth step
~Well Information Section
STRT.M                                        0.1:Начальная глубина
STOP.M                                      168.3:Конечная глубина
STEP.M                                          0:Шаг квантования по глубине
NULL.                                    -9999.25:Признак "Нет данных"
WELL.                                        152К:Скважина
~Parameter Information Section
~Curve Information Section
DEPTH.M                                          :Глубина
БК.Омм                                           :BK     (БК)
DСР.мм                                           :DS  (ДС)
ПЛОТНОСТЬ.г/см^3                                 :GGKp
ГК.мкР/ч                                         :GK          (ГК)
А0.4М0.1N.Омм                                    :GZ1   ГЗ1(A0.4M0.1N)
А1.0М0.1N.Омм                                    :GZ2   ГЗ2(A1.0M0.1N)
А2.0М0.5N.Омм                                    :GZ3   ГЗ3(A2.0M0.5N)
А4.0М0.5N.Oмм                                    :GZ4   ГЗ4(A4.0M0.5N)
А8.0М1.0N.Омм                                    :GZ5   ГЗ5(A8.0M0.5N)
N0.5M2.0A.Омм                                    :GZR   ГЗK(N0.5M2.0A)
ИК.мСм/м                                         :IK
БЗ.ue                                            :NNKb  (ННКб)
МЗ.ue                                            :NNKm  (ННКм)
ПС.mv                                            :PS       (ПС)
N11.0M0.5A.Омм                                   :PZ    (КС)
R.Омм                                            :RS (Резистивиметр)
ПОРИСТОСТЬ.                                      :W
~ASCII LOG DATA
# ...
151.8       17.981      152.857     2.261       8.306       6.282       4.517       7.446       9.016       6.007       13.521      1.412       2.502       1.785       94.774      11.988      1.185       40.695      
151.9       18.106      153.177     2.263       8.248       5.855       3.717       6.207       7.367       5.388       17.441      1.369       2.447       1.782       94.649      11.97       1.186       41.306      
152.0       17.142      153.689     2.266       8.214       5.186       2.481       4.781       5.601       4.901       21.471      1.272       2.506       1.8         94.49       11.898      1.187       40.471      
152.1       14.627      154.212     2.257       8.124       4.458       1.303       3.332       3.947       4.335       25.159      1.125       2.604       1.809       94.301      11.533      1.188       38.571      
152.2       12.324      154.05      2.245       8.115       4.066       0.621       2.091       2.519       3.841       28.21       1.035       2.729       1.823       94.085      10.669      1.188       37.192      
152.3       13.175      154.05      2.247       8.136       4.509       0.4         1.282       1.598       3.223       30.178      1.055       2.799       1.836       93.844      9.664       1.193       35.32       
152.4       16.952      153.558     2.253       8.326       6.47        0.374       0.939       1.29        2.735       30.946      1.082       2.926       1.826       93.585      8.748       1.19        34.4        
152.5       21.313      152.568     2.265       8.358       9.891       0.425       0.894       1.242       2.607       31.561      1.192       3.012       1.823       93.316      8.701       1.187       33.394      
152.6       24.985      151.736     2.272       8.218       13.403      0.536       0.918       1.29        2.607       32.624      1.634       3.047       1.832       93.045      10.368      1.186       32.898      
152.7       28.065      151.334     2.296       8.102       15.583      0.719       0.968       1.417       2.636       34.113      1.918       3.149       1.847       92.782      13.012      1.186       32.946      
152.8       30.062      151.056     2.336       8.099       16.806      0.99        1.026       1.541       2.788       35.507      2.326       3.146       1.866       92.537      15.345      1.187       33.631      
152.9       30.055      151.056     2.365       8.269       17.951      1.538       1.102       1.622       2.909       36.286      3.154       3.19        1.88        92.324      17.239      1.187       34.426      
153.0       28.471      151.066     2.384       8.545       19.041      2.979       1.209       1.758       3.063       37.982      4.193       3.214       1.92        92.146      19.069      1.187       34.631      
153.1       28.814      151.641     2.402       8.574       20.359      5.59        1.335       2.018       3.236       40.762      5.355       3.503       1.968       92.077      20.846      -9999.25    34.081      
153.2       32.447      152.152     2.417       8.036       21.668      9.004       1.448       2.365       3.376       42.854      6.384       3.866       2.076       92.182      22.621      -9999.25    30.531      
153.3       38.626      152.197     2.418       7.269       24.785      12.397      1.533       2.553       3.523       43.665      7.374       4.482       2.185       92.491      24.333      -9999.25    26.508      
153.4       53.604      152.197     2.403       6.345       29.57       15.123      1.579       2.536       3.523       42.578      8.559       4.979       2.262       93.013      25.509      -9999.25    24.428      
153.5       72.092      151.657     2.381       5.654       34.494      17.085      1.592       2.377       3.52        40.196      9.768       5.098       2.323       93.743      26.865      -9999.25    22.899      
153.6       81.725      150.646     2.361       4.973       38.527      18.462      1.603       2.021       3.444       37.764      10.939      5.122       2.35        94.66       29.191      -9999.25    22.9        
153.7       82.677      149.302     2.344       4.904       41.495      19.738      1.655       1.652       3.25        35.536      12.068      5.022       2.357       95.738      31.611      -9999.25    23.174      
153.8       79.02       147.986     2.335       5.16        44.18       20.964      1.768       1.366       3.048       33.181      13.425      4.896       2.361       96.954      34.089      -9999.25    23.567      
153.9       75.848      147.129     2.337       5.195       45.9        22.407      1.953       1.081       2.839       30.34       14.594      4.879       2.361       98.289      36.486      -9999.25    23.433      
154.0       79.839      147.129     2.333       5.04        46.542      24.068      2.16        0.825       2.687       27.219      15.394      4.891       2.359       99.729      37.814      -9999.25    23.198      
154.1       85.313      147.0       2.33        4.862       46.161      25.604      2.491       0.655       2.575       24.325      16.238      4.831       2.347       101.274     38.207      -9999.25    22.81       
154.2       80.573      146.884     2.326       4.739       44.853      26.579      3.252       0.586       2.503       22.035      16.901      4.801       2.313       102.849     38.117      -9999.25    22.94       
154.3       61.755      147.044     2.324       4.848       42.825      26.886      4.438       0.62        2.418       20.363      17.54       4.665       2.262       104.378     37.641      -9999.25    23.324      
154.4       46.081      147.332     2.318       5.21        40.701      26.978      5.785       0.73        2.385       19.168      18.198      4.516       2.219       105.811     37.093      -9999.25    24.685      
154.5       41.967      146.989     2.305       5.657       38.731      26.729      6.962       0.919       2.371       18.562      18.809      4.254       2.193       107.132     36.847      -9999.25    25.668      
154.6       39.407      146.844     2.284       5.849       36.889      26.217      7.93        1.19        2.37        18.417      19.387      4.073       2.183       108.338     36.843      -9999.25    27.049      
154.7       38.49       146.28      2.254       5.718       35.13       25.587      8.855       1.591       2.381       18.92       19.721      4.008       2.167       109.464     36.973      -9999.25    27.72       
154.8       37.181      145.821     2.222       5.383       34.009      25.234      9.958       2.06        2.396       20.59       20.049      3.916       2.158       110.552     37.304      -9999.25    27.781      
154.9       35.255      145.746     2.195       5.244       33.752      25.721      11.562      2.434       2.473       23.357      20.329      4.032       2.148       111.633     37.788      -9999.25    27.713      
155.0       34.746      145.512     2.182       4.989       34.69       28.003      13.294      2.595       2.552       26.274      20.653      4.082       2.138       112.707     38.365      -9999.25    27.668      
155.1       35.562      145.59      2.184       4.928       37.89       32.472      15.354      2.606       2.67        28.056      21.171      4.101       2.137       113.776     39.092      -9999.25    27.815      
155.2       36.729      145.646     2.201       4.724       41.568      35.763      17.703      2.535       2.734       28.517      21.66       4.159       2.168       114.764     39.707      -9999.25    28.108      
155.3       39.105      145.489     2.216       4.649       43.207      36.381      19.759      2.357       2.862       28.054      22.201      4.037       2.201       115.615     39.477      -9999.25    28.066      
155.4       44.441      145.41      2.207       4.505       43.566      34.989      20.899      2.226       2.991       26.811      22.699      4.113       2.23        116.319     38.575      -9999.25    27.683      
