~Version Information Section
VERS.                                         2.0:CWLS log ASCII Standart – VERSION 2.0
WRAP.                                          NO:One line per depth step
~Well Information Section
STRT.M                                        0.1:Начальная глубина
STOP.M                                      168.3:Конечная глубина
STEP.M                                          0:Шаг квантования по глубине
NULL.                                    -9999.25:Признак "Нет данных"
WELL.                                        152К:Скважина
~Parameter Information Section
~Curve Information Section
DEPTH.M                                          :Глубина
БК.Омм                                           :BK     (БК)
DСР.мм                                           :DS  (ДС)
ПЛОТНОСТЬ.г/см^3                                 :GGKp
ГК.мкР/ч                                         :GK          (ГК)
А0.4М0.1N.Омм                                    :GZ1   ГЗ1(A0.4M0.1N)
А1.0М0.1N.Омм                                    :GZ2   ГЗ2(A1.0M0.1N)
А2.0М0.5N.Омм                                    :GZ3   ГЗ3(A2.0M0.5N)
А4.0М0.5N.Oмм                                    :GZ4   ГЗ4(A4.0M0.5N)
А8.0М1.0N.Омм                                    :GZ5   ГЗ5(A8.0M0.5N)
N0.5M2.0A.Омм                                    :GZR   ГЗK(N0.5M2.0A)
ИК.мСм/м                                         :IK
БЗ.ue                                            :NNKb  (ННКб)
МЗ.ue                                            :NNKm  (ННКм)
ПС.mv                                            :PS       (ПС)
N11.0M0.5A.Омм                                   :PZ    (КС)
R.Омм                                            :RS (Резистивиметр)
ПОРИСТОСТЬ.                                      :W
~ASCII LOG DATA
# ...
96.3        40.44       235.64      2.152       5.902       32.505      31.947      29.624      26.16       18.02       32.291      24.358      2.136       1.533       84.698      43.252      1.184       41.172      
96.4        39.634      232.597     2.181       6.161       31.747      31.737      29.647      26.399      17.74       32.658      24.221      2.157       1.542       84.665      43.24       1.184       40.529      
96.5        37.753      229.839     2.201       5.805       31.581      31.608      29.687      26.418      18.044      32.931      24.104      2.19        1.551       84.588      43.439      1.183       40.057      
96.6        36.964      228.672     2.197       5.454       31.655      31.725      29.774      26.338      17.74       33.169      24.037      2.223       1.555       84.5        43.711      1.182       38.902      
96.7        38.345      228.672     2.194       5.371       32.026      31.905      29.882      26.291      17.63       33.256      24.156      2.322       1.559       84.425      43.986      1.182       38.168      
96.8        38.952      229.116     2.209       5.41        32.7        31.978      29.996      26.209      17.539      33.165      24.298      2.354       1.566       84.371      44.401      1.183       37.032      
96.9        38.999      229.915     2.231       5.504       33.398      32.068      30.071      26.132      17.44       32.811      24.468      2.384       1.568       84.352      44.745      1.182       36.702      
97.0        39.397      229.915     2.249       5.365       33.784      32.146      30.038      26.314      17.44       32.044      24.698      2.418       1.572       84.385      44.743      1.182       36.745      
97.1        39.821      228.984     2.259       5.306       33.864      32.006      29.904      26.954      17.382      30.971      24.94       2.379       1.577       84.491      44.578      1.182       37.628      
97.2        40.186      227.182     2.269       5.191       33.904      31.726      29.605      27.649      17.06       29.838      25.11       2.312       1.583       84.664      44.506      1.182       38.065      
97.3        40.622      224.832     2.275       5.13        33.966      31.551      29.24       27.885      16.639      28.867      25.309      2.338       1.591       84.866      44.453      1.183       37.913      
97.4        40.847      224.6       2.274       5.223       34.068      31.515      28.969      27.881      16.639      28.232      25.443      2.441       1.605       85.05       44.541      1.184       36.565      
97.5        40.825      224.513     2.26        5.08        34.245      31.595      28.865      27.55       16.246      27.883      25.517      2.49        1.617       85.166      44.936      1.185       35.19       
97.6        40.709      224.655     2.246       5.194       34.511      31.893      28.92       27.132      16.18       27.673      25.574      2.576       1.615       85.19       45.402      1.185       34.799      
97.7        40.558      224.655     2.241       5.385       34.801      32.378      29.065      26.997      16.18       27.492      25.546      2.65        1.623       85.131      45.835      1.186       35.097      
97.8        40.704      221.429     2.237       5.527       35.124      32.98       29.26       26.959      16.364      27.273      25.606      2.538       1.633       85.027      46.118      1.186       35.542      
97.9        41.162      215.376     2.235       5.508       35.48       33.703      29.43       26.962      16.811      27.115      25.632      2.504       1.639       84.925      46.138      1.186       36.339      
98.0        41.653      207.753     2.242       5.349       35.794      34.421      29.622      26.961      17.502      27.082      25.643      2.504       1.653       84.849      46.021      1.186       36.268      
98.1        41.995      202.423     2.256       5.388       35.996      34.982      29.97       26.964      18.106      27.091      25.609      2.518       1.662       84.806      45.843      1.186       35.883      
98.2        42.523      199.531     2.269       5.504       36.086      35.421      30.497      27.182      19.173      27.24       25.656      2.603       1.655       84.788      45.722      1.185       35.1        
98.3        42.899      196.13      2.274       5.772       36.15       35.906      31.195      27.719      20.78       27.486      25.751      2.677       1.657       84.79       45.75       1.185       34.581      
98.4        42.704      189.108     2.275       5.786       36.328      36.826      32.156      28.52       22.842      27.82       25.65       2.72        1.668       84.846      45.889      1.184       33.403      
98.5        42.746      181.622     2.272       5.779       37.054      38.312      33.331      29.318      24.18       28.083      25.453      2.865       1.684       84.992      46.049      1.181       32.199      
98.6        43.18       176.324     2.251       5.683       38.211      39.721      34.463      29.82       24.864      28.118      25.268      2.944       1.706       85.258      46.193      1.176       31.374      
98.7        43.578      176.324     2.217       5.673       38.792      40.285      35.145      30.005      25.19       27.954      25.069      3.003       1.719       85.638      46.096      1.185       30.739      
98.8        43.481      176.172     2.194       5.656       38.564      40.053      35.307      29.9        25.595      27.522      24.829      3.064       1.73        86.094      45.406      1.189       30.707      
98.9        42.795      176.337     2.174       5.595       38.094      38.955      35.201      29.619      26.052      27.202      24.652      2.997       1.735       86.57       44.57       1.19        31.384      
99.0        41.671      176.337     2.147       5.896       37.443      37.585      34.944      29.367      26.078      27.15       24.412      2.971       1.739       87.004      43.863      1.19        32.672      
99.1        40.146      175.982     2.133       6.083       36.762      36.996      34.768      29.291      26.078      27.401      24.006      2.911       1.758       87.359      43.075      1.19        33.472      
99.2        39.062      172.842     2.143       6.102       36.691      36.911      34.682      29.346      25.317      27.837      23.674      2.847       1.778       87.606      42.485      1.186       34.907      
99.3        37.846      168.456     2.176       5.93        36.924      36.886      34.591      29.369      24.686      28.038      23.39       2.75        1.788       87.739      41.833      1.186       35.553      
99.4        36.978      162.872     2.217       5.917       36.822      36.145      34.43       29.328      23.992      28.054      23.094      2.744       1.804       87.77       40.841      1.185       35.467      
99.5        37.11       159.498     2.243       6.18        35.769      34.5        33.939      29.037      23.455      27.784      22.836      2.902       1.805       87.72       39.628      1.184       34.673      
99.6        37.773      157.492     2.242       6.59        33.891      32.443      32.889      28.335      22.658      27.134      22.539      2.921       1.808       87.611      38.551      1.183       34.368      
99.7        37.698      157.095     2.242       6.731       31.92       30.938      31.528      27.449      22.069      26.449      22.273      2.878       1.818       87.453      37.65       1.182       34.818      
99.8        36.614      156.814     2.243       6.829       30.77       30.015      30.262      26.668      21.605      25.979      22.151      2.772       1.822       87.25       36.561      1.184       36.139      
99.9        36.646      156.814     2.245       6.862       30.72       29.025      29.323      26.096      21.145      25.776      22.126      2.606       1.813       87.005      35.852      1.182       36.878      
