~Version Information Section
VERS.                                         2.0:CWLS log ASCII Standart – VERSION 2.0
WRAP.                                          NO:One line per depth step
~Well Information Section
STRT.M                                        0.1:Начальная глубина
STOP.M                                      168.3:Конечная глубина
STEP.M                                          0:Шаг квантования по глубине
NULL.                                    -9999.25:Признак "Нет данных"
WELL.                                        152К:Скважина
~Parameter Information Section
~Curve Information Section
DEPTH.M                                          :Глубина
БК.Омм                                           :BK     (БК)
DСР.мм                                           :DS  (ДС)
ПЛОТНОСТЬ.г/см^3                                 :GGKp
ГК.мкР/ч                                         :GK          (ГК)
А0.4М0.1N.Омм                                    :GZ1   ГЗ1(A0.4M0.1N)
А1.0М0.1N.Омм                                    :GZ2   ГЗ2(A1.0M0.1N)
А2.0М0.5N.Омм                                    :GZ3   ГЗ3(A2.0M0.5N)
А4.0М0.5N.Oмм                                    :GZ4   ГЗ4(A4.0M0.5N)
А8.0М1.0N.Омм                                    :GZ5   ГЗ5(A8.0M0.5N)
N0.5M2.0A.Омм                                    :GZR   ГЗK(N0.5M2.0A)
ИК.мСм/м                                         :IK
БЗ.ue                                            :NNKb  (ННКб)
МЗ.ue                                            :NNKm  (ННКм)
ПС.mv                                            :PS       (ПС)
N11.0M0.5A.Омм                                   :PZ    (КС)
R.Омм                                            :RS (Резистивиметр)
ПОРИСТОСТЬ.                                      :W
~ASCII LOG DATA
# ...
63.0        30.302      224.288     2.285       4.371       30.987      29.577      33.941      28.625      4.834       42.45       22.665      2.832       1.878       157.769     38.84       1.183       36.463      
63.1        32.434      225.686     2.305       4.178       31.865      29.707      33.142      28.827      5.087       42.571      22.771      3.036       1.893       157.747     39.152      1.182       34.064      
63.2        35.077      227.861     2.309       4.02        33.032      29.706      32.045      28.735      5.261       42.486      23.163      3.223       1.911       157.431     39.317      1.182       32.763      
63.3        38.096      227.89      2.317       3.959       33.597      29.224      30.54       28.727      5.752       41.712      23.909      3.183       1.924       156.811     39.727      1.182       31.711      
63.4        37.867      228.101     2.343       4.253       33.516      27.979      28.761      28.811      6.129       41.16       24.632      3.114       1.924       155.843     40.597      1.184       30.881      
63.5        35.648      229.248     2.368       4.356       33.01       26.276      27.464      28.871      6.693       41.349      25.374      3.167       1.902       154.467     41.648      1.183       30.39       
63.6        34.988      229.819     2.372       4.278       32.585      25.323      27.062      29.769      7.712       42.645      26.06       3.199       1.853       152.635     42.925      1.186       30.069      
63.7        35.291      233.469     2.368       4.196       32.589      25.29       27.454      32.057      9.779       46.707      26.69       3.25        1.814       150.323     44.6        1.191       30.294      
63.8        36.007      243.394     2.365       4.234       34.279      27.011      29.105      34.898      10.433      52.122      27.388      3.327       1.802       147.55      46.888      1.192       31.38       
63.9        37.482      246.965     2.35        4.29        38.274      31.414      32.137      38.591      12.233      60.854      28.327      3.32        1.828       144.376     50.319      1.196       31.89       
64.0        39.442      246.965     2.347       4.135       41.844      36.181      35.95       43.893      15.141      73.975      29.336      3.456       1.923       140.868     54.0        1.204       31.434      
64.1        43.094      246.326     2.373       3.896       43.193      39.545      39.865      51.484      18.877      91.743      30.449      3.716       2.001       137.106     56.563      1.212       29.991      
64.2        50.374      241.373     2.406       3.675       43.873      41.39       44.122      60.722      24.046      112.145     31.833      3.825       2.053       133.171     58.679      1.218       28.786      
64.3        55.503      238.379     2.423       3.492       44.467      44.054      49.713      71.063      28.156      132.483     33.158      4.065       2.091       129.142     61.479      1.218       28.228      
64.4        56.113      236.84      2.42        3.36        47.011      50.661      57.444      82.837      33.908      150.949     34.774      4.293       2.124       125.117     65.848      1.226       26.85       
64.5        63.164      235.183     2.407       3.18        54.915      60.838      66.505      95.17       43.017      161.636     36.327      4.668       2.193       121.217     73.029      1.226       24.694      
64.6        86.712      233.741     2.397       2.928       69.741      71.793      75.207      105.833     51.564      164.68      37.595      5.01        2.279       117.576     88.195      1.226       23.192      
64.7        124.49      232.076     2.383       2.702       89.957      83.206      82.632      112.726     57.189      161.6       38.796      5.315       2.36        114.315     111.185     1.223       21.177      
64.8        177.302     225.207     2.37        2.734       113.375     95.402      87.523      115.211     62.818      151.14      39.842      5.448       2.38        111.546     130.859     1.219       20.248      
64.9        245.641     215.008     2.374       2.682       136.726     110.495     89.235      113.268     68.445      135.067     40.776      5.307       2.351       109.348     143.672     1.216       19.993      
65.0        288.654     206.549     2.383       2.876       153.94      129.154     89.323      109.221     73.203      118.046     41.362      5.332       2.308       107.74      154.574     1.212       20.165      
65.1        276.224     202.268     2.379       3.271       163.135     148.311     88.104      102.159     73.203      102.25      41.689      5.37        2.275       106.699     159.768     1.202       20.369      
65.2        246.677     199.364     2.368       3.466       167.742     165.557     84.879      94.238      72.197      89.564      41.684      5.198       2.271       106.153     153.59      1.192       20.803      
65.3        218.022     197.696     2.376       3.231       169.214     174.458     79.56       84.114      68.453      79.584      41.916      5.1         2.289       106.003     143.416     1.192       21.581      
65.4        185.848     196.842     2.376       3.094       166.161     175.634     71.644      70.491      63.815      72.71       41.846      4.684       2.29        106.152     135.051     1.207       22.222      
65.5        159.069     196.842     2.357       3.533       145.88      159.947     61.522      56.788      56.156      67.966      41.437      4.256       2.25        106.53      117.756     1.211       24.544      
65.6        120.299     199.044     2.347       4.266       108.545     125.941     50.577      45.702      49.224      64.444      40.776      3.778       2.135       107.096     89.369      1.21        27.36       
65.7        65.212      204.93      2.333       4.853       71.594      92.072      40.276      38.499      39.807      63.307      39.33       3.515       2.037       107.843     69.674      1.211       28.897      
65.8        31.931      206.33      2.298       5.072       52.254      75.491      32.609      32.231      33.833      61.087      37.273      3.533       1.976       108.76      64.696      1.209       29.582      
65.9        31.367      206.33      2.277       4.793       49.162      72.333      28.426      27.642      27.434      56.508      34.996      3.702       1.983       109.799     64.31       1.208       28.836      
66.0        44.992      204.621     2.282       4.197       48.096      67.584      26.679      24.625      23.778      51.452      33.554      3.803       2.017       110.893     65.532      1.208       28.229      
66.1        65.083      199.081     2.28        3.761       49.094      62.326      25.987      21.949      19.865      47.142      33.307      3.838       2.071       111.987     68.704      1.208       27.892      
66.2        76.596      198.279     2.27        3.824       51.395      58.337      25.504      19.837      18.087      45.009      34.436      3.758       2.061       113.024     70.74       1.205       28.016      
66.3        75.934      198.279     2.268       4.067       52.697      54.483      25.357      18.884      18.087      44.741      36.35       3.638       2.037       113.952     70.289      1.208       29.237      
66.4        70.928      198.588     2.266       4.371       52.08       49.69       25.488      18.705      18.618      45.56       38.2        3.456       2.023       114.738     70.705      1.21        30.59       
66.5        64.962      199.387     2.26        4.912       50.517      45.598      26.346      19.297      20.962      48.98       39.566      3.307       1.998       115.35      72.677      1.215       31.368      
66.6        60.492      200.134     2.251       5.409       47.301      43.798      29.014      20.337      24.961      53.706      40.396      3.282       1.982       115.753     74.932      1.226       31.973      
