~Version Information Section
VERS.                                         2.0:CWLS log ASCII Standart – VERSION 2.0
WRAP.                                          NO:One line per depth step
~Well Information Section
STRT.M                                        0.6:Начальная глубина
STOP.M                                      196.8:Конечная глубина
STEP.M                                          0:Шаг квантования по глубине
NULL.                                    -9999.25:Признак "Нет данных"
WELL.                                        142К:Скважина
~Parameter Information Section
~Curve Information Section
DEPTH.M                                          :Глубина
BK.Ohm*M                                         :BK     (БК)
DS.mm                                            :DS  (ДС)
GGK.g/cm3                                        :GGKp
ГК.mcr/h                                         :GK          (ГК)
GZ1.Ohm*M                                        :GZ1   ГЗ1(A0.4M0.1N)
GZ2.Ohm*M                                        :GZ2   ГЗ2(A1.0M0.1N)
GZ3.Ohm*M                                        :GZ3   ГЗ3(A2.0M0.5N)
GZ4.Ohm*M                                        :GZ4   ГЗ4(A4.0M0.5N)
GZ5.Ohm*M                                        :GZ5   ГЗ5(A8.0M0.5N)
GZR.                                             :GZR   ГЗK(N0.5M2.0A)
ИК.Ohm*M                                         :IK
НГК.ue                                           :NGK     (НГК)
NNKM.                                            :NNKm  (ННКм)
PS.mv                                            :PS       (ПС)
PZ.Ohm*M                                         :PZ    (КС)
RS.Ohm*M                                         :RS (Резистивиметр)
W.%                                              :W
~ASCII LOG DATA
# ...
59.8        310.736     223.025     2.352       5.729       44.515      64.647      99.96       126.482     112.844     76.91       23.642      1.341       1.424       -180.783    61.032      1.12        24.65       
59.9        415.313     224.549     2.381       6.099       57.028      72.624      118.256     152.339     130.834     84.146      23.153      1.283       1.368       -179.166    60.812      1.12        25.657      
60.0        484.052     226.038     2.393       6.334       79.397      79.961      131.459     171.388     142.197     86.008      22.918      1.196       1.298       -177.794    60.812      1.12        26.265      
60.1        511.679     226.031     2.395       6.457       106.744     84.969      136.119     178.233     146.363     86.008      23.13       1.287       1.286       -176.563    60.812      1.12        26.641      
60.2        482.904     224.132     2.392       6.521       131.768     86.776      136.119     178.233     146.948     84.109      23.761      1.347       1.287       -175.411    61.291      1.12        26.559      
60.3        387.162     220.0       2.391       5.944       144.576     86.776      135.29      177.459     145.1       77.264      24.647      1.247       1.263       -174.339    64.202      1.12        26.206      
60.4        252.215     218.798     2.393       4.961       146.673     86.274      128.101     167.804     137.559     65.604      25.518      1.098       1.224       -173.37     69.456      1.12        25.739      
60.5        133.045     219.193     2.402       3.889       146.673     82.634      111.063     143.835     122.837     52.328      26.015      1.205       1.234       -172.451    74.734      1.12        25.217      
60.6        63.454      219.448     2.415       3.331       139.639     75.199      87.981      111.204     103.204     40.317      26.036      1.312       1.278       -171.545    78.695      1.12        24.679      
60.7        36.044      219.68      2.431       3.114       120.165     66.221      64.087      77.812      82.187      30.876      25.697      1.325       1.336       -170.613    80.199      1.12        24.323      
60.8        27.307      219.708     2.441       2.939       92.965      56.736      43.54       49.907      62.432      24.341      25.066      1.332       1.435       -169.658    80.199      1.12        24.043      
60.9        23.083      220.544     2.443       3.083       65.671      47.914      28.157      30.071      45.267      20.406      24.281      1.361       1.504       -168.627    79.021      1.12        23.854      
61.0        20.195      223.44      2.435       3.442       45.656      41.191      17.889      17.766      31.482      18.536      23.339      1.38        1.528       -167.504    74.114      1.12        24.357      
61.1        18.819      231.729     2.424       4.395       34.339      36.506      11.847      10.929      21.412      18.055      22.321      1.386       1.54        -166.294    65.906      1.12        25.218      
61.2        19.043      240.402     2.415       5.48        28.639      33.315      8.784       7.507       14.761      18.055      21.412      1.395       1.535       -164.98     57.116      1.12        26.777      
61.3        20.847      235.25      2.406       6.505       26.167      31.549      7.493       5.859       10.853      18.055      20.602      1.297       1.53        -163.503    49.186      1.12        28.581      
61.4        24.388      235.367     2.393       7.074       25.56       30.658      7.164       5.095       8.877       18.174      19.87       1.231       1.393       -161.896    44.027      1.12        30.544      
61.5        29.405      245.777     2.375       7.238       25.56       30.049      7.164       4.814       8.039       18.662      19.247      1.151       1.255       -160.279    41.58       1.12        32.103      
61.6        34.658      256.544     2.35        7.281       25.56       29.553      7.164       4.761       7.761       19.456      18.753      1.071       1.208       -158.782    40.148      1.12        33.194      
61.7        38.362      235.814     2.317       7.139       25.935      29.171      7.29        4.761       7.708       20.314      18.432      1.128       1.15        -157.544    39.291      1.12        33.205      
61.8        39.488      231.91      2.284       6.974       27.216      28.857      7.898       4.761       7.708       21.09       18.337      1.166       1.137       -156.688    38.763      1.12        32.958      
61.9        38.42       230.808     2.26        6.889       29.256      28.55       9.139       4.788       7.715       21.652      18.459      1.095       1.136       -156.245    38.521      1.12        31.911      
62.0        36.287      229.258     2.25        6.974       31.647      28.242      10.938      4.861       7.76        22.006      18.757      1.047       1.137       -156.145    38.478      1.12        30.617      
62.1        34.135      227.367     2.253       7.031       34.031      27.926      13.174      4.958       7.87        22.225      19.147      1.082       1.138       -156.143    38.478      1.12        30.258      
62.2        32.605      226.059     2.268       6.974       35.956      27.667      15.658      5.052       8.026       22.36       19.589      1.116       1.137       -156.143    38.478      1.12        30.282      
62.3        32.051      226.31      2.284       6.753       37.281      27.567      18.341      5.116       8.197       22.444      20.028      1.128       1.132       -156.224    38.62       1.12        29.653      
62.4        32.395      224.44      2.298       6.564       38.113      27.567      21.321      5.152       8.375       22.509      20.369      1.136       1.13        -156.619    39.037      1.12        29.296      
62.5        33.066      224.168     2.304       6.508       38.556      27.567      24.639      5.173       8.563       22.557      20.581      1.157       1.18        -157.453    39.719      1.12        28.767      
62.6        33.539      224.509     2.309       6.606       38.771      27.6        28.255      5.188       8.772       22.576      20.676      1.178       1.231       -158.829    37.108      1.12        27.295      
62.7        33.758      226.479     2.316       6.547       38.904      27.79       32.077      5.198       9.003       22.576      20.716      1.283       1.263       -160.892    37.108      1.12        25.824      
62.8        34.111      228.505     2.328       6.273       39.043      28.186      35.842      5.228       9.248       22.573      20.725      1.353       1.296       -163.759    37.108      1.12        25.913      
62.9        36.023      230.208     2.34        6.281       39.368      28.754      38.908      5.288       9.487       22.545      20.722      1.22        1.318       -167.507    35.828      1.12        26.372      
63.0        42.124      230.91      2.348       6.737       40.23       29.392      40.778      5.369       9.69        22.46       20.74       1.131       1.356       -172.026    35.828      1.12        27.72       
63.1        52.514      231.503     2.35        7.4         41.728      29.957      41.416      5.469       9.824       22.29       20.754      1.188       1.342       -177.082    35.828      1.12        29.545      
63.2        61.996      231.828     2.349       7.751       43.651      30.426      41.43       5.595       9.883       22.008      20.726      1.226       1.27        -182.45     35.828      1.12        31.422      
63.3        63.252      232.163     2.345       7.802       45.709      30.764      41.43       5.746       9.895       21.618      20.666      1.177       1.226       -187.833    35.828      1.12        32.471      
63.4        55.093      232.319     2.339       7.753       47.123      30.891      40.882      5.911       9.883       21.131      20.595      1.128       1.191       -192.816    35.828      1.12        33.491      
