~Version Information Section
VERS.                                         2.0:CWLS log ASCII Standart – VERSION 2.0
WRAP.                                          NO:One line per depth step
~Well Information Section
STRT.M                                        0.1:Начальная глубина
STOP.M                                      206.3:Конечная глубина
STEP.M                                          0:Шаг квантования по глубине
NULL.                                    -9999.25:Признак "Нет данных"
WELL.                                        141К:Скважина
~Parameter Information Section
~Curve Information Section
DEPTH.M                                          :Глубина
N0.5M2.0A.Омм                                    :GZR   ГЗK(N0.5M2.0A)
ИК.мСм/м                                         :IK
НГК.усл.ед                                       :NGK     (НГК)
ННКМ.усл.ед                                      :NNKm  (ННКм)
ПС.mv                                            :PS       (ПС)
N11.0M0.5A.Омм                                   :PZ    (КС)
R.Омм                                            :RS (Резистивиметр)
КП.%                                             :W
БК.Омм                                           :BK     (БК)
DСР.мм                                           :DS  (ДС)
ПЛОТНОСТЬ.г/см^3                                 :GGKp
ГК.гамма                                         :GK          (ГК)
А0.4М0.1N.Омм                                    :GZ1   ГЗ1(A0.4M0.1N)
А1.0М0.1N.Омм                                    :GZ2   ГЗ2(A1.0M0.1N)
А2.0М0.5N.Омм                                    :GZ3   ГЗ3(A2.0M0.5N)
А4.0М0.5N.Oмм                                    :GZ4   ГЗ4(A4.0M0.5N)
А8.0М1.0N.Омм                                    :GZ5   ГЗ5(A8.0M0.5N)
~ASCII LOG DATA
# ...
88.9        16.583      13.868      1.454       1.679       70.335      12.83       1.1         36.149      15.213      254.794     1.82        8.763       15.042      14.091      18.834      21.741      17.21       
89.0        16.945      13.813      1.441       1.706       70.38       13.005      1.1         36.391      15.113      254.953     1.823       8.804       14.904      13.573      17.851      21.535      16.661      
89.1        16.945      13.736      1.43        1.743       70.403      13.381      1.1         36.722      13.09       257.28      1.817       8.696       14.715      12.911      16.323      20.7        15.571      
89.2        16.929      13.636      1.417       1.778       70.431      13.633      1.1         37.132      12.148      259.66      1.802       8.437       14.511      12.247      14.582      19.194      14.134      
89.3        16.539      13.515      1.414       1.794       70.491      13.685      1.1         37.675      12.315      261.37      1.775       8.045       14.294      11.68       12.958      17.449      12.673      
89.4        15.548      13.387      1.414       1.781       70.6        13.685      1.1         38.353      12.872      262.005     1.734       7.712       14.09       11.405      11.727      15.881      11.376      
89.5        14.24       13.264      1.408       1.748       70.769      13.609      1.1         39.166      13.54       266.415     1.683       7.564       13.933      11.376      10.964      14.705      10.333      
89.6        12.982      13.151      1.403       1.713       71.01       13.427      1.1         40.029      13.433      282.446     1.629       7.615       13.8        11.376      10.536      13.896      9.57        
89.7        12.041      13.049      1.402       1.668       71.325      13.177      1.1         40.857      12.833      315.777     1.58        7.71        13.679      11.376      10.316      13.348      9.06        
89.8        11.452      12.949      1.401       1.62        71.707      12.86       1.1         41.574      12.479      341.955     1.551       7.834       13.567      11.503      10.205      12.995      8.72        
89.9        11.126      12.847      1.409       1.607       72.145      12.545      1.1         41.956      12.307      333.376     1.549       7.901       13.441      11.831      10.147      12.766      8.489       
90.0        10.964      12.75       1.421       1.613       72.625      12.347      1.1         41.856      12.131      316.879     1.568       7.872       13.265      12.199      10.122      12.583      8.34        
90.1        10.902      12.662      1.414       1.64        73.128      12.29       1.101       41.34       11.799      286.299     1.597       7.907       13.029      12.485      10.116      12.396      8.25        
90.2        10.891      12.593      1.4         1.682       73.629      12.29       1.102       40.554      11.602      276.191     1.623       7.965       12.728      12.634      10.116      12.191      8.214       
90.3        10.891      12.547      1.39        1.725       74.11       12.29       1.105       39.576      11.536      277.412     1.638       8.054       12.392      12.666      10.116      11.989      8.214       
90.4        10.891      12.517      1.377       1.758       74.555      12.293      1.108       38.505      11.17       264.728     1.642       8.103       12.074      12.666      10.118      11.827      8.214       
90.5        10.904      12.503      1.373       1.772       74.948      12.336      1.112       37.628      10.758      276.389     1.643       8.069       11.821      12.615      10.13       11.76       8.214       
90.6        10.934      12.503      1.392       1.761       75.27       12.466      1.115       37.12       10.619      287.887     1.653       8.169       11.661      12.463      10.174      11.76       8.231       
90.7        10.981      12.505      1.416       1.74        75.51       12.653      1.118       37.007      10.567      283.058     1.679       8.296       11.606      12.294      10.284      11.76       8.301       
90.8        11.07       12.52       1.428       1.727       75.668      12.823      1.119       37.139      10.494      274.342     1.718       8.312       11.606      12.227      10.523      11.763      8.418       
90.9        11.218      12.564      1.425       1.723       75.749      12.996      1.12        37.344      10.149      261.196     1.766       8.413       11.606      12.227      10.967      11.853      8.588       
91.0        11.442      12.648      1.404       1.728       75.765      13.236      1.12        37.548      10.168      261.157     1.817       8.519       11.628      12.227      11.657      12.099      8.804       
91.1        11.769      12.784      1.38        1.754       75.733      13.508      1.12        37.805      11.21       255.932     1.856       8.349       11.776      12.233      12.578      12.466      9.06        
91.2        12.194      12.958      1.379       1.805       75.672      13.706      1.12        37.938      12.329      254.238     1.88        7.925       12.121      12.326      13.624      12.902      9.307       
91.3        12.653      13.135      1.401       1.852       75.6        13.773      1.12        37.818      12.949      255.07      1.893       7.644       12.648      12.547      14.579      13.305      9.493       
91.4        13.06       13.275      1.432       1.874       75.523      13.773      1.12        37.526      13.718      254.762     1.897       7.419       13.353      12.854      15.243      13.557      9.587       
91.5        13.326      13.35       1.471       1.885       75.445      13.77       1.12        37.198      14.418      254.464     1.901       7.21        14.188      13.212      15.523      13.633      9.587       
91.6        13.413      13.363      1.506       1.883       75.367      13.693      1.12        36.813      14.835      254.653     1.911       7.079       14.926      13.518      15.56       13.633      9.587       
91.7        13.413      13.363      1.511       1.859       75.293      13.479      1.12        36.455      14.611      255.035     1.928       7.182       15.391      13.715      15.56       13.602      9.563       
91.8        13.388      13.363      1.494       1.859       75.224      13.147      1.12        35.992      13.993      255.205     1.945       7.256       15.557      13.792      15.4        13.431      9.424       
91.9        13.231      13.341      1.477       1.863       75.154      12.798      1.12        35.497      14.417      255.561     1.959       7.57        15.557      13.793      14.93       13.06       9.208       
92.0        12.886      13.249      1.468       1.861       75.076      12.524      1.12        35.238      14.848      255.935     1.964       7.959       15.553      13.793      14.247      12.551      8.974       
92.1        12.433      13.092      1.461       1.85        74.983      12.301      1.12        35.227      14.086      256.725     1.958       8.194       15.346      13.715      13.497      11.996      8.765       
92.2        11.971      12.895      1.454       1.829       74.869      12.091      1.12        35.474      13.026      257.577     1.94        8.404       14.792      13.516      12.786      11.489      8.618       
92.3        11.567      12.669      1.457       1.799       74.73       11.914      1.12        36.014      12.013      259.436     1.914       8.622       14.077      13.261      12.192      11.088      8.525       
92.4        11.264      12.429      1.46        1.764       74.563      11.78       1.12        36.606      11.561      262.19      1.88        8.536       13.362      12.994      11.757      10.846      8.498       
92.5        11.096      12.194      1.45        1.728       74.367      11.665      1.12        37.347      11.377      267.035     1.841       8.329       12.736      12.757      11.479      10.775      8.498       
