~Version Information Section
VERS.                                         2.0:CWLS log ASCII Standart – VERSION 2.0
WRAP.                                          NO:One line per depth step
~Well Information Section
STRT.M                                      -0.81:Начальная глубина
STOP.M                                     196.49:Конечная глубина
STEP.M                                          0:Шаг квантования по глубине
NULL.                                    -9999.25:Признак "Нет данных"
WELL.                                        145К:Скважина
~Parameter Information Section
~Curve Information Section
DEPTH.M                                          :Глубина
BK.Ohm*M                                         :BK     (БК)
DS.mm                                            :DS  (ДС)
GGK.g/cm3                                        :GGKp
ГК.mcr/h                                         :GK          (ГК)
GZ1.Ohm*M                                        :GZ1   ГЗ1(A0.4M0.1N)
GZ2.Ohm*M                                        :GZ2   ГЗ2(A1.0M0.1N)
GZ3.Ohm*M                                        :GZ3   ГЗ3(A2.0M0.5N)
GZ4.Ohm*M                                        :GZ4   ГЗ4(A4.0M0.5N)
GZ5.Ohm*M                                        :GZ5   ГЗ5(A8.0M0.5N)
GZR.                                             :GZR   ГЗK(N0.5M2.0A)
ИК.Ohm*M                                         :IK
НГК.ue                                           :NGK     (НГК)
RS.Ohm*M                                         :RS (Резистивиметр)
NNKM.                                            :NNKm  (ННКм)
PS.mv                                            :PS       (ПС)
PZ.Ohm*M                                         :PZ    (КС)
W.%                                              :W
~ASCII LOG DATA
# ...
145.19      18.014      147.078     2.288       8.375       -9999.25    -9999.25    -9999.25    -9999.25    -9999.25    -9999.25    13.63       1.109       1.389       1.587       77.745      14.841      30.97       
145.2       -9999.25    -9999.25    -9999.25    -9999.25    13.362      13.908      5.466       2.478       3.264       10.79       -9999.25    -9999.25    -9999.25    -9999.25    -9999.25    -9999.25    -9999.25    
145.29      18.642      147.16      2.281       8.393       -9999.25    -9999.25    -9999.25    -9999.25    -9999.25    -9999.25    13.572      1.134       1.389       1.58        78.374      14.448      31.624      
145.3       -9999.25    -9999.25    -9999.25    -9999.25    13.425      13.551      6.328       2.432       3.228       10.902      -9999.25    -9999.25    -9999.25    -9999.25    -9999.25    -9999.25    -9999.25    
145.39      18.892      147.498     2.278       8.518       -9999.25    -9999.25    -9999.25    -9999.25    -9999.25    -9999.25    13.542      1.142       1.39        1.559       78.827      14.158      31.945      
145.4       -9999.25    -9999.25    -9999.25    -9999.25    13.477      13.23       7.604       2.413       3.198       11.004      -9999.25    -9999.25    -9999.25    -9999.25    -9999.25    -9999.25    -9999.25    
145.49      18.571      147.493     2.28        8.451       -9999.25    -9999.25    -9999.25    -9999.25    -9999.25    -9999.25    13.527      1.042       1.39        1.566       79.086      13.947      32.661      
145.5       -9999.25    -9999.25    -9999.25    -9999.25    13.522      12.952      9.534       2.413       3.178       11.117      -9999.25    -9999.25    -9999.25    -9999.25    -9999.25    -9999.25    -9999.25    
145.59      18.434      147.191     2.285       8.224       -9999.25    -9999.25    -9999.25    -9999.25    -9999.25    -9999.25    13.518      0.976       1.391       1.581       79.146      13.788      33.373      
145.6       -9999.25    -9999.25    -9999.25    -9999.25    13.586      12.802      11.747      2.413       3.146       11.263      -9999.25    -9999.25    -9999.25    -9999.25    -9999.25    -9999.25    -9999.25    
145.69      18.355      146.917     2.288       8.12        -9999.25    -9999.25    -9999.25    -9999.25    -9999.25    -9999.25    13.511      1.041       1.392       1.556       79.15       13.66       33.596      
145.7       -9999.25    -9999.25    -9999.25    -9999.25    13.638      12.727      13.712      2.415       3.119       11.425      -9999.25    -9999.25    -9999.25    -9999.25    -9999.25    -9999.25    -9999.25    
145.79      18.203      147.069     2.291       8.255       -9999.25    -9999.25    -9999.25    -9999.25    -9999.25    -9999.25    13.507      1.094       1.393       1.516       79.135      13.555      33.773      
145.8       -9999.25    -9999.25    -9999.25    -9999.25    13.642      12.631      15.279      2.448       3.094       11.568      -9999.25    -9999.25    -9999.25    -9999.25    -9999.25    -9999.25    -9999.25    
145.89      18.098      146.925     2.294       8.359       -9999.25    -9999.25    -9999.25    -9999.25    -9999.25    -9999.25    13.505      1.086       1.395       1.532       79.017      13.469      34.016      
145.9       -9999.25    -9999.25    -9999.25    -9999.25    13.609      12.567      16.195      2.526       3.058       11.691      -9999.25    -9999.25    -9999.25    -9999.25    -9999.25    -9999.25    -9999.25    
145.99      17.993      146.559     2.299       8.298       -9999.25    -9999.25    -9999.25    -9999.25    -9999.25    -9999.25    13.506      1.076       1.397       1.556       78.799      13.399      33.964      
146.0       -9999.25    -9999.25    -9999.25    -9999.25    13.578      12.519      16.442      2.645       3.018       11.782      -9999.25    -9999.25    -9999.25    -9999.25    -9999.25    -9999.25    -9999.25    
146.09      18.085      146.093     2.31        7.992       -9999.25    -9999.25    -9999.25    -9999.25    -9999.25    -9999.25    13.508      1.071       1.399       1.573       78.531      13.338      34.148      
146.1       -9999.25    -9999.25    -9999.25    -9999.25    13.581      12.481      16.442      2.814       2.978       11.829      -9999.25    -9999.25    -9999.25    -9999.25    -9999.25    -9999.25    -9999.25    
146.19      18.17       146.054     2.325       7.728       -9999.25    -9999.25    -9999.25    -9999.25    -9999.25    -9999.25    13.508      1.067       1.4         1.587       78.235      13.286      34.3        
146.2       -9999.25    -9999.25    -9999.25    -9999.25    13.634      12.442      16.217      3.013       2.934       11.84       -9999.25    -9999.25    -9999.25    -9999.25    -9999.25    -9999.25    -9999.25    
146.29      18.475      146.211     2.339       7.713       -9999.25    -9999.25    -9999.25    -9999.25    -9999.25    -9999.25    13.509      1.11        1.401       1.602       77.935      13.247      33.956      
146.3       -9999.25    -9999.25    -9999.25    -9999.25    13.698      12.384      15.707      3.2         2.885       11.841      -9999.25    -9999.25    -9999.25    -9999.25    -9999.25    -9999.25    -9999.25    
146.39      18.784      146.334     2.354       7.965       -9999.25    -9999.25    -9999.25    -9999.25    -9999.25    -9999.25    13.512      1.144       1.401       1.612       77.606      13.212      32.746      
146.4       -9999.25    -9999.25    -9999.25    -9999.25    13.761      12.322      15.175      3.356       2.844       11.838      -9999.25    -9999.25    -9999.25    -9999.25    -9999.25    -9999.25    -9999.25    
146.49      18.415      146.437     2.367       8.381       -9999.25    -9999.25    -9999.25    -9999.25    -9999.25    -9999.25    13.519      1.101       1.401       1.588       77.193      13.164      31.593      
146.5       -9999.25    -9999.25    -9999.25    -9999.25    13.829      12.256      14.718      3.508       2.804       11.837      -9999.25    -9999.25    -9999.25    -9999.25    -9999.25    -9999.25    -9999.25    
146.59      17.961      146.424     2.375       8.612       -9999.25    -9999.25    -9999.25    -9999.25    -9999.25    -9999.25    13.528      1.065       1.401       1.577       76.68       13.106      31.055      
146.6       -9999.25    -9999.25    -9999.25    -9999.25    13.852      12.2        14.327      3.661       2.767       11.839      -9999.25    -9999.25    -9999.25    -9999.25    -9999.25    -9999.25    -9999.25    
146.69      17.97       146.572     2.379       8.711       -9999.25    -9999.25    -9999.25    -9999.25    -9999.25    -9999.25    13.534      1.091       1.401       1.608       76.037      13.05       30.818      
146.7       -9999.25    -9999.25    -9999.25    -9999.25    13.84       12.176      13.983      3.816       2.733       11.839      -9999.25    -9999.25    -9999.25    -9999.25    -9999.25    -9999.25    -9999.25    
146.79      18.02       146.748     2.38        8.648       -9999.25    -9999.25    -9999.25    -9999.25    -9999.25    -9999.25    13.539      1.115       1.4         1.62        75.25       13.003      30.431      
146.8       -9999.25    -9999.25    -9999.25    -9999.25    13.871      12.176      13.68       4.026       2.706       11.839      -9999.25    -9999.25    -9999.25    -9999.25    -9999.25    -9999.25    -9999.25    
146.89      18.507      146.776     2.372       8.666       -9999.25    -9999.25    -9999.25    -9999.25    -9999.25    -9999.25    13.545      1.083       1.399       1.611       74.334      12.97       30.754      
146.9       -9999.25    -9999.25    -9999.25    -9999.25    13.927      12.192      13.429      4.365       2.672       11.841      -9999.25    -9999.25    -9999.25    -9999.25    -9999.25    -9999.25    -9999.25    
146.99      18.927      146.769     2.36        8.821       -9999.25    -9999.25    -9999.25    -9999.25    -9999.25    -9999.25    13.551      1.052       1.398       1.608       73.443      12.956      32.442      
