~Version Information Section
VERS.                                         2.0:CWLS log ASCII Standart – VERSION 2.0
WRAP.                                          NO:One line per depth step
~Well Information Section
STRT.M                                        0.1:Начальная глубина
STOP.M                                      206.3:Конечная глубина
STEP.M                                          0:Шаг квантования по глубине
NULL.                                    -9999.25:Признак "Нет данных"
WELL.                                        141К:Скважина
~Parameter Information Section
~Curve Information Section
DEPTH.M                                          :Глубина
N0.5M2.0A.Омм                                    :GZR   ГЗK(N0.5M2.0A)
ИК.мСм/м                                         :IK
НГК.усл.ед                                       :NGK     (НГК)
ННКМ.усл.ед                                      :NNKm  (ННКм)
ПС.mv                                            :PS       (ПС)
N11.0M0.5A.Омм                                   :PZ    (КС)
R.Омм                                            :RS (Резистивиметр)
КП.%                                             :W
БК.Омм                                           :BK     (БК)
DСР.мм                                           :DS  (ДС)
ПЛОТНОСТЬ.г/см^3                                 :GGKp
ГК.гамма                                         :GK          (ГК)
А0.4М0.1N.Омм                                    :GZ1   ГЗ1(A0.4M0.1N)
А1.0М0.1N.Омм                                    :GZ2   ГЗ2(A1.0M0.1N)
А2.0М0.5N.Омм                                    :GZ3   ГЗ3(A2.0M0.5N)
А4.0М0.5N.Oмм                                    :GZ4   ГЗ4(A4.0M0.5N)
А8.0М1.0N.Омм                                    :GZ5   ГЗ5(A8.0M0.5N)
~ASCII LOG DATA
# ...
111.1       18.998      27.708      1.597       2.155       46.911      32.988      1.248       31.199      37.05       211.643     2.319       7.174       37.323      48.264      38.97       42.113      43.076      
111.2       18.475      26.936      1.579       2.125       46.994      31.228      1.24        30.984      31.617      213.813     2.317       7.066       35.99       46.527      38.189      41.104      41.393      
111.3       18.332      26.215      1.568       2.109       47.063      29.931      1.232       30.616      30.916      217.514     2.314       6.927       34.721      44.513      37.529      40.205      40.326      
111.4       18.332      25.553      1.546       2.107       47.117      29.222      1.225       30.469      32.262      215.431     2.312       6.835       33.417      42.464      37.013      39.446      39.725      
111.5       18.332      24.937      1.545       2.105       47.151      28.922      1.218       30.603      33.19       217.511     2.311       6.892       31.992      40.545      36.624      38.817      39.701      
111.6       18.358      24.376      1.561       2.092       47.167      28.73       1.213       30.936      33.938      222.311     2.314       6.984       30.593      38.737      36.337      38.325      39.701      
111.7       18.473      23.851      1.557       2.066       47.161      28.437      1.208       31.381      29.6        224.654     2.319       7.005       29.416      37.137      36.223      38.121      39.701      
111.8       18.682      23.314      1.547       2.029       47.136      28.021      1.205       31.892      26.442      225.321     2.323       7.038       28.621      35.886      36.223      38.121      39.701      
111.9       18.954      22.768      1.548       1.991       47.094      27.462      1.202       32.573      25.699      225.416     2.324       7.069       28.289      35.029      36.223      38.121      40.321      
112.0       19.295      22.261      1.544       1.969       47.039      26.625      1.2         33.375      26.293      222.691     2.322       6.906       28.23       34.47       36.358      38.208      41.391      
112.1       19.702      21.831      1.52        1.97        46.975      25.552      1.197       34.029      25.516      221.766     2.315       6.503       28.23       34.03       37.013      38.766      42.865      
112.2       20.187      21.509      1.496       1.996       46.907      24.519      1.193       34.397      26.787      220.882     2.305       6.298       28.23       33.691      38.227      39.863      44.554      
112.3       20.825      21.307      1.494       2.035       46.839      23.816      1.187       34.415      30.891      213.88      2.296       6.278       28.239      33.42       39.468      40.943      46.096      
112.4       21.715      21.202      1.508       2.067       46.771      23.544      1.18        34.194      35.952      212.662     2.29        6.115       28.209      33.047      40.232      41.534      46.909      
112.5       22.854      21.15       1.525       2.08        46.708      23.512      1.173       34.04       35.199      214.278     2.286       5.951       28.171      32.305      40.448      41.671      46.909      
112.6       24.073      21.107      1.545       2.08        46.651      23.512      1.167       34.026      29.035      213.159     2.285       6.072       28.081      31.077      40.448      41.671      46.909      
112.7       25.198      21.027      1.558       2.065       46.612      23.512      1.163       34.114      28.285      213.838     2.284       6.102       27.868      29.412      39.984      41.208      46.682      
112.8       26.092      20.919      1.543       2.046       46.607      23.785      1.162       34.277      28.745      215.969     2.282       5.94        27.5        27.317      38.232      39.551      45.451      
112.9       26.648      20.833      1.509       2.037       46.658      24.417      1.162       34.488      25.548      216.078     2.279       5.923       26.901      24.94       35.175      36.73       43.686      
113.0       26.874      20.782      1.464       2.039       46.797      25.137      1.162       34.911      25.66       219.527     2.276       5.97        26.189      22.713      31.58       33.518      41.844      
113.1       26.913      20.777      1.415       2.044       47.059      25.714      1.162       35.51       27.775      218.977     2.272       5.937       25.543      20.994      28.264      30.657      40.413      
113.2       26.948      20.777      1.382       2.052       47.485      26.045      1.165       36.093      26.716      219.009     2.27        5.799       25.056      19.863      25.837      28.662      40.011      
113.3       27.001      20.798      1.369       2.062       48.113      26.161      1.17        36.542      25.545      222.849     2.269       5.721       24.809      19.449      24.623      27.943      40.011      
113.4       27.019      20.896      1.385       2.069       48.976      26.161      1.178       36.708      26.707      223.327     2.271       5.805       24.759      19.449      24.341      27.943      40.011      
113.5       27.024      21.061      1.423       2.067       50.1        26.181      1.189       36.668      31.322      223.809     2.276       5.92        24.759      19.449      24.341      27.943      40.011      
113.6       27.248      21.218      1.461       2.059       51.498      26.283      1.198       36.543      30.229      221.242     2.284       6.039       24.759      19.554      24.341      28.004      40.812      
113.7       28.15       21.353      1.486       2.052       53.164      26.542      1.207       36.213      25.6        224.073     2.289       6.217       24.843      20.132      24.549      28.844      42.56       
113.8       30.181      21.492      1.498       2.059       55.069      26.91       1.214       35.643      23.916      223.488     2.29        6.33        25.069      21.39       25.339      30.92       44.886      
113.9       33.322      21.692      1.498       2.094       57.166      27.367      1.218       34.87       22.976      222.84      2.294       6.254       25.543      23.298      26.568      33.824      47.262      
114.0       36.893      22.016      1.506       2.14        59.388      27.961      1.219       33.981      23.571      222.711     2.301       6.171       26.347      25.384      27.627      36.809      48.963      
114.1       39.914      22.486      1.525       2.183       61.649      28.687      1.22        33.2        26.836      222.0       2.316       6.132       27.313      26.824      28.051      38.828      49.618      
114.2       41.396      23.082      1.544       2.222       63.854      29.695      1.22        32.618      34.603      216.414     2.344       6.118       28.267      27.534      28.062      39.466      49.618      
114.3       41.635      23.763      1.555       2.244       65.912      31.11       1.22        32.176      37.134      217.627     2.377       5.987       29.196      27.772      28.062      39.466      49.618      
114.4       41.635      24.432      1.552       2.236       67.772      32.627      1.22        31.888      35.321      219.011     2.404       5.887       30.029      27.784      27.692      39.297      48.869      
114.5       40.794      24.999      1.541       2.218       69.395      34.163      1.22        31.69       35.397      218.805     2.418       5.966       30.558      27.791      26.587      38.197      46.862      
114.6       38.409      25.436      1.537       2.209       70.72       35.967      1.22        31.521      35.833      218.852     2.417       6.004       30.898      27.458      24.88       35.679      44.2        
114.7       35.068      25.784      1.532       2.212       71.706      38.108      1.22        31.353      36.713      218.761     2.403       6.01        31.47       26.92       23.02       32.34       41.499      
