~Version Information Section
VERS.                                         2.0:CWLS log ASCII Standart – VERSION 2.0
WRAP.                                          NO:One line per depth step
~Well Information Section
STRT.M                                      -0.81:Начальная глубина
STOP.M                                     196.49:Конечная глубина
STEP.M                                          0:Шаг квантования по глубине
NULL.                                    -9999.25:Признак "Нет данных"
WELL.                                        145К:Скважина
~Parameter Information Section
~Curve Information Section
DEPTH.M                                          :Глубина
BK.Ohm*M                                         :BK     (БК)
DS.mm                                            :DS  (ДС)
GGK.g/cm3                                        :GGKp
ГК.mcr/h                                         :GK          (ГК)
GZ1.Ohm*M                                        :GZ1   ГЗ1(A0.4M0.1N)
GZ2.Ohm*M                                        :GZ2   ГЗ2(A1.0M0.1N)
GZ3.Ohm*M                                        :GZ3   ГЗ3(A2.0M0.5N)
GZ4.Ohm*M                                        :GZ4   ГЗ4(A4.0M0.5N)
GZ5.Ohm*M                                        :GZ5   ГЗ5(A8.0M0.5N)
GZR.                                             :GZR   ГЗK(N0.5M2.0A)
ИК.Ohm*M                                         :IK
НГК.ue                                           :NGK     (НГК)
RS.Ohm*M                                         :RS (Резистивиметр)
NNKM.                                            :NNKm  (ННКм)
PS.mv                                            :PS       (ПС)
PZ.Ohm*M                                         :PZ    (КС)
W.%                                              :W
~ASCII LOG DATA
# ...
104.49      38.688      227.559     2.091       5.269       -9999.25    -9999.25    -9999.25    -9999.25    -9999.25    -9999.25    28.839      1.219       1.606       1.502       81.503      37.576      33.964      
104.5       -9999.25    -9999.25    -9999.25    -9999.25    28.416      39.139      20.339      16.688      7.843       21.553      -9999.25    -9999.25    -9999.25    -9999.25    -9999.25    -9999.25    -9999.25    
104.59      44.892      226.588     2.115       5.628       -9999.25    -9999.25    -9999.25    -9999.25    -9999.25    -9999.25    28.071      1.197       1.6         1.533       81.473      37.517      34.538      
104.6       -9999.25    -9999.25    -9999.25    -9999.25    28.748      41.358      21.378      18.056      8.533       25.188      -9999.25    -9999.25    -9999.25    -9999.25    -9999.25    -9999.25    -9999.25    
104.69      42.348      224.071     2.146       5.954       -9999.25    -9999.25    -9999.25    -9999.25    -9999.25    -9999.25    27.344      1.163       1.586       1.54        81.417      37.232      34.305      
104.7       -9999.25    -9999.25    -9999.25    -9999.25    29.383      43.178      24.268      19.963      9.162       29.104      -9999.25    -9999.25    -9999.25    -9999.25    -9999.25    -9999.25    -9999.25    
104.79      38.198      219.647     2.18        5.842       -9999.25    -9999.25    -9999.25    -9999.25    -9999.25    -9999.25    26.637      1.137       1.569       1.542       81.279      36.447      33.607      
104.8       -9999.25    -9999.25    -9999.25    -9999.25    29.174      43.389      29.127      21.262      9.604       31.797      -9999.25    -9999.25    -9999.25    -9999.25    -9999.25    -9999.25    -9999.25    
104.89      36.272      217.905     2.215       5.437       -9999.25    -9999.25    -9999.25    -9999.25    -9999.25    -9999.25    25.943      1.089       1.547       1.562       81.044      35.572      33.738      
104.9       -9999.25    -9999.25    -9999.25    -9999.25    28.416      42.604      33.543      21.596      9.77        32.734      -9999.25    -9999.25    -9999.25    -9999.25    -9999.25    -9999.25    -9999.25    
104.99      36.001      219.159     2.246       5.14        -9999.25    -9999.25    -9999.25    -9999.25    -9999.25    -9999.25    25.292      1.053       1.525       1.568       80.552      34.968      33.896      
105.0       -9999.25    -9999.25    -9999.25    -9999.25    27.878      41.773      35.187      21.596      9.77        32.84       -9999.25    -9999.25    -9999.25    -9999.25    -9999.25    -9999.25    -9999.25    
105.09      36.333      217.587     2.265       4.957       -9999.25    -9999.25    -9999.25    -9999.25    -9999.25    -9999.25    24.706      1.125       1.509       1.582       79.77       34.564      33.38       
105.1       -9999.25    -9999.25    -9999.25    -9999.25    26.605      39.084      35.24       21.05       9.77        33.05       -9999.25    -9999.25    -9999.25    -9999.25    -9999.25    -9999.25    -9999.25    
105.19      35.242      216.454     2.269       4.614       -9999.25    -9999.25    -9999.25    -9999.25    -9999.25    -9999.25    24.185      1.201       1.501       1.587       78.65       34.113      32.403      
105.2       -9999.25    -9999.25    -9999.25    -9999.25    24.22       33.358      35.24       19.309      9.527       33.322      -9999.25    -9999.25    -9999.25    -9999.25    -9999.25    -9999.25    -9999.25    
105.29      35.505      216.627     2.26        4.526       -9999.25    -9999.25    -9999.25    -9999.25    -9999.25    -9999.25    23.761      1.148       1.5         1.602       77.173      33.403      31.677      
105.3       -9999.25    -9999.25    -9999.25    -9999.25    20.914      26.106      34.209      16.43       9.05        33.417      -9999.25    -9999.25    -9999.25    -9999.25    -9999.25    -9999.25    -9999.25    
105.39      37.397      216.257     2.238       5.231       -9999.25    -9999.25    -9999.25    -9999.25    -9999.25    -9999.25    23.411      1.066       1.5         1.606       75.33       32.257      30.83       
105.4       -9999.25    -9999.25    -9999.25    -9999.25    17.259      18.681      31.013      13.207      8.377       33.369      -9999.25    -9999.25    -9999.25    -9999.25    -9999.25    -9999.25    -9999.25    
105.49      34.99       215.992     2.212       6.26        -9999.25    -9999.25    -9999.25    -9999.25    -9999.25    -9999.25    23.086      1.069       1.5         1.461       73.314      30.402      30.423      
105.5       -9999.25    -9999.25    -9999.25    -9999.25    14.852      13.425      26.051      10.883      7.963       33.369      -9999.25    -9999.25    -9999.25    -9999.25    -9999.25    -9999.25    -9999.25    
105.59      23.878      216.045     2.191       7.267       -9999.25    -9999.25    -9999.25    -9999.25    -9999.25    -9999.25    22.786      1.1         1.506       1.429       71.357      27.805      32.947      
105.6       -9999.25    -9999.25    -9999.25    -9999.25    14.2        11.898      21.671      10.096      7.837       33.369      -9999.25    -9999.25    -9999.25    -9999.25    -9999.25    -9999.25    -9999.25    
105.69      18.703      215.969     2.179       7.594       -9999.25    -9999.25    -9999.25    -9999.25    -9999.25    -9999.25    22.621      1.125       1.529       1.317       69.558      25.11       35.623      
105.7       -9999.25    -9999.25    -9999.25    -9999.25    14.2        11.898      20.043      10.096      7.837       33.961      -9999.25    -9999.25    -9999.25    -9999.25    -9999.25    -9999.25    -9999.25    
105.79      18.156      214.984     2.172       7.828       -9999.25    -9999.25    -9999.25    -9999.25    -9999.25    -9999.25    22.606      1.147       1.593       1.293       68.131      23.12       36.425      
105.8       -9999.25    -9999.25    -9999.25    -9999.25    14.2        11.898      19.998      10.096      7.837       36.222      -9999.25    -9999.25    -9999.25    -9999.25    -9999.25    -9999.25    -9999.25    
105.89      19.428      213.905     2.169       7.872       -9999.25    -9999.25    -9999.25    -9999.25    -9999.25    -9999.25    22.619      1.162       1.6         1.396       67.182      22.139      37.408      
105.9       -9999.25    -9999.25    -9999.25    -9999.25    14.997      12.308      19.904      10.219      7.837       39.979      -9999.25    -9999.25    -9999.25    -9999.25    -9999.25    -9999.25    -9999.25    
105.99      22.007      213.109     2.166       7.704       -9999.25    -9999.25    -9999.25    -9999.25    -9999.25    -9999.25    22.745      1.174       1.6         1.408       66.657      21.883      38.171      
106.0       -9999.25    -9999.25    -9999.25    -9999.25    17.31       14.165      19.697      11.009      8.075       43.396      -9999.25    -9999.25    -9999.25    -9999.25    -9999.25    -9999.25    -9999.25    
106.09      25.048      212.126     2.162       7.487       -9999.25    -9999.25    -9999.25    -9999.25    -9999.25    -9999.25    23.159      1.197       1.6         1.367       66.453      21.864      36.517      
106.1       -9999.25    -9999.25    -9999.25    -9999.25    20.691      16.794      19.727      12.363      8.699       45.236      -9999.25    -9999.25    -9999.25    -9999.25    -9999.25    -9999.25    -9999.25    
106.19      27.567      211.413     2.154       6.734       -9999.25    -9999.25    -9999.25    -9999.25    -9999.25    -9999.25    23.921      1.231       1.6         1.368       66.415      21.864      37.296      
106.2       -9999.25    -9999.25    -9999.25    -9999.25    24.323      19.103      19.981      13.625      9.758       45.953      -9999.25    -9999.25    -9999.25    -9999.25    -9999.25    -9999.25    -9999.25    
106.29      30.207      211.209     2.144       6.049       -9999.25    -9999.25    -9999.25    -9999.25    -9999.25    -9999.25    25.08       1.26        1.6         1.476       66.413      22.194      39.435      
