~Version Information Section
VERS.                                         2.0:CWLS log ASCII Standart – VERSION 2.0
WRAP.                                          NO:One line per depth step
~Well Information Section
STRT.M                                        0.1:Начальная глубина
STOP.M                                      206.3:Конечная глубина
STEP.M                                          0:Шаг квантования по глубине
NULL.                                    -9999.25:Признак "Нет данных"
WELL.                                        141К:Скважина
~Parameter Information Section
~Curve Information Section
DEPTH.M                                          :Глубина
N0.5M2.0A.Омм                                    :GZR   ГЗK(N0.5M2.0A)
ИК.мСм/м                                         :IK
НГК.усл.ед                                       :NGK     (НГК)
ННКМ.усл.ед                                      :NNKm  (ННКм)
ПС.mv                                            :PS       (ПС)
N11.0M0.5A.Омм                                   :PZ    (КС)
R.Омм                                            :RS (Резистивиметр)
КП.%                                             :W
БК.Омм                                           :BK     (БК)
DСР.мм                                           :DS  (ДС)
ПЛОТНОСТЬ.г/см^3                                 :GGKp
ГК.гамма                                         :GK          (ГК)
А0.4М0.1N.Омм                                    :GZ1   ГЗ1(A0.4M0.1N)
А1.0М0.1N.Омм                                    :GZ2   ГЗ2(A1.0M0.1N)
А2.0М0.5N.Омм                                    :GZ3   ГЗ3(A2.0M0.5N)
А4.0М0.5N.Oмм                                    :GZ4   ГЗ4(A4.0M0.5N)
А8.0М1.0N.Омм                                    :GZ5   ГЗ5(A8.0M0.5N)
~ASCII LOG DATA
# ...
100.0       191.941     74.644      2.185       2.327       47.802      239.45      1.24        21.834      654.273     202.228     2.374       3.971       125.506     246.752     140.39      46.085      61.367      
100.1       179.163     74.644      2.219       2.354       47.752      232.719     1.24        21.061      635.131     203.192     2.389       3.923       128.871     262.683     158.331     47.26       61.96       
100.2       167.855     74.516      2.276       2.376       47.656      223.337     1.24        20.319      603.526     204.558     2.409       3.867       131.923     276.082     176.31      48.381      62.015      
100.3       157.801     73.986      2.353       2.397       47.51       210.812     1.24        19.553      477.256     206.093     2.426       3.936       135.007     287.479     194.89      49.448      62.015      
100.4       148.817     73.131      2.426       2.423       47.314      195.967     1.24        18.788      417.12      210.663     2.44        4.036       138.523     298.381     215.052     50.275      62.015      
100.5       140.669     72.036      2.479       2.477       47.071      179.501     1.24        18.008      509.494     204.664     2.452       3.996       142.46      307.424     237.118     50.64       61.358      
100.6       133.013     70.761      2.515       2.546       46.788      162.384     1.24        17.265      680.616     211.991     2.466       3.932       145.791     311.293     259.424     50.691      59.766      
100.7       125.534     69.459      2.528       2.6         46.455      146.824     1.24        16.645      750.944     213.272     2.481       3.844       147.09      311.645     277.454     50.691      57.173      
100.8       117.89      67.884      2.536       2.638       46.068      134.748     1.24        16.26       701.357     212.6       2.493       3.664       147.09      311.645     286.466     50.453      53.761      
100.9       109.671     66.177      2.512       2.653       45.631      126.188     1.24        16.301      623.217     212.096     2.498       3.611       147.054     307.817     288.274     49.682      49.684      
101.0       100.684     64.321      2.455       2.646       45.15       120.274     1.24        16.873      527.203     210.214     2.487       3.695       145.213     294.885     288.274     48.431      45.128      
101.1       91.072      62.352      2.363       2.606       44.628      116.376     1.24        17.937      354.429     206.328     2.456       3.896       139.401     271.944     283.487     47.059      40.407      
101.2       81.202      60.292      2.242       2.535       44.061      113.784     1.24        19.452      189.853     206.895     2.409       4.138       129.65      242.349     268.041     45.913      35.674      
101.3       71.765      58.319      2.102       2.452       43.446      111.311     1.24        21.28       101.171     203.253     2.355       4.365       117.765     211.021     243.095     45.166      31.112      
101.4       63.645      56.278      1.996       2.353       42.784      106.306     1.24        23.341      83.646      203.88      2.304       4.424       105.785     181.757     214.293     44.906      26.946      
101.5       57.389      54.374      1.917       2.253       42.077      99.123      1.24        25.578      74.707      202.752     2.264       4.471       94.74       157.644     186.813     44.9        23.314      
101.6       53.11       52.665      1.864       2.166       41.339      92.134      1.24        27.717      72.27       202.628     2.237       4.356       85.709      139.666     163.738     44.9        20.269      
101.7       50.676      51.12       1.828       2.1         40.583      85.196      1.24        29.478      71.389      204.767     2.221       4.15        79.308      127.133     145.924     44.9        17.842      
101.8       49.716      49.801      1.791       2.049       39.829      78.404      1.24        30.817      67.935      202.714     2.213       4.109       74.956      118.891     132.296     45.041      15.991      
101.9       49.535      48.752      1.742       2.02        39.096      74.144      1.24        31.735      65.247      202.23      2.209       4.156       71.967      113.532     121.733     45.392      14.585      
102.0       49.535      47.84       1.694       2.003       38.402      72.532      1.24        32.311      65.708      202.742     2.207       4.159       70.041      109.877     113.281     45.831      13.501      
102.1       49.535      47.083      1.659       1.992       37.763      71.56       1.24        32.566      71.476      203.014     2.205       4.237       68.694      106.581     105.931     46.23       12.635      
102.2       49.637      46.425      1.633       1.985       37.189      71.108      1.24        32.45       74.728      203.279     2.205       4.301       67.271      102.602     98.964      46.5        11.921      
102.3       49.908      45.853      1.627       1.971       36.689      70.839      1.24        32.198      68.58       202.802     2.205       4.21        65.578      97.833      92.46       46.677      11.317      
102.4       50.246      45.372      1.64        1.955       36.262      70.461      1.24        32.054      63.134      203.768     2.206       4.116       63.957      92.74       86.895      46.811      10.821      
102.5       50.57       44.976      1.654       1.944       35.908      70.058      1.24        32.035      66.522      203.948     2.206       4.105       62.663      87.936      82.554      46.909      10.432      
102.6       50.835      44.629      1.646       1.926       35.623      69.63       1.24        32.095      70.492      203.918     2.206       4.264       61.562      84.123      79.79       46.994      10.137      
102.7       51.053      44.287      1.621       1.91        35.398      68.758      1.24        32.244      66.607      204.061     2.199       4.495       60.764      81.723      78.819      47.237      9.902       
102.8       51.289      43.937      1.591       1.896       35.227      67.266      1.24        32.462      59.423      204.334     2.187       4.643       60.388      80.338      78.761      47.975      9.71        
102.9       51.582      43.59       1.56        1.878       35.1        65.522      1.24        32.687      58.281      204.48      2.176       4.707       60.164      79.335      78.761      49.308      9.53        
103.0       52.104      43.277      1.541       1.861       35.007      63.674      1.24        32.731      60.502      204.941     2.168       4.736       59.95       78.456      78.761      51.047      9.347       
103.1       52.987      42.959      1.543       1.858       34.941      61.896      1.24        32.485      62.409      204.868     2.17        4.583       59.816      77.575      78.956      52.766      9.156       
103.2       54.118      42.722      1.562       1.873       34.894      60.684      1.24        32.064      65.723      204.926     2.185       4.446       59.678      76.687      79.15       53.795      8.946       
103.3       55.158      42.546      1.59        1.894       34.86       60.141      1.241       31.629      81.396      205.088     2.205       4.492       59.496      75.962      79.15       54.045      8.698       
103.4       55.666      42.387      1.623       1.907       34.834      59.918      1.242       31.207      110.334     204.921     2.219       4.58        59.248      74.997      78.989      54.045      8.4         
103.5       55.737      42.16       1.648       1.908       34.815      59.83       1.245       30.854      98.169      203.806     2.226       4.717       58.641      73.139      77.95       53.59       8.048       
103.6       55.737      41.881      1.662       1.89        34.808      59.823      1.248       30.655      60.917      203.4       2.224       4.891       57.465      70.513      75.424      52.229      7.657       
