~Version Information Section
VERS.                                         2.0:CWLS log ASCII Standart – VERSION 2.0
WRAP.                                          NO:One line per depth step
~Well Information Section
STRT.M                                      -0.81:Начальная глубина
STOP.M                                     196.49:Конечная глубина
STEP.M                                          0:Шаг квантования по глубине
NULL.                                    -9999.25:Признак "Нет данных"
WELL.                                        145К:Скважина
~Parameter Information Section
~Curve Information Section
DEPTH.M                                          :Глубина
BK.Ohm*M                                         :BK     (БК)
DS.mm                                            :DS  (ДС)
GGK.g/cm3                                        :GGKp
ГК.mcr/h                                         :GK          (ГК)
GZ1.Ohm*M                                        :GZ1   ГЗ1(A0.4M0.1N)
GZ2.Ohm*M                                        :GZ2   ГЗ2(A1.0M0.1N)
GZ3.Ohm*M                                        :GZ3   ГЗ3(A2.0M0.5N)
GZ4.Ohm*M                                        :GZ4   ГЗ4(A4.0M0.5N)
GZ5.Ohm*M                                        :GZ5   ГЗ5(A8.0M0.5N)
GZR.                                             :GZR   ГЗK(N0.5M2.0A)
ИК.Ohm*M                                         :IK
НГК.ue                                           :NGK     (НГК)
RS.Ohm*M                                         :RS (Резистивиметр)
NNKM.                                            :NNKm  (ННКм)
PS.mv                                            :PS       (ПС)
PZ.Ohm*M                                         :PZ    (КС)
W.%                                              :W
~ASCII LOG DATA
# ...
111.89      83.508      210.692     2.109       4.556       -9999.25    -9999.25    -9999.25    -9999.25    -9999.25    -9999.25    50.427      1.274       1.788       1.601       73.857      53.491      33.638      
111.9       -9999.25    -9999.25    -9999.25    -9999.25    51.907      60.143      63.642      57.458      46.724      73.236      -9999.25    -9999.25    -9999.25    -9999.25    -9999.25    -9999.25    -9999.25    
111.99      110.585     210.63      2.102       4.352       -9999.25    -9999.25    -9999.25    -9999.25    -9999.25    -9999.25    50.777      1.174       1.794       1.56        72.844      53.771      33.232      
112.0       -9999.25    -9999.25    -9999.25    -9999.25    52.862      60.052      63.501      57.458      46.724      72.092      -9999.25    -9999.25    -9999.25    -9999.25    -9999.25    -9999.25    -9999.25    
112.09      106.596     210.792     2.1         4.212       -9999.25    -9999.25    -9999.25    -9999.25    -9999.25    -9999.25    51.002      1.189       1.799       1.541       72.239      54.029      32.679      
112.1       -9999.25    -9999.25    -9999.25    -9999.25    52.862      59.603      63.358      57.25       46.724      70.721      -9999.25    -9999.25    -9999.25    -9999.25    -9999.25    -9999.25    -9999.25    
112.19      81.593      210.763     2.102       4.16        -9999.25    -9999.25    -9999.25    -9999.25    -9999.25    -9999.25    51.14       1.304       1.794       1.547       72.053      54.34       32.501      
112.2       -9999.25    -9999.25    -9999.25    -9999.25    52.282      58.376      62.872      56.669      45.006      69.851      -9999.25    -9999.25    -9999.25    -9999.25    -9999.25    -9999.25    -9999.25    
112.29      78.262      211.18      2.105       4.239       -9999.25    -9999.25    -9999.25    -9999.25    -9999.25    -9999.25    51.22       1.336       1.788       1.55        72.027      54.751      33.778      
112.3       -9999.25    -9999.25    -9999.25    -9999.25    50.21       56.278      61.601      56.11       43.968      69.667      -9999.25    -9999.25    -9999.25    -9999.25    -9999.25    -9999.25    -9999.25    
112.39      78.601      211.483     2.108       4.443       -9999.25    -9999.25    -9999.25    -9999.25    -9999.25    -9999.25    51.227      1.266       1.782       1.544       72.026      55.168      34.946      
112.4       -9999.25    -9999.25    -9999.25    -9999.25    47.683      54.43       59.96       55.721      43.149      69.667      -9999.25    -9999.25    -9999.25    -9999.25    -9999.25    -9999.25    -9999.25    
112.49      78.145      212.424     2.107       4.598       -9999.25    -9999.25    -9999.25    -9999.25    -9999.25    -9999.25    51.227      1.224       1.776       1.542       72.026      55.366      35.015      
112.5       -9999.25    -9999.25    -9999.25    -9999.25    45.605      53.109      58.38       55.465      42.376      69.667      -9999.25    -9999.25    -9999.25    -9999.25    -9999.25    -9999.25    -9999.25    
112.59      74.155      212.812     2.101       4.624       -9999.25    -9999.25    -9999.25    -9999.25    -9999.25    -9999.25    51.206      1.222       1.769       1.488       72.22       55.383      35.487      
112.6       -9999.25    -9999.25    -9999.25    -9999.25    43.46       51.898      57.244      55.414      41.814      70.135      -9999.25    -9999.25    -9999.25    -9999.25    -9999.25    -9999.25    -9999.25    
112.69      66.442      212.573     2.092       4.502       -9999.25    -9999.25    -9999.25    -9999.25    -9999.25    -9999.25    51.043      1.23        1.763       1.477       72.758      55.347      36.633      
112.7       -9999.25    -9999.25    -9999.25    -9999.25    42.358      51.294      56.894      55.414      41.814      71.637      -9999.25    -9999.25    -9999.25    -9999.25    -9999.25    -9999.25    -9999.25    
112.79      53.479      211.705     2.082       4.183       -9999.25    -9999.25    -9999.25    -9999.25    -9999.25    -9999.25    50.642      1.261       1.757       1.497       73.593      54.988      36.334      
112.8       -9999.25    -9999.25    -9999.25    -9999.25    42.358      51.294      56.894      55.414      41.814      73.903      -9999.25    -9999.25    -9999.25    -9999.25    -9999.25    -9999.25    -9999.25    
112.89      49.87       211.062     2.075       3.883       -9999.25    -9999.25    -9999.25    -9999.25    -9999.25    -9999.25    50.238      1.275       1.751       1.501       74.615      54.22       35.29       
112.9       -9999.25    -9999.25    -9999.25    -9999.25    42.358      51.294      56.813      55.717      41.767      76.072      -9999.25    -9999.25    -9999.25    -9999.25    -9999.25    -9999.25    -9999.25    
112.99      57.617      210.457     2.076       3.919       -9999.25    -9999.25    -9999.25    -9999.25    -9999.25    -9999.25    49.988      1.248       1.744       1.541       75.675      53.32       35.241      
113.0       -9999.25    -9999.25    -9999.25    -9999.25    42.544      51.672      56.64       56.165      42.084      77.233      -9999.25    -9999.25    -9999.25    -9999.25    -9999.25    -9999.25    -9999.25    
113.09      64.489      210.251     2.082       4.343       -9999.25    -9999.25    -9999.25    -9999.25    -9999.25    -9999.25    49.855      1.228       1.738       1.545       76.496      52.819      34.813      
113.1       -9999.25    -9999.25    -9999.25    -9999.25    43.368      52.458      56.752      56.31       42.184      77.457      -9999.25    -9999.25    -9999.25    -9999.25    -9999.25    -9999.25    -9999.25    
113.19      69.219      210.393     2.092       4.897       -9999.25    -9999.25    -9999.25    -9999.25    -9999.25    -9999.25    49.843      1.204       1.732       1.571       76.837      52.634      33.834      
113.2       -9999.25    -9999.25    -9999.25    -9999.25    44.008      52.865      56.957      56.31       42.378      77.457      -9999.25    -9999.25    -9999.25    -9999.25    -9999.25    -9999.25    -9999.25    
113.29      70.931      210.519     2.105       5.19        -9999.25    -9999.25    -9999.25    -9999.25    -9999.25    -9999.25    49.888      1.189       1.726       1.576       76.898      52.422      34.709      
113.3       -9999.25    -9999.25    -9999.25    -9999.25    44.008      52.865      56.957      55.855      42.563      77.077      -9999.25    -9999.25    -9999.25    -9999.25    -9999.25    -9999.25    -9999.25    
113.39      71.363      210.38      2.114       5.294       -9999.25    -9999.25    -9999.25    -9999.25    -9999.25    -9999.25    50.125      1.213       1.719       1.574       76.902      52.262      36.112      
113.4       -9999.25    -9999.25    -9999.25    -9999.25    43.983      52.48       56.731      55.12       43.24       76.233      -9999.25    -9999.25    -9999.25    -9999.25    -9999.25    -9999.25    -9999.25    
113.49      70.245      210.817     2.119       5.399       -9999.25    -9999.25    -9999.25    -9999.25    -9999.25    -9999.25    50.596      1.233       1.713       1.573       76.693      52.083      36.299      
113.5       -9999.25    -9999.25    -9999.25    -9999.25    43.816      51.688      56.225      54.683      43.737      75.628      -9999.25    -9999.25    -9999.25    -9999.25    -9999.25    -9999.25    -9999.25    
113.59      67.887      211.484     2.124       5.376       -9999.25    -9999.25    -9999.25    -9999.25    -9999.25    -9999.25    51.063      1.195       1.707       1.528       76.116      52.082      36.794      
113.6       -9999.25    -9999.25    -9999.25    -9999.25    43.406      50.956      55.823      54.528      44.184      75.487      -9999.25    -9999.25    -9999.25    -9999.25    -9999.25    -9999.25    -9999.25    
113.69      68.15       211.407     2.128       5.152       -9999.25    -9999.25    -9999.25    -9999.25    -9999.25    -9999.25    51.372      1.158       1.701       1.523       75.243      52.228      36.765      
