~Version Information Section
VERS.                                         2.0:CWLS log ASCII Standart – VERSION 2.0
WRAP.                                          NO:One line per depth step
~Well Information Section
STRT.M                                      -0.81:Начальная глубина
STOP.M                                     196.49:Конечная глубина
STEP.M                                          0:Шаг квантования по глубине
NULL.                                    -9999.25:Признак "Нет данных"
WELL.                                        145К:Скважина
~Parameter Information Section
~Curve Information Section
DEPTH.M                                          :Глубина
BK.Ohm*M                                         :BK     (БК)
DS.mm                                            :DS  (ДС)
GGK.g/cm3                                        :GGKp
ГК.mcr/h                                         :GK          (ГК)
GZ1.Ohm*M                                        :GZ1   ГЗ1(A0.4M0.1N)
GZ2.Ohm*M                                        :GZ2   ГЗ2(A1.0M0.1N)
GZ3.Ohm*M                                        :GZ3   ГЗ3(A2.0M0.5N)
GZ4.Ohm*M                                        :GZ4   ГЗ4(A4.0M0.5N)
GZ5.Ohm*M                                        :GZ5   ГЗ5(A8.0M0.5N)
GZR.                                             :GZR   ГЗK(N0.5M2.0A)
ИК.Ohm*M                                         :IK
НГК.ue                                           :NGK     (НГК)
RS.Ohm*M                                         :RS (Резистивиметр)
NNKM.                                            :NNKm  (ННКм)
PS.mv                                            :PS       (ПС)
PZ.Ohm*M                                         :PZ    (КС)
W.%                                              :W
~ASCII LOG DATA
# ...
171.09      714.068     145.151     2.316       3.968       -9999.25    -9999.25    -9999.25    -9999.25    -9999.25    -9999.25    67.271      1.73        1.567       2.392       39.289      257.457     20.066      
171.1       -9999.25    -9999.25    -9999.25    -9999.25    235.706     245.355     192.51      122.23      85.89       29.824      -9999.25    -9999.25    -9999.25    -9999.25    -9999.25    -9999.25    -9999.25    
171.19      721.442     145.471     2.308       4.12        -9999.25    -9999.25    -9999.25    -9999.25    -9999.25    -9999.25    65.212      1.728       1.562       2.397       43.629      264.68      19.189      
171.2       -9999.25    -9999.25    -9999.25    -9999.25    240.121     250.071     198.03      125.324     85.89       29.131      -9999.25    -9999.25    -9999.25    -9999.25    -9999.25    -9999.25    -9999.25    
171.29      760.659     144.958     2.306       4.257       -9999.25    -9999.25    -9999.25    -9999.25    -9999.25    -9999.25    63.012      1.756       1.556       2.398       48.013      270.881     18.612      
171.3       -9999.25    -9999.25    -9999.25    -9999.25    242.753     251.143     199.292     126.074     85.89       28.106      -9999.25    -9999.25    -9999.25    -9999.25    -9999.25    -9999.25    -9999.25    
171.39      823.632     145.003     2.31        4.098       -9999.25    -9999.25    -9999.25    -9999.25    -9999.25    -9999.25    60.627      1.789       1.551       2.296       52.091      276.202     18.771      
171.4       -9999.25    -9999.25    -9999.25    -9999.25    243.759     251.143     199.241     126.074     84.684      26.695      -9999.25    -9999.25    -9999.25    -9999.25    -9999.25    -9999.25    -9999.25    
171.49      959.823     144.885     2.319       3.867       -9999.25    -9999.25    -9999.25    -9999.25    -9999.25    -9999.25    58.029      1.814       1.545       2.266       55.132      278.707     18.708      
171.5       -9999.25    -9999.25    -9999.25    -9999.25    243.759     249.411     198.181     125.362     79.745      25.091      -9999.25    -9999.25    -9999.25    -9999.25    -9999.25    -9999.25    -9999.25    
171.59      1133.026    145.387     2.338       3.915       -9999.25    -9999.25    -9999.25    -9999.25    -9999.25    -9999.25    55.181      1.83        1.539       2.398       56.736      278.988     18.861      
171.6       -9999.25    -9999.25    -9999.25    -9999.25    240.621     240.41      193.832     122.711     74.477      23.506      -9999.25    -9999.25    -9999.25    -9999.25    -9999.25    -9999.25    -9999.25    
171.69      1029.298    145.302     2.364       4.186       -9999.25    -9999.25    -9999.25    -9999.25    -9999.25    -9999.25    52.095      1.88        1.534       2.427       57.09       278.995     18.906      
171.7       -9999.25    -9999.25    -9999.25    -9999.25    232.033     221.258     183.334     118.929     69.366      22.103      -9999.25    -9999.25    -9999.25    -9999.25    -9999.25    -9999.25    -9999.25    
171.79      611.002     145.149     2.39        4.418       -9999.25    -9999.25    -9999.25    -9999.25    -9999.25    -9999.25    48.783      1.934       1.528       2.621       57.113      275.066     18.166      
171.8       -9999.25    -9999.25    -9999.25    -9999.25    225.502     200.093     168.987     116.387     63.111      21.098      -9999.25    -9999.25    -9999.25    -9999.25    -9999.25    -9999.25    -9999.25    
171.89      285.173     145.381     2.413       4.525       -9999.25    -9999.25    -9999.25    -9999.25    -9999.25    -9999.25    45.333      1.962       1.523       2.651       56.903      263.824     16.818      
171.9       -9999.25    -9999.25    -9999.25    -9999.25    224.421     184.559     156.523     114.837     56.741      20.478      -9999.25    -9999.25    -9999.25    -9999.25    -9999.25    -9999.25    -9999.25    
171.99      237.485     144.812     2.428       4.693       -9999.25    -9999.25    -9999.25    -9999.25    -9999.25    -9999.25    41.763      1.979       1.517       2.601       55.765      246.977     16.029      
172.0       -9999.25    -9999.25    -9999.25    -9999.25    224.421     175.978     147.893     112.523     52.548      20.127      -9999.25    -9999.25    -9999.25    -9999.25    -9999.25    -9999.25    -9999.25    
172.09      317.539     145.085     2.43        4.779       -9999.25    -9999.25    -9999.25    -9999.25    -9999.25    -9999.25    38.239      1.945       1.512       2.583       53.669      227.749     15.704      
172.1       -9999.25    -9999.25    -9999.25    -9999.25    224.444     172.976     142.56      109.509     47.513      19.765      -9999.25    -9999.25    -9999.25    -9999.25    -9999.25    -9999.25    -9999.25    
172.19      275.123     144.93      2.423       4.631       -9999.25    -9999.25    -9999.25    -9999.25    -9999.25    -9999.25    34.973      1.883       1.506       2.452       51.457      209.097     15.742      
172.2       -9999.25    -9999.25    -9999.25    -9999.25    221.453     168.164     138.538     106.383     41.62       18.929      -9999.25    -9999.25    -9999.25    -9999.25    -9999.25    -9999.25    -9999.25    
172.29      239.584     144.939     2.416       4.354       -9999.25    -9999.25    -9999.25    -9999.25    -9999.25    -9999.25    32.022      1.872       1.501       2.412       49.628      193.384     16.82       
172.3       -9999.25    -9999.25    -9999.25    -9999.25    214.924     160.331     133.043     102.363     36.178      17.48       -9999.25    -9999.25    -9999.25    -9999.25    -9999.25    -9999.25    -9999.25    
172.39      240.961     145.509     2.416       4.082       -9999.25    -9999.25    -9999.25    -9999.25    -9999.25    -9999.25    29.423      1.895       1.603       2.187       48.455      183.255     18.345      
172.4       -9999.25    -9999.25    -9999.25    -9999.25    195.334     145.541     123.25      95.666      31.404      15.669      -9999.25    -9999.25    -9999.25    -9999.25    -9999.25    -9999.25    -9999.25    
172.49      226.593     145.206     2.424       4.001       -9999.25    -9999.25    -9999.25    -9999.25    -9999.25    -9999.25    27.23       1.844       1.589       2.181       48.105      178.085     19.478      
172.5       -9999.25    -9999.25    -9999.25    -9999.25    160.263     120.309     108.125     84.23       26.836      13.789      -9999.25    -9999.25    -9999.25    -9999.25    -9999.25    -9999.25    -9999.25    
172.59      252.679     145.764     2.438       3.96        -9999.25    -9999.25    -9999.25    -9999.25    -9999.25    -9999.25    25.361      1.731       1.56        2.261       48.061      166.66      19.876      
172.6       -9999.25    -9999.25    -9999.25    -9999.25    122.537     93.424      87.822      68.151      22.731      12.082      -9999.25    -9999.25    -9999.25    -9999.25    -9999.25    -9999.25    -9999.25    
172.69      274.1       147.499     2.449       4.065       -9999.25    -9999.25    -9999.25    -9999.25    -9999.25    -9999.25    23.665      1.65        1.531       2.317       48.059      146.246     19.468      
172.7       -9999.25    -9999.25    -9999.25    -9999.25    85.039      68.076      65.065      50.533      18.82       10.88       -9999.25    -9999.25    -9999.25    -9999.25    -9999.25    -9999.25    -9999.25    
172.79      228.493     148.214     2.451       4.989       -9999.25    -9999.25    -9999.25    -9999.25    -9999.25    -9999.25    22.095      1.595       1.503       2.448       48.059      123.925     18.387      
172.8       -9999.25    -9999.25    -9999.25    -9999.25    44.69       41.682      44.472      34.541      15.068      10.303      -9999.25    -9999.25    -9999.25    -9999.25    -9999.25    -9999.25    -9999.25    
172.89      115.435     152.664     2.444       6.037       -9999.25    -9999.25    -9999.25    -9999.25    -9999.25    -9999.25    20.571      1.49        1.53        2.325       48.683      99.071      17.966      
