~Version Information Section
VERS.                                         2.0:CWLS log ASCII Standart – VERSION 2.0
WRAP.                                          NO:One line per depth step
~Well Information Section
STRT.M                                      -0.81:Начальная глубина
STOP.M                                     196.49:Конечная глубина
STEP.M                                          0:Шаг квантования по глубине
NULL.                                    -9999.25:Признак "Нет данных"
WELL.                                        145К:Скважина
~Parameter Information Section
~Curve Information Section
DEPTH.M                                          :Глубина
BK.Ohm*M                                         :BK     (БК)
DS.mm                                            :DS  (ДС)
GGK.g/cm3                                        :GGKp
ГК.mcr/h                                         :GK          (ГК)
GZ1.Ohm*M                                        :GZ1   ГЗ1(A0.4M0.1N)
GZ2.Ohm*M                                        :GZ2   ГЗ2(A1.0M0.1N)
GZ3.Ohm*M                                        :GZ3   ГЗ3(A2.0M0.5N)
GZ4.Ohm*M                                        :GZ4   ГЗ4(A4.0M0.5N)
GZ5.Ohm*M                                        :GZ5   ГЗ5(A8.0M0.5N)
GZR.                                             :GZR   ГЗK(N0.5M2.0A)
ИК.Ohm*M                                         :IK
НГК.ue                                           :NGK     (НГК)
RS.Ohm*M                                         :RS (Резистивиметр)
NNKM.                                            :NNKm  (ННКм)
PS.mv                                            :PS       (ПС)
PZ.Ohm*M                                         :PZ    (КС)
W.%                                              :W
~ASCII LOG DATA
# ...
152.59      17.209      147.152     2.283       8.526       -9999.25    -9999.25    -9999.25    -9999.25    -9999.25    -9999.25    13.782      1.209       1.34        1.553       72.129      12.369      30.508      
152.6       -9999.25    -9999.25    -9999.25    -9999.25    11.958      9.039       7.433       6.584       8.201       20.491      -9999.25    -9999.25    -9999.25    -9999.25    -9999.25    -9999.25    -9999.25    
152.69      17.262      146.908     2.287       8.435       -9999.25    -9999.25    -9999.25    -9999.25    -9999.25    -9999.25    14.001      1.163       1.343       1.542       73.006      12.43       30.727      
152.7       -9999.25    -9999.25    -9999.25    -9999.25    11.747      8.855       7.191       6.551       8.201       22.081      -9999.25    -9999.25    -9999.25    -9999.25    -9999.25    -9999.25    -9999.25    
152.79      17.279      146.531     2.289       8.167       -9999.25    -9999.25    -9999.25    -9999.25    -9999.25    -9999.25    14.278      1.113       1.348       1.538       74.412      12.493      31.712      
152.8       -9999.25    -9999.25    -9999.25    -9999.25    11.402      8.679       7.142       6.551       8.201       24.896      -9999.25    -9999.25    -9999.25    -9999.25    -9999.25    -9999.25    -9999.25    
152.89      17.136      146.128     2.286       7.964       -9999.25    -9999.25    -9999.25    -9999.25    -9999.25    -9999.25    14.637      1.08        1.305       1.53        76.251      12.568      32.439      
152.9       -9999.25    -9999.25    -9999.25    -9999.25    11.194      8.616       7.142       6.551       8.704       31.359      -9999.25    -9999.25    -9999.25    -9999.25    -9999.25    -9999.25    -9999.25    
152.99      16.764      145.959     2.283       8.112       -9999.25    -9999.25    -9999.25    -9999.25    -9999.25    -9999.25    15.072      1.072       1.304       1.531       78.285      12.715      32.854      
153.0       -9999.25    -9999.25    -9999.25    -9999.25    11.194      8.616       7.142       6.786       9.762       43.496      -9999.25    -9999.25    -9999.25    -9999.25    -9999.25    -9999.25    -9999.25    
153.09      16.481      145.835     2.278       8.464       -9999.25    -9999.25    -9999.25    -9999.25    -9999.25    -9999.25    15.575      1.073       1.309       1.534       80.079      12.967      33.414      
153.1       -9999.25    -9999.25    -9999.25    -9999.25    11.194      8.616       7.267       7.575       11.289      60.565      -9999.25    -9999.25    -9999.25    -9999.25    -9999.25    -9999.25    -9999.25    
153.19      16.502      145.191     2.269       9.266       -9999.25    -9999.25    -9999.25    -9999.25    -9999.25    -9999.25    16.17       1.105       1.315       1.547       81.028      13.253      33.601      
153.2       -9999.25    -9999.25    -9999.25    -9999.25    11.281      9.034       7.752       9.031       13.122      81.401      -9999.25    -9999.25    -9999.25    -9999.25    -9999.25    -9999.25    -9999.25    
153.29      16.491      144.435     2.258       9.804       -9999.25    -9999.25    -9999.25    -9999.25    -9999.25    -9999.25    16.884      1.134       1.32        1.569       81.231      13.467      32.942      
153.3       -9999.25    -9999.25    -9999.25    -9999.25    11.888      10.077      8.779       11.101      14.98       102.404     -9999.25    -9999.25    -9999.25    -9999.25    -9999.25    -9999.25    -9999.25    
153.39      16.794      143.637     2.242       9.507       -9999.25    -9999.25    -9999.25    -9999.25    -9999.25    -9999.25    17.737      1.185       1.325       1.567       81.244      13.637      32.587      
153.4       -9999.25    -9999.25    -9999.25    -9999.25    13.622      11.44       10.307      13.373      16.8        118.087     -9999.25    -9999.25    -9999.25    -9999.25    -9999.25    -9999.25    -9999.25    
153.49      17.039      143.63      2.221       8.648       -9999.25    -9999.25    -9999.25    -9999.25    -9999.25    -9999.25    18.781      1.223       1.33        1.563       80.913      13.887      33.269      
153.5       -9999.25    -9999.25    -9999.25    -9999.25    17.303      13.146      11.986      15.346      18.516      125.981     -9999.25    -9999.25    -9999.25    -9999.25    -9999.25    -9999.25    -9999.25    
153.59      17.89       143.314     2.196       7.173       -9999.25    -9999.25    -9999.25    -9999.25    -9999.25    -9999.25    20.08       1.265       1.335       1.63        79.637      14.278      34.103      
153.6       -9999.25    -9999.25    -9999.25    -9999.25    24.671      15.218      13.526      16.782      19.844      127.916     -9999.25    -9999.25    -9999.25    -9999.25    -9999.25    -9999.25    -9999.25    
153.69      30.793      143.33      2.171       6.405       -9999.25    -9999.25    -9999.25    -9999.25    -9999.25    -9999.25    21.715      1.301       1.34        1.682       77.222      14.853      33.499      
153.7       -9999.25    -9999.25    -9999.25    -9999.25    35.517      17.126      14.799      17.567      20.687      127.916     -9999.25    -9999.25    -9999.25    -9999.25    -9999.25    -9999.25    -9999.25    
153.79      87.903      143.463     2.148       5.376       -9999.25    -9999.25    -9999.25    -9999.25    -9999.25    -9999.25    23.803      1.388       1.345       1.79        73.995      15.655      32.54       
153.8       -9999.25    -9999.25    -9999.25    -9999.25    47.179      18.75       15.68       17.784      20.975      126.706     -9999.25    -9999.25    -9999.25    -9999.25    -9999.25    -9999.25    -9999.25    
153.89      163.305     143.175     2.129       4.786       -9999.25    -9999.25    -9999.25    -9999.25    -9999.25    -9999.25    26.366      1.447       1.35        1.86        70.446      16.742      31.828      
153.9       -9999.25    -9999.25    -9999.25    -9999.25    57.828      20.478      16.318      17.784      20.975      121.338     -9999.25    -9999.25    -9999.25    -9999.25    -9999.25    -9999.25    -9999.25    
153.99      195.524     143.071     2.112       4.334       -9999.25    -9999.25    -9999.25    -9999.25    -9999.25    -9999.25    29.322      1.428       1.355       1.824       66.835      18.165      30.418      
154.0       -9999.25    -9999.25    -9999.25    -9999.25    66.28       22.53       16.869      17.747      20.975      112.937     -9999.25    -9999.25    -9999.25    -9999.25    -9999.25    -9999.25    -9999.25    
154.09      199.672     143.081     2.1         4.289       -9999.25    -9999.25    -9999.25    -9999.25    -9999.25    -9999.25    32.577      1.41        1.36        1.8         63.346      20.043      28.081      
154.1       -9999.25    -9999.25    -9999.25    -9999.25    70.726      25.326      17.305      17.587      20.775      104.86      -9999.25    -9999.25    -9999.25    -9999.25    -9999.25    -9999.25    -9999.25    
154.19      189.504     142.934     2.092       4.312       -9999.25    -9999.25    -9999.25    -9999.25    -9999.25    -9999.25    35.908      1.425       1.365       1.805       60.245      22.805      27.216      
154.2       -9999.25    -9999.25    -9999.25    -9999.25    71.656      29.879      17.668      17.308      20.174      97.788      -9999.25    -9999.25    -9999.25    -9999.25    -9999.25    -9999.25    -9999.25    
154.29      180.928     142.983     2.09        4.277       -9999.25    -9999.25    -9999.25    -9999.25    -9999.25    -9999.25    38.947      1.435       1.37        1.807       57.587      27.212      27.696      
154.3       -9999.25    -9999.25    -9999.25    -9999.25    71.656      36.356      17.964      17.023      19.521      91.971      -9999.25    -9999.25    -9999.25    -9999.25    -9999.25    -9999.25    -9999.25    
154.39      176.66      143.38      2.095       4.011       -9999.25    -9999.25    -9999.25    -9999.25    -9999.25    -9999.25    41.516      1.381       1.375       1.786       55.43       33.321      28.181      
