~Version Information Section
VERS.                                         2.0:CWLS log ASCII Standart – VERSION 2.0
WRAP.                                          NO:One line per depth step
~Well Information Section
STRT.M                                        0.1:Начальная глубина
STOP.M                                      206.3:Конечная глубина
STEP.M                                          0:Шаг квантования по глубине
NULL.                                    -9999.25:Признак "Нет данных"
WELL.                                        141К:Скважина
~Parameter Information Section
~Curve Information Section
DEPTH.M                                          :Глубина
N0.5M2.0A.Омм                                    :GZR   ГЗK(N0.5M2.0A)
ИК.мСм/м                                         :IK
НГК.усл.ед                                       :NGK     (НГК)
ННКМ.усл.ед                                      :NNKm  (ННКм)
ПС.mv                                            :PS       (ПС)
N11.0M0.5A.Омм                                   :PZ    (КС)
R.Омм                                            :RS (Резистивиметр)
КП.%                                             :W
БК.Омм                                           :BK     (БК)
DСР.мм                                           :DS  (ДС)
ПЛОТНОСТЬ.г/см^3                                 :GGKp
ГК.гамма                                         :GK          (ГК)
А0.4М0.1N.Омм                                    :GZ1   ГЗ1(A0.4M0.1N)
А1.0М0.1N.Омм                                    :GZ2   ГЗ2(A1.0M0.1N)
А2.0М0.5N.Омм                                    :GZ3   ГЗ3(A2.0M0.5N)
А4.0М0.5N.Oмм                                    :GZ4   ГЗ4(A4.0M0.5N)
А8.0М1.0N.Омм                                    :GZ5   ГЗ5(A8.0M0.5N)
~ASCII LOG DATA
# ...
185.1       23.449      23.758      2.5         3.091       36.717      20.0        1.61        16.107      35.502      145.34      2.464       7.37        57.264      56.584      60.875      78.241      54.311      
185.2       21.303      22.045      2.277       2.91        37.238      18.951      1.516       17.702      23.57       145.7       2.436       7.715       44.622      45.474      48.155      61.944      44.958      
185.3       19.033      20.457      2.062       2.739       37.966      18.009      1.456       19.472      23.227      147.361     2.408       8.014       34.172      36.082      38.092      48.84       36.447      
185.4       16.862      19.081      1.919       2.604       38.916      17.289      1.415       21.268      28.057      145.533     2.381       8.466       27.607      29.339      30.556      38.819      29.354      
185.5       14.981      17.892      1.84        2.509       40.082      16.958      1.375       22.911      25.826      145.594     2.357       8.907       23.769      24.888      25.125      31.395      23.896      
185.6       13.419      16.855      1.79        2.429       41.44       16.725      1.345       24.448      19.737      146.689     2.338       9.479       20.813      21.68       21.254      26.118      19.863      
185.7       12.157      15.969      1.757       2.388       42.938      16.263      1.323       25.898      19.733      145.787     2.326       9.966       18.505      19.497      18.435      22.365      16.958      
185.8       11.235      15.183      1.726       2.348       44.5        15.623      1.304       27.222      18.14       145.946     2.319       10.231      16.735      18.166      16.463      19.734      14.834      
185.9       10.624      14.453      1.686       2.286       46.045      14.947      1.29        28.338      16.763      147.169     2.317       10.314      15.454      17.404      15.237      18.092      13.201      
186.0       10.252      13.787      1.623       2.22        47.529      14.297      1.279       29.322      16.112      147.533     2.319       10.563      14.521      16.83       14.533      17.161      11.857      
186.1       10.043      13.205      1.559       2.171       48.914      13.778      1.266       30.256      15.001      148.641     2.323       10.533      13.7        16.183      14.053      16.509      10.811      
186.2       9.91        12.721      1.525       2.134       50.111      13.508      1.25        31.129      14.487      151.499     2.326       10.421      12.889      15.445      13.566      15.843      10.044      
186.3       9.795       12.333      1.517       2.117       51.042      13.428      1.236       31.838      13.979      148.764     2.33        10.452      12.16       14.661      12.994      15.042      9.458       
186.4       9.683       12.042      1.506       2.116       51.661      13.399      1.223       32.372      10.955      147.962     2.334       10.361      11.506      13.747      12.298      14.017      8.956       
186.5       9.575       11.821      1.498       2.118       51.957      13.399      1.21        32.759      12.657      147.035     2.341       10.15       10.911      12.727      11.472      12.765      8.59        
186.6       9.449       11.65       1.493       2.112       51.95       13.426      1.199       33.105      10.137      152.052     2.349       10.058      10.368      11.689      10.653      11.441      8.318       
186.7       9.289       11.539      1.471       2.091       51.683      13.508      1.191       33.431      8.263       152.681     2.359       10.212      9.838       10.65       9.976       10.258      8.252       
186.8       9.118       11.502      1.446       2.048       51.23       13.665      1.185       33.736      7.971       154.028     2.372       10.402      9.274       9.661       9.493       9.322       8.252       
186.9       8.995       11.502      1.453       1.994       50.674      13.932      1.183       34.09       7.714       152.987     2.387       10.545      8.682       8.841       9.307       8.785       8.252       
187.0       8.955       11.505      1.485       1.944       50.095      14.352      1.183       34.453      8.515       154.767     2.406       10.559      8.133       8.26        9.307       8.651       8.252       
187.1       8.955       11.537      1.504       1.904       49.513      14.94       1.183       34.759      12.365      154.406     2.431       10.469      7.688       7.976       9.307       8.651       8.562       
187.2       8.955       11.644      1.507       1.883       48.936      15.654      1.183       34.959      11.994      152.855     2.46        10.129      7.455       7.93        9.332       8.651       9.456       
187.3       9.116       11.831      1.511       1.88        48.405      16.464      1.186       34.896      11.063      155.262     2.485       9.706       7.412       7.93        9.661       8.874       11.007      
187.4       9.886       12.104      1.511       1.886       47.97       17.687      1.191       34.445      10.023      151.492     2.503       9.045       7.412       7.93        10.571      9.72        13.265      
187.5       11.757      12.517      1.532       1.894       47.656      20.2        1.198       33.47       9.931       152.716     2.511       8.284       7.412       8.13        12.117      11.393      16.173      
187.6       15.083      13.168      1.609       1.942       47.477      25.632      1.205       31.909      10.882      152.299     2.509       7.529       7.672       8.813       14.295      13.916      19.687      
187.7       20.023      14.131      1.761       2.093       47.436      34.666      1.21        29.827      14.85       149.352     2.505       6.884       8.771       9.987       16.943      17.111      23.65       
187.8       26.4        15.5        1.984       2.301       47.532      51.425      1.213       27.311      35.899      145.028     2.504       6.339       11.344      11.497      19.783      20.678      27.877      
187.9       33.638      17.357      2.28        2.569       47.762      75.349      1.215       24.457      100.327     144.523     2.504       6.107       15.826      13.13       22.538      24.385      32.257      
188.0       40.916      19.685      2.587       2.87        48.121      100.569     1.216       21.506      155.723     144.416     2.504       6.001       22.363      14.719      24.99       27.96       36.629      
188.1       47.487      22.361      2.869       3.154       48.604      124.464     1.216       18.642      171.148     144.898     2.503       6.002       30.816      16.209      27.061      31.253      40.763      
188.2       52.927      25.189      3.129       3.343       49.206      144.361     1.216       16.098      183.041     144.629     2.5         6.061       40.49       17.702      28.845      34.381      44.5        
188.3       57.064      27.915      3.339       3.473       49.928      154.514     1.216       13.946      203.04      144.512     2.497       6.047       51.049      19.676      30.545      37.484      47.782      
188.4       60.001      30.298      3.499       3.55        50.768      155.938     1.216       12.213      217.17      144.773     2.497       5.971       62.683      23.111      32.366      40.627      50.639      
188.5       61.814      32.161      3.635       3.61        51.719      155.938     1.216       10.902      233.792     144.613     2.503       5.871       75.4        29.251      34.424      43.958      53.125      
188.6       62.432      33.317      3.767       3.673       52.763      154.72      1.216       10.009      252.725     144.419     2.51        5.733       89.422      39.229      36.716      47.582      55.165      
188.7       62.446      33.783      3.867       3.745       53.878      144.933     1.216       9.455       287.896     144.548     2.517       5.559       105.332     53.571      39.102      51.514      56.374      
