~Version Information Section
VERS.                                         2.0:CWLS log ASCII Standart – VERSION 2.0
WRAP.                                          NO:One line per depth step
~Well Information Section
STRT.M                                        0.1:Начальная глубина
STOP.M                                      206.3:Конечная глубина
STEP.M                                          0:Шаг квантования по глубине
NULL.                                    -9999.25:Признак "Нет данных"
WELL.                                        141К:Скважина
~Parameter Information Section
~Curve Information Section
DEPTH.M                                          :Глубина
N0.5M2.0A.Омм                                    :GZR   ГЗK(N0.5M2.0A)
ИК.мСм/м                                         :IK
НГК.усл.ед                                       :NGK     (НГК)
ННКМ.усл.ед                                      :NNKm  (ННКм)
ПС.mv                                            :PS       (ПС)
N11.0M0.5A.Омм                                   :PZ    (КС)
R.Омм                                            :RS (Резистивиметр)
КП.%                                             :W
БК.Омм                                           :BK     (БК)
DСР.мм                                           :DS  (ДС)
ПЛОТНОСТЬ.г/см^3                                 :GGKp
ГК.гамма                                         :GK          (ГК)
А0.4М0.1N.Омм                                    :GZ1   ГЗ1(A0.4M0.1N)
А1.0М0.1N.Омм                                    :GZ2   ГЗ2(A1.0M0.1N)
А2.0М0.5N.Омм                                    :GZ3   ГЗ3(A2.0M0.5N)
А4.0М0.5N.Oмм                                    :GZ4   ГЗ4(A4.0M0.5N)
А8.0М1.0N.Омм                                    :GZ5   ГЗ5(A8.0M0.5N)
~ASCII LOG DATA
# ...
144.4       25.992      21.133      1.586       1.993       73.194      22.883      1.421       33.617      40.19       223.633     2.313       8.168       26.212      26.428      27.325      31.042      32.872      
144.5       25.921      21.104      1.604       2.018       72.851      22.743      1.415       33.83       28.991      224.255     2.322       8.39        26.2        25.421      25.439      29.411      31.124      
144.6       25.439      21.051      1.595       2.04        72.373      22.584      1.41        33.933      26.552      224.124     2.328       8.576       26.058      24.499      23.647      27.555      29.332      
144.7       24.419      20.938      1.575       2.05        71.772      22.407      1.404       33.91       24.285      224.552     2.328       8.691       25.772      23.963      22.209      25.903      27.697      
144.8       23.239      20.763      1.555       2.049       71.063      22.161      1.399       33.805      22.904      224.47      2.321       8.659       25.442      23.73       21.241      24.68       26.266      
144.9       22.231      20.546      1.537       2.046       70.251      21.818      1.397       33.642      23.192      224.135     2.306       8.531       25.055      23.67       20.666      23.864      25.081      
145.0       21.548      20.329      1.52        2.043       69.352      21.525      1.396       33.411      23.932      224.135     2.29        8.367       24.666      23.67       20.303      23.283      24.195      
145.1       21.21       20.158      1.498       2.03        68.398      21.397      1.395       33.177      24.011      224.617     2.278       8.29        24.335      23.651      20.021      22.785      23.563      
145.2       21.116      20.041      1.484       2.009       67.428      21.336      1.394       33.045      23.437      224.535     2.272       8.311       24.011      23.625      19.768      22.279      23.085      
145.3       21.112      19.949      1.474       1.978       66.475      21.275      1.393       33.011      23.522      225.053     2.272       8.498       23.675      23.602      19.537      21.749      22.677      
145.4       21.112      19.882      1.448       1.937       65.566      21.207      1.393       32.976      22.833      224.587     2.277       8.759       23.378      23.549      19.345      21.236      22.264      
145.5       21.112      19.835      1.427       1.913       64.725      21.167      1.392       32.92       22.441      224.26      2.283       8.898       23.15       23.512      19.22       20.784      21.816      
145.6       21.139      19.802      1.428       1.903       63.973      21.148      1.392       32.924      23.202      224.593     2.287       8.907       22.953      23.507      19.178      20.427      21.358      
145.7       21.209      19.776      1.429       1.897       63.319      21.139      1.392       33.059      23.924      224.908     2.288       8.958       22.798      23.392      19.178      20.168      20.94       
145.8       21.315      19.77       1.432       1.891       62.77       21.144      1.392       33.275      22.531      224.94      2.283       8.988       22.708      23.134      19.178      19.988      20.62       
145.9       21.458      19.772      1.462       1.881       62.326      21.144      1.392       33.514      22.843      225.571     2.276       8.819       22.644      22.83       19.193      19.845      20.414      
146.0       21.657      19.78       1.507       1.867       61.992      21.144      1.393       33.81       23.03       226.25      2.272       8.779       22.596      22.525      19.292      19.703      20.305      
146.1       21.925      19.798      1.544       1.859       61.767      21.169      1.394       34.211      22.565      226.513     2.275       8.811       22.577      22.302      19.519      19.555      20.241      
146.2       22.234      19.832      1.57        1.857       61.649      21.165      1.396       34.643      23.305      226.509     2.285       8.716       22.577      22.193      19.839      19.418      20.205      
146.3       22.565      19.878      1.587       1.859       61.631      21.105      1.399       34.913      24.706      226.985     2.3         8.594       22.577      22.157      20.215      19.299      20.167      
146.4       22.883      19.933      1.591       1.867       61.703      21.073      1.401       35.007      23.703      227.361     2.314       8.602       22.601      22.155      20.61       19.211      20.116      
146.5       23.144      19.985      1.581       1.88        61.852      21.057      1.404       35.033      22.236      227.558     2.32        8.614       22.657      22.155      20.987      19.168      20.051      
146.6       23.342      20.026      1.561       1.895       62.062      21.015      1.405       34.978      23.442      229.485     2.316       8.635       22.729      22.159      21.321      19.153      20.007      
146.7       23.497      20.065      1.534       1.913       62.311      20.981      1.406       34.778      24.351      230.191     2.306       8.652       22.806      22.213      21.574      19.136      19.962      
146.8       23.624      20.095      1.516       1.93        62.576      20.969      1.406       34.44       24.142      229.906     2.293       8.559       22.843      22.304      21.692      19.114      19.897      
146.9       23.725      20.126      1.523       1.938       62.844      20.963      1.407       34.053      23.755      229.355     2.283       8.435       22.843      22.344      21.712      19.091      19.825      
147.0       23.784      20.164      1.536       1.937       63.112      20.963      1.408       33.802      22.59       228.357     2.28        8.58        22.842      22.344      21.712      19.06       19.746      
147.1       23.801      20.208      1.531       1.935       63.367      20.963      1.408       33.71       22.151      227.979     2.28        8.747       22.769      22.302      21.638      18.993      19.649      
147.2       23.801      20.263      1.524       1.929       63.581      21.038      1.409       33.675      24.393      227.461     2.28        8.969       22.618      22.159      21.402      18.863      19.533      
147.3       23.762      20.325      1.511       1.921       63.726      21.273      1.41        33.698      23.718      227.089     2.279       9.249       22.467      21.928      21.025      18.674      19.402      
147.4       23.612      20.386      1.485       1.919       63.782      21.635      1.413       33.844      22.369      227.544     2.275       9.434       22.338      21.649      20.6        18.461      19.238      
147.5       23.313      20.45       1.469       1.923       63.738      22.022      1.415       34.092      22.061      227.435     2.272       9.274       22.276      21.368      20.219      18.262      19.031      
147.6       22.883      20.543      1.469       1.925       63.59       22.378      1.418       34.386      22.213      227.638     2.271       8.985       22.272      21.19       19.939      18.133      18.823      
147.7       22.365      20.646      1.474       1.921       63.344      22.707      1.422       34.66       23.578      227.434     2.271       8.812       22.272      21.145      19.785      18.097      18.642      
147.8       21.821      20.76       1.472       1.906       63.018      22.974      1.426       34.851      24.398      227.463     2.272       8.806       22.272      21.145      19.741      18.097      18.517      
147.9       21.325      20.875      1.463       1.892       62.638      23.154      1.429       34.978      24.69       227.385     2.274       8.763       22.343      21.145      19.741      18.097      18.508      
148.0       20.922      20.982      1.464       1.886       62.226      23.26       1.433       35.029      24.356      227.48      2.276       8.731       22.532      21.217      19.741      18.146      18.508      
