~Version Information Section
VERS.                                         2.0:CWLS log ASCII Standart – VERSION 2.0
WRAP.                                          NO:One line per depth step
~Well Information Section
STRT.M                                      -0.81:Начальная глубина
STOP.M                                     196.49:Конечная глубина
STEP.M                                          0:Шаг квантования по глубине
NULL.                                    -9999.25:Признак "Нет данных"
WELL.                                        145К:Скважина
~Parameter Information Section
~Curve Information Section
DEPTH.M                                          :Глубина
BK.Ohm*M                                         :BK     (БК)
DS.mm                                            :DS  (ДС)
GGK.g/cm3                                        :GGKp
ГК.mcr/h                                         :GK          (ГК)
GZ1.Ohm*M                                        :GZ1   ГЗ1(A0.4M0.1N)
GZ2.Ohm*M                                        :GZ2   ГЗ2(A1.0M0.1N)
GZ3.Ohm*M                                        :GZ3   ГЗ3(A2.0M0.5N)
GZ4.Ohm*M                                        :GZ4   ГЗ4(A4.0M0.5N)
GZ5.Ohm*M                                        :GZ5   ГЗ5(A8.0M0.5N)
GZR.                                             :GZR   ГЗK(N0.5M2.0A)
ИК.Ohm*M                                         :IK
НГК.ue                                           :NGK     (НГК)
RS.Ohm*M                                         :RS (Резистивиметр)
NNKM.                                            :NNKm  (ННКм)
PS.mv                                            :PS       (ПС)
PZ.Ohm*M                                         :PZ    (КС)
W.%                                              :W
~ASCII LOG DATA
# ...
130.39      33.515      211.535     2.205       7.809       -9999.25    -9999.25    -9999.25    -9999.25    -9999.25    -9999.25    24.152      1.167       1.582       1.429       85.034      23.174      36.544      
130.4       -9999.25    -9999.25    -9999.25    -9999.25    25.33       24.16       22.626      23.07       26.62       19.09       -9999.25    -9999.25    -9999.25    -9999.25    -9999.25    -9999.25    -9999.25    
130.49      32.666      211.914     2.2         7.795       -9999.25    -9999.25    -9999.25    -9999.25    -9999.25    -9999.25    24.093      1.141       1.582       1.406       84.847      23.054      35.772      
130.5       -9999.25    -9999.25    -9999.25    -9999.25    25.11       23.716      22.552      22.911      26.346      19.09       -9999.25    -9999.25    -9999.25    -9999.25    -9999.25    -9999.25    -9999.25    
130.59      29.904      211.726     2.194       7.614       -9999.25    -9999.25    -9999.25    -9999.25    -9999.25    -9999.25    24.003      1.102       1.582       1.407       84.691      22.911      35.005      
130.6       -9999.25    -9999.25    -9999.25    -9999.25    24.811      23.484      22.491      22.867      25.857      19.09       -9999.25    -9999.25    -9999.25    -9999.25    -9999.25    -9999.25    -9999.25    
130.69      27.861      211.57      2.189       7.551       -9999.25    -9999.25    -9999.25    -9999.25    -9999.25    -9999.25    23.888      1.067       1.582       1.408       84.529      22.658      34.526      
130.7       -9999.25    -9999.25    -9999.25    -9999.25    24.618      23.323      22.491      22.819      25.358      19.109      -9999.25    -9999.25    -9999.25    -9999.25    -9999.25    -9999.25    -9999.25    
130.79      28.561      211.55      2.187       7.576       -9999.25    -9999.25    -9999.25    -9999.25    -9999.25    -9999.25    23.753      1.072       1.583       1.402       84.354      22.366      34.951      
130.8       -9999.25    -9999.25    -9999.25    -9999.25    24.411      23.159      22.491      22.783      24.908      19.232      -9999.25    -9999.25    -9999.25    -9999.25    -9999.25    -9999.25    -9999.25    
130.89      29.385      211.527     2.188       7.469       -9999.25    -9999.25    -9999.25    -9999.25    -9999.25    -9999.25    23.595      1.086       1.584       1.399       84.143      22.086      35.578      
130.9       -9999.25    -9999.25    -9999.25    -9999.25    24.222      23.012      22.495      22.78       24.442      19.479      -9999.25    -9999.25    -9999.25    -9999.25    -9999.25    -9999.25    -9999.25    
130.99      29.355      211.736     2.193       7.363       -9999.25    -9999.25    -9999.25    -9999.25    -9999.25    -9999.25    23.464      1.127       1.586       1.405       83.888      21.813      36.023      
131.0       -9999.25    -9999.25    -9999.25    -9999.25    24.164      22.951      22.619      22.817      24.096      19.76       -9999.25    -9999.25    -9999.25    -9999.25    -9999.25    -9999.25    -9999.25    
131.09      28.556      211.576     2.198       7.481       -9999.25    -9999.25    -9999.25    -9999.25    -9999.25    -9999.25    23.363      1.171       1.587       1.407       83.572      21.604      36.184      
131.1       -9999.25    -9999.25    -9999.25    -9999.25    24.215      22.961      22.882      22.9        23.985      20.02       -9999.25    -9999.25    -9999.25    -9999.25    -9999.25    -9999.25    -9999.25    
131.19      28.351      211.432     2.2         7.679       -9999.25    -9999.25    -9999.25    -9999.25    -9999.25    -9999.25    23.304      1.21        1.588       1.423       83.198      21.499      36.075      
131.2       -9999.25    -9999.25    -9999.25    -9999.25    24.313      22.934      23.125      22.989      23.835      20.231      -9999.25    -9999.25    -9999.25    -9999.25    -9999.25    -9999.25    -9999.25    
131.29      28.361      211.303     2.2         7.61        -9999.25    -9999.25    -9999.25    -9999.25    -9999.25    -9999.25    23.277      1.243       1.589       1.426       82.777      21.431      35.758      
131.3       -9999.25    -9999.25    -9999.25    -9999.25    24.443      22.865      23.227      23.066      23.688      20.386      -9999.25    -9999.25    -9999.25    -9999.25    -9999.25    -9999.25    -9999.25    
131.39      27.726      211.151     2.196       7.337       -9999.25    -9999.25    -9999.25    -9999.25    -9999.25    -9999.25    23.275      1.191       1.589       1.424       82.343      21.344      35.243      
131.4       -9999.25    -9999.25    -9999.25    -9999.25    24.478      22.71       23.23       23.137      23.645      20.504      -9999.25    -9999.25    -9999.25    -9999.25    -9999.25    -9999.25    -9999.25    
131.49      28.311      211.079     2.192       7.125       -9999.25    -9999.25    -9999.25    -9999.25    -9999.25    -9999.25    23.278      1.107       1.589       1.423       81.98       21.25       33.983      
131.5       -9999.25    -9999.25    -9999.25    -9999.25    24.412      22.514      23.23       23.214      23.665      20.596      -9999.25    -9999.25    -9999.25    -9999.25    -9999.25    -9999.25    -9999.25    
131.59      29.982      211.21      2.191       7.112       -9999.25    -9999.25    -9999.25    -9999.25    -9999.25    -9999.25    23.292      1.072       1.589       1.455       81.696      21.202      32.908      
131.6       -9999.25    -9999.25    -9999.25    -9999.25    24.558      22.482      23.23       23.331      23.665      20.655      -9999.25    -9999.25    -9999.25    -9999.25    -9999.25    -9999.25    -9999.25    
131.69      30.741      211.313     2.193       7.066       -9999.25    -9999.25    -9999.25    -9999.25    -9999.25    -9999.25    23.314      1.067       1.589       1.462       81.484      21.202      31.698      
131.7       -9999.25    -9999.25    -9999.25    -9999.25    24.882      22.602      23.231      23.48       23.665      20.737      -9999.25    -9999.25    -9999.25    -9999.25    -9999.25    -9999.25    -9999.25    
131.79      31.159      211.833     2.195       7.0         -9999.25    -9999.25    -9999.25    -9999.25    -9999.25    -9999.25    23.338      1.077       1.588       1.498       81.323      21.208      30.777      
131.8       -9999.25    -9999.25    -9999.25    -9999.25    25.215      22.797      23.231      23.875      23.635      20.949      -9999.25    -9999.25    -9999.25    -9999.25    -9999.25    -9999.25    -9999.25    
131.89      31.331      212.059     2.198       6.971       -9999.25    -9999.25    -9999.25    -9999.25    -9999.25    -9999.25    23.345      1.096       1.587       1.5         81.236      21.193      30.885      
131.9       -9999.25    -9999.25    -9999.25    -9999.25    25.546      23.009      23.231      24.575      23.561      21.334      -9999.25    -9999.25    -9999.25    -9999.25    -9999.25    -9999.25    -9999.25    
131.99      30.309      211.877     2.202       6.992       -9999.25    -9999.25    -9999.25    -9999.25    -9999.25    -9999.25    23.346      1.134       1.585       1.457       81.196      21.175      31.535      
132.0       -9999.25    -9999.25    -9999.25    -9999.25    25.821      23.218      23.29       25.207      23.527      21.695      -9999.25    -9999.25    -9999.25    -9999.25    -9999.25    -9999.25    -9999.25    
132.09      28.949      211.735     2.209       7.016       -9999.25    -9999.25    -9999.25    -9999.25    -9999.25    -9999.25    23.346      1.196       1.581       1.452       81.188      21.191      31.047      
132.1       -9999.25    -9999.25    -9999.25    -9999.25    25.911      23.396      23.41       25.538      23.396      21.82       -9999.25    -9999.25    -9999.25    -9999.25    -9999.25    -9999.25    -9999.25    
132.19      28.701      211.434     2.217       7.047       -9999.25    -9999.25    -9999.25    -9999.25    -9999.25    -9999.25    23.338      1.224       1.573       1.449       81.187      21.251      31.187      
