~Version Information Section
VERS.                                         2.0:CWLS log ASCII Standart – VERSION 2.0
WRAP.                                          NO:One line per depth step
~Well Information Section
STRT.M                                      -0.81:Начальная глубина
STOP.M                                     196.49:Конечная глубина
STEP.M                                          0:Шаг квантования по глубине
NULL.                                    -9999.25:Признак "Нет данных"
WELL.                                        145К:Скважина
~Parameter Information Section
~Curve Information Section
DEPTH.M                                          :Глубина
BK.Ohm*M                                         :BK     (БК)
DS.mm                                            :DS  (ДС)
GGK.g/cm3                                        :GGKp
ГК.mcr/h                                         :GK          (ГК)
GZ1.Ohm*M                                        :GZ1   ГЗ1(A0.4M0.1N)
GZ2.Ohm*M                                        :GZ2   ГЗ2(A1.0M0.1N)
GZ3.Ohm*M                                        :GZ3   ГЗ3(A2.0M0.5N)
GZ4.Ohm*M                                        :GZ4   ГЗ4(A4.0M0.5N)
GZ5.Ohm*M                                        :GZ5   ГЗ5(A8.0M0.5N)
GZR.                                             :GZR   ГЗK(N0.5M2.0A)
ИК.Ohm*M                                         :IK
НГК.ue                                           :NGK     (НГК)
RS.Ohm*M                                         :RS (Резистивиметр)
NNKM.                                            :NNKm  (ННКм)
PS.mv                                            :PS       (ПС)
PZ.Ohm*M                                         :PZ    (КС)
W.%                                              :W
~ASCII LOG DATA
# ...
78.59       417.221     245.197     1.913       10.228      -9999.25    -9999.25    -9999.25    -9999.25    -9999.25    -9999.25    -9999.25    12.149      1.331       3.775       39.545      -2.281      -4.434      
78.6        -9999.25    -9999.25    -9999.25    -9999.25    1083.928    11.906      -3.532      23524.629   -11.42      -0.654      -9999.25    -9999.25    -9999.25    -9999.25    -9999.25    -9999.25    -9999.25    
78.69       1879.599    247.027     1.915       9.361       -9999.25    -9999.25    -9999.25    -9999.25    -9999.25    -9999.25    -9999.25    7.183       1.327       3.736       41.146      -2.283      -3.22       
78.7        -9999.25    -9999.25    -9999.25    -9999.25    16.266      6.456       -3.532      5254.462    -11.419     4.531       -9999.25    -9999.25    -9999.25    -9999.25    -9999.25    -9999.25    -9999.25    
78.79       1394.26     246.681     1.936       8.819       -9999.25    -9999.25    -9999.25    -9999.25    -9999.25    -9999.25    15.439      4.063       1.326       3.557       42.896      -2.283      -0.383      
78.8        -9999.25    -9999.25    -9999.25    -9999.25    11.975      3.277       -2.341      14.637      -10.032     9.615       -9999.25    -9999.25    -9999.25    -9999.25    -9999.25    -9999.25    -9999.25    
78.89       165.913     243.476     1.973       7.909       -9999.25    -9999.25    -9999.25    -9999.25    -9999.25    -9999.25    15.419      2.31        1.323       2.815       44.858      -2.284      8.451       
78.9        -9999.25    -9999.25    -9999.25    -9999.25    11.96       2.51        -0.086      4.73        -7.744      12.965      -9999.25    -9999.25    -9999.25    -9999.25    -9999.25    -9999.25    -9999.25    
78.99       23.002      241.557     2.014       7.333       -9999.25    -9999.25    -9999.25    -9999.25    -9999.25    -9999.25    15.322      1.455       1.319       1.392       47.012      -2.284      17.721      
79.0        -9999.25    -9999.25    -9999.25    -9999.25    11.913      2.327       1.292       2.685       -5.425      13.8        -9999.25    -9999.25    -9999.25    -9999.25    -9999.25    -9999.25    -9999.25    
79.09       18.704      241.606     2.048       6.277       -9999.25    -9999.25    -9999.25    -9999.25    -9999.25    -9999.25    15.193      1.111       1.314       1.272       49.442      -2.283      27.318      
79.1        -9999.25    -9999.25    -9999.25    -9999.25    12.524      2.327       1.605       1.901       -3.114      13.834      -9999.25    -9999.25    -9999.25    -9999.25    -9999.25    -9999.25    -9999.25    
79.19       20.155      241.718     2.061       5.593       -9999.25    -9999.25    -9999.25    -9999.25    -9999.25    -9999.25    15.174      0.992       1.309       1.314       52.084      -2.284      35.972      
79.2        -9999.25    -9999.25    -9999.25    -9999.25    13.166      2.327       1.605       1.454       -0.813      13.982      -9999.25    -9999.25    -9999.25    -9999.25    -9999.25    -9999.25    -9999.25    
79.29       21.669      242.3       2.042       5.129       -9999.25    -9999.25    -9999.25    -9999.25    -9999.25    -9999.25    15.096      1.013       1.304       1.374       54.705      -2.286      42.959      
79.3        -9999.25    -9999.25    -9999.25    -9999.25    13.166      3.18        1.599       1.159       0.105       14.105      -9999.25    -9999.25    -9999.25    -9999.25    -9999.25    -9999.25    -9999.25    
79.39       24.309      243.148     1.996       5.228       -9999.25    -9999.25    -9999.25    -9999.25    -9999.25    -9999.25    15.025      0.999       1.301       1.453       57.251      -2.288      43.019      
79.4        -9999.25    -9999.25    -9999.25    -9999.25    12.943      4.931       1.556       0.93        0.139       14.114      -9999.25    -9999.25    -9999.25    -9999.25    -9999.25    -9999.25    -9999.25    
79.49       25.541      246.628     1.939       5.614       -9999.25    -9999.25    -9999.25    -9999.25    -9999.25    -9999.25    14.987      0.938       1.3         1.385       59.773      -2.289      42.091      
79.5        -9999.25    -9999.25    -9999.25    -9999.25    12.612      6.815       1.499       0.744       0.16        14.114      -9999.25    -9999.25    -9999.25    -9999.25    -9999.25    -9999.25    -9999.25    
79.59       25.268      262.057     1.888       5.91        -9999.25    -9999.25    -9999.25    -9999.25    -9999.25    -9999.25    14.961      0.911       1.299       1.315       62.322      -2.29       40.731      
79.6        -9999.25    -9999.25    -9999.25    -9999.25    12.385      8.815       1.49        0.6         0.182       14.171      -9999.25    -9999.25    -9999.25    -9999.25    -9999.25    -9999.25    -9999.25    
79.69       24.372      257.421     1.858       6.411       -9999.25    -9999.25    -9999.25    -9999.25    -9999.25    -9999.25    14.912      0.931       1.298       1.226       64.783      -2.289      39.603      
79.7        -9999.25    -9999.25    -9999.25    -9999.25    12.148      10.761      1.452       0.496       0.191       14.447      -9999.25    -9999.25    -9999.25    -9999.25    -9999.25    -9999.25    -9999.25    
79.79       23.227      243.769     1.859       6.76        -9999.25    -9999.25    -9999.25    -9999.25    -9999.25    -9999.25    14.836      0.964       1.298       1.163       67.445      -2.289      40.87       
79.8        -9999.25    -9999.25    -9999.25    -9999.25    12.03       11.875      1.362       0.424       0.204       14.921      -9999.25    -9999.25    -9999.25    -9999.25    -9999.25    -9999.25    -9999.25    
79.89       22.764      241.21      1.891       7.063       -9999.25    -9999.25    -9999.25    -9999.25    -9999.25    -9999.25    14.758      1.052       1.298       1.189       70.322      -2.29       44.318      
79.9        -9999.25    -9999.25    -9999.25    -9999.25    11.983      12.096      1.32        0.39        0.213       15.272      -9999.25    -9999.25    -9999.25    -9999.25    -9999.25    -9999.25    -9999.25    
79.99       23.584      240.947     1.937       7.144       -9999.25    -9999.25    -9999.25    -9999.25    -9999.25    -9999.25    14.715      1.11        1.298       1.214       73.211      -2.291      45.353      
80.0        -9999.25    -9999.25    -9999.25    -9999.25    11.854      12.005      1.32        0.379       0.204       15.369      -9999.25    -9999.25    -9999.25    -9999.25    -9999.25    -9999.25    -9999.25    
80.09       24.452      241.051     1.976       7.071       -9999.25    -9999.25    -9999.25    -9999.25    -9999.25    -9999.25    14.703      1.117       1.298       1.323       75.855      -2.292      45.419      
80.1        -9999.25    -9999.25    -9999.25    -9999.25    11.653      11.826      1.339       0.365       0.206       15.369      -9999.25    -9999.25    -9999.25    -9999.25    -9999.25    -9999.25    -9999.25    
80.19       24.841      241.627     1.998       6.943       -9999.25    -9999.25    -9999.25    -9999.25    -9999.25    -9999.25    14.702      1.115       1.298       1.395       78.449      -2.292      45.074      
80.2        -9999.25    -9999.25    -9999.25    -9999.25    11.497      11.733      1.382       0.352       0.214       15.427      -9999.25    -9999.25    -9999.25    -9999.25    -9999.25    -9999.25    -9999.25    
80.29       26.327      243.112     2.0         6.736       -9999.25    -9999.25    -9999.25    -9999.25    -9999.25    -9999.25    14.718      1.062       1.3         1.375       80.841      -2.291      42.248      
80.3        -9999.25    -9999.25    -9999.25    -9999.25    11.461      11.556      1.443       0.34        0.214       15.494      -9999.25    -9999.25    -9999.25    -9999.25    -9999.25    -9999.25    -9999.25    
80.39       28.532      244.841     1.987       6.564       -9999.25    -9999.25    -9999.25    -9999.25    -9999.25    -9999.25    14.792      1.025       1.301       1.361       82.981      -2.291      37.61       
