~Version Information Section
VERS.                                         2.0:CWLS log ASCII Standart – VERSION 2.0
WRAP.                                          NO:One line per depth step
~Well Information Section
STRT.M                                      -0.81:Начальная глубина
STOP.M                                     196.49:Конечная глубина
STEP.M                                          0:Шаг квантования по глубине
NULL.                                    -9999.25:Признак "Нет данных"
WELL.                                        145К:Скважина
~Parameter Information Section
~Curve Information Section
DEPTH.M                                          :Глубина
BK.Ohm*M                                         :BK     (БК)
DS.mm                                            :DS  (ДС)
GGK.g/cm3                                        :GGKp
ГК.mcr/h                                         :GK          (ГК)
GZ1.Ohm*M                                        :GZ1   ГЗ1(A0.4M0.1N)
GZ2.Ohm*M                                        :GZ2   ГЗ2(A1.0M0.1N)
GZ3.Ohm*M                                        :GZ3   ГЗ3(A2.0M0.5N)
GZ4.Ohm*M                                        :GZ4   ГЗ4(A4.0M0.5N)
GZ5.Ohm*M                                        :GZ5   ГЗ5(A8.0M0.5N)
GZR.                                             :GZR   ГЗK(N0.5M2.0A)
ИК.Ohm*M                                         :IK
НГК.ue                                           :NGK     (НГК)
RS.Ohm*M                                         :RS (Резистивиметр)
NNKM.                                            :NNKm  (ННКм)
PS.mv                                            :PS       (ПС)
PZ.Ohm*M                                         :PZ    (КС)
W.%                                              :W
~ASCII LOG DATA
# ...
159.99      119.563     147.313     2.138       4.008       -9999.25    -9999.25    -9999.25    -9999.25    -9999.25    -9999.25    64.479      1.238       1.532       1.795       45.851      73.543      30.989      
160.0       -9999.25    -9999.25    -9999.25    -9999.25    104.091     79.688      59.3        69.772      20.268      70.289      -9999.25    -9999.25    -9999.25    -9999.25    -9999.25    -9999.25    -9999.25    
160.09      129.149     146.75      2.133       3.884       -9999.25    -9999.25    -9999.25    -9999.25    -9999.25    -9999.25    64.475      1.315       1.543       1.8         46.125      73.195      29.611      
160.1       -9999.25    -9999.25    -9999.25    -9999.25    107.858     79.403      59.054      69.618      20.29       70.375      -9999.25    -9999.25    -9999.25    -9999.25    -9999.25    -9999.25    -9999.25    
160.19      119.533     146.929     2.134       3.664       -9999.25    -9999.25    -9999.25    -9999.25    -9999.25    -9999.25    64.482      1.377       1.554       1.811       46.215      72.766      29.142      
160.2       -9999.25    -9999.25    -9999.25    -9999.25    108.223     78.426      58.763      69.426      20.353      70.305      -9999.25    -9999.25    -9999.25    -9999.25    -9999.25    -9999.25    -9999.25    
160.29      100.768     146.612     2.139       3.503       -9999.25    -9999.25    -9999.25    -9999.25    -9999.25    -9999.25    64.539      1.34        1.566       1.794       46.229      72.547      29.927      
160.3       -9999.25    -9999.25    -9999.25    -9999.25    101.806     77.352      58.213      69.058      20.504      70.672      -9999.25    -9999.25    -9999.25    -9999.25    -9999.25    -9999.25    -9999.25    
160.39      92.11       146.403     2.146       3.54        -9999.25    -9999.25    -9999.25    -9999.25    -9999.25    -9999.25    64.65       1.306       1.577       1.769       46.251      72.503      30.73       
160.4       -9999.25    -9999.25    -9999.25    -9999.25    94.985      76.957      57.456      68.54       20.627      71.379      -9999.25    -9999.25    -9999.25    -9999.25    -9999.25    -9999.25    -9999.25    
160.49      106.743     146.407     2.159       3.794       -9999.25    -9999.25    -9999.25    -9999.25    -9999.25    -9999.25    64.783      1.324       1.588       1.779       46.261      72.55       31.488      
160.5       -9999.25    -9999.25    -9999.25    -9999.25    92.113      77.589      56.738      67.799      20.78       71.733      -9999.25    -9999.25    -9999.25    -9999.25    -9999.25    -9999.25    -9999.25    
160.59      135.511     146.744     2.175       4.079       -9999.25    -9999.25    -9999.25    -9999.25    -9999.25    -9999.25    64.952      1.34        1.599       1.798       46.266      72.606      32.654      
160.6       -9999.25    -9999.25    -9999.25    -9999.25    92.947      78.653      56.305      66.991      20.901      71.747      -9999.25    -9999.25    -9999.25    -9999.25    -9999.25    -9999.25    -9999.25    
160.69      136.355     146.574     2.187       4.264       -9999.25    -9999.25    -9999.25    -9999.25    -9999.25    -9999.25    65.14       1.319       1.59        1.816       46.267      72.81       33.196      
160.7       -9999.25    -9999.25    -9999.25    -9999.25    93.733      79.046      56.202      66.442      21.008      71.426      -9999.25    -9999.25    -9999.25    -9999.25    -9999.25    -9999.25    -9999.25    
160.79      124.473     146.438     2.193       4.254       -9999.25    -9999.25    -9999.25    -9999.25    -9999.25    -9999.25    65.351      1.301       1.579       1.834       46.296      73.037      32.116      
160.8       -9999.25    -9999.25    -9999.25    -9999.25    94.563      78.892      56.202      66.108      21.096      71.46       -9999.25    -9999.25    -9999.25    -9999.25    -9999.25    -9999.25    -9999.25    
160.89      115.772     146.2       2.194       4.136       -9999.25    -9999.25    -9999.25    -9999.25    -9999.25    -9999.25    65.534      1.322       1.568       1.82        46.354      73.142      31.046      
160.9       -9999.25    -9999.25    -9999.25    -9999.25    95.063      78.77       56.202      65.779      21.276      72.213      -9999.25    -9999.25    -9999.25    -9999.25    -9999.25    -9999.25    -9999.25    
160.99      101.266     146.39      2.189       4.07        -9999.25    -9999.25    -9999.25    -9999.25    -9999.25    -9999.25    65.727      1.342       1.557       1.808       46.439      73.222      30.503      
161.0       -9999.25    -9999.25    -9999.25    -9999.25    95.063      78.77       56.304      65.604      21.58       72.89       -9999.25    -9999.25    -9999.25    -9999.25    -9999.25    -9999.25    -9999.25    
161.09      100.793     146.626     2.179       4.12        -9999.25    -9999.25    -9999.25    -9999.25    -9999.25    -9999.25    65.922      1.35        1.546       1.808       46.544      73.411      29.853      
161.1       -9999.25    -9999.25    -9999.25    -9999.25    95.063      79.233      56.773      65.604      21.966      73.476      -9999.25    -9999.25    -9999.25    -9999.25    -9999.25    -9999.25    -9999.25    
161.19      117.094     146.508     2.167       4.241       -9999.25    -9999.25    -9999.25    -9999.25    -9999.25    -9999.25    66.083      1.355       1.534       1.81        46.603      73.885      29.049      
161.2       -9999.25    -9999.25    -9999.25    -9999.25    101.755     80.418      57.545      65.604      22.44       73.815      -9999.25    -9999.25    -9999.25    -9999.25    -9999.25    -9999.25    -9999.25    
161.29      121.673     146.933     2.159       4.398       -9999.25    -9999.25    -9999.25    -9999.25    -9999.25    -9999.25    66.189      1.395       1.523       1.825       46.615      74.409      28.924      
161.3       -9999.25    -9999.25    -9999.25    -9999.25    115.089     81.622      58.7        65.851      22.44       73.848      -9999.25    -9999.25    -9999.25    -9999.25    -9999.25    -9999.25    -9999.25    
161.39      119.077     146.403     2.152       4.527       -9999.25    -9999.25    -9999.25    -9999.25    -9999.25    -9999.25    66.278      1.434       1.512       1.834       46.616      74.798      29.135      
161.4       -9999.25    -9999.25    -9999.25    -9999.25    128.96      83.054      60.395      66.492      22.44       73.123      -9999.25    -9999.25    -9999.25    -9999.25    -9999.25    -9999.25    -9999.25    
161.49      114.345     146.322     2.149       4.472       -9999.25    -9999.25    -9999.25    -9999.25    -9999.25    -9999.25    66.338      1.359       1.501       1.787       46.522      75.142      29.078      
161.5       -9999.25    -9999.25    -9999.25    -9999.25    144.767     85.514      62.19       67.087      22.436      71.733      -9999.25    -9999.25    -9999.25    -9999.25    -9999.25    -9999.25    -9999.25    
161.59      120.475     146.865     2.152       4.161       -9999.25    -9999.25    -9999.25    -9999.25    -9999.25    -9999.25    66.328      1.265       1.49        1.767       46.273      75.444      28.787      
161.6       -9999.25    -9999.25    -9999.25    -9999.25    157.336     89.123      64.074      67.279      22.552      70.043      -9999.25    -9999.25    -9999.25    -9999.25    -9999.25    -9999.25    -9999.25    
161.69      129.691     146.815     2.158       3.811       -9999.25    -9999.25    -9999.25    -9999.25    -9999.25    -9999.25    66.326      1.21        1.479       1.778       45.89       75.921      28.55       
161.7       -9999.25    -9999.25    -9999.25    -9999.25    165.657     93.237      66.163      67.268      22.698      68.187      -9999.25    -9999.25    -9999.25    -9999.25    -9999.25    -9999.25    -9999.25    
161.79      128.284     147.946     2.162       3.613       -9999.25    -9999.25    -9999.25    -9999.25    -9999.25    -9999.25    66.326      1.177       1.468       1.783       45.369      76.983      28.214      
