~Version Information Section
VERS.                                         2.0:CWLS log ASCII Standart – VERSION 2.0
WRAP.                                          NO:One line per depth step
~Well Information Section
STRT.M                                        0.1:Начальная глубина
STOP.M                                      206.3:Конечная глубина
STEP.M                                          0:Шаг квантования по глубине
NULL.                                    -9999.25:Признак "Нет данных"
WELL.                                        141К:Скважина
~Parameter Information Section
~Curve Information Section
DEPTH.M                                          :Глубина
N0.5M2.0A.Омм                                    :GZR   ГЗK(N0.5M2.0A)
ИК.мСм/м                                         :IK
НГК.усл.ед                                       :NGK     (НГК)
ННКМ.усл.ед                                      :NNKm  (ННКм)
ПС.mv                                            :PS       (ПС)
N11.0M0.5A.Омм                                   :PZ    (КС)
R.Омм                                            :RS (Резистивиметр)
КП.%                                             :W
БК.Омм                                           :BK     (БК)
DСР.мм                                           :DS  (ДС)
ПЛОТНОСТЬ.г/см^3                                 :GGKp
ГК.гамма                                         :GK          (ГК)
А0.4М0.1N.Омм                                    :GZ1   ГЗ1(A0.4M0.1N)
А1.0М0.1N.Омм                                    :GZ2   ГЗ2(A1.0M0.1N)
А2.0М0.5N.Омм                                    :GZ3   ГЗ3(A2.0M0.5N)
А4.0М0.5N.Oмм                                    :GZ4   ГЗ4(A4.0M0.5N)
А8.0М1.0N.Омм                                    :GZ5   ГЗ5(A8.0M0.5N)
~ASCII LOG DATA
# ...
155.5       16.147      18.338      1.391       1.885       67.428      19.749      1.33        34.987      22.146      221.875     2.292       9.583       20.583      20.287      19.6        19.01       18.213      
155.6       16.066      18.255      1.381       1.876       68.004      19.545      1.332       35.314      22.259      222.408     2.286       9.459       20.687      20.415      19.876      19.287      18.361      
155.7       16.026      18.167      1.386       1.865       68.421      19.203      1.334       35.687      22.321      222.862     2.283       9.402       20.928      20.675      20.261      19.646      18.505      
155.8       16.001      18.065      1.42        1.852       68.695      18.773      1.335       36.014      22.449      223.476     2.284       9.421       21.261      20.971      20.646      19.983      18.573      
155.9       15.981      17.944      1.487       1.844       68.854      18.306      1.335       36.314      22.453      223.903     2.293       9.383       21.568      21.207      20.903      20.174      18.573      
156.0       15.95       17.811      1.553       1.842       68.923      17.886      1.335       36.531      23.331      224.298     2.307       9.416       21.707      21.298      20.986      20.221      18.573      
156.1       15.888      17.666      1.604       1.843       68.929      17.538      1.335       36.559      24.237      224.345     2.322       9.417       21.716      21.298      20.986      20.221      18.522      
156.2       15.781      17.505      1.622       1.849       68.894      17.211      1.333       36.394      24.671      224.282     2.331       9.519       21.716      21.276      20.934      20.144      18.336      
156.3       15.631      17.306      1.61        1.86        68.831      16.847      1.329       36.034      24.45       224.406     2.331       9.722       21.556      21.108      20.703      19.891      18.018      
156.4       15.454      17.06       1.569       1.875       68.742      16.441      1.325       35.541      20.893      224.811     2.321       9.941       21.085      20.744      20.271      19.495      17.62       
156.5       15.279      16.767      1.514       1.895       68.623      16.052      1.321       35.06       18.981      224.829     2.304       10.119      20.37       20.294      19.775      19.08       17.211      
156.6       15.15       16.434      1.462       1.92        68.472      15.721      1.319       34.665      18.315      224.934     2.286       10.225      19.533      19.847      19.339      18.752      16.826      
156.7       15.103      16.088      1.421       1.939       68.294      15.461      1.318       34.466      17.762      225.25      2.27        10.12       18.738      19.462      19.024      18.546      16.509      
156.8       15.103      15.769      1.409       1.942       68.09       15.287      1.318       34.623      17.306      225.988     2.259       9.897       18.128      19.156      18.821      18.444      16.275      
156.9       15.103      15.481      1.421       1.928       67.862      15.18       1.318       35.09       17.093      226.19      2.253       9.804       17.717      18.898      18.681      18.398      16.108      
157.0       15.119      15.235      1.438       1.9         67.618      15.087      1.317       35.735      17.588      226.333     2.251       9.815       17.464      18.639      18.557      18.374      15.981      
157.1       15.216      15.039      1.454       1.878       67.364      14.985      1.317       36.478      18.141      226.549     2.252       9.801       17.34       18.355      18.41       18.351      15.865      
157.2       15.421      14.875      1.46        1.865       67.11       14.865      1.318       37.228      17.347      226.757     2.258       9.762       17.275      18.056      18.22       18.301      15.734      
157.3       15.699      14.735      1.451       1.86        66.863      14.73       1.318       37.923      16.993      227.628     2.268       9.792       17.197      17.727      17.981      18.197      15.568      
157.4       16.018      14.619      1.443       1.865       66.634      14.594      1.319       38.465      17.839      227.566     2.279       9.74        17.104      17.341      17.681      18.019      15.374      
157.5       16.338      14.523      1.447       1.872       66.429      14.465      1.319       38.723      17.777      227.643     2.287       9.639       17.003      16.917      17.313      17.748      15.161      
157.6       16.633      14.434      1.464       1.874       66.254      14.349      1.319       38.643      14.802      227.633     2.294       9.627       16.869      16.483      16.883      17.382      14.946      
157.7       16.903      14.344      1.477       1.871       66.114      14.253      1.319       38.348      14.325      227.916     2.299       9.589       16.688      16.045      16.413      16.942      14.738      
157.8       17.168      14.248      1.466       1.873       66.007      14.166      1.319       37.982      13.694      228.61      2.301       9.563       16.466      15.617      15.929      16.455      14.56       
157.9       17.438      14.145      1.448       1.879       65.932      14.097      1.319       37.569      13.43       228.98      2.303       9.594       16.199      15.232      15.458      15.942      14.397      
158.0       17.708      14.032      1.432       1.886       65.885      14.069      1.319       37.102      13.367      229.178     2.305       9.564       15.891      14.9        15.025      15.419      14.245      
158.1       17.97       13.918      1.405       1.896       65.86       14.066      1.32        36.618      13.415      229.294     2.304       9.49        15.567      14.606      14.64       14.9        14.099      
158.2       18.222      13.818      1.391       1.907       65.849      14.066      1.321       36.21       13.231      229.73      2.3         9.515       15.258      14.337      14.29       14.386      13.95       
158.3       18.454      13.729      1.394       1.908       65.849      14.066      1.322       36.04       12.92       229.614     2.295       9.549       14.976      14.083      13.955      13.879      13.778      
158.4       18.676      13.65       1.39        1.903       65.856      14.08       1.325       36.045      12.757      229.46      2.288       9.518       14.715      13.83       13.628      13.391      13.61       
158.5       18.921      13.592      1.383       1.894       65.869      14.124      1.328       36.018      12.666      229.214     2.28        9.495       14.477      13.585      13.314      12.934      13.454      
158.6       19.222      13.56       1.383       1.878       65.891      14.192      1.334       35.941      12.787      228.74      2.274       9.552       14.284      13.377      13.032      12.525      13.309      
158.7       19.602      13.547      1.391       1.864       65.93       14.249      1.339       35.867      12.718      228.099     2.271       9.613       14.157      13.222      12.808      12.178      13.179      
158.8       20.097      13.547      1.396       1.856       65.993      14.267      1.344       35.773      12.679      227.916     2.27        9.819       14.092      13.122      12.651      11.904      13.069      
158.9       20.747      13.549      1.385       1.847       66.088      14.279      1.35        35.583      12.815      227.815     2.271       10.02       14.071      13.071      12.547      11.7        12.957      
159.0       21.588      13.568      1.375       1.835       66.213      14.319      1.355       35.255      13.171      227.907     2.274       9.904       14.064      13.047      12.476      11.547      12.829      
159.1       22.625      13.626      1.378       1.831       66.355      14.371      1.359       34.888      13.268      227.864     2.28        9.731       14.047      13.023      12.409      11.401      12.709      
