~Version Information Section
VERS.                                         2.0:CWLS log ASCII Standart – VERSION 2.0
WRAP.                                          NO:One line per depth step
~Well Information Section
STRT.M                                        0.1:Начальная глубина
STOP.M                                      206.3:Конечная глубина
STEP.M                                          0:Шаг квантования по глубине
NULL.                                    -9999.25:Признак "Нет данных"
WELL.                                        141К:Скважина
~Parameter Information Section
~Curve Information Section
DEPTH.M                                          :Глубина
N0.5M2.0A.Омм                                    :GZR   ГЗK(N0.5M2.0A)
ИК.мСм/м                                         :IK
НГК.усл.ед                                       :NGK     (НГК)
ННКМ.усл.ед                                      :NNKm  (ННКм)
ПС.mv                                            :PS       (ПС)
N11.0M0.5A.Омм                                   :PZ    (КС)
R.Омм                                            :RS (Резистивиметр)
КП.%                                             :W
БК.Омм                                           :BK     (БК)
DСР.мм                                           :DS  (ДС)
ПЛОТНОСТЬ.г/см^3                                 :GGKp
ГК.гамма                                         :GK          (ГК)
А0.4М0.1N.Омм                                    :GZ1   ГЗ1(A0.4M0.1N)
А1.0М0.1N.Омм                                    :GZ2   ГЗ2(A1.0M0.1N)
А2.0М0.5N.Омм                                    :GZ3   ГЗ3(A2.0M0.5N)
А4.0М0.5N.Oмм                                    :GZ4   ГЗ4(A4.0M0.5N)
А8.0М1.0N.Омм                                    :GZ5   ГЗ5(A8.0M0.5N)
~ASCII LOG DATA
# ...
174.0       123.753     70.328      1.583       2.474       4.056       131.292     2.739       27.956      243.426     135.522     2.103       5.512       120.937     122.488     114.334     71.784      31.753      
174.1       123.336     70.398      1.567       2.454       4.639       130.742     2.739       28.129      234.447     135.434     2.084       5.42        122.481     123.911     114.334     74.787      31.583      
174.2       122.466     70.418      1.577       2.419       5.19        130.458     2.73        28.543      222.781     135.511     2.076       5.258       123.175     125.159     114.18      77.394      31.387      
174.3       121.413     70.432      1.605       2.372       5.705       130.458     2.713       29.18       213.371     135.627     2.075       5.28        123.293     125.911     113.504     79.681      31.221      
174.4       120.295     70.427      1.638       2.319       6.184       130.458     2.693       29.925      195.466     135.765     2.08        5.406       123.293     126.131     112.183     81.698      31.109      
174.5       119.266     70.413      1.671       2.272       6.63        130.472     2.676       30.625      152.861     135.915     2.089       5.466       122.963     126.131     110.399     83.399      31.073      
174.6       118.486     70.383      1.697       2.245       7.044       130.732     2.667       31.249      142.932     134.676     2.102       5.58        122.084     126.005     108.274     84.771      31.073      
174.7       118.116     70.314      1.699       2.25        7.425       131.427     2.667       31.868      133.086     135.963     2.114       5.645       121.015     125.579     106.031     85.899      31.073      
174.8       118.06      70.274      1.688       2.263       7.767       132.531     2.667       32.349      125.174     135.161     2.13        5.526       120.178     124.902     103.984     86.886      31.073      
174.9       118.06      70.215      1.697       2.278       8.075       133.657     2.667       32.514      123.049     135.931     2.146       5.34        119.857     124.291     102.318     87.854      31.136      
175.0       118.06      70.215      1.727       2.294       8.352       134.481     2.667       32.469      120.66      136.196     2.16        5.252       119.854     124.056     101.14      89.0        31.305      
175.1       118.217     70.24       1.764       2.317       8.59        135.121     2.677       32.316      133.452     135.789     2.175       5.268       119.854     124.056     100.574     90.474      31.585      
175.2       118.804     70.343      1.799       2.34        8.777       135.97      2.691       32.132      153.035     136.127     2.189       5.38        119.854     124.056     100.465     92.329      31.974      
175.3       119.815     70.502      1.821       2.358       8.904       138.182     2.708       31.923      152.611     135.593     2.199       5.456       120.056     124.097     100.465     94.561      32.428      
175.4       120.929     70.726      1.818       2.376       8.962       142.53      2.725       31.612      146.701     134.104     2.203       5.504       120.592     124.432     100.465     97.08       32.911      
175.5       121.769     70.947      1.802       2.406       8.948       147.838     2.741       31.225      147.441     135.856     2.203       5.532       121.546     125.128     100.605     99.63       33.374      
175.6       122.108     71.139      1.787       2.437       8.858       153.082     2.751       30.862      148.871     136.281     2.197       5.428       123.103     126.004     100.997     101.932     33.76       
175.7       122.14      71.311      1.768       2.466       8.694       158.085     2.754       30.518      147.019     137.196     2.188       5.331       125.177     126.934     101.496     103.79      34.054      
175.8       122.14      71.48       1.76        2.497       8.459       161.423     2.754       30.185      166.055     136.733     2.178       5.512       127.653     127.739     101.957     105.093     34.267      
175.9       121.732     71.633      1.761       2.506       8.159       162.598     2.754       29.892      217.293     136.891     2.166       5.713       130.374     128.222     102.297     105.881     34.403      
176.0       120.472     71.772      1.745       2.491       7.79        162.932     2.752       29.72       207.195     137.154     2.151       5.644       132.829     128.355     102.456     106.306     34.481      
176.1       118.461     71.834      1.714       2.468       7.349       163.203     2.743       29.675      160.32      137.42      2.135       5.636       134.51      128.355     102.49      106.52      34.538      
176.2       115.968     71.834      1.699       2.436       6.845       163.349     2.73        29.771      151.359     137.264     2.121       5.742       135.351     128.307     102.502     106.647     34.585      
176.3       113.415     71.834      1.699       2.403       6.297       163.401     2.714       30.059      152.54      137.161     2.109       5.599       135.584     128.068     102.514     106.749     34.639      
176.4       111.238     71.829      1.669       2.374       5.721       163.447     2.702       30.475      153.318     137.174     2.102       5.393       135.584     127.637     102.52      106.811     34.727      
176.5       109.685     71.813      1.63        2.352       5.136       163.44      2.692       30.998      147.926     137.28      2.101       5.465       135.539     127.065     102.568     106.859     34.871      
176.6       108.969     71.788      1.636       2.337       4.561       163.322     2.684       31.578      143.746     137.316     2.103       5.534       135.146     126.361     102.658     106.891     35.081      
176.7       108.848     71.746      1.653       2.331       4.013       163.063     2.677       32.096      142.137     137.329     2.105       5.5         134.346     125.624     102.772     106.891     35.37       
176.8       108.848     71.695      1.656       2.326       3.506       163.462     2.674       32.606      131.5       137.555     2.11        5.478       133.445     124.786     102.908     106.884     35.693      
176.9       108.848     71.69       1.686       2.324       3.05        164.461     2.673       33.074      119.992     137.644     2.115       5.512       132.391     123.597     103.052     106.846     35.975      
177.0       109.254     71.69       1.735       2.327       2.655       164.922     2.673       33.251      129.747     138.167     2.119       5.535       131.044     122.125     103.143     106.787     36.194      
177.1       110.392     71.679      1.747       2.341       2.331       164.989     2.673       33.217      140.948     138.764     2.124       5.699       129.746     120.68      103.2       106.734     36.39       
177.2       111.992     71.674      1.728       2.362       2.084       165.374     2.673       33.053      148.854     138.513     2.128       5.838       128.762     119.396     103.274     106.715     36.563      
177.3       113.762     71.69       1.71        2.389       1.908       165.332     2.675       32.739      149.669     138.31      2.128       5.785       128.029     118.382     103.347     106.72      36.757      
177.4       115.465     71.777      1.696       2.407       1.796       165.053     2.681       32.261      134.128     137.351     2.126       5.749       127.585     117.928     103.42      106.72      37.04       
177.5       116.806     71.901      1.676       2.415       1.735       165.327     2.69        31.553      122.62      138.05      2.125       5.802       127.446     117.891     103.525     106.762     37.418      
177.6       117.644     71.963      1.659       2.411       1.699       165.7       2.701       30.698      124.606     138.117     2.127       5.665       127.446     117.891     103.731     107.058     37.926      
