~Version Information Section
VERS.                                         2.0:CWLS log ASCII Standart – VERSION 2.0
WRAP.                                          NO:One line per depth step
~Well Information Section
STRT.M                                        0.1:Начальная глубина
STOP.M                                      206.3:Конечная глубина
STEP.M                                          0:Шаг квантования по глубине
NULL.                                    -9999.25:Признак "Нет данных"
WELL.                                        141К:Скважина
~Parameter Information Section
~Curve Information Section
DEPTH.M                                          :Глубина
N0.5M2.0A.Омм                                    :GZR   ГЗK(N0.5M2.0A)
ИК.мСм/м                                         :IK
НГК.усл.ед                                       :NGK     (НГК)
ННКМ.усл.ед                                      :NNKm  (ННКм)
ПС.mv                                            :PS       (ПС)
N11.0M0.5A.Омм                                   :PZ    (КС)
R.Омм                                            :RS (Резистивиметр)
КП.%                                             :W
БК.Омм                                           :BK     (БК)
DСР.мм                                           :DS  (ДС)
ПЛОТНОСТЬ.г/см^3                                 :GGKp
ГК.гамма                                         :GK          (ГК)
А0.4М0.1N.Омм                                    :GZ1   ГЗ1(A0.4M0.1N)
А1.0М0.1N.Омм                                    :GZ2   ГЗ2(A1.0M0.1N)
А2.0М0.5N.Омм                                    :GZ3   ГЗ3(A2.0M0.5N)
А4.0М0.5N.Oмм                                    :GZ4   ГЗ4(A4.0M0.5N)
А8.0М1.0N.Омм                                    :GZ5   ГЗ5(A8.0M0.5N)
~ASCII LOG DATA
# ...
77.8        15.391      15.71       1.424       1.537       63.78       16.948      1.08        45.136      15.038      290.689     1.769       7.805       12.713      12.648      10.543      10.366      13.872      
77.9        15.485      16.082      1.433       1.545       62.961      17.894      1.08        45.101      14.73       319.696     1.759       7.858       12.713      12.648      10.846      10.81       14.896      
78.0        15.829      16.558      1.448       1.555       62.236      19.225      1.08        44.71       14.551      259.177     1.792       7.712       12.774      12.736      11.509      11.632      16.157      
78.1        16.521      17.145      1.479       1.561       61.624      21.029      1.079       43.918      15.276      239.987     1.86        7.416       13.111      13.071      12.549      12.838      17.62       
78.2        17.605      17.897      1.511       1.568       61.15       23.236      1.078       42.774      17.889      231.442     1.946       6.92        13.949      13.709      13.923      14.364      19.218      
78.3        19.036      18.839      1.539       1.595       60.83       25.73       1.075       41.417      22.727      215.361     2.03        6.311       15.422      14.623      15.52       16.07       20.91       
78.4        20.649      19.885      1.571       1.637       60.671      28.294      1.072       39.986      29.264      214.951     2.097       5.856       17.612      15.743      17.18       17.788      22.622      
78.5        22.241      20.966      1.608       1.697       60.671      30.632      1.068       38.477      39.713      214.791     2.139       5.458       20.498      16.944      18.745      19.366      24.266      
78.6        23.647      22.004      1.636       1.769       60.817      32.423      1.065       37.027      43.05       214.528     2.162       5.15        23.928      18.136      20.117      20.714      25.751      
78.7        24.721      22.849      1.656       1.85        61.088      33.488      1.062       35.717      46.711      214.518     2.177       4.93        27.632      19.322      21.266      21.807      27.01       
78.8        25.391      23.394      1.673       1.918       61.46       33.838      1.061       34.587      49.552      214.919     2.194       4.787       31.294      20.572      22.202      22.666      27.983      
78.9        25.712      23.607      1.679       1.973       61.902      33.838      1.06        33.575      50.126      214.967     2.217       4.623       34.637      22.034      22.948      23.337      28.603      
79.0        25.799      23.607      1.682       2.013       62.397      33.739      1.06        32.564      49.773      214.782     2.246       4.696       37.481      23.898      23.533      23.872      28.844      
79.1        25.799      23.607      1.683       2.045       62.931      33.058      1.06        31.569      49.264      214.826     2.275       4.834       39.767      26.285      23.962      24.282      28.844      
79.2        25.793      23.598      1.695       2.062       63.491      31.562      1.06        30.761      49.07       215.098     2.296       4.871       41.435      29.202      24.171      24.504      28.844      
79.3        25.726      23.491      1.718       2.069       64.052      29.553      1.06        30.059      49.01       215.353     2.308       5.032       42.305      32.41       24.208      24.556      28.728      
79.4        25.583      23.152      1.731       2.073       64.592      27.315      1.06        29.444      49.036      215.387     2.316       5.451       42.51       35.343      24.208      24.556      28.286      
79.5        25.405      22.666      1.73        2.078       65.089      25.163      1.06        28.991      48.839      215.647     2.319       5.624       42.51       37.413      24.096      24.467      27.553      
79.6        25.161      22.114      1.728       2.081       65.528      23.199      1.06        28.76       46.785      216.635     2.322       5.767       42.211      38.238      23.713      24.133      26.624      
79.7        24.785      21.529      1.711       2.083       65.899      21.28       1.06        28.765      45.178      216.911     2.323       6.14        41.1        38.303      23.005      23.481      25.549      
79.8        24.249      20.923      1.669       2.084       66.204      19.542      1.06        28.955      43.697      217.747     2.321       6.556       38.978      38.303      22.029      22.559      24.307      
79.9        23.565      20.271      1.629       2.079       66.45       18.202      1.06        29.26       37.628      218.983     2.313       6.799       35.953      37.634      20.953      21.504      22.911      
80.0        22.77       19.568      1.587       2.069       66.654      17.181      1.06        29.742      25.296      221.036     2.3         7.088       32.369      35.681      19.887      20.389      21.423      
80.1        21.939      18.861      1.536       2.057       66.839      16.49       1.06        30.335      21.232      222.954     2.284       7.534       28.659      32.822      18.848      19.19       19.909      
80.2        21.151      18.186      1.486       2.03        67.028      16.208      1.06        30.873      18.251      225.919     2.27        7.923       25.109      29.558      17.902      17.929      18.446      
80.3        20.43       17.567      1.464       1.983       67.243      16.113      1.06        31.387      17.327      238.482     2.257       8.132       21.869      26.216      17.088      16.645      17.111      
80.4        19.794      17.041      1.466       1.931       67.497      16.041      1.06        31.99       17.895      243.164     2.243       8.265       19.131      23.082      16.367      15.345      15.932      
80.5        19.294      16.617      1.473       1.876       67.799      16.018      1.06        32.773      17.289      233.612     2.227       8.53        17.076      20.451      15.768      14.127      14.917      
80.6        18.957      16.285      1.474       1.82        68.147      16.065      1.06        33.703      15.781      240.781     2.206       8.643       15.676      18.485      15.359      13.151      14.032      
80.7        18.787      16.057      1.461       1.776       68.532      16.148      1.06        34.607      15.273      242.822     2.179       8.611       14.856      17.167      15.121      12.453      13.253      
80.8        18.747      15.964      1.429       1.745       68.937      16.232      1.06        35.448      15.324      243.357     2.151       8.627       14.563      16.422      15.003      11.987      12.613      
80.9        18.747      15.96       1.388       1.706       69.346      16.313      1.06        36.299      15.645      243.821     2.123       8.537       14.541      16.083      14.97       11.711      12.131      
81.0        18.747      15.96       1.356       1.656       69.743      16.369      1.06        37.071      16.524      247.034     2.097       8.287       14.541      15.953      14.97       11.537      11.794      
81.1        18.8        15.991      1.323       1.624       70.116      16.457      1.06        37.605      17.87       249.662     2.07        8.068       14.541      15.852      14.97       11.361      11.593      
81.2        18.967      16.115      1.299       1.624       70.457      16.622      1.06        37.744      18.575      245.081     2.042       7.907       14.623      15.689      14.979      11.151      11.519      
81.3        19.195      16.299      1.288       1.633       70.751      16.821      1.06        37.538      18.843      246.019     2.012       7.757       14.804      15.534      15.017      10.941      11.519      
81.4        19.422      16.476      1.271       1.644       70.99       16.949      1.06        37.262      19.037      247.015     1.977       7.647       15.011      15.436      15.082      10.767      11.519      
