~Version Information Section
VERS.                                         2.0:CWLS log ASCII Standart – VERSION 2.0
WRAP.                                          NO:One line per depth step
~Well Information Section
STRT.M                                        0.1:Начальная глубина
STOP.M                                      206.3:Конечная глубина
STEP.M                                          0:Шаг квантования по глубине
NULL.                                    -9999.25:Признак "Нет данных"
WELL.                                        141К:Скважина
~Parameter Information Section
~Curve Information Section
DEPTH.M                                          :Глубина
N0.5M2.0A.Омм                                    :GZR   ГЗK(N0.5M2.0A)
ИК.мСм/м                                         :IK
НГК.усл.ед                                       :NGK     (НГК)
ННКМ.усл.ед                                      :NNKm  (ННКм)
ПС.mv                                            :PS       (ПС)
N11.0M0.5A.Омм                                   :PZ    (КС)
R.Омм                                            :RS (Резистивиметр)
КП.%                                             :W
БК.Омм                                           :BK     (БК)
DСР.мм                                           :DS  (ДС)
ПЛОТНОСТЬ.г/см^3                                 :GGKp
ГК.гамма                                         :GK          (ГК)
А0.4М0.1N.Омм                                    :GZ1   ГЗ1(A0.4M0.1N)
А1.0М0.1N.Омм                                    :GZ2   ГЗ2(A1.0M0.1N)
А2.0М0.5N.Омм                                    :GZ3   ГЗ3(A2.0M0.5N)
А4.0М0.5N.Oмм                                    :GZ4   ГЗ4(A4.0M0.5N)
А8.0М1.0N.Омм                                    :GZ5   ГЗ5(A8.0M0.5N)
~ASCII LOG DATA
# ...
59.3        18.193      13.901      1.386       1.678       64.029      17.326      1.0         39.609      16.372      249.796     2.053       8.047       13.317      11.37       11.904      11.914      8.182       
59.4        18.448      14.091      1.426       1.685       63.65       17.428      1.0         39.636      16.841      249.09      2.051       8.038       13.501      11.443      11.726      11.973      8.368       
59.5        18.747      14.289      1.452       1.696       63.35       17.53       1.0         39.414      18.437      247.518     2.053       7.867       13.601      11.492      11.542      11.995      8.493       
59.6        19.082      14.51       1.467       1.716       63.135      17.7        1.0         39.085      18.532      246.52      2.057       7.646       13.624      11.541      11.368      12.004      8.583       
59.7        19.433      14.759      1.487       1.724       63.006      17.989      1.0         38.844      18.671      245.049     2.062       7.44        13.624      11.582      11.235      12.016      8.7         
59.8        19.778      15.034      1.523       1.717       62.952      18.422      1.0         38.608      18.523      243.212     2.067       7.129       13.608      11.61       11.183      12.022      8.968       
59.9        20.089      15.325      1.564       1.711       62.952      19.001      1.0         38.181      18.143      241.687     2.071       6.731       13.547      11.633      11.183      12.055      9.476       
60.0        20.355      15.617      1.61        1.708       62.985      19.687      1.0         37.63       17.789      240.663     2.072       6.436       13.492      11.654      11.183      12.221      10.303      
60.1        20.643      15.895      1.664       1.715       63.035      20.397      1.0         37.065      17.465      239.339     2.074       6.316       13.48       11.668      11.221      12.651      11.465      
60.2        21.122      16.169      1.707       1.739       63.086      21.034      1.0         36.543      17.18       238.648     2.078       6.315       13.48       11.759      11.465      13.517      12.926      
60.3        22.022      16.475      1.72        1.783       63.114      21.602      1.0         36.094      16.889      237.356     2.087       6.375       13.48       12.093      12.102      14.96       14.506      
60.4        23.588      16.864      1.712       1.834       63.097      22.206      1.0         35.591      16.781      235.766     2.102       6.534       13.661      12.753      13.121      16.866      16.011      
60.5        25.98       17.39       1.684       1.881       63.016      22.904      1.0         35.023      17.812      232.12      2.122       6.714       14.414      13.709      14.334      18.82       17.228      
60.6        29.028      18.09       1.648       1.914       62.859      23.726      1.0         34.556      21.5        224.079     2.144       6.829       15.996      14.877      15.424      20.329      17.992      
60.7        32.093      18.954      1.627       1.925       62.611      24.694      1.0         34.202      30.583      219.498     2.166       6.935       18.325      16.046      16.09       21.034      18.322      
60.8        34.406      19.937      1.611       1.918       62.268      25.717      1.0         34.001      48.386      216.047     2.185       7.138       21.108      16.972      16.29       21.154      18.37       
60.9        35.514      20.937      1.589       1.9         61.832      26.613      1.0         33.88       57.665      215.079     2.197       7.131       23.739      17.601      16.29       21.154      18.37       
61.0        35.737      21.841      1.58        1.877       61.313      27.29       1.0         33.644      54.839      214.675     2.203       7.115       25.548      17.972      16.225      20.864      18.37       
61.1        35.737      22.569      1.582       1.851       60.724      27.76       1.0         33.28       42.027      214.181     2.201       7.115       26.392      18.136      15.937      20.09       18.245      
61.2        35.395      23.086      1.592       1.833       60.074      28.093      1.0         32.835      29.166      213.519     2.196       6.998       26.596      18.226      15.454      19.147      18.174      
61.3        34.407      23.442      1.628       1.825       59.375      28.384      1.0         32.252      27.403      213.463     2.192       6.847       26.596      18.316      15.098      18.498      18.174      
61.4        33.212      23.714      1.683       1.826       58.652      28.777      1.0         31.563      25.998      213.453     2.189       6.628       26.489      18.437      15.003      18.307      18.174      
61.5        32.602      23.992      1.733       1.837       57.936      29.423      1.0         30.75       24.389      213.445     2.184       6.438       26.202      18.734      15.003      18.307      18.174      
61.6        32.54       24.333      1.775       1.861       57.256      30.427      1.0         29.858      23.452      213.215     2.178       6.257       26.022      19.41       15.003      18.307      18.378      
61.7        32.54       24.796      1.82        1.894       56.634      31.879      1.0         28.988      23.88       216.595     2.168       6.043       26.022      20.569      15.147      18.449      18.927      
61.8        32.54       25.398      1.858       1.928       56.083      33.872      1.0         28.186      25.432      213.372     2.153       5.773       26.022      22.199      15.618      18.971      19.783      
61.9        33.023      26.177      1.892       1.961       55.612      36.365      1.0         27.443      27.387      209.283     2.141       5.583       26.184      24.148      16.39       19.863      20.967      
62.0        34.373      27.096      1.928       1.991       55.217      39.155      1.0         26.792      30.178      208.341     2.133       5.402       26.994      26.187      17.372      20.989      22.423      
62.1        36.354      28.103      1.955       2.029       54.896      41.979      1.0         26.284      35.142      207.516     2.13        5.31        28.69       28.102      18.482      22.242      24.088      
62.2        38.705      29.145      1.97        2.067       54.649      44.46       1.0         25.968      44.438      207.339     2.133       5.397       31.161      29.783      19.638      23.524      25.848      
62.3        41.075      30.153      1.978       2.096       54.486      46.263      1.0         25.837      58.852      207.056     2.139       5.434       34.292      31.351      20.832      24.765      27.635      
62.4        43.03       31.043      1.967       2.118       54.42       47.284      1.0         25.905      60.063      206.728     2.147       5.632       37.933      33.075      22.105      25.852      29.351      
62.5        44.264      31.791      1.941       2.125       54.467      47.601      1.0         26.146      63.301      206.641     2.159       5.861       41.852      35.172      23.506      26.636      30.817      
62.6        44.674      32.411      1.91        2.113       54.644      47.601      1.0         26.553      69.645      206.462     2.174       6.001       45.661      37.716      25.047      26.99       31.799      
62.7        44.674      32.84       1.88        2.085       54.966      47.568      1.0         27.139      76.487      206.445     2.192       6.03        48.964      40.629      26.647      27.047      32.276      
62.8        44.63       33.083      1.858       2.055       55.443      47.221      1.0         27.761      83.434      206.41      2.208       6.109       51.278      43.637      28.162      27.047      32.278      
62.9        44.102      33.163      1.855       2.036       56.077      46.501      1.0         28.217      83.98       206.716     2.214       6.131       52.256      46.351      29.412      26.862      32.278      
