~Version Information Section
VERS.                                         2.0:CWLS log ASCII Standart – VERSION 2.0
WRAP.                                          NO:One line per depth step
~Well Information Section
STRT.M                                      -0.81:Начальная глубина
STOP.M                                     196.49:Конечная глубина
STEP.M                                          0:Шаг квантования по глубине
NULL.                                    -9999.25:Признак "Нет данных"
WELL.                                        145К:Скважина
~Parameter Information Section
~Curve Information Section
DEPTH.M                                          :Глубина
BK.Ohm*M                                         :BK     (БК)
DS.mm                                            :DS  (ДС)
GGK.g/cm3                                        :GGKp
ГК.mcr/h                                         :GK          (ГК)
GZ1.Ohm*M                                        :GZ1   ГЗ1(A0.4M0.1N)
GZ2.Ohm*M                                        :GZ2   ГЗ2(A1.0M0.1N)
GZ3.Ohm*M                                        :GZ3   ГЗ3(A2.0M0.5N)
GZ4.Ohm*M                                        :GZ4   ГЗ4(A4.0M0.5N)
GZ5.Ohm*M                                        :GZ5   ГЗ5(A8.0M0.5N)
GZR.                                             :GZR   ГЗK(N0.5M2.0A)
ИК.Ohm*M                                         :IK
НГК.ue                                           :NGK     (НГК)
RS.Ohm*M                                         :RS (Резистивиметр)
NNKM.                                            :NNKm  (ННКм)
PS.mv                                            :PS       (ПС)
PZ.Ohm*M                                         :PZ    (КС)
W.%                                              :W
~ASCII LOG DATA
# ...
119.29      49.157      214.602     2.133       5.191       -9999.25    -9999.25    -9999.25    -9999.25    -9999.25    -9999.25    46.809      1.162       1.7         1.562       70.637      49.221      34.362      
119.3       -9999.25    -9999.25    -9999.25    -9999.25    38.694      53.142      56.434      66.552      46.444      49.74       -9999.25    -9999.25    -9999.25    -9999.25    -9999.25    -9999.25    -9999.25    
119.39      52.838      214.191     2.145       5.396       -9999.25    -9999.25    -9999.25    -9999.25    -9999.25    -9999.25    46.685      1.209       1.7         1.553       71.843      49.185      33.998      
119.4       -9999.25    -9999.25    -9999.25    -9999.25    39.806      53.789      57.231      66.775      46.552      49.74       -9999.25    -9999.25    -9999.25    -9999.25    -9999.25    -9999.25    -9999.25    
119.49      58.761      213.732     2.159       5.403       -9999.25    -9999.25    -9999.25    -9999.25    -9999.25    -9999.25    46.674      1.255       1.7         1.594       73.122      49.183      34.487      
119.5       -9999.25    -9999.25    -9999.25    -9999.25    41.463      54.64       57.917      67.003      46.899      49.666      -9999.25    -9999.25    -9999.25    -9999.25    -9999.25    -9999.25    -9999.25    
119.59      63.975      213.226     2.171       5.215       -9999.25    -9999.25    -9999.25    -9999.25    -9999.25    -9999.25    46.698      1.261       1.7         1.622       74.396      49.183      35.243      
119.6       -9999.25    -9999.25    -9999.25    -9999.25    43.019      55.348      58.482      67.228      47.25       49.603      -9999.25    -9999.25    -9999.25    -9999.25    -9999.25    -9999.25    -9999.25    
119.69      67.068      212.936     2.18        5.036       -9999.25    -9999.25    -9999.25    -9999.25    -9999.25    -9999.25    46.842      1.259       1.7         1.618       75.455      49.295      35.063      
119.7       -9999.25    -9999.25    -9999.25    -9999.25    44.167      55.773      58.815      67.346      47.63       49.646      -9999.25    -9999.25    -9999.25    -9999.25    -9999.25    -9999.25    -9999.25    
119.79      66.445      213.598     2.187       4.963       -9999.25    -9999.25    -9999.25    -9999.25    -9999.25    -9999.25    47.165      1.288       1.7         1.613       76.159      49.6        34.342      
119.8       -9999.25    -9999.25    -9999.25    -9999.25    45.144      56.195      58.998      67.498      48.109      49.678      -9999.25    -9999.25    -9999.25    -9999.25    -9999.25    -9999.25    -9999.25    
119.89      66.584      213.242     2.192       4.874       -9999.25    -9999.25    -9999.25    -9999.25    -9999.25    -9999.25    47.583      1.318       1.7         1.613       76.339      50.054      33.893      
119.9       -9999.25    -9999.25    -9999.25    -9999.25    45.983      56.643      59.321      67.659      48.99       49.678      -9999.25    -9999.25    -9999.25    -9999.25    -9999.25    -9999.25    -9999.25    
119.99      68.512      212.662     2.194       4.812       -9999.25    -9999.25    -9999.25    -9999.25    -9999.25    -9999.25    47.992      1.308       1.7         1.613       76.352      50.593      33.34       
120.0       -9999.25    -9999.25    -9999.25    -9999.25    46.773      57.222      59.917      68.082      49.972      49.758      -9999.25    -9999.25    -9999.25    -9999.25    -9999.25    -9999.25    -9999.25    
120.09      66.9        211.279     2.196       4.662       -9999.25    -9999.25    -9999.25    -9999.25    -9999.25    -9999.25    48.286      1.282       1.7         1.617       76.352      51.153      32.773      
120.1       -9999.25    -9999.25    -9999.25    -9999.25    47.695      57.798      60.917      69.081      51.171      50.1        -9999.25    -9999.25    -9999.25    -9999.25    -9999.25    -9999.25    -9999.25    
120.19      66.367      211.462     2.196       4.543       -9999.25    -9999.25    -9999.25    -9999.25    -9999.25    -9999.25    48.383      1.319       1.7         1.619       75.963      51.688      32.506      
120.2       -9999.25    -9999.25    -9999.25    -9999.25    48.58       58.515      62.491      70.528      52.561      50.687      -9999.25    -9999.25    -9999.25    -9999.25    -9999.25    -9999.25    -9999.25    
120.29      71.636      212.954     2.193       4.577       -9999.25    -9999.25    -9999.25    -9999.25    -9999.25    -9999.25    48.391      1.389       1.7         1.634       74.994      52.216      32.448      
120.3       -9999.25    -9999.25    -9999.25    -9999.25    49.599      60.261      64.705      72.449      54.143      51.25       -9999.25    -9999.25    -9999.25    -9999.25    -9999.25    -9999.25    -9999.25    
120.39      75.101      211.059     2.186       4.724       -9999.25    -9999.25    -9999.25    -9999.25    -9999.25    -9999.25    48.391      1.346       1.7         1.645       73.694      52.83       32.481      
120.4       -9999.25    -9999.25    -9999.25    -9999.25    51.097      62.827      67.449      74.85       55.839      51.489      -9999.25    -9999.25    -9999.25    -9999.25    -9999.25    -9999.25    -9999.25    
120.49      74.08       210.667     2.179       4.847       -9999.25    -9999.25    -9999.25    -9999.25    -9999.25    -9999.25    48.351      1.237       1.7         1.652       72.239      53.548      32.837      
120.5       -9999.25    -9999.25    -9999.25    -9999.25    52.913      65.39       70.482      76.848      57.157      51.489      -9999.25    -9999.25    -9999.25    -9999.25    -9999.25    -9999.25    -9999.25    
120.59      70.721      210.675     2.171       4.82        -9999.25    -9999.25    -9999.25    -9999.25    -9999.25    -9999.25    48.168      1.205       1.7         1.657       70.893      54.31       33.546      
120.6       -9999.25    -9999.25    -9999.25    -9999.25    54.76       68.187      73.097      77.545      57.403      51.41       -9999.25    -9999.25    -9999.25    -9999.25    -9999.25    -9999.25    -9999.25    
120.69      78.74       210.76      2.163       4.833       -9999.25    -9999.25    -9999.25    -9999.25    -9999.25    -9999.25    47.832      1.234       1.7         1.651       69.819      55.138      34.192      
120.7       -9999.25    -9999.25    -9999.25    -9999.25    56.565      69.992      74.157      77.545      57.403      50.707      -9999.25    -9999.25    -9999.25    -9999.25    -9999.25    -9999.25    -9999.25    
120.79      119.987     210.905     2.16        4.894       -9999.25    -9999.25    -9999.25    -9999.25    -9999.25    -9999.25    47.407      1.262       1.7         1.645       69.104      55.953      34.601      
120.8       -9999.25    -9999.25    -9999.25    -9999.25    57.448      70.252      74.157      77.387      57.403      48.962      -9999.25    -9999.25    -9999.25    -9999.25    -9999.25    -9999.25    -9999.25    
120.89      133.252     211.366     2.164       5.04        -9999.25    -9999.25    -9999.25    -9999.25    -9999.25    -9999.25    46.952      1.296       1.7         1.64        68.747      56.499      34.886      
120.9       -9999.25    -9999.25    -9999.25    -9999.25    57.448      70.252      74.096      76.199      56.518      46.457      -9999.25    -9999.25    -9999.25    -9999.25    -9999.25    -9999.25    -9999.25    
120.99      129.076     212.726     2.172       5.166       -9999.25    -9999.25    -9999.25    -9999.25    -9999.25    -9999.25    46.514      1.272       1.7         1.636       68.67       56.693      34.874      
121.0       -9999.25    -9999.25    -9999.25    -9999.25    55.727      67.884      72.829      73.068      54.685      43.486      -9999.25    -9999.25    -9999.25    -9999.25    -9999.25    -9999.25    -9999.25    
121.09      121.23      215.45      2.182       5.178       -9999.25    -9999.25    -9999.25    -9999.25    -9999.25    -9999.25    46.076      1.17        1.7         1.616       68.665      56.709      34.492      
