~Version Information Section
VERS.                                         2.0:CWLS log ASCII Standart – VERSION 2.0
WRAP.                                          NO:One line per depth step
~Well Information Section
STRT.M                                      -0.81:Начальная глубина
STOP.M                                     196.49:Конечная глубина
STEP.M                                          0:Шаг квантования по глубине
NULL.                                    -9999.25:Признак "Нет данных"
WELL.                                        145К:Скважина
~Parameter Information Section
~Curve Information Section
DEPTH.M                                          :Глубина
BK.Ohm*M                                         :BK     (БК)
DS.mm                                            :DS  (ДС)
GGK.g/cm3                                        :GGKp
ГК.mcr/h                                         :GK          (ГК)
GZ1.Ohm*M                                        :GZ1   ГЗ1(A0.4M0.1N)
GZ2.Ohm*M                                        :GZ2   ГЗ2(A1.0M0.1N)
GZ3.Ohm*M                                        :GZ3   ГЗ3(A2.0M0.5N)
GZ4.Ohm*M                                        :GZ4   ГЗ4(A4.0M0.5N)
GZ5.Ohm*M                                        :GZ5   ГЗ5(A8.0M0.5N)
GZR.                                             :GZR   ГЗK(N0.5M2.0A)
ИК.Ohm*M                                         :IK
НГК.ue                                           :NGK     (НГК)
RS.Ohm*M                                         :RS (Резистивиметр)
NNKM.                                            :NNKm  (ННКм)
PS.mv                                            :PS       (ПС)
PZ.Ohm*M                                         :PZ    (КС)
W.%                                              :W
~ASCII LOG DATA
# ...
97.09       48.448      212.935     2.203       6.021       -9999.25    -9999.25    -9999.25    -9999.25    -9999.25    -9999.25    43.402      1.415       1.613       1.625       93.142      48.525      31.766      
97.1        -9999.25    -9999.25    -9999.25    -9999.25    42.178      59.875      60.983      66.268      64.707      77.032      -9999.25    -9999.25    -9999.25    -9999.25    -9999.25    -9999.25    -9999.25    
97.19       49.715      212.483     2.211       5.288       -9999.25    -9999.25    -9999.25    -9999.25    -9999.25    -9999.25    43.876      1.494       1.627       1.808       91.798      49.409      31.249      
97.2        -9999.25    -9999.25    -9999.25    -9999.25    53.414      72.381      72.739      77.964      72.615      78.133      -9999.25    -9999.25    -9999.25    -9999.25    -9999.25    -9999.25    -9999.25    
97.29       57.939      212.631     2.224       4.605       -9999.25    -9999.25    -9999.25    -9999.25    -9999.25    -9999.25    44.36       1.559       1.641       1.848       89.965      50.714      29.45       
97.3        -9999.25    -9999.25    -9999.25    -9999.25    71.47       84.547      84.02       86.445      77.796      78.133      -9999.25    -9999.25    -9999.25    -9999.25    -9999.25    -9999.25    -9999.25    
97.39       94.303      212.532     2.236       4.569       -9999.25    -9999.25    -9999.25    -9999.25    -9999.25    -9999.25    44.682      1.585       1.656       2.002       87.805      52.564      27.897      
97.4        -9999.25    -9999.25    -9999.25    -9999.25    92.09       95.245      92.984      90.144      79.229      77.197      -9999.25    -9999.25    -9999.25    -9999.25    -9999.25    -9999.25    -9999.25    
97.49       206.531     213.046     2.246       4.221       -9999.25    -9999.25    -9999.25    -9999.25    -9999.25    -9999.25    44.783      1.585       1.67        2.044       85.575      55.129      25.958      
97.5        -9999.25    -9999.25    -9999.25    -9999.25    111.932     105.177     97.671      90.68       79.229      73.434      -9999.25    -9999.25    -9999.25    -9999.25    -9999.25    -9999.25    -9999.25    
97.59       338.391     213.902     2.256       3.753       -9999.25    -9999.25    -9999.25    -9999.25    -9999.25    -9999.25    44.791      1.585       1.684       2.062       83.493      58.454      23.745      
97.6        -9999.25    -9999.25    -9999.25    -9999.25    127.183     113.325     98.753      90.68       79.229      66.319      -9999.25    -9999.25    -9999.25    -9999.25    -9999.25    -9999.25    -9999.25    
97.69       436.726     214.167     2.264       3.389       -9999.25    -9999.25    -9999.25    -9999.25    -9999.25    -9999.25    44.791      1.587       1.699       2.066       81.761      62.515      21.514      
97.7        -9999.25    -9999.25    -9999.25    -9999.25    133.273     116.996     98.753      89.363      76.501      57.94       -9999.25    -9999.25    -9999.25    -9999.25    -9999.25    -9999.25    -9999.25    
97.79       407.913     213.607     2.269       3.436       -9999.25    -9999.25    -9999.25    -9999.25    -9999.25    -9999.25    44.706      1.574       1.685       2.045       80.445      70.14       20.747      
97.8        -9999.25    -9999.25    -9999.25    -9999.25    133.273     117.422     96.99       84.192      71.028      49.918      -9999.25    -9999.25    -9999.25    -9999.25    -9999.25    -9999.25    -9999.25    
97.89       331.026     213.163     2.27        3.733       -9999.25    -9999.25    -9999.25    -9999.25    -9999.25    -9999.25    44.286      1.527       1.668       2.04        79.603      81.794      20.829      
97.9        -9999.25    -9999.25    -9999.25    -9999.25    129.682     117.422     90.999      74.96       62.859      42.383      -9999.25    -9999.25    -9999.25    -9999.25    -9999.25    -9999.25    -9999.25    
97.99       287.991     213.283     2.264       3.994       -9999.25    -9999.25    -9999.25    -9999.25    -9999.25    -9999.25    43.393      1.473       1.652       2.009       79.175      89.872      21.355      
98.0        -9999.25    -9999.25    -9999.25    -9999.25    118.286     113.709     80.756      63.93       54.077      35.347      -9999.25    -9999.25    -9999.25    -9999.25    -9999.25    -9999.25    -9999.25    
98.09       255.649     214.334     2.252       4.491       -9999.25    -9999.25    -9999.25    -9999.25    -9999.25    -9999.25    42.044      1.388       1.635       2.002       79.08       91.834      22.302      
98.1        -9999.25    -9999.25    -9999.25    -9999.25    99.955      104.009     67.706      52.621      45.612      29.577      -9999.25    -9999.25    -9999.25    -9999.25    -9999.25    -9999.25    -9999.25    
98.19       187.337     216.671     2.231       4.947       -9999.25    -9999.25    -9999.25    -9999.25    -9999.25    -9999.25    40.424      1.324       1.618       1.75        79.074      91.967      23.614      
98.2        -9999.25    -9999.25    -9999.25    -9999.25    78.741      89.827      53.821      41.443      37.975      26.046      -9999.25    -9999.25    -9999.25    -9999.25    -9999.25    -9999.25    -9999.25    
98.29       135.753     220.045     2.205       5.572       -9999.25    -9999.25    -9999.25    -9999.25    -9999.25    -9999.25    38.732      1.266       1.602       1.722       79.074      91.867      26.055      
98.3        -9999.25    -9999.25    -9999.25    -9999.25    57.823      72.497      41.54       31.648      30.731      24.8        -9999.25    -9999.25    -9999.25    -9999.25    -9999.25    -9999.25    -9999.25    
98.39       110.665     218.531     2.178       6.102       -9999.25    -9999.25    -9999.25    -9999.25    -9999.25    -9999.25    37.023      1.22        1.588       1.581       79.102      90.309      27.918      
98.4        -9999.25    -9999.25    -9999.25    -9999.25    42.516      57.049      32.084      24.391      24.405      24.75       -9999.25    -9999.25    -9999.25    -9999.25    -9999.25    -9999.25    -9999.25    
98.49       84.567      219.897     2.151       6.549       -9999.25    -9999.25    -9999.25    -9999.25    -9999.25    -9999.25    35.251      1.154       1.582       1.556       79.309      82.83       30.152      
98.5        -9999.25    -9999.25    -9999.25    -9999.25    34.833      47.841      25.345      19.52       19.541      24.75       -9999.25    -9999.25    -9999.25    -9999.25    -9999.25    -9999.25    -9999.25    
98.59       42.908      219.951     2.13        6.775       -9999.25    -9999.25    -9999.25    -9999.25    -9999.25    -9999.25    33.457      1.111       1.575       1.467       79.699      68.749      32.128      
98.6        -9999.25    -9999.25    -9999.25    -9999.25    30.727      43.049      21.374      16.808      16.019      24.75       -9999.25    -9999.25    -9999.25    -9999.25    -9999.25    -9999.25    -9999.25    
98.69       29.227      220.127     2.125       6.775       -9999.25    -9999.25    -9999.25    -9999.25    -9999.25    -9999.25    31.702      1.195       1.573       1.458       80.212      56.394      34.556      
98.7        -9999.25    -9999.25    -9999.25    -9999.25    28.249      39.808      19.812      15.687      13.485      25.364      -9999.25    -9999.25    -9999.25    -9999.25    -9999.25    -9999.25    -9999.25    
98.79       28.357      215.158     2.135       6.663       -9999.25    -9999.25    -9999.25    -9999.25    -9999.25    -9999.25    29.998      1.264       1.571       1.495       80.738      48.773      35.694      
98.8        -9999.25    -9999.25    -9999.25    -9999.25    26.77       37.06       19.335      15.14       11.959      27.016      -9999.25    -9999.25    -9999.25    -9999.25    -9999.25    -9999.25    -9999.25    
98.89       27.625      213.772     2.155       6.471       -9999.25    -9999.25    -9999.25    -9999.25    -9999.25    -9999.25    28.461      1.234       1.571       1.498       81.071      42.762      36.165      
