~Version Information Section
VERS.                                         2.0:CWLS log ASCII Standart – VERSION 2.0
WRAP.                                          NO:One line per depth step
~Well Information Section
STRT.M                                      -0.81:Начальная глубина
STOP.M                                     196.49:Конечная глубина
STEP.M                                          0:Шаг квантования по глубине
NULL.                                    -9999.25:Признак "Нет данных"
WELL.                                        145К:Скважина
~Parameter Information Section
~Curve Information Section
DEPTH.M                                          :Глубина
BK.Ohm*M                                         :BK     (БК)
DS.mm                                            :DS  (ДС)
GGK.g/cm3                                        :GGKp
ГК.mcr/h                                         :GK          (ГК)
GZ1.Ohm*M                                        :GZ1   ГЗ1(A0.4M0.1N)
GZ2.Ohm*M                                        :GZ2   ГЗ2(A1.0M0.1N)
GZ3.Ohm*M                                        :GZ3   ГЗ3(A2.0M0.5N)
GZ4.Ohm*M                                        :GZ4   ГЗ4(A4.0M0.5N)
GZ5.Ohm*M                                        :GZ5   ГЗ5(A8.0M0.5N)
GZR.                                             :GZR   ГЗK(N0.5M2.0A)
ИК.Ohm*M                                         :IK
НГК.ue                                           :NGK     (НГК)
RS.Ohm*M                                         :RS (Резистивиметр)
NNKM.                                            :NNKm  (ННКм)
PS.mv                                            :PS       (ПС)
PZ.Ohm*M                                         :PZ    (КС)
W.%                                              :W
~ASCII LOG DATA
# ...
178.49      4.779       147.066     2.289       9.202       -9999.25    -9999.25    -9999.25    -9999.25    -9999.25    -9999.25    9.405       1.12        1.735       1.459       87.152      7.555       34.857      
178.5       -9999.25    -9999.25    -9999.25    -9999.25    9.108       7.115       5.258       6.721       3.881       9.199       -9999.25    -9999.25    -9999.25    -9999.25    -9999.25    -9999.25    -9999.25    
178.59      4.657       146.779     2.293       9.056       -9999.25    -9999.25    -9999.25    -9999.25    -9999.25    -9999.25    9.437       1.108       1.734       1.505       87.244      7.521       35.068      
178.6       -9999.25    -9999.25    -9999.25    -9999.25    9.541       7.783       5.417       6.746       3.875       9.489       -9999.25    -9999.25    -9999.25    -9999.25    -9999.25    -9999.25    -9999.25    
178.69      4.722       147.352     2.297       8.853       -9999.25    -9999.25    -9999.25    -9999.25    -9999.25    -9999.25    9.564       1.146       1.733       1.516       87.25       7.521       34.21       
178.7       -9999.25    -9999.25    -9999.25    -9999.25    9.809       8.314       5.64        6.8         3.904       9.707       -9999.25    -9999.25    -9999.25    -9999.25    -9999.25    -9999.25    -9999.25    
178.79      4.814       147.09      2.297       8.792       -9999.25    -9999.25    -9999.25    -9999.25    -9999.25    -9999.25    9.739       1.166       1.732       1.542       87.246      7.747       31.455      
178.8       -9999.25    -9999.25    -9999.25    -9999.25    9.897       8.55        5.864       6.855       3.915       9.864       -9999.25    -9999.25    -9999.25    -9999.25    -9999.25    -9999.25    -9999.25    
178.89      4.753       147.337     2.292       9.175       -9999.25    -9999.25    -9999.25    -9999.25    -9999.25    -9999.25    9.897       1.154       1.73        1.538       87.006      8.165       29.655      
178.9       -9999.25    -9999.25    -9999.25    -9999.25    9.937       8.608       6.084       6.918       3.915       9.972       -9999.25    -9999.25    -9999.25    -9999.25    -9999.25    -9999.25    -9999.25    
178.99      4.863       147.114     2.286       9.69        -9999.25    -9999.25    -9999.25    -9999.25    -9999.25    -9999.25    10.024      1.143       1.728       1.515       86.45       8.484       29.264      
179.0       -9999.25    -9999.25    -9999.25    -9999.25    10.055      8.7         6.349       7.01        3.908       10.061      -9999.25    -9999.25    -9999.25    -9999.25    -9999.25    -9999.25    -9999.25    
179.09      4.722       147.056     2.282       10.048      -9999.25    -9999.25    -9999.25    -9999.25    -9999.25    -9999.25    10.114      1.14        1.726       1.51        85.663      8.622       29.115      
179.1       -9999.25    -9999.25    -9999.25    -9999.25    10.193      8.847       6.629       7.133       3.899       10.159      -9999.25    -9999.25    -9999.25    -9999.25    -9999.25    -9999.25    -9999.25    
179.19      4.56        147.771     2.284       9.917       -9999.25    -9999.25    -9999.25    -9999.25    -9999.25    -9999.25    10.176      1.139       1.724       1.497       84.79       8.634       30.155      
179.2       -9999.25    -9999.25    -9999.25    -9999.25    10.254      8.917       6.856       7.254       3.901       10.262      -9999.25    -9999.25    -9999.25    -9999.25    -9999.25    -9999.25    -9999.25    
179.29      4.767       147.173     2.29        9.491       -9999.25    -9999.25    -9999.25    -9999.25    -9999.25    -9999.25    10.213      1.141       1.722       1.509       84.039      8.619       31.9        
179.3       -9999.25    -9999.25    -9999.25    -9999.25    10.237      8.91        7.054       7.336       3.905       10.296      -9999.25    -9999.25    -9999.25    -9999.25    -9999.25    -9999.25    -9999.25    
179.39      4.952       147.054     2.3         9.149       -9999.25    -9999.25    -9999.25    -9999.25    -9999.25    -9999.25    10.233      1.143       1.721       1.546       83.485      8.597       32.987      
179.4       -9999.25    -9999.25    -9999.25    -9999.25    10.169      8.905       7.26        7.366       3.916       10.27       -9999.25    -9999.25    -9999.25    -9999.25    -9999.25    -9999.25    -9999.25    
179.49      5.105       147.45      2.311       9.099       -9999.25    -9999.25    -9999.25    -9999.25    -9999.25    -9999.25    10.248      1.143       1.721       1.543       83.177      8.59        33.9        
179.5       -9999.25    -9999.25    -9999.25    -9999.25    10.075      8.89        7.551       7.366       3.918       10.262      -9999.25    -9999.25    -9999.25    -9999.25    -9999.25    -9999.25    -9999.25    
179.59      5.237       147.121     2.319       9.331       -9999.25    -9999.25    -9999.25    -9999.25    -9999.25    -9999.25    10.265      1.141       1.721       1.532       83.062      8.59        34.634      
179.6       -9999.25    -9999.25    -9999.25    -9999.25    10.0        8.874       7.903       7.333       3.982       10.275      -9999.25    -9999.25    -9999.25    -9999.25    -9999.25    -9999.25    -9999.25    
179.69      5.454       147.746     2.326       9.676       -9999.25    -9999.25    -9999.25    -9999.25    -9999.25    -9999.25    10.287      1.113       1.721       1.554       83.021      8.59        34.583      
179.7       -9999.25    -9999.25    -9999.25    -9999.25    9.965       8.861       8.198       7.226       4.172       10.303      -9999.25    -9999.25    -9999.25    -9999.25    -9999.25    -9999.25    -9999.25    
179.79      5.762       147.386     2.332       9.8         -9999.25    -9999.25    -9999.25    -9999.25    -9999.25    -9999.25    10.307      1.099       1.721       1.583       83.007      8.585       33.249      
179.8       -9999.25    -9999.25    -9999.25    -9999.25    9.963       8.861       8.42        7.019       4.359       10.343      -9999.25    -9999.25    -9999.25    -9999.25    -9999.25    -9999.25    -9999.25    
179.89      6.451       147.487     2.335       9.767       -9999.25    -9999.25    -9999.25    -9999.25    -9999.25    -9999.25    10.322      1.158       1.723       1.613       83.001      8.581       32.114      
179.9       -9999.25    -9999.25    -9999.25    -9999.25    9.906       8.85        8.551       6.75        4.598       10.402      -9999.25    -9999.25    -9999.25    -9999.25    -9999.25    -9999.25    -9999.25    
179.99      6.709       147.815     2.335       9.658       -9999.25    -9999.25    -9999.25    -9999.25    -9999.25    -9999.25    10.335      1.203       1.72        1.634       82.996      8.578       32.006      
180.0       -9999.25    -9999.25    -9999.25    -9999.25    9.786       8.779       8.59        6.524       4.848       10.45       -9999.25    -9999.25    -9999.25    -9999.25    -9999.25    -9999.25    -9999.25    
180.09      6.407       147.701     2.33        9.816       -9999.25    -9999.25    -9999.25    -9999.25    -9999.25    -9999.25    10.343      1.153       1.724       1.559       82.952      8.574       32.199      
180.1       -9999.25    -9999.25    -9999.25    -9999.25    9.675       8.645       8.59        6.373       5.038       10.462      -9999.25    -9999.25    -9999.25    -9999.25    -9999.25    -9999.25    -9999.25    
180.19      6.399       148.184     2.319       10.218      -9999.25    -9999.25    -9999.25    -9999.25    -9999.25    -9999.25    10.351      1.111       -9999.25    1.515       82.732      8.578       32.066      
180.2       -9999.25    -9999.25    -9999.25    -9999.25    9.574       8.491       8.485       6.274       5.101       10.471      -9999.25    -9999.25    -9999.25    -9999.25    -9999.25    -9999.25    -9999.25    
180.29      6.702       148.194     2.308       10.454      -9999.25    -9999.25    -9999.25    -9999.25    -9999.25    -9999.25    10.372      1.057       -9999.25    1.477       82.225      8.6         32.304      
