~Version Information Section
VERS.                                         2.0:CWLS log ASCII Standart – VERSION 2.0
WRAP.                                          NO:One line per depth step
~Well Information Section
STRT.M                                        0.1:Начальная глубина
STOP.M                                      206.3:Конечная глубина
STEP.M                                          0:Шаг квантования по глубине
NULL.                                    -9999.25:Признак "Нет данных"
WELL.                                        141К:Скважина
~Parameter Information Section
~Curve Information Section
DEPTH.M                                          :Глубина
N0.5M2.0A.Омм                                    :GZR   ГЗK(N0.5M2.0A)
ИК.мСм/м                                         :IK
НГК.усл.ед                                       :NGK     (НГК)
ННКМ.усл.ед                                      :NNKm  (ННКм)
ПС.mv                                            :PS       (ПС)
N11.0M0.5A.Омм                                   :PZ    (КС)
R.Омм                                            :RS (Резистивиметр)
КП.%                                             :W
БК.Омм                                           :BK     (БК)
DСР.мм                                           :DS  (ДС)
ПЛОТНОСТЬ.г/см^3                                 :GGKp
ГК.гамма                                         :GK          (ГК)
А0.4М0.1N.Омм                                    :GZ1   ГЗ1(A0.4M0.1N)
А1.0М0.1N.Омм                                    :GZ2   ГЗ2(A1.0M0.1N)
А2.0М0.5N.Омм                                    :GZ3   ГЗ3(A2.0M0.5N)
А4.0М0.5N.Oмм                                    :GZ4   ГЗ4(A4.0M0.5N)
А8.0М1.0N.Омм                                    :GZ5   ГЗ5(A8.0M0.5N)
~ASCII LOG DATA
# ...
48.2        0.232       927.644     1.263       1.462       82.88       0.067       0.899       40.544      2.804       227.06      2.278       3.506       0.243       0.082       0.195       -0.099      0.489       
48.3        0.268       547.645     1.309       1.519       81.885      0.07        0.901       40.139      2.835       226.868     2.286       3.747       0.248       0.086       0.207       -0.067      0.825       
48.4        0.462       434.216     1.361       1.628       81.022      0.089       0.902       39.511      2.869       226.911     2.297       4.03        0.253       0.091       0.228       0.004       1.267       
48.5        1.314       372.717     1.423       1.842       80.295      0.168       0.905       38.476      2.911       226.556     2.313       4.278       0.259       0.095       0.257       0.118       1.765       
48.6        3.812       171.38      1.464       2.027       79.695      0.494       0.908       37.169      2.947       227.035     2.335       4.476       0.272       0.099       0.289       0.261       2.255       
48.7        8.912       35.001      1.471       2.114       79.211      1.615       0.912       35.86       2.986       226.839     2.364       4.684       0.317       0.103       0.317       0.397       2.648       
48.8        16.602      12.119      1.464       2.144       78.825      4.076       0.915       34.644      3.134       226.876     2.399       4.815       0.485       0.107       0.331       0.484       2.857       
48.9        25.974      8.093       1.444       2.11        78.522      7.628       0.918       33.697      4.037       226.432     2.43        4.682       1.044       0.11        0.333       0.51        2.857       
49.0        34.934      7.036       1.409       2.083       78.285      11.627      0.919       33.153      7.803       215.172     2.451       4.403       2.421       0.115       0.333       0.51        2.857       
49.1        40.783      6.629       1.391       2.063       78.101      15.61       0.92        33.023      15.554      212.648     2.456       4.092       4.759       0.122       0.329       0.498       2.85        
49.2        42.645      6.571       1.395       2.057       77.959      18.954      0.92        33.321      20.559      212.54      2.447       3.699       7.934       0.129       0.314       0.445       2.647       
49.3        42.645      6.571       1.405       2.051       77.849      21.075      0.92        33.904      23.954      212.267     2.428       3.325       11.783      0.142       0.291       0.353       2.29        
49.4        42.312      7.214       1.408       2.039       77.77       22.192      0.92        34.608      23.967      211.928     2.404       3.198       15.831      0.193       0.268       0.255       1.87        
49.5        40.135      10.51       1.408       2.03        77.724      22.917      0.92        35.345      22.487      211.594     2.378       3.32        19.354      0.394       0.249       0.178       1.479       
49.6        35.559      15.63       1.412       2.031       77.716      23.566      0.92        35.776      20.705      211.489     2.351       3.636       22.13       0.995       0.234       0.126       1.159       
49.7        30.5        18.281      1.414       2.057       77.75       23.911      0.92        35.624      18.851      211.449     2.318       4.072       24.258      2.258       0.222       0.087       0.914       
49.8        26.848      19.135      1.417       2.1         77.831      23.926      0.92        35.019      19.038      211.448     2.282       4.599       25.672      4.313       0.214       0.047       0.743       
49.9        24.988      19.452      1.434       2.111       77.958      23.926      0.921       34.185      23.051      211.233     2.25        4.971       26.572      7.157       0.208       0.008       0.625       
50.0        24.451      19.723      1.459       2.116       78.124      23.707      0.922       33.238      28.254      210.92      2.224       5.046       27.345      10.601      0.204       -0.024      0.541       
50.1        24.451      20.016      1.483       2.113       78.309      23.336      0.925       32.341      33.015      210.682     2.213       4.964       27.987      14.275      0.203       -0.047      0.482       
50.2        24.451      20.248      1.5         2.104       78.498      23.303      0.928       31.604      38.638      210.642     2.218       4.803       28.395      17.597      0.203       -0.061      0.441       
50.3        24.464      20.345      1.503       2.09        78.686      23.424      0.932       31.168      36.283      210.605     2.233       4.482       28.711      20.074      0.203       -0.066      0.413       
50.4        24.99       20.356      1.503       2.07        78.871      23.424      0.935       31.159      29.855      210.626     2.254       4.147       28.947      21.625      0.204       -0.066      0.393       
50.5        26.37       20.356      1.509       2.054       79.028      23.424      0.938       31.431      26.961      210.933     2.275       4.05        29.033      22.328      0.213       -0.066      0.377       
50.6        28.294      20.36       1.516       2.053       79.13       23.862      0.939       31.765      24.745      211.013     2.291       4.126       29.033      22.476      0.25        -0.066      0.361       
50.7        30.39       20.36       1.522       2.07        79.154      24.825      0.94        32.167      20.783      211.574     2.296       4.229       29.064      22.476      0.397       -0.066      0.338       
50.8        32.308      20.324      1.529       2.096       79.085      25.647      0.94        32.421      19.184      216.675     2.286       4.455       29.095      22.332      0.833       -0.067      0.305       
50.9        33.803      20.284      1.527       2.115       78.915      25.952      0.94        32.398      25.107      211.991     2.266       4.801       29.095      22.025      1.761       -0.074      0.262       
51.0        34.635      20.282      1.507       2.12        78.645      25.977      0.94        32.249      29.537      211.829     2.243       5.507       29.144      21.743      3.346       -0.086      0.207       
51.1        34.852      20.282      1.472       2.092       78.286      26.116      0.94        32.099      33.31       211.93      2.225       6.044       29.382      21.464      5.613       -0.102      0.145       
51.2        34.852      20.324      1.434       2.04        77.863      26.22       0.94        32.042      41.083      212.084     2.222       6.598       29.57       21.2        8.307       -0.122      0.093       
51.3        34.742      20.485      1.4         1.97        77.402      25.855      0.94        32.038      41.099      212.181     2.237       7.038       29.568      20.968      10.86       -0.14       0.055       
51.4        34.375      20.669      1.387       1.893       76.916      25.367      0.94        31.858      41.377      212.172     2.263       7.259       29.529      20.696      12.757      -0.15       0.044       
51.5        33.716      20.755      1.427       1.837       76.416      25.224      0.94        31.471      42.975      212.446     2.289       7.09        29.125      20.395      13.812      -0.152      0.044       
51.6        32.866      20.755      1.512       1.83        75.929      25.224      0.94        30.953      40.709      212.553     2.306       6.636       28.008      20.076      14.121      -0.152      0.044       
51.7        32.071      20.755      1.63        1.88        75.481      25.224      0.94        30.174      32.576      214.222     2.306       6.133       26.109      19.681      14.121      -0.152      0.044       
51.8        31.512      20.755      1.772       1.967       75.09       25.559      0.94        28.983      23.937      222.035     2.29        5.661       23.711      19.241      14.091      -0.146      0.066       
