~Version Information Section
VERS.                                         2.0:CWLS log ASCII Standart – VERSION 2.0
WRAP.                                          NO:One line per depth step
~Well Information Section
STRT.M                                        0.1:Начальная глубина
STOP.M                                      206.3:Конечная глубина
STEP.M                                          0:Шаг квантования по глубине
NULL.                                    -9999.25:Признак "Нет данных"
WELL.                                        141К:Скважина
~Parameter Information Section
~Curve Information Section
DEPTH.M                                          :Глубина
N0.5M2.0A.Омм                                    :GZR   ГЗK(N0.5M2.0A)
ИК.мСм/м                                         :IK
НГК.усл.ед                                       :NGK     (НГК)
ННКМ.усл.ед                                      :NNKm  (ННКм)
ПС.mv                                            :PS       (ПС)
N11.0M0.5A.Омм                                   :PZ    (КС)
R.Омм                                            :RS (Резистивиметр)
КП.%                                             :W
БК.Омм                                           :BK     (БК)
DСР.мм                                           :DS  (ДС)
ПЛОТНОСТЬ.г/см^3                                 :GGKp
ГК.гамма                                         :GK          (ГК)
А0.4М0.1N.Омм                                    :GZ1   ГЗ1(A0.4M0.1N)
А1.0М0.1N.Омм                                    :GZ2   ГЗ2(A1.0M0.1N)
А2.0М0.5N.Омм                                    :GZ3   ГЗ3(A2.0M0.5N)
А4.0М0.5N.Oмм                                    :GZ4   ГЗ4(A4.0M0.5N)
А8.0М1.0N.Омм                                    :GZ5   ГЗ5(A8.0M0.5N)
~ASCII LOG DATA
# ...
70.4        14.61       19.425      1.459       1.868       80.668      18.365      1.022       35.242      23.847      211.905     2.181       6.341       26.325      29.057      19.307      20.141      16.793      
70.5        14.015      18.822      1.425       1.839       80.541      17.596      1.025       35.65       21.185      212.958     2.191       6.671       24.206      27.131      18.816      19.371      16.33       
70.6        13.529      18.235      1.393       1.805       80.286      16.916      1.028       36.024      19.082      216.73      2.197       6.904       22.382      25.521      18.527      18.821      16.023      
70.7        13.158      17.668      1.377       1.774       79.902      16.382      1.032       36.358      18.17       222.172     2.197       6.839       20.863      24.172      18.407      18.43       15.881      
70.8        12.903      17.169      1.369       1.749       79.393      16.043      1.035       36.636      17.998      224.564     2.192       6.802       19.618      23.004      18.384      18.156      15.881      
70.9        12.752      16.761      1.367       1.73        78.773      15.857      1.038       36.818      18.455      220.04      2.185       6.704       18.551      21.857      18.384      17.967      15.881      
71.0        12.699      16.419      1.362       1.712       78.058      15.729      1.039       37.055      18.687      218.893     2.181       6.611       17.593      20.664      18.384      17.841      15.881      
71.1        12.699      16.117      1.364       1.701       77.272      15.595      1.04        37.409      17.814      219.706     2.176       6.754       16.785      19.558      18.421      17.768      15.922      
71.2        12.699      15.853      1.382       1.692       76.445      15.426      1.04        37.84       16.344      226.393     2.168       7.021       16.18       18.673      18.552      17.74       16.127      
71.3        12.7        15.615      1.406       1.684       75.613      15.24       1.04        38.376      15.648      232.711     2.159       7.247       15.793      18.031      18.789      17.724      16.456      
71.4        12.761      15.415      1.436       1.681       74.813      15.074      1.04        38.956      15.567      233.646     2.149       7.488       15.604      17.599      19.08       17.703      16.884      
71.5        12.952      15.284      1.462       1.687       74.066      14.942      1.04        39.541      15.872      233.589     2.138       7.81        15.554      17.326      19.306      17.679      17.334      
71.6        13.263      15.217      1.463       1.699       73.394      14.872      1.04        40.159      16.779      230.995     2.131       8.017       15.549      17.113      19.383      17.645      17.747      
71.7        13.635      15.186      1.436       1.713       72.817      14.863      1.04        40.724      18.049      223.561     2.127       7.995       15.539      16.847      19.383      17.559      18.073      
71.8        13.977      15.157      1.4         1.725       72.36       14.863      1.04        41.233      17.785      222.761     2.124       7.965       15.523      16.436      19.346      17.392      18.302      
71.9        14.224      15.113      1.38        1.73        72.037      14.863      1.04        41.698      14.715      222.807     2.12        7.716       15.461      15.905      19.169      17.175      18.45       
72.0        14.361      15.088      1.381       1.727       71.838      14.901      1.04        42.042      14.441      223.555     2.112       7.415       15.342      15.37       18.83       16.946      18.555      
72.1        14.402      15.088      1.375       1.72        71.738      14.924      1.04        42.195      14.041      223.769     2.099       7.139       15.205      14.898      18.419      16.756      18.635      
72.2        14.402      15.076      1.369       1.709       71.709      14.894      1.04        42.084      13.443      225.15      2.076       6.997       15.094      14.521      18.039      16.68       18.702      
72.3        14.414      15.036      1.368       1.692       71.728      14.868      1.04        41.646      12.974      226.149     2.046       7.013       15.045      14.303      17.769      16.68       18.755      
72.4        14.427      15.002      1.352       1.679       71.755      14.85       1.04        40.983      12.452      226.37      2.012       7.211       15.039      14.233      17.577      16.68       18.809      
72.5        14.427      14.997      1.335       1.676       71.749      14.871      1.04        40.153      11.962      228.006     1.983       7.343       15.039      14.199      17.401      16.683      18.872      
72.6        14.427      14.997      1.344       1.677       71.694      14.932      1.04        39.159      12.014      238.677     1.966       7.348       15.039      14.146      17.221      16.764      18.942      
72.7        14.455      15.014      1.377       1.683       71.587      14.978      1.04        38.09       12.75       252.326     1.969       7.232       15.105      14.088      17.007      16.948      19.018      
72.8        14.563      15.09       1.414       1.697       71.435      14.989      1.04        37.141      14.0        237.95      1.995       7.099       15.279      14.03       16.729      17.168      19.097      
72.9        14.744      15.211      1.447       1.716       71.239      14.989      1.04        36.489      15.607      227.066     2.033       7.065       15.461      13.956      16.392      17.391      19.16       
73.0        14.954      15.332      1.461       1.722       71.002      15.015      1.04        36.279      16.701      226.605     2.07        7.059       15.582      13.847      16.007      17.597      19.214      
73.1        15.169      15.404      1.454       1.707       70.74       15.132      1.04        36.445      16.198      226.881     2.098       7.122       15.645      13.727      15.599      17.771      19.266      
73.2        15.383      15.42       1.429       1.683       70.471      15.336      1.04        36.828      14.075      228.062     2.109       7.2         15.661      13.626      15.229      17.91       19.322      
73.3        15.581      15.438      1.397       1.659       70.202      15.528      1.04        37.368      12.71       233.166     2.102       7.148       15.661      13.584      14.994      18.027      19.39       
73.4        15.751      15.473      1.375       1.639       69.934      15.657      1.04        37.983      12.346      237.084     2.087       7.068       15.688      13.584      14.927      18.128      19.492      
73.5        15.908      15.524      1.37        1.634       69.683      15.738      1.04        38.516      12.173      241.314     2.075       7.019       15.714      13.584      14.927      18.253      19.637      
73.6        16.067      15.55       1.374       1.653       69.467      15.794      1.04        38.81       12.206      241.267     2.07        6.961       15.717      13.621      14.927      18.496      19.85       
73.7        16.243      15.565      1.38        1.682       69.301      15.839      1.04        38.759      12.687      245.025     2.073       6.97        15.729      13.819      14.995      18.906      20.124      
73.8        16.472      15.621      1.391       1.712       69.185      15.867      1.04        38.362      13.589      246.58      2.081       6.985       15.843      14.232      15.23       19.451      20.427      
73.9        16.728      15.73       1.398       1.739       69.105      15.879      1.04        37.734      14.431      233.877     2.088       6.929       16.139      14.745      15.559      20.002      20.646      
74.0        16.914      15.876      1.402       1.756       69.04       15.888      1.04        37.056      14.905      232.054     2.088       6.82        16.547      15.259      15.843      20.384      20.711      
