~Version Information Section
VERS.                                         2.0:CWLS log ASCII Standart – VERSION 2.0
WRAP.                                          NO:One line per depth step
~Well Information Section
STRT.M                                      -0.81:Начальная глубина
STOP.M                                     196.49:Конечная глубина
STEP.M                                          0:Шаг квантования по глубине
NULL.                                    -9999.25:Признак "Нет данных"
WELL.                                        145К:Скважина
~Parameter Information Section
~Curve Information Section
DEPTH.M                                          :Глубина
BK.Ohm*M                                         :BK     (БК)
DS.mm                                            :DS  (ДС)
GGK.g/cm3                                        :GGKp
ГК.mcr/h                                         :GK          (ГК)
GZ1.Ohm*M                                        :GZ1   ГЗ1(A0.4M0.1N)
GZ2.Ohm*M                                        :GZ2   ГЗ2(A1.0M0.1N)
GZ3.Ohm*M                                        :GZ3   ГЗ3(A2.0M0.5N)
GZ4.Ohm*M                                        :GZ4   ГЗ4(A4.0M0.5N)
GZ5.Ohm*M                                        :GZ5   ГЗ5(A8.0M0.5N)
GZR.                                             :GZR   ГЗK(N0.5M2.0A)
ИК.Ohm*M                                         :IK
НГК.ue                                           :NGK     (НГК)
RS.Ohm*M                                         :RS (Резистивиметр)
NNKM.                                            :NNKm  (ННКм)
PS.mv                                            :PS       (ПС)
PZ.Ohm*M                                         :PZ    (КС)
W.%                                              :W
~ASCII LOG DATA
# ...
137.79      21.107      159.414     2.208       7.672       -9999.25    -9999.25    -9999.25    -9999.25    -9999.25    -9999.25    17.655      1.151       1.41        1.415       75.96       16.144      39.462      
137.8       -9999.25    -9999.25    -9999.25    -9999.25    17.833      16.238      14.598      15.49       14.352      16.11       -9999.25    -9999.25    -9999.25    -9999.25    -9999.25    -9999.25    -9999.25    
137.89      21.429      156.262     2.222       7.922       -9999.25    -9999.25    -9999.25    -9999.25    -9999.25    -9999.25    17.64       1.086       1.426       1.418       76.205      16.145      40.504      
137.9       -9999.25    -9999.25    -9999.25    -9999.25    17.834      16.331      14.585      15.439      13.999      16.074      -9999.25    -9999.25    -9999.25    -9999.25    -9999.25    -9999.25    -9999.25    
137.99      21.084      153.927     2.234       8.171       -9999.25    -9999.25    -9999.25    -9999.25    -9999.25    -9999.25    17.632      0.994       1.439       1.473       76.414      16.154      41.949      
138.0       -9999.25    -9999.25    -9999.25    -9999.25    17.882      16.489      14.572      15.356      13.671      16.114      -9999.25    -9999.25    -9999.25    -9999.25    -9999.25    -9999.25    -9999.25    
138.09      21.116      152.178     2.242       8.222       -9999.25    -9999.25    -9999.25    -9999.25    -9999.25    -9999.25    17.624      0.983       1.448       1.475       76.588      16.176      41.936      
138.1       -9999.25    -9999.25    -9999.25    -9999.25    18.005      16.598      14.577      15.239      13.481      16.186      -9999.25    -9999.25    -9999.25    -9999.25    -9999.25    -9999.25    -9999.25    
138.19      22.172      151.159     2.249       8.095       -9999.25    -9999.25    -9999.25    -9999.25    -9999.25    -9999.25    17.621      1.023       1.454       1.455       76.709      16.204      40.964      
138.2       -9999.25    -9999.25    -9999.25    -9999.25    18.066      16.603      14.609      15.088      13.271      16.278      -9999.25    -9999.25    -9999.25    -9999.25    -9999.25    -9999.25    -9999.25    
138.29      22.795      150.066     2.255       7.921       -9999.25    -9999.25    -9999.25    -9999.25    -9999.25    -9999.25    17.621      1.044       1.455       1.458       76.805      16.207      40.906      
138.3       -9999.25    -9999.25    -9999.25    -9999.25    18.049      16.567      14.642      14.929      13.078      16.373      -9999.25    -9999.25    -9999.25    -9999.25    -9999.25    -9999.25    -9999.25    
138.39      22.443      149.438     2.26        7.9         -9999.25    -9999.25    -9999.25    -9999.25    -9999.25    -9999.25    17.62       1.051       1.455       1.479       76.856      16.194      39.697      
138.4       -9999.25    -9999.25    -9999.25    -9999.25    18.049      16.483      14.678      14.797      12.966      16.435      -9999.25    -9999.25    -9999.25    -9999.25    -9999.25    -9999.25    -9999.25    
138.49      22.367      148.486     2.267       8.04        -9999.25    -9999.25    -9999.25    -9999.25    -9999.25    -9999.25    17.615      1.046       1.455       1.495       76.867      16.191      37.895      
138.5       -9999.25    -9999.25    -9999.25    -9999.25    18.049      16.409      14.697      14.699      12.851      16.437      -9999.25    -9999.25    -9999.25    -9999.25    -9999.25    -9999.25    -9999.25    
138.59      22.861      148.026     2.276       8.223       -9999.25    -9999.25    -9999.25    -9999.25    -9999.25    -9999.25    17.609      1.031       1.455       1.537       76.868      16.188      37.456      
138.6       -9999.25    -9999.25    -9999.25    -9999.25    18.083      16.336      14.697      14.659      12.808      16.594      -9999.25    -9999.25    -9999.25    -9999.25    -9999.25    -9999.25    -9999.25    
138.69      22.908      147.496     2.281       8.31        -9999.25    -9999.25    -9999.25    -9999.25    -9999.25    -9999.25    17.603      1.025       1.454       1.53        76.861      16.159      36.719      
138.7       -9999.25    -9999.25    -9999.25    -9999.25    18.108      16.234      14.715      14.658      12.79       16.755      -9999.25    -9999.25    -9999.25    -9999.25    -9999.25    -9999.25    -9999.25    
138.79      23.129      147.331     2.282       8.758       -9999.25    -9999.25    -9999.25    -9999.25    -9999.25    -9999.25    17.596      1.03        1.452       1.512       76.793      16.054      33.931      
138.8       -9999.25    -9999.25    -9999.25    -9999.25    18.1        16.131      14.764      14.649      12.791      16.759      -9999.25    -9999.25    -9999.25    -9999.25    -9999.25    -9999.25    -9999.25    
138.89      23.55       147.209     2.28        9.175       -9999.25    -9999.25    -9999.25    -9999.25    -9999.25    -9999.25    17.588      1.054       1.449       1.522       76.577      15.932      31.294      
138.9       -9999.25    -9999.25    -9999.25    -9999.25    18.122      16.08       14.831      14.629      12.844      16.759      -9999.25    -9999.25    -9999.25    -9999.25    -9999.25    -9999.25    -9999.25    
138.99      23.331      147.092     2.272       9.021       -9999.25    -9999.25    -9999.25    -9999.25    -9999.25    -9999.25    17.576      1.097       1.447       1.541       76.122      15.886      30.93       
139.0       -9999.25    -9999.25    -9999.25    -9999.25    18.171      16.063      14.907      14.607      12.885      16.586      -9999.25    -9999.25    -9999.25    -9999.25    -9999.25    -9999.25    -9999.25    
139.09      23.008      146.697     2.259       8.427       -9999.25    -9999.25    -9999.25    -9999.25    -9999.25    -9999.25    17.546      1.115       1.444       1.521       75.43       15.864      31.537      
139.1       -9999.25    -9999.25    -9999.25    -9999.25    18.137      16.007      14.983      14.593      12.842      16.144      -9999.25    -9999.25    -9999.25    -9999.25    -9999.25    -9999.25    -9999.25    
139.19      22.965      146.114     2.248       8.106       -9999.25    -9999.25    -9999.25    -9999.25    -9999.25    -9999.25    17.498      1.106       1.44        1.493       74.544      15.811      31.945      
139.2       -9999.25    -9999.25    -9999.25    -9999.25    18.007      15.955      15.06       14.56       12.791      15.572      -9999.25    -9999.25    -9999.25    -9999.25    -9999.25    -9999.25    -9999.25    
139.29      22.842      146.169     2.239       8.364       -9999.25    -9999.25    -9999.25    -9999.25    -9999.25    -9999.25    17.434      1.088       1.435       1.502       73.467      15.753      33.285      
139.3       -9999.25    -9999.25    -9999.25    -9999.25    17.882      15.947      15.1        14.473      12.738      14.945      -9999.25    -9999.25    -9999.25    -9999.25    -9999.25    -9999.25    -9999.25    
139.39      22.701      146.213     2.235       8.729       -9999.25    -9999.25    -9999.25    -9999.25    -9999.25    -9999.25    17.357      1.053       1.43        1.514       72.38       15.727      34.545      
139.4       -9999.25    -9999.25    -9999.25    -9999.25    17.777      15.881      15.1        14.309      12.635      14.621      -9999.25    -9999.25    -9999.25    -9999.25    -9999.25    -9999.25    -9999.25    
139.49      22.215      146.382     2.241       8.814       -9999.25    -9999.25    -9999.25    -9999.25    -9999.25    -9999.25    17.267      1.043       1.424       1.502       71.43       15.728      34.305      
139.5       -9999.25    -9999.25    -9999.25    -9999.25    17.661      15.701      15.081      14.063      12.559      14.621      -9999.25    -9999.25    -9999.25    -9999.25    -9999.25    -9999.25    -9999.25    
139.59      22.082      146.293     2.254       8.686       -9999.25    -9999.25    -9999.25    -9999.25    -9999.25    -9999.25    17.172      1.074       1.42        1.491       70.711      15.709      33.428      
