~Version Information Section
VERS.                                         2.0:CWLS log ASCII Standart – VERSION 2.0
WRAP.                                          NO:One line per depth step
~Well Information Section
STRT.M                                        0.1:Начальная глубина
STOP.M                                      206.3:Конечная глубина
STEP.M                                          0:Шаг квантования по глубине
NULL.                                    -9999.25:Признак "Нет данных"
WELL.                                        141К:Скважина
~Parameter Information Section
~Curve Information Section
DEPTH.M                                          :Глубина
N0.5M2.0A.Омм                                    :GZR   ГЗK(N0.5M2.0A)
ИК.мСм/м                                         :IK
НГК.усл.ед                                       :NGK     (НГК)
ННКМ.усл.ед                                      :NNKm  (ННКм)
ПС.mv                                            :PS       (ПС)
N11.0M0.5A.Омм                                   :PZ    (КС)
R.Омм                                            :RS (Резистивиметр)
КП.%                                             :W
БК.Омм                                           :BK     (БК)
DСР.мм                                           :DS  (ДС)
ПЛОТНОСТЬ.г/см^3                                 :GGKp
ГК.гамма                                         :GK          (ГК)
А0.4М0.1N.Омм                                    :GZ1   ГЗ1(A0.4M0.1N)
А1.0М0.1N.Омм                                    :GZ2   ГЗ2(A1.0M0.1N)
А2.0М0.5N.Омм                                    :GZ3   ГЗ3(A2.0M0.5N)
А4.0М0.5N.Oмм                                    :GZ4   ГЗ4(A4.0M0.5N)
А8.0М1.0N.Омм                                    :GZ5   ГЗ5(A8.0M0.5N)
~ASCII LOG DATA
# ...
122.2       84.622      56.044      2.01        2.749       63.422      163.006     2.467       21.613      277.472     209.886     2.385       4.619       140.608     234.993     75.062      86.885      38.682      
122.3       85.234      55.157      2.011       2.698       64.377      152.804     2.421       21.609      233.565     210.414     2.384       4.815       140.795     236.776     82.986      99.334      41.386      
122.4       87.694      53.955      2.045       2.687       64.859      137.543     2.372       21.646      155.086     210.44      2.392       4.973       140.775     236.875     93.518      110.015     43.256      
122.5       91.955      52.596      2.129       2.725       64.823      119.137     2.316       21.643      86.796      211.398     2.412       4.83        140.416     236.875     106.357     115.553     43.732      
122.6       96.31       51.332      2.236       2.794       64.246      102.639     2.251       21.627      128.221     217.835     2.443       4.414       139.492     234.772     118.942     116.686     43.732      
122.7       98.792      50.229      2.307       2.856       63.134      88.523      2.177       21.79       261.586     217.608     2.475       3.983       137.124     227.732     127.835     116.686     43.732      
122.8       99.335      49.259      2.318       2.86        61.527      76.789      2.094       22.249      356.209     214.477     2.497       3.82        132.116     214.265     130.977     113.935     42.489      
122.9       99.335      48.375      2.248       2.811       59.498      70.747      2.012       23.091      298.606     213.435     2.5         3.793       124.073     194.744     130.977     105.13      39.567      
123.0       97.82       47.384      2.118       2.718       57.136      69.259      1.939       24.284      180.001     210.076     2.483       4.23        113.277     171.045     130.481     90.791      35.213      
123.1       92.994      46.077      1.963       2.589       54.471      67.397      1.88        25.545      116.957     210.538     2.452       4.818       100.564     146.456     125.656     74.126      30.175      
123.2       85.293      44.456      1.821       2.458       51.53       64.971      1.833       26.851      56.029      211.355     2.42        5.226       87.769      124.777     114.284     58.685      25.078      
123.3       76.618      42.827      1.684       2.371       48.416      62.607      1.802       28.213      43.825      214.027     2.396       5.484       76.801      107.796     99.69       46.366      20.435      
123.4       68.911      41.465      1.6         2.313       45.248      60.75       1.778       29.508      44.932      214.148     2.383       5.65        68.077      95.534      85.343      37.331      16.505      
123.5       63.32       40.433      1.572       2.282       42.128      59.728      1.761       30.619      51.859      218.852     2.378       5.653       61.566      86.945      73.143      30.901      13.428      
123.6       59.922      39.779      1.55        2.27        39.139      59.487      1.748       31.475      64.421      215.213     2.379       5.609       56.761      80.188      63.653      26.393      11.267      
123.7       58.208      39.476      1.532       2.259       36.348      59.487      1.74        32.024      72.508      212.834     2.379       5.716       52.642      73.484      56.447      23.17       9.835       
123.8       57.722      39.324      1.547       2.233       33.808      59.487      1.737       32.477      71.401      211.971     2.372       5.928       48.71       66.906      50.901      20.765      8.93        
123.9       57.722      39.087      1.565       2.193       31.557      60.055      1.737       32.928      48.25       212.112     2.359       6.11        45.312      61.591      46.729      19.016      8.398       
124.0       57.722      38.941      1.561       2.139       29.623      61.692      1.737       33.303      31.068      213.46      2.339       6.269       43.282      58.311      44.19       17.979      8.099       
124.1       57.897      39.049      1.563       2.085       28.004      63.831      1.737       33.571      30.448      218.868     2.31        6.232       42.728      57.216      43.399      17.654      7.927       
124.2       58.9        39.168      1.606       2.052       26.689      65.939      1.745       33.73       39.058      210.845     2.281       5.881       42.728      57.204      43.399      17.654      7.897       
124.3       61.187      39.404      1.661       2.049       25.656      67.941      1.76        33.754      44.991      209.591     2.258       5.556       42.728      57.204      43.399      17.654      7.897       
124.4       64.634      39.95       1.7         2.072       24.898      69.732      1.782       33.714      51.529      209.748     2.244       5.314       43.169      57.204      43.638      17.74       7.897       
124.5       68.795      40.835      1.733       2.127       24.407      71.161      1.807       33.559      70.843      209.454     2.242       5.073       44.897      58.027      44.861      18.255      7.897       
124.6       72.945      42.16       1.769       2.201       24.172      72.231      1.832       33.223      109.801     209.182     2.251       4.89        48.016      60.057      47.217      19.356      8.029       
124.7       76.314      43.556      1.776       2.241       24.181      72.991      1.852       32.817      130.394     209.675     2.268       4.932       51.824      62.526      50.207      20.894      8.392       
124.8       78.392      44.573      1.761       2.245       24.42       73.525      1.865       32.436      122.214     210.485     2.286       4.876       55.326      64.757      53.423      22.723      8.965       
124.9       79.227      45.284      1.753       2.229       24.876      73.943      1.87        32.094      102.86      209.44      2.301       4.85        57.821      66.408      56.366      24.593      9.716       
125.0       79.376      45.731      1.752       2.195       25.536      74.307      1.871       31.795      92.222      210.263     2.311       4.89        59.221      67.518      58.857      26.307      10.464      
125.1       79.376      45.884      1.735       2.161       26.381      74.657      1.872       31.495      71.921      210.786     2.318       4.83        59.706      68.287      61.047      27.831      11.08       
125.2       79.201      45.92       1.708       2.136       27.411      75.01       1.873       31.216      67.144      210.54      2.32        4.804       59.811      69.073      63.036      29.2        11.495      
125.3       78.756      45.969      1.69        2.121       28.622      75.38       1.874       31.056      64.29       210.413     2.318       4.92        59.993      70.154      64.835      30.457      11.724      
125.4       78.351      46.049      1.673       2.113       30.008      75.732      1.876       30.968      65.706      210.364     2.313       4.916       60.142      71.623      66.377      31.672      11.774      
125.5       78.183      46.164      1.649       2.112       31.54       75.983      1.879       30.85       68.952      211.009     2.307       4.699       60.163      73.51       67.577      32.919      11.785      
125.6       78.126      46.294      1.634       2.116       33.183      76.129      1.884       30.704      69.646      211.709     2.299       4.644       60.217      75.662      68.401      34.226      11.798      
125.7       78.072      46.464      1.649       2.118       34.896      76.24       1.889       30.548      69.515      211.873     2.29        4.744       60.507      77.795      68.866      35.584      11.803      
125.8       77.967      46.729      1.676       2.117       36.638      76.322      1.891       30.404      71.835      211.905     2.283       4.738       61.136      79.662      69.092      36.969      11.822      
