~Version Information Section
VERS.                                         2.0:CWLS log ASCII Standart – VERSION 2.0
WRAP.                                          NO:One line per depth step
~Well Information Section
STRT.M                                      -0.81:Начальная глубина
STOP.M                                     196.49:Конечная глубина
STEP.M                                          0:Шаг квантования по глубине
NULL.                                    -9999.25:Признак "Нет данных"
WELL.                                        145К:Скважина
~Parameter Information Section
~Curve Information Section
DEPTH.M                                          :Глубина
BK.Ohm*M                                         :BK     (БК)
DS.mm                                            :DS  (ДС)
GGK.g/cm3                                        :GGKp
ГК.mcr/h                                         :GK          (ГК)
GZ1.Ohm*M                                        :GZ1   ГЗ1(A0.4M0.1N)
GZ2.Ohm*M                                        :GZ2   ГЗ2(A1.0M0.1N)
GZ3.Ohm*M                                        :GZ3   ГЗ3(A2.0M0.5N)
GZ4.Ohm*M                                        :GZ4   ГЗ4(A4.0M0.5N)
GZ5.Ohm*M                                        :GZ5   ГЗ5(A8.0M0.5N)
GZR.                                             :GZR   ГЗK(N0.5M2.0A)
ИК.Ohm*M                                         :IK
НГК.ue                                           :NGK     (НГК)
RS.Ohm*M                                         :RS (Резистивиметр)
NNKM.                                            :NNKm  (ННКм)
PS.mv                                            :PS       (ПС)
PZ.Ohm*M                                         :PZ    (КС)
W.%                                              :W
~ASCII LOG DATA
# ...
85.99       412.655     225.934     2.144       5.424       -9999.25    -9999.25    -9999.25    -9999.25    -9999.25    -9999.25    22.026      1.141       1.646       1.583       103.989     19.835      33.452      
86.0        -9999.25    -9999.25    -9999.25    -9999.25    30.276      31.709      30.236      32.252      0.686       33.125      -9999.25    -9999.25    -9999.25    -9999.25    -9999.25    -9999.25    -9999.25    
86.09       1991.688    226.921     2.165       5.33        -9999.25    -9999.25    -9999.25    -9999.25    -9999.25    -9999.25    21.985      1.297       1.652       1.599       103.61      19.817      32.746      
86.1        -9999.25    -9999.25    -9999.25    -9999.25    30.874      32.175      33.007      34.998      0.734       38.001      -9999.25    -9999.25    -9999.25    -9999.25    -9999.25    -9999.25    -9999.25    
86.19       1911.766    225.986     2.181       5.275       -9999.25    -9999.25    -9999.25    -9999.25    -9999.25    -9999.25    21.984      1.362       1.658       1.593       103.313     19.559      31.721      
86.2        -9999.25    -9999.25    -9999.25    -9999.25    30.874      32.175      33.82       35.842      0.82        41.56       -9999.25    -9999.25    -9999.25    -9999.25    -9999.25    -9999.25    -9999.25    
86.29       224.495     227.159     2.188       5.094       -9999.25    -9999.25    -9999.25    -9999.25    -9999.25    -9999.25    22.024      1.309       1.654       1.606       103.127     19.292      30.221      
86.3        -9999.25    -9999.25    -9999.25    -9999.25    30.414      30.978      33.82       35.842      0.961       43.531      -9999.25    -9999.25    -9999.25    -9999.25    -9999.25    -9999.25    -9999.25    
86.39       31.126      230.693     2.186       4.892       -9999.25    -9999.25    -9999.25    -9999.25    -9999.25    -9999.25    22.08       1.267       1.654       1.719       103.039     19.265      29.13       
86.4        -9999.25    -9999.25    -9999.25    -9999.25    29.445      28.195      33.539      35.456      1.15        44.1        -9999.25    -9999.25    -9999.25    -9999.25    -9999.25    -9999.25    -9999.25    
86.49       384.51      236.163     2.177       6.348       -9999.25    -9999.25    -9999.25    -9999.25    -9999.25    -9999.25    22.116      1.237       1.654       1.691       103.02      19.158      28.329      
86.5        -9999.25    -9999.25    -9999.25    -9999.25    27.91       25.456      32.415      33.916      6.315       44.1        -9999.25    -9999.25    -9999.25    -9999.25    -9999.25    -9999.25    -9999.25    
86.59       1900.049    227.607     2.169       8.714       -9999.25    -9999.25    -9999.25    -9999.25    -9999.25    -9999.25    22.111      1.217       1.654       1.557       103.019     18.541      28.786      
86.6        -9999.25    -9999.25    -9999.25    -9999.25    25.941      22.566      29.84       30.846      10.965      43.718      -9999.25    -9999.25    -9999.25    -9999.25    -9999.25    -9999.25    -9999.25    
86.69       1906.081    226.035     2.172       10.677      -9999.25    -9999.25    -9999.25    -9999.25    -9999.25    -9999.25    22.074      1.199       1.658       1.486       103.019     17.425      31.651      
86.7        -9999.25    -9999.25    -9999.25    -9999.25    24.764      19.127      25.903      27.143      15.102      42.232      -9999.25    -9999.25    -9999.25    -9999.25    -9999.25    -9999.25    -9999.25    
86.79       221.6       226.576     2.186       10.631      -9999.25    -9999.25    -9999.25    -9999.25    -9999.25    -9999.25    22.028      1.188       1.658       1.298       103.078     16.4        34.138      
86.8        -9999.25    -9999.25    -9999.25    -9999.25    24.532      16.959      22.039      23.869      18.651      39.69       -9999.25    -9999.25    -9999.25    -9999.25    -9999.25    -9999.25    -9999.25    
86.89       24.716      226.207     2.202       9.229       -9999.25    -9999.25    -9999.25    -9999.25    -9999.25    -9999.25    22.02       1.192       1.658       1.361       103.324     15.826      35.159      
86.9        -9999.25    -9999.25    -9999.25    -9999.25    24.532      16.284      19.184      21.259      21.74       36.569      -9999.25    -9999.25    -9999.25    -9999.25    -9999.25    -9999.25    -9999.25    
86.99       22.11       225.656     2.212       7.921       -9999.25    -9999.25    -9999.25    -9999.25    -9999.25    -9999.25    22.048      1.197       1.657       1.579       103.647     15.658      36.205      
87.0        -9999.25    -9999.25    -9999.25    -9999.25    24.532      15.927      16.924      19.089      21.74       32.954      -9999.25    -9999.25    -9999.25    -9999.25    -9999.25    -9999.25    -9999.25    
87.09       28.5        224.428     2.212       6.952       -9999.25    -9999.25    -9999.25    -9999.25    -9999.25    -9999.25    22.128      1.218       1.651       1.579       103.9       15.645      36.605      
87.1        -9999.25    -9999.25    -9999.25    -9999.25    24.798      15.553      14.935      17.043      21.74       29.592      -9999.25    -9999.25    -9999.25    -9999.25    -9999.25    -9999.25    -9999.25    
87.19       41.265      224.521     2.201       6.574       -9999.25    -9999.25    -9999.25    -9999.25    -9999.25    -9999.25    22.313      1.234       1.642       1.526       104.028     15.645      34.738      
87.2        -9999.25    -9999.25    -9999.25    -9999.25    25.387      15.326      13.228      15.397      19.57       27.454      -9999.25    -9999.25    -9999.25    -9999.25    -9999.25    -9999.25    -9999.25    
87.29       40.015      225.116     2.185       6.411       -9999.25    -9999.25    -9999.25    -9999.25    -9999.25    -9999.25    22.603      1.17        1.628       1.518       104.056     15.823      33.725      
87.3        -9999.25    -9999.25    -9999.25    -9999.25    26.188      15.326      11.854      14.41       17.701      26.541      -9999.25    -9999.25    -9999.25    -9999.25    -9999.25    -9999.25    -9999.25    
87.39       35.353      226.724     2.167       6.11        -9999.25    -9999.25    -9999.25    -9999.25    -9999.25    -9999.25    22.967      1.12        1.607       1.512       104.058     16.307      34.051      
87.4        -9999.25    -9999.25    -9999.25    -9999.25    26.939      15.326      10.893      13.944      16.209      26.275      -9999.25    -9999.25    -9999.25    -9999.25    -9999.25    -9999.25    -9999.25    
87.49       354.907     230.106     2.155       5.971       -9999.25    -9999.25    -9999.25    -9999.25    -9999.25    -9999.25    23.429      1.115       1.587       1.521       103.87      16.873      34.039      
87.5        -9999.25    -9999.25    -9999.25    -9999.25    27.729      15.73       10.365      13.761      15.129      26.03       -9999.25    -9999.25    -9999.25    -9999.25    -9999.25    -9999.25    -9999.25    
87.59       1664.314    232.292     2.15        6.305       -9999.25    -9999.25    -9999.25    -9999.25    -9999.25    -9999.25    23.936      1.115       1.572       1.533       103.309     17.595      33.446      
87.6        -9999.25    -9999.25    -9999.25    -9999.25    28.246      17.125      10.153      13.632      14.343      25.589      -9999.25    -9999.25    -9999.25    -9999.25    -9999.25    -9999.25    -9999.25    
87.69       1525.936    233.25      2.15        6.791       -9999.25    -9999.25    -9999.25    -9999.25    -9999.25    -9999.25    24.32       1.104       1.564       1.469       102.271     18.761      32.889      
87.7        -9999.25    -9999.25    -9999.25    -9999.25    28.246      18.571      10.078      13.482      13.968      25.153      -9999.25    -9999.25    -9999.25    -9999.25    -9999.25    -9999.25    -9999.25    
87.79       189.687     231.045     2.156       7.003       -9999.25    -9999.25    -9999.25    -9999.25    -9999.25    -9999.25    24.567      1.093       1.559       1.407       100.96      20.23       33.174      
