~Version Information Section
VERS.                                         2.0:CWLS log ASCII Standart – VERSION 2.0
WRAP.                                          NO:One line per depth step
~Well Information Section
STRT.M                                        0.1:Начальная глубина
STOP.M                                      206.3:Конечная глубина
STEP.M                                          0:Шаг квантования по глубине
NULL.                                    -9999.25:Признак "Нет данных"
WELL.                                        141К:Скважина
~Parameter Information Section
~Curve Information Section
DEPTH.M                                          :Глубина
N0.5M2.0A.Омм                                    :GZR   ГЗK(N0.5M2.0A)
ИК.мСм/м                                         :IK
НГК.усл.ед                                       :NGK     (НГК)
ННКМ.усл.ед                                      :NNKm  (ННКм)
ПС.mv                                            :PS       (ПС)
N11.0M0.5A.Омм                                   :PZ    (КС)
R.Омм                                            :RS (Резистивиметр)
КП.%                                             :W
БК.Омм                                           :BK     (БК)
DСР.мм                                           :DS  (ДС)
ПЛОТНОСТЬ.г/см^3                                 :GGKp
ГК.гамма                                         :GK          (ГК)
А0.4М0.1N.Омм                                    :GZ1   ГЗ1(A0.4M0.1N)
А1.0М0.1N.Омм                                    :GZ2   ГЗ2(A1.0M0.1N)
А2.0М0.5N.Омм                                    :GZ3   ГЗ3(A2.0M0.5N)
А4.0М0.5N.Oмм                                    :GZ4   ГЗ4(A4.0M0.5N)
А8.0М1.0N.Омм                                    :GZ5   ГЗ5(A8.0M0.5N)
~ASCII LOG DATA
# ...
133.3       29.406      25.015      1.602       2.004       53.92       30.403      1.413       32.159      26.444      223.809     2.306       8.559       25.628      26.855      28.593      34.579      41.602      
133.4       29.498      25.222      1.583       1.985       54.122      31.024      1.414       32.787      25.212      224.069     2.305       8.488       25.185      26.273      28.403      34.579      41.602      
133.5       29.97       25.638      1.576       1.978       54.267      32.238      1.418       33.147      24.638      224.527     2.306       8.577       24.934      26.087      28.403      34.579      42.096      
133.6       31.034      26.223      1.586       1.983       54.35       34.182      1.425       33.248      26.411      224.895     2.31        8.571       24.88       26.087      28.403      34.689      43.62       
133.7       32.695      26.948      1.611       2.002       54.372      36.772      1.433       32.989      31.489      225.376     2.311       8.4         24.88       26.087      28.496      35.253      46.377      
133.8       34.917      27.779      1.626       2.024       54.337      39.752      1.443       32.433      33.466      224.878     2.309       8.372       24.88       26.15       28.984      36.673      50.537      
133.9       37.702      28.649      1.63        2.017       54.256      42.894      1.458       31.603      30.325      225.077     2.305       8.285       25.021      26.629      30.213      39.415      55.864      
134.0       41.263      29.531      1.631       2.016       54.142      46.236      1.482       30.626      28.32       225.108     2.301       8.18        25.568      27.874      32.496      43.941      62.024      
134.1       46.021      30.484      1.632       2.037       54.01       49.602      1.52        29.596      29.385      225.077     2.297       7.878       26.832      30.071      35.936      50.136      68.594      
134.2       52.143      31.517      1.649       2.081       53.875      52.358      1.569       28.589      34.957      225.201     2.301       7.465       29.232      33.405      40.128      57.202      74.624      
134.3       59.15       32.682      1.692       2.154       53.744      54.224      1.624       27.546      54.217      222.348     2.313       6.983       33.294      37.727      44.203      63.395      78.682      
134.4       65.868      34.014      1.743       2.246       53.631      55.325      1.67        26.463      106.192     219.384     2.333       6.693       38.947      42.537      47.021      66.763      80.285      
134.5       70.652      35.41       1.801       2.327       53.567      55.713      1.695       25.412      156.768     216.409     2.358       6.423       45.406      47.294      47.965      67.558      80.285      
134.6       72.343      36.61       1.853       2.384       53.591      55.727      1.699       24.493      192.628     211.665     2.383       6.449       51.558      51.424      47.965      67.558      80.285      
134.7       72.343      37.376      1.879       2.41        53.735      55.582      1.699       23.657      184.915     212.387     2.403       6.582       55.778      54.316      47.734      66.413      79.044      
134.8       72.172      37.665      1.886       2.391       54.026      54.983      1.699       22.918      154.494     213.85      2.41        6.816       57.176      55.879      46.24       62.549      75.037      
134.9       70.133      37.665      1.869       2.344       54.484      54.296      1.685       22.421      115.546     212.132     2.403       7.135       57.176      56.561      43.02       56.096      69.006      
135.0       65.242      37.665      1.821       2.29        55.116      54.052      1.662       22.333      83.757      212.106     2.385       7.361       57.033      56.774      38.95       48.817      62.449      
135.1       58.853      37.642      1.751       2.235       55.919      54.04       1.641       22.768      50.823      210.404     2.358       7.468       55.774      56.854      35.157      42.525      56.119      
135.2       52.555      37.459      1.688       2.186       56.878      54.04       1.631       23.604      41.864      210.41      2.326       7.414       53.107      56.985      32.359      37.915      50.795      
135.3       47.481      36.971      1.642       2.162       57.957      54.04       1.631       24.685      41.915      211.035     2.295       7.253       50.129      57.141      30.663      34.949      46.786      
135.4       43.952      36.407      1.61        2.152       59.091      54.163      1.631       26.081      40.39       210.893     2.27        7.153       48.086      57.299      30.037      33.398      44.093      
135.5       41.772      35.954      1.585       2.134       60.218      54.41       1.631       27.746      41.523      211.464     2.249       7.167       47.47       57.496      29.987      32.933      42.489      
135.6       40.616      35.632      1.592       2.106       61.31       54.467      1.633       29.487      45.906      211.007     2.236       7.193       47.47       57.954      29.987      32.919      41.669      
135.7       40.167      35.422      1.623       2.074       62.325      54.4        1.643       31.101      45.234      210.686     2.232       7.244       47.47       58.883      29.987      32.919      41.289      
135.8       40.07       35.323      1.648       2.041       63.178      54.336      1.657       32.329      43.075      210.389     2.235       7.196       47.551      60.27       30.396      32.919      41.123      
135.9       40.046      35.283      1.676       2.014       63.781      53.775      1.671       33.198      49.769      210.681     2.241       7.051       48.308      62.0        31.51       33.059      41.001      
136.0       40.025      35.236      1.712       2.005       64.067      52.457      1.676       33.9        67.557      210.364     2.248       6.97        50.012      63.503      33.165      33.252      40.843      
136.1       39.958      35.189      1.731       2.022       63.996      50.6        1.676       34.283      92.248      210.083     2.251       6.852       52.006      64.258      35.227      33.306      40.59       
136.2       39.768      35.142      1.743       2.064       63.559      48.385      1.676       34.296      95.429      209.56      2.249       6.67        53.528      64.442      37.432      33.306      40.167      
136.3       39.293      35.093      1.754       2.104       62.771      46.209      1.67        33.936      101.901     209.635     2.251       6.697       54.081      64.442      39.508      33.187      39.538      
136.4       38.356      35.02       1.752       2.135       61.689      44.58       1.652       33.292      104.781     209.948     2.257       6.758       54.081      64.097      41.323      32.725      38.73       
136.5       36.916      34.894      1.739       2.159       60.397      43.64       1.626       32.593      90.288      209.805     2.267       6.913       53.878      62.72       42.795      31.904      37.9        
136.6       35.119      34.632      1.714       2.179       58.976      43.215      1.597       31.825      53.43       209.383     2.283       7.191       52.572      60.107      43.865      30.95       37.197      
136.7       33.252      34.183      1.665       2.183       57.471      43.096      1.575       30.931      47.16       209.032     2.299       7.476       49.829      57.096      44.634      30.165      36.766      
136.8       31.631      33.592      1.609       2.182       55.926      43.096      1.561       30.089      40.078      209.664     2.309       7.664       46.517      54.438      45.227      29.854      36.747      
136.9       30.569      32.933      1.564       2.179       54.425      43.071      1.557       29.457      35.825      210.552     2.311       7.875       43.473      52.387      45.675      29.854      36.747      
