~Version Information Section
VERS.                                         2.0:CWLS log ASCII Standart – VERSION 2.0
WRAP.                                          NO:One line per depth step
~Well Information Section
STRT.M                                      -0.81:Начальная глубина
STOP.M                                     196.49:Конечная глубина
STEP.M                                          0:Шаг квантования по глубине
NULL.                                    -9999.25:Признак "Нет данных"
WELL.                                        145К:Скважина
~Parameter Information Section
~Curve Information Section
DEPTH.M                                          :Глубина
BK.Ohm*M                                         :BK     (БК)
DS.mm                                            :DS  (ДС)
GGK.g/cm3                                        :GGKp
ГК.mcr/h                                         :GK          (ГК)
GZ1.Ohm*M                                        :GZ1   ГЗ1(A0.4M0.1N)
GZ2.Ohm*M                                        :GZ2   ГЗ2(A1.0M0.1N)
GZ3.Ohm*M                                        :GZ3   ГЗ3(A2.0M0.5N)
GZ4.Ohm*M                                        :GZ4   ГЗ4(A4.0M0.5N)
GZ5.Ohm*M                                        :GZ5   ГЗ5(A8.0M0.5N)
GZR.                                             :GZR   ГЗK(N0.5M2.0A)
ИК.Ohm*M                                         :IK
НГК.ue                                           :NGK     (НГК)
RS.Ohm*M                                         :RS (Резистивиметр)
NNKM.                                            :NNKm  (ННКм)
PS.mv                                            :PS       (ПС)
PZ.Ohm*M                                         :PZ    (КС)
W.%                                              :W
~ASCII LOG DATA
# ...
126.69      41.679      210.706     2.243       6.1         -9999.25    -9999.25    -9999.25    -9999.25    -9999.25    -9999.25    31.735      1.205       1.742       1.587       77.493      31.548      32.334      
126.7       -9999.25    -9999.25    -9999.25    -9999.25    36.069      34.764      33.102      40.15       32.167      24.101      -9999.25    -9999.25    -9999.25    -9999.25    -9999.25    -9999.25    -9999.25    
126.79      41.526      210.555     2.236       6.144       -9999.25    -9999.25    -9999.25    -9999.25    -9999.25    -9999.25    31.67       1.201       1.741       1.584       77.711      31.647      33.279      
126.8       -9999.25    -9999.25    -9999.25    -9999.25    35.883      35.043      33.063      39.806      32.478      24.068      -9999.25    -9999.25    -9999.25    -9999.25    -9999.25    -9999.25    -9999.25    
126.89      41.448      210.754     2.227       6.174       -9999.25    -9999.25    -9999.25    -9999.25    -9999.25    -9999.25    31.549      1.225       1.739       1.59        77.827      31.707      34.046      
126.9       -9999.25    -9999.25    -9999.25    -9999.25    35.889      35.381      33.063      39.704      32.921      24.068      -9999.25    -9999.25    -9999.25    -9999.25    -9999.25    -9999.25    -9999.25    
126.99      40.471      210.881     2.217       6.197       -9999.25    -9999.25    -9999.25    -9999.25    -9999.25    -9999.25    31.376      1.247       1.737       1.584       77.924      31.713      34.603      
127.0       -9999.25    -9999.25    -9999.25    -9999.25    35.89       35.501      33.063      39.704      33.4        24.045      -9999.25    -9999.25    -9999.25    -9999.25    -9999.25    -9999.25    -9999.25    
127.09      40.035      211.094     2.208       6.336       -9999.25    -9999.25    -9999.25    -9999.25    -9999.25    -9999.25    31.124      1.295       1.735       1.543       78.028      31.712      34.769      
127.1       -9999.25    -9999.25    -9999.25    -9999.25    35.826      35.473      33.095      39.704      33.689      24.01       -9999.25    -9999.25    -9999.25    -9999.25    -9999.25    -9999.25    -9999.25    
127.19      38.938      210.489     2.204       6.557       -9999.25    -9999.25    -9999.25    -9999.25    -9999.25    -9999.25    30.809      1.325       1.733       1.544       78.131      31.652      34.767      
127.2       -9999.25    -9999.25    -9999.25    -9999.25    35.845      35.686      33.181      39.667      33.689      24.059      -9999.25    -9999.25    -9999.25    -9999.25    -9999.25    -9999.25    -9999.25    
127.29      37.002      210.537     2.208       6.736       -9999.25    -9999.25    -9999.25    -9999.25    -9999.25    -9999.25    30.465      1.298       1.729       1.568       78.213      31.542      34.126      
127.3       -9999.25    -9999.25    -9999.25    -9999.25    36.013      36.138      33.414      39.617      33.689      24.178      -9999.25    -9999.25    -9999.25    -9999.25    -9999.25    -9999.25    -9999.25    
127.39      38.798      210.594     2.215       6.752       -9999.25    -9999.25    -9999.25    -9999.25    -9999.25    -9999.25    30.132      1.275       1.721       1.569       78.278      31.466      32.984      
127.4       -9999.25    -9999.25    -9999.25    -9999.25    36.453      36.736      33.693      39.603      33.666      24.301      -9999.25    -9999.25    -9999.25    -9999.25    -9999.25    -9999.25    -9999.25    
127.49      42.951      210.403     2.225       6.538       -9999.25    -9999.25    -9999.25    -9999.25    -9999.25    -9999.25    29.815      1.246       1.716       1.565       78.309      31.395      32.537      
127.5       -9999.25    -9999.25    -9999.25    -9999.25    36.803      37.096      33.793      39.501      33.551      24.414      -9999.25    -9999.25    -9999.25    -9999.25    -9999.25    -9999.25    -9999.25    
127.59      45.042      210.609     2.236       6.159       -9999.25    -9999.25    -9999.25    -9999.25    -9999.25    -9999.25    29.54       1.225       1.711       1.568       78.332      31.299      32.902      
127.6       -9999.25    -9999.25    -9999.25    -9999.25    36.803      37.096      33.793      39.079      33.384      24.489      -9999.25    -9999.25    -9999.25    -9999.25    -9999.25    -9999.25    -9999.25    
127.69      43.92       210.772     2.244       5.901       -9999.25    -9999.25    -9999.25    -9999.25    -9999.25    -9999.25    29.322      1.239       1.707       1.575       78.355      31.185      33.109      
127.7       -9999.25    -9999.25    -9999.25    -9999.25    36.163      36.383      33.581      38.156      33.004      24.574      -9999.25    -9999.25    -9999.25    -9999.25    -9999.25    -9999.25    -9999.25    
127.79      40.133      210.701     2.249       5.955       -9999.25    -9999.25    -9999.25    -9999.25    -9999.25    -9999.25    29.157      1.253       1.707       1.582       78.363      31.047      33.36       
127.8       -9999.25    -9999.25    -9999.25    -9999.25    34.132      34.404      32.861      36.839      32.714      24.765      -9999.25    -9999.25    -9999.25    -9999.25    -9999.25    -9999.25    -9999.25    
127.89      38.731      210.658     2.251       6.212       -9999.25    -9999.25    -9999.25    -9999.25    -9999.25    -9999.25    29.008      1.202       1.707       1.594       78.374      30.869      33.88       
127.9       -9999.25    -9999.25    -9999.25    -9999.25    31.507      32.06       31.809      35.68       32.512      25.082      -9999.25    -9999.25    -9999.25    -9999.25    -9999.25    -9999.25    -9999.25    
127.99      41.964      210.829     2.249       6.355       -9999.25    -9999.25    -9999.25    -9999.25    -9999.25    -9999.25    28.831      1.151       1.707       1.589       78.377      30.659      33.37       
128.0       -9999.25    -9999.25    -9999.25    -9999.25    29.73       30.249      30.898      35.214      32.331      25.549      -9999.25    -9999.25    -9999.25    -9999.25    -9999.25    -9999.25    -9999.25    
128.09      41.709      210.567     2.245       6.332       -9999.25    -9999.25    -9999.25    -9999.25    -9999.25    -9999.25    28.585      1.132       1.712       1.578       78.377      30.351      32.535      
128.1       -9999.25    -9999.25    -9999.25    -9999.25    29.166      28.863      30.461      35.193      32.321      26.122      -9999.25    -9999.25    -9999.25    -9999.25    -9999.25    -9999.25    -9999.25    
128.19      35.122      210.54      2.237       6.373       -9999.25    -9999.25    -9999.25    -9999.25    -9999.25    -9999.25    28.238      1.122       1.719       1.557       78.398      29.718      32.825      
128.2       -9999.25    -9999.25    -9999.25    -9999.25    29.145      28.209      30.391      35.193      32.321      26.66       -9999.25    -9999.25    -9999.25    -9999.25    -9999.25    -9999.25    -9999.25    
128.29      24.104      210.621     2.227       6.457       -9999.25    -9999.25    -9999.25    -9999.25    -9999.25    -9999.25    27.875      1.124       1.72        1.507       78.536      28.671      32.814      
128.3       -9999.25    -9999.25    -9999.25    -9999.25    29.145      28.209      30.391      35.193      32.098      26.904      -9999.25    -9999.25    -9999.25    -9999.25    -9999.25    -9999.25    -9999.25    
128.39      24.296      210.797     2.219       6.524       -9999.25    -9999.25    -9999.25    -9999.25    -9999.25    -9999.25    27.656      1.128       1.72        1.508       78.783      27.481      32.35       
128.4       -9999.25    -9999.25    -9999.25    -9999.25    29.145      28.209      30.391      35.173      31.929      26.904      -9999.25    -9999.25    -9999.25    -9999.25    -9999.25    -9999.25    -9999.25    
128.49      31.074      210.818     2.214       6.523       -9999.25    -9999.25    -9999.25    -9999.25    -9999.25    -9999.25    27.567      1.17        1.719       1.527       79.21       26.493      33.311      
