~Version Information Section
VERS.                                         2.0:CWLS log ASCII Standart – VERSION 2.0
WRAP.                                          NO:One line per depth step
~Well Information Section
STRT.M                                        0.1:Начальная глубина
STOP.M                                      206.3:Конечная глубина
STEP.M                                          0:Шаг квантования по глубине
NULL.                                    -9999.25:Признак "Нет данных"
WELL.                                        141К:Скважина
~Parameter Information Section
~Curve Information Section
DEPTH.M                                          :Глубина
N0.5M2.0A.Омм                                    :GZR   ГЗK(N0.5M2.0A)
ИК.мСм/м                                         :IK
НГК.усл.ед                                       :NGK     (НГК)
ННКМ.усл.ед                                      :NNKm  (ННКм)
ПС.mv                                            :PS       (ПС)
N11.0M0.5A.Омм                                   :PZ    (КС)
R.Омм                                            :RS (Резистивиметр)
КП.%                                             :W
БК.Омм                                           :BK     (БК)
DСР.мм                                           :DS  (ДС)
ПЛОТНОСТЬ.г/см^3                                 :GGKp
ГК.гамма                                         :GK          (ГК)
А0.4М0.1N.Омм                                    :GZ1   ГЗ1(A0.4M0.1N)
А1.0М0.1N.Омм                                    :GZ2   ГЗ2(A1.0M0.1N)
А2.0М0.5N.Омм                                    :GZ3   ГЗ3(A2.0M0.5N)
А4.0М0.5N.Oмм                                    :GZ4   ГЗ4(A4.0M0.5N)
А8.0М1.0N.Омм                                    :GZ5   ГЗ5(A8.0M0.5N)
~ASCII LOG DATA
# ...
162.9       17.811      13.817      1.686       2.369       71.623      14.448      1.361       26.032      13.736      217.222     2.382       9.828       19.445      23.501      11.391      10.586      28.904      
163.0       13.382      13.036      1.587       2.219       71.478      13.998      1.357       27.543      13.542      217.142     2.369       9.681       15.899      19.554      8.264       6.442       18.317      
163.1       10.602      12.423      1.528       2.081       71.135      13.652      1.356       29.19       13.523      217.415     2.36        9.461       13.994      17.763      6.703       4.334       11.466      
163.2       9.149       11.964      1.492       1.998       70.575      13.392      1.355       30.842      13.456      217.191     2.358       9.414       12.903      16.852      6.023       3.32        7.447       
163.3       8.566       11.639      1.456       1.948       69.795      13.206      1.354       32.373      13.544      217.426     2.36        9.399       12.299      16.233      5.814       2.772       5.324       
163.4       8.446       11.419      1.449       1.933       68.813      13.082      1.354       33.531      13.972      217.123     2.36        9.35        11.976      15.685      5.793       2.427       4.259       
163.5       8.446       11.274      1.475       1.934       67.663      13.007      1.353       34.186      13.811      216.97      2.356       9.359       11.803      15.09       5.793       2.196       3.682       
163.6       8.446       11.183      1.492       1.935       66.364      12.963      1.352       34.314      11.505      216.438     2.351       9.603       11.712      14.44       5.793       2.034       3.331       
163.7       8.493       11.133      1.494       1.935       64.943      12.938      1.351       34.06       11.312      216.193     2.342       9.812       11.675      13.791      5.868       1.918       3.099       
163.8       8.634       11.115      1.497       1.936       63.463      12.922      1.35        33.624      11.179      216.254     2.332       9.944       11.669      13.198      6.091       1.834       2.929       
163.9       8.85        11.115      1.495       1.935       61.993      12.911      1.35        33.106      11.134      215.102     2.327       10.041      11.669      12.711      6.456       1.778       2.79        
164.0       9.094       11.115      1.478       1.93        60.599      12.909      1.349       32.544      11.369      215.783     2.325       9.946       11.669      12.348      6.97        1.745       2.675       
164.1       9.341       11.122      1.46        1.925       59.329      12.905      1.348       32.05       11.717      215.622     2.327       9.709       11.689      12.085      7.639       1.729       2.574       
164.2       9.586       11.149      1.459       1.922       58.205      12.897      1.348       31.73       11.964      204.658     2.335       9.473       11.758      11.893      8.461       1.726       2.485       
164.3       9.829       11.193      1.469       1.914       57.236      12.888      1.347       31.68       12.221      200.701     2.343       9.259       11.872      11.75       9.441       1.726       2.404       
164.4       10.062      11.242      1.482       1.901       56.436      12.883      1.347       31.861      12.476      199.11      2.349       9.063       12.016      11.63       10.53       1.726       2.334       
164.5       10.275      11.283      1.497       1.892       55.831      12.882      1.346       32.114      12.43       198.571     2.349       9.21        12.161      11.527      11.627      1.731       2.271       
164.6       10.458      11.312      1.52        1.89        55.451      12.88       1.346       32.339      11.926      197.106     2.342       9.43        12.28       11.452      12.601      1.75        2.215       
164.7       10.606      11.328      1.538       1.897       55.314      12.879      1.346       32.583      11.518      179.356     2.331       9.656       12.363      11.409      13.3        1.785       2.163       
164.8       10.726      11.333      1.547       1.915       55.427      12.876      1.346       32.835      11.786      171.228     2.32        9.901       12.412      11.393      13.648      1.835       2.112       
164.9       10.824      11.333      1.557       1.935       55.779      12.86       1.346       32.954      11.972      168.591     2.308       10.256      12.431      11.39       13.734      1.901       2.063       
165.0       10.909      11.333      1.565       1.949       56.338      12.828      1.346       32.87       11.919      166.586     2.3         10.464      12.436      11.39       13.734      1.983       2.016       
165.1       10.995      11.333      1.571       1.954       57.057      12.784      1.346       32.628      11.983      165.179     2.298       10.57       12.441      11.39       13.682      2.083       1.97        
165.2       11.091      11.33       1.581       1.96        57.878      12.725      1.346       32.337      12.041      163.858     2.297       10.624      12.443      11.4        13.48       2.206       1.926       
165.3       11.196      11.323      1.581       1.966       58.758      12.656      1.346       32.14       12.002      162.859     2.301       10.582      12.442      11.426      13.142      2.364       1.885       
165.4       11.309      11.316      1.571       1.971       59.669      12.585      1.346       32.011      12.107      162.578     2.31        10.384      12.439      11.453      12.789      2.567       1.846       
165.5       11.432      11.306      1.565       1.982       60.587      12.512      1.345       31.911      12.342      160.367     2.321       10.078      12.433      11.464      12.473      2.826       1.806       
165.6       11.566      11.293      1.554       1.991       61.477      12.442      1.344       31.898      12.437      159.581     2.333       9.804       12.414      11.464      12.185      3.146       1.766       
165.7       11.712      11.277      1.516       1.994       62.308      12.391      1.342       31.957      12.08       159.063     2.342       9.571       12.364      11.457      11.918      3.533       1.728       
165.8       11.875      11.254      1.477       2.002       63.046      12.353      1.341       32.029      11.741      158.945     2.348       9.421       12.273      11.429      11.671      3.991       1.69        
165.9       12.066      11.223      1.446       2.018       63.66       12.327      1.338       32.056      11.647      157.946     2.352       9.327       12.159      11.372      11.443      4.522       1.651       
166.0       12.296      11.19       1.416       2.036       64.132      12.316      1.337       31.944      11.47       156.732     2.352       9.617       12.038      11.288      11.236      5.13        1.616       
166.1       12.571      11.161      1.401       2.048       64.466      12.314      1.335       31.724      11.494      155.959     2.352       9.944       11.914      11.185      11.055      5.837       1.585       
166.2       12.897      11.144      1.408       2.051       64.697      12.314      1.334       31.502      11.407      155.182     2.354       9.973       11.807      11.083      10.903      6.679       1.553       
166.3       13.283      11.142      1.423       2.045       64.878      12.315      1.333       31.276      11.165      155.227     2.356       10.033      11.728      10.989      10.777      7.664       1.522       
166.4       13.737      11.142      1.442       2.031       65.07       12.318      1.333       31.031      11.298      154.982     2.357       10.272      11.666      10.894      10.664      8.736       1.493       
166.5       14.243      11.147      1.456       2.017       65.324      12.331      1.333       30.826      11.599      154.709     2.357       10.281      11.614      10.797      10.554      9.805       1.464       
