~Version Information Section
VERS.                                         2.0:CWLS log ASCII Standart – VERSION 2.0
WRAP.                                          NO:One line per depth step
~Well Information Section
STRT.M                                        0.1:Начальная глубина
STOP.M                                      206.3:Конечная глубина
STEP.M                                          0:Шаг квантования по глубине
NULL.                                    -9999.25:Признак "Нет данных"
WELL.                                        141К:Скважина
~Parameter Information Section
~Curve Information Section
DEPTH.M                                          :Глубина
N0.5M2.0A.Омм                                    :GZR   ГЗK(N0.5M2.0A)
ИК.мСм/м                                         :IK
НГК.усл.ед                                       :NGK     (НГК)
ННКМ.усл.ед                                      :NNKm  (ННКм)
ПС.mv                                            :PS       (ПС)
N11.0M0.5A.Омм                                   :PZ    (КС)
R.Омм                                            :RS (Резистивиметр)
КП.%                                             :W
БК.Омм                                           :BK     (БК)
DСР.мм                                           :DS  (ДС)
ПЛОТНОСТЬ.г/см^3                                 :GGKp
ГК.гамма                                         :GK          (ГК)
А0.4М0.1N.Омм                                    :GZ1   ГЗ1(A0.4M0.1N)
А1.0М0.1N.Омм                                    :GZ2   ГЗ2(A1.0M0.1N)
А2.0М0.5N.Омм                                    :GZ3   ГЗ3(A2.0M0.5N)
А4.0М0.5N.Oмм                                    :GZ4   ГЗ4(A4.0M0.5N)
А8.0М1.0N.Омм                                    :GZ5   ГЗ5(A8.0M0.5N)
~ASCII LOG DATA
# ...
37.1        0.239       -9999.25    1.331       1.459       -9999.25    -9999.25    1.052       37.765      -9999.25    227.777     2.143       3.129       -9999.25    -9999.25    -9999.25    -0.121      -9999.25    
37.2        0.241       -9999.25    1.344       1.453       -9999.25    0.068       1.05        37.493      -9999.25    227.703     2.131       3.015       -9999.25    -9999.25    -9999.25    -0.12       -9999.25    
37.3        0.242       -9999.25    1.36        1.458       -9999.25    0.065       1.049       37.157      -9999.25    227.693     2.117       2.986       -9999.25    -9999.25    -9999.25    -0.119      -9999.25    
37.4        0.243       -9999.25    1.361       1.481       -9999.25    0.067       1.047       36.803      -9999.25    227.693     2.103       2.953       -9999.25    -9999.25    -9999.25    -0.118      -9999.25    
37.5        0.245       -9999.25    1.364       1.501       -9999.25    0.066       1.046       36.489      -9999.25    227.719     2.088       2.942       0.318       -9999.25    -9999.25    -0.116      -9999.25    
37.6        0.246       -9999.25    1.384       1.52        -9999.25    0.065       1.045       36.119      -9999.25    227.774     2.074       2.974       0.311       -9999.25    -9999.25    -0.116      -9999.25    
37.7        0.247       -9999.25    1.399       1.536       -9999.25    0.065       1.043       35.637      -9999.25    227.697     2.057       3.003       0.305       -9999.25    -9999.25    -0.115      -9999.25    
37.8        0.247       -9999.25    1.398       1.544       -9999.25    0.065       1.042       35.187      -9999.25    227.635     2.038       3.001       0.3         -9999.25    -9999.25    -0.115      -9999.25    
37.9        0.247       -9999.25    1.394       1.544       -9999.25    0.065       1.041       34.923      -9999.25    227.827     2.023       3.016       0.294       -9999.25    -9999.25    -0.114      -9999.25    
38.0        0.246       -9999.25    1.389       1.539       -9999.25    0.065       1.041       35.007      -9999.25    227.782     2.013       3.042       0.289       -9999.25    -9999.25    -0.114      -9999.25    
38.1        0.246       -9999.25    1.376       1.53        -9999.25    0.065       1.04        35.48       -9999.25    227.801     2.011       3.053       0.284       0.097       -9999.25    -0.114      -9999.25    
38.2        0.244       -9999.25    1.365       1.518       -9999.25    0.065       1.039       36.217      -9999.25    227.783     2.015       3.145       0.28        0.08        -9999.25    -0.113      -9999.25    
38.3        0.243       -9999.25    1.375       1.509       -9999.25    0.065       1.038       37.196      -9999.25    227.677     2.026       3.281       0.277       0.072       -9999.25    -0.111      -9999.25    
38.4        0.243       -9999.25    1.384       1.502       -9999.25    0.065       1.038       38.375      -9999.25    227.655     2.042       3.431       0.275       0.063       -9999.25    -0.11       -9999.25    
38.5        0.243       -9999.25    1.375       1.495       -9999.25    0.065       1.036       39.556      -9999.25    227.603     2.056       3.533       0.272       0.063       -9999.25    -0.108      -9999.25    
38.6        0.243       -9999.25    1.368       1.49        -9999.25    0.065       1.034       40.496      -9999.25    227.74      2.065       3.549       0.27        0.072       -9999.25    -0.107      -9999.25    
38.7        0.243       -9999.25    1.36        1.487       -9999.25    0.067       1.031       40.959      -9999.25    227.773     2.069       3.468       0.268       0.072       -9999.25    -0.106      -9999.25    
38.8        0.243       -9999.25    1.33        1.485       -9999.25    0.067       1.028       40.875      -9999.25    227.743     2.069       3.295       0.265       0.073       -9999.25    -0.106      -9999.25    
38.9        0.243       -9999.25    1.288       1.484       -9999.25    0.067       1.024       40.491      -9999.25    227.756     2.067       3.097       0.262       0.074       -9999.25    -0.106      -9999.25    
39.0        0.244       -9999.25    1.267       1.486       -9999.25    0.068       1.02        39.966      -9999.25    227.886     2.069       2.91        0.259       0.075       -9999.25    -0.105      0.053       
39.1        0.244       -9999.25    1.271       1.489       -9999.25    0.067       1.016       39.446      -9999.25    227.964     2.079       2.792       0.255       0.077       -9999.25    -0.105      0.04        
39.2        0.244       -9999.25    1.278       1.49        -9999.25    0.067       1.012       38.991      -9999.25    227.96      2.096       2.725       0.251       0.078       -9999.25    -0.105      0.056       
39.3        0.244       -9999.25    1.285       1.492       -9999.25    0.067       1.007       38.6        -9999.25    227.825     2.115       2.76        0.247       0.08        0.208       -0.105      0.04        
39.4        0.244       -9999.25    1.299       1.492       -9999.25    0.067       1.003       38.429      -9999.25    227.875     2.137       2.905       0.242       0.082       0.188       -0.105      0.043       
39.5        0.244       -9999.25    1.306       1.493       -9999.25    0.066       0.998       38.517      -9999.25    228.189     2.158       3.059       0.238       0.083       0.192       -0.105      0.052       
39.6        0.243       -9999.25    1.288       1.493       -9999.25    0.066       0.992       38.703      -9999.25    228.243     2.173       3.213       0.233       0.083       0.185       -0.105      0.054       
39.7        0.242       -9999.25    1.254       1.494       -9999.25    0.065       0.988       38.894      -9999.25    228.245     2.183       3.353       0.228       0.083       0.182       -0.105      0.057       
39.8        0.241       -9999.25    1.222       1.494       -9999.25    0.064       0.983       39.01       -9999.25    228.128     2.191       3.546       0.224       0.084       0.193       -0.104      0.055       
39.9        0.24        -9999.25    1.209       1.484       -9999.25    0.064       0.979       39.068      -9999.25    228.23      2.191       3.631       0.219       0.084       0.193       -0.103      0.055       
40.0        0.239       -9999.25    1.21        1.462       91.006      0.065       0.975       39.203      -9999.25    228.255     2.182       3.927       0.216       0.084       0.195       -0.103      0.055       
40.1        0.239       -9999.25    1.201       1.436       90.676      0.065       0.971       39.401      -9999.25    228.278     2.172       4.219       0.213       0.084       0.196       -0.103      0.053       
40.2        0.238       -9999.25    1.193       1.41        90.355      0.065       0.966       39.893      -9999.25    228.278     2.16        4.492       0.21        0.084       0.196       -0.103      0.051       
40.3        0.238       -9999.25    1.183       1.387       90.046      0.064       0.962       40.741      -9999.25    228.167     2.147       4.693       0.208       0.084       0.198       -0.103      0.048       
40.4        0.238       -9999.25    1.162       1.365       89.754      0.064       0.958       41.704      -9999.25    228.0       2.142       5.085       0.206       0.085       0.199       -0.104      0.045       
40.5        0.238       -9999.25    1.159       1.346       89.483      0.064       0.955       42.628      -9999.25    228.119     2.144       5.265       0.204       0.085       0.2         -0.106      0.043       
40.6        0.239       -9999.25    1.181       1.339       89.235      0.064       0.952       43.464      -9999.25    228.067     2.147       5.288       0.202       0.086       0.2         -0.108      0.043       
40.7        0.24        -9999.25    1.206       1.339       88.456      0.064       0.95        44.255      -9999.25    228.027     2.15        5.303       0.2         0.087       0.201       -0.109      0.043       
