~Version Information Section
VERS.                                         2.0:CWLS log ASCII Standart – VERSION 2.0
WRAP.                                          NO:One line per depth step
~Well Information Section
STRT.M                                        0.1:Начальная глубина
STOP.M                                      206.3:Конечная глубина
STEP.M                                          0:Шаг квантования по глубине
NULL.                                    -9999.25:Признак "Нет данных"
WELL.                                        141К:Скважина
~Parameter Information Section
~Curve Information Section
DEPTH.M                                          :Глубина
N0.5M2.0A.Омм                                    :GZR   ГЗK(N0.5M2.0A)
ИК.мСм/м                                         :IK
НГК.усл.ед                                       :NGK     (НГК)
ННКМ.усл.ед                                      :NNKm  (ННКм)
ПС.mv                                            :PS       (ПС)
N11.0M0.5A.Омм                                   :PZ    (КС)
R.Омм                                            :RS (Резистивиметр)
КП.%                                             :W
БК.Омм                                           :BK     (БК)
DСР.мм                                           :DS  (ДС)
ПЛОТНОСТЬ.г/см^3                                 :GGKp
ГК.гамма                                         :GK          (ГК)
А0.4М0.1N.Омм                                    :GZ1   ГЗ1(A0.4M0.1N)
А1.0М0.1N.Омм                                    :GZ2   ГЗ2(A1.0M0.1N)
А2.0М0.5N.Омм                                    :GZ3   ГЗ3(A2.0M0.5N)
А4.0М0.5N.Oмм                                    :GZ4   ГЗ4(A4.0M0.5N)
А8.0М1.0N.Омм                                    :GZ5   ГЗ5(A8.0M0.5N)
~ASCII LOG DATA
# ...
196.2       -9999.25    14.515      1.622       2.089       74.084      12.054      -9999.25    27.715      11.875      162.033     2.314       9.363       13.468      10.475      13.801      -9999.25    7.817       
196.3       -9999.25    14.604      1.669       2.105       74.229      12.054      -9999.25    27.501      11.521      163.75      2.321       9.232       13.468      10.473      14.026      -9999.25    7.844       
196.4       -9999.25    14.692      1.716       2.144       74.334      12.054      -9999.25    27.21       10.922      165.802     2.329       9.057       13.468      10.472      14.202      -9999.25    7.854       
196.5       -9999.25    14.752      1.763       2.193       74.404      12.054      -9999.25    26.875      11.677      168.903     2.337       8.945       13.468      10.47       14.309      -9999.25    7.862       
196.6       -9999.25    14.761      1.772       2.25        74.445      12.054      -9999.25    26.586      17.196      162.111     2.348       8.897       13.468      10.469      14.351      -9999.25    7.866       
196.7       -9999.25    14.761      1.759       2.301       74.465      12.053      -9999.25    26.404      30.583      156.402     2.363       9.067       13.468      10.468      14.363      -9999.25    7.868       
196.8       -9999.25    14.761      1.744       2.305       74.478      12.053      -9999.25    26.434      25.285      157.588     2.378       9.327       13.468      10.467      14.37       -9999.25    7.868       
196.9       -9999.25    14.746      1.713       2.257       74.498      12.052      -9999.25    26.794      15.141      161.034     2.387       9.803       13.468      10.465      14.372      -9999.25    7.868       
197.0       -9999.25    14.673      1.642       2.178       74.541      12.05       -9999.25    27.406      12.756      162.029     2.384       10.269      13.468      10.463      14.372      -9999.25    7.867       
197.1       -9999.25    14.532      1.575       2.087       74.614      12.049      -9999.25    28.191      11.37       166.439     2.372       10.45       13.469      10.461      14.372      -9999.25    7.866       
197.2       -9999.25    14.347      1.531       2.014       74.723      12.052      -9999.25    29.119      12.081      164.571     2.354       10.502      13.469      10.458      14.372      -9999.25    7.865       
197.3       -9999.25    14.174      1.488       1.983       74.871      12.035      -9999.25    30.058      15.027      162.557     2.335       10.46       13.469      10.456      14.371      -9999.25    7.863       
197.4       -9999.25    14.049      1.439       1.97        75.055      -9999.25    -9999.25    30.936      15.094      164.079     2.322       10.226      13.469      10.454      14.37       -9999.25    7.863       
197.5       -9999.25    13.968      1.423       1.966       75.265      -9999.25    -9999.25    31.699      12.906      163.351     2.313       9.871       13.469      10.452      14.368      -9999.25    7.862       
197.6       -9999.25    13.929      1.43        1.96        75.491      -9999.25    -9999.25    32.342      13.447      158.013     2.305       9.726       13.452      10.451      14.367      -9999.25    7.862       
197.7       -9999.25    13.914      1.421       1.949       75.723      -9999.25    -9999.25    32.88       13.796      156.104     2.297       9.584       -9999.25    10.45       14.365      -9999.25    7.86        
197.8       -9999.25    13.898      1.407       1.939       75.953      -9999.25    -9999.25    33.251      13.833      156.008     2.289       9.517       -9999.25    10.45       14.364      -9999.25    7.858       
197.9       -9999.25    13.896      1.421       1.932       76.177      -9999.25    -9999.25    33.355      13.463      156.519     2.279       9.519       -9999.25    10.44       14.363      -9999.25    7.853       
198.0       -9999.25    13.908      1.437       1.932       76.382      -9999.25    -9999.25    33.302      13.102      155.666     2.267       9.655       -9999.25    10.442      14.361      -9999.25    7.849       
198.1       -9999.25    13.913      1.443       1.947       76.559      -9999.25    -9999.25    33.207      14.076      155.005     2.258       9.826       -9999.25    10.46       14.359      -9999.25    7.844       
198.2       -9999.25    13.898      1.464       1.968       76.699      -9999.25    -9999.25    33.047      15.574      149.428     2.252       10.05       -9999.25    10.454      14.358      -9999.25    7.84        
198.3       -9999.25    13.868      1.508       1.981       76.797      -9999.25    -9999.25    32.838      17.634      147.391     2.251       10.217      -9999.25    -9999.25    14.356      -9999.25    7.838       
198.4       -9999.25    13.843      1.534       1.986       76.856      -9999.25    -9999.25    32.643      17.541      148.418     2.255       10.408      -9999.25    -9999.25    14.354      -9999.25    7.838       
198.5       -9999.25    13.828      1.536       1.972       76.881      -9999.25    -9999.25    32.536      14.099      151.186     2.261       10.6        -9999.25    -9999.25    14.353      -9999.25    7.838       
198.6       -9999.25    13.816      1.53        1.941       76.881      -9999.25    -9999.25    32.712      12.131      156.957     2.268       10.976      -9999.25    -9999.25    14.352      -9999.25    7.838       
198.7       -9999.25    13.785      1.514       1.908       76.864      -9999.25    -9999.25    33.179      11.857      158.694     2.274       11.223      -9999.25    -9999.25    14.351      -9999.25    7.838       
198.8       -9999.25    13.721      1.487       1.885       76.843      -9999.25    -9999.25    33.718      11.834      159.947     2.278       11.313      -9999.25    -9999.25    14.349      -9999.25    7.839       
198.9       -9999.25    13.628      1.465       1.879       76.823      -9999.25    -9999.25    34.203      12.237      158.636     2.278       11.302      -9999.25    -9999.25    14.349      -9999.25    7.848       
199.0       -9999.25    13.53       1.458       1.891       76.807      -9999.25    -9999.25    34.525      13.558      160.244     2.277       11.207      -9999.25    -9999.25    14.347      -9999.25    7.851       
199.1       -9999.25    13.452      1.459       1.904       76.8        -9999.25    -9999.25    34.678      13.563      160.255     2.274       10.939      -9999.25    -9999.25    14.343      -9999.25    7.86        
199.2       -9999.25    13.394      1.453       1.911       76.806      -9999.25    -9999.25    34.732      13.245      160.348     2.267       10.779      -9999.25    -9999.25    14.338      -9999.25    7.841       
199.3       -9999.25    13.348      1.442       1.91        77.042      -9999.25    -9999.25    34.572      13.16       160.588     2.261       10.982      -9999.25    -9999.25    14.346      -9999.25    -9999.25    
199.4       -9999.25    13.314      1.433       1.901       77.328      -9999.25    -9999.25    34.108      13.133      158.22      2.26        11.243      -9999.25    -9999.25    14.337      -9999.25    -9999.25    
199.5       -9999.25    13.293      1.418       1.893       77.414      -9999.25    -9999.25    33.536      13.176      160.88      2.264       11.153      -9999.25    -9999.25    -9999.25    -9999.25    -9999.25    
199.6       -9999.25    13.28       1.397       1.89        77.63       -9999.25    -9999.25    33.039      13.237      163.074     2.272       11.069      -9999.25    -9999.25    -9999.25    -9999.25    -9999.25    
199.7       -9999.25    13.267      1.396       1.89        77.718      -9999.25    -9999.25    32.645      13.245      162.499     2.284       11.116      -9999.25    -9999.25    -9999.25    -9999.25    -9999.25    
199.8       -9999.25    13.249      1.414       1.889       77.825      -9999.25    -9999.25    32.336      13.248      161.918     2.292       10.958      -9999.25    -9999.25    -9999.25    -9999.25    -9999.25    
