~Version Information Section
VERS.                                         2.0:CWLS log ASCII Standart – VERSION 2.0
WRAP.                                          NO:One line per depth step
~Well Information Section
STRT.M                                      -0.81:Начальная глубина
STOP.M                                     196.49:Конечная глубина
STEP.M                                          0:Шаг квантования по глубине
NULL.                                    -9999.25:Признак "Нет данных"
WELL.                                        145К:Скважина
~Parameter Information Section
~Curve Information Section
DEPTH.M                                          :Глубина
BK.Ohm*M                                         :BK     (БК)
DS.mm                                            :DS  (ДС)
GGK.g/cm3                                        :GGKp
ГК.mcr/h                                         :GK          (ГК)
GZ1.Ohm*M                                        :GZ1   ГЗ1(A0.4M0.1N)
GZ2.Ohm*M                                        :GZ2   ГЗ2(A1.0M0.1N)
GZ3.Ohm*M                                        :GZ3   ГЗ3(A2.0M0.5N)
GZ4.Ohm*M                                        :GZ4   ГЗ4(A4.0M0.5N)
GZ5.Ohm*M                                        :GZ5   ГЗ5(A8.0M0.5N)
GZR.                                             :GZR   ГЗK(N0.5M2.0A)
ИК.Ohm*M                                         :IK
НГК.ue                                           :NGK     (НГК)
RS.Ohm*M                                         :RS (Резистивиметр)
NNKM.                                            :NNKm  (ННКм)
PS.mv                                            :PS       (ПС)
PZ.Ohm*M                                         :PZ    (КС)
W.%                                              :W
~ASCII LOG DATA
# ...
93.39       24.947      228.297     2.189       4.612       -9999.25    -9999.25    -9999.25    -9999.25    -9999.25    -9999.25    22.831      1.166       1.609       1.568       92.24       21.965      36.426      
93.4        -9999.25    -9999.25    -9999.25    -9999.25    23.82       23.708      26.687      34.061      14.932      42.953      -9999.25    -9999.25    -9999.25    -9999.25    -9999.25    -9999.25    -9999.25    
93.49       31.524      228.602     2.184       5.065       -9999.25    -9999.25    -9999.25    -9999.25    -9999.25    -9999.25    23.062      1.145       1.609       1.616       92.079      21.976      36.486      
93.5        -9999.25    -9999.25    -9999.25    -9999.25    25.169      25.829      27.047      34.017      14.932      43.975      -9999.25    -9999.25    -9999.25    -9999.25    -9999.25    -9999.25    -9999.25    
93.59       35.128      222.518     2.176       5.137       -9999.25    -9999.25    -9999.25    -9999.25    -9999.25    -9999.25    23.296      1.121       1.609       1.592       91.418      21.987      35.762      
93.6        -9999.25    -9999.25    -9999.25    -9999.25    26.612      25.604      26.626      33.258      14.932      44.03       -9999.25    -9999.25    -9999.25    -9999.25    -9999.25    -9999.25    -9999.25    
93.69       34.71       215.291     2.17        4.824       -9999.25    -9999.25    -9999.25    -9999.25    -9999.25    -9999.25    23.514      1.136       1.6         1.545       90.215      22.046      35.487      
93.7        -9999.25    -9999.25    -9999.25    -9999.25    27.108      23.686      25.781      32.235      14.676      43.447      -9999.25    -9999.25    -9999.25    -9999.25    -9999.25    -9999.25    -9999.25    
93.79       34.431      212.893     2.173       4.54        -9999.25    -9999.25    -9999.25    -9999.25    -9999.25    -9999.25    23.695      1.159       1.582       1.563       88.967      22.102      35.921      
93.8        -9999.25    -9999.25    -9999.25    -9999.25    26.785      21.91       24.786      30.474      13.923      42.461      -9999.25    -9999.25    -9999.25    -9999.25    -9999.25    -9999.25    -9999.25    
93.89       34.108      212.515     2.182       4.499       -9999.25    -9999.25    -9999.25    -9999.25    -9999.25    -9999.25    23.853      1.136       1.561       1.595       87.907      22.132      34.851      
93.9        -9999.25    -9999.25    -9999.25    -9999.25    26.721      20.507      23.27       27.685      12.887      42.667      -9999.25    -9999.25    -9999.25    -9999.25    -9999.25    -9999.25    -9999.25    
93.99       37.913      212.514     2.191       4.569       -9999.25    -9999.25    -9999.25    -9999.25    -9999.25    -9999.25    24.021      1.102       1.543       1.692       87.076      22.241      33.264      
94.0        -9999.25    -9999.25    -9999.25    -9999.25    26.721      19.821      21.275      24.357      12.068      44.113      -9999.25    -9999.25    -9999.25    -9999.25    -9999.25    -9999.25    -9999.25    
94.09       57.077      212.818     2.2         4.689       -9999.25    -9999.25    -9999.25    -9999.25    -9999.25    -9999.25    24.205      1.133       1.536       1.796       86.53       22.564      32.292      
94.1        -9999.25    -9999.25    -9999.25    -9999.25    26.418      19.313      18.976      20.461      11.354      45.268      -9999.25    -9999.25    -9999.25    -9999.25    -9999.25    -9999.25    -9999.25    
94.19       74.647      213.527     2.206       5.096       -9999.25    -9999.25    -9999.25    -9999.25    -9999.25    -9999.25    24.342      1.184       1.535       1.709       86.287      22.776      30.528      
94.2        -9999.25    -9999.25    -9999.25    -9999.25    25.076      18.338      16.214      16.688      10.883      45.678      -9999.25    -9999.25    -9999.25    -9999.25    -9999.25    -9999.25    -9999.25    
94.29       68.789      213.624     2.209       5.457       -9999.25    -9999.25    -9999.25    -9999.25    -9999.25    -9999.25    24.396      1.163       1.535       1.59        86.239      22.709      28.871      
94.3        -9999.25    -9999.25    -9999.25    -9999.25    22.499      17.156      13.772      14.219      10.883      45.847      -9999.25    -9999.25    -9999.25    -9999.25    -9999.25    -9999.25    -9999.25    
94.39       40.243      213.723     2.212       6.15        -9999.25    -9999.25    -9999.25    -9999.25    -9999.25    -9999.25    24.406      1.108       1.535       1.519       86.236      22.662      29.574      
94.4        -9999.25    -9999.25    -9999.25    -9999.25    20.328      16.524      12.486      13.242      10.883      47.56       -9999.25    -9999.25    -9999.25    -9999.25    -9999.25    -9999.25    -9999.25    
94.49       28.836      213.728     2.217       6.581       -9999.25    -9999.25    -9999.25    -9999.25    -9999.25    -9999.25    24.454      1.088       1.548       1.464       86.236      22.724      31.93       
94.5        -9999.25    -9999.25    -9999.25    -9999.25    19.695      16.395      12.158      13.082      10.883      50.898      -9999.25    -9999.25    -9999.25    -9999.25    -9999.25    -9999.25    -9999.25    
94.59       23.533      213.443     2.221       6.798       -9999.25    -9999.25    -9999.25    -9999.25    -9999.25    -9999.25    24.576      1.091       1.505       1.441       86.217      23.002      34.433      
94.6        -9999.25    -9999.25    -9999.25    -9999.25    19.695      16.395      12.158      13.082      11.242      54.61       -9999.25    -9999.25    -9999.25    -9999.25    -9999.25    -9999.25    -9999.25    
94.69       21.706      213.076     2.22        6.627       -9999.25    -9999.25    -9999.25    -9999.25    -9999.25    -9999.25    24.716      1.099       1.5         1.425       86.191      23.447      35.401      
94.7        -9999.25    -9999.25    -9999.25    -9999.25    19.695      16.395      12.158      13.082      12.147      57.431      -9999.25    -9999.25    -9999.25    -9999.25    -9999.25    -9999.25    -9999.25    
94.79       20.89       212.755     2.214       5.938       -9999.25    -9999.25    -9999.25    -9999.25    -9999.25    -9999.25    24.869      1.112       1.5         1.47        86.183      23.705      34.919      
94.8        -9999.25    -9999.25    -9999.25    -9999.25    19.929      16.884      12.252      13.388      13.019      58.309      -9999.25    -9999.25    -9999.25    -9999.25    -9999.25    -9999.25    -9999.25    
94.89       21.331      212.437     2.202       5.322       -9999.25    -9999.25    -9999.25    -9999.25    -9999.25    -9999.25    25.142      1.131       1.5         1.518       86.112      23.729      34.334      
94.9        -9999.25    -9999.25    -9999.25    -9999.25    21.178      18.306      12.706      14.122      14.008      58.309      -9999.25    -9999.25    -9999.25    -9999.25    -9999.25    -9999.25    -9999.25    
94.99       25.187      212.143     2.186       4.814       -9999.25    -9999.25    -9999.25    -9999.25    -9999.25    -9999.25    25.652      1.165       1.5         1.548       85.875      23.729      33.84       
95.0        -9999.25    -9999.25    -9999.25    -9999.25    24.024      20.298      13.511      14.911      15.153      58.043      -9999.25    -9999.25    -9999.25    -9999.25    -9999.25    -9999.25    -9999.25    
95.09       33.813      211.504     2.171       4.804       -9999.25    -9999.25    -9999.25    -9999.25    -9999.25    -9999.25    26.541      1.185       1.5         1.568       85.443      23.735      33.525      
95.1        -9999.25    -9999.25    -9999.25    -9999.25    28.084      22.372      14.408      15.528      15.636      56.026      -9999.25    -9999.25    -9999.25    -9999.25    -9999.25    -9999.25    -9999.25    
95.19       41.877      211.006     2.163       4.828       -9999.25    -9999.25    -9999.25    -9999.25    -9999.25    -9999.25    27.866      1.187       1.5         1.611       84.914      24.106      34.66       
