~Version Information Section
VERS.                                         2.0:CWLS log ASCII Standart – VERSION 2.0
WRAP.                                          NO:One line per depth step
~Well Information Section
STRT.M                                      -0.81:Начальная глубина
STOP.M                                     196.49:Конечная глубина
STEP.M                                          0:Шаг квантования по глубине
NULL.                                    -9999.25:Признак "Нет данных"
WELL.                                        145К:Скважина
~Parameter Information Section
~Curve Information Section
DEPTH.M                                          :Глубина
BK.Ohm*M                                         :BK     (БК)
DS.mm                                            :DS  (ДС)
GGK.g/cm3                                        :GGKp
ГК.mcr/h                                         :GK          (ГК)
GZ1.Ohm*M                                        :GZ1   ГЗ1(A0.4M0.1N)
GZ2.Ohm*M                                        :GZ2   ГЗ2(A1.0M0.1N)
GZ3.Ohm*M                                        :GZ3   ГЗ3(A2.0M0.5N)
GZ4.Ohm*M                                        :GZ4   ГЗ4(A4.0M0.5N)
GZ5.Ohm*M                                        :GZ5   ГЗ5(A8.0M0.5N)
GZR.                                             :GZR   ГЗK(N0.5M2.0A)
ИК.Ohm*M                                         :IK
НГК.ue                                           :NGK     (НГК)
RS.Ohm*M                                         :RS (Резистивиметр)
NNKM.                                            :NNKm  (ННКм)
PS.mv                                            :PS       (ПС)
PZ.Ohm*M                                         :PZ    (КС)
W.%                                              :W
~ASCII LOG DATA
# ...
163.69      73.915      145.339     2.187       3.918       -9999.25    -9999.25    -9999.25    -9999.25    -9999.25    -9999.25    53.788      1.206       1.5         1.742       40.137      61.995      29.564      
163.7       -9999.25    -9999.25    -9999.25    -9999.25    62.905      51.25       44.434      41.361      29.003      81.679      -9999.25    -9999.25    -9999.25    -9999.25    -9999.25    -9999.25    -9999.25    
163.79      105.2       145.629     2.188       4.136       -9999.25    -9999.25    -9999.25    -9999.25    -9999.25    -9999.25    53.769      1.249       1.5         1.75        40.043      60.052      30.777      
163.8       -9999.25    -9999.25    -9999.25    -9999.25    64.606      50.531      43.106      40.891      29.519      86.675      -9999.25    -9999.25    -9999.25    -9999.25    -9999.25    -9999.25    -9999.25    
163.89      88.847      145.626     2.197       4.287       -9999.25    -9999.25    -9999.25    -9999.25    -9999.25    -9999.25    53.772      1.304       1.5         1.77        39.794      59.134      32.182      
163.9       -9999.25    -9999.25    -9999.25    -9999.25    67.429      50.175      42.367      40.747      30.242      91.929      -9999.25    -9999.25    -9999.25    -9999.25    -9999.25    -9999.25    -9999.25    
163.99      56.234      145.245     2.208       4.278       -9999.25    -9999.25    -9999.25    -9999.25    -9999.25    -9999.25    53.85       1.393       1.5         1.77        39.38       58.854      33.315      
164.0       -9999.25    -9999.25    -9999.25    -9999.25    68.592      49.284      42.16       40.747      31.118      98.041      -9999.25    -9999.25    -9999.25    -9999.25    -9999.25    -9999.25    -9999.25    
164.09      63.528      145.859     2.218       4.115       -9999.25    -9999.25    -9999.25    -9999.25    -9999.25    -9999.25    54.206      1.449       1.5         1.769       38.861      58.316      32.86       
164.1       -9999.25    -9999.25    -9999.25    -9999.25    68.632      48.749      42.16       40.751      32.119      105.065     -9999.25    -9999.25    -9999.25    -9999.25    -9999.25    -9999.25    -9999.25    
164.19      95.481      145.481     2.225       3.88        -9999.25    -9999.25    -9999.25    -9999.25    -9999.25    -9999.25    54.946      1.499       1.5         1.859       38.229      57.941      31.686      
164.2       -9999.25    -9999.25    -9999.25    -9999.25    70.189      49.905      42.16       41.042      33.354      112.133     -9999.25    -9999.25    -9999.25    -9999.25    -9999.25    -9999.25    -9999.25    
164.29      104.384     145.303     2.229       3.784       -9999.25    -9999.25    -9999.25    -9999.25    -9999.25    -9999.25    56.101      1.528       1.5         1.93        37.441      57.906      30.442      
164.3       -9999.25    -9999.25    -9999.25    -9999.25    72.906      52.424      42.63       41.482      34.816      118.554     -9999.25    -9999.25    -9999.25    -9999.25    -9999.25    -9999.25    -9999.25    
164.39      101.88      145.62      2.232       3.727       -9999.25    -9999.25    -9999.25    -9999.25    -9999.25    -9999.25    57.621      1.454       1.5         1.944       36.579      58.368      28.981      
164.4       -9999.25    -9999.25    -9999.25    -9999.25    74.288      54.817      43.662      41.78       36.437      124.757     -9999.25    -9999.25    -9999.25    -9999.25    -9999.25    -9999.25    -9999.25    
164.49      102.442     145.062     2.241       3.724       -9999.25    -9999.25    -9999.25    -9999.25    -9999.25    -9999.25    59.419      1.4         1.5         1.95        35.561      59.554      27.946      
164.5       -9999.25    -9999.25    -9999.25    -9999.25    75.306      56.878      44.749      42.34       38.054      131.189     -9999.25    -9999.25    -9999.25    -9999.25    -9999.25    -9999.25    -9999.25    
164.59      114.678     145.395     2.26        3.694       -9999.25    -9999.25    -9999.25    -9999.25    -9999.25    -9999.25    61.386      1.426       1.5         2.004       34.286      61.594      28.066      
164.6       -9999.25    -9999.25    -9999.25    -9999.25    76.781      58.878      45.703      43.126      39.667      137.878     -9999.25    -9999.25    -9999.25    -9999.25    -9999.25    -9999.25    -9999.25    
164.69      117.479     145.526     2.286       3.645       -9999.25    -9999.25    -9999.25    -9999.25    -9999.25    -9999.25    63.465      1.458       1.5         2.037       32.706      64.271      27.548      
164.7       -9999.25    -9999.25    -9999.25    -9999.25    77.941      60.707      46.776      43.926      41.269      145.194     -9999.25    -9999.25    -9999.25    -9999.25    -9999.25    -9999.25    -9999.25    
164.79      106.746     145.053     2.315       3.811       -9999.25    -9999.25    -9999.25    -9999.25    -9999.25    -9999.25    65.492      1.612       1.5         2.141       30.788      66.92       26.684      
164.8       -9999.25    -9999.25    -9999.25    -9999.25    78.423      61.918      47.85       44.882      42.771      153.28      -9999.25    -9999.25    -9999.25    -9999.25    -9999.25    -9999.25    -9999.25    
164.89      111.691     145.418     2.343       4.098       -9999.25    -9999.25    -9999.25    -9999.25    -9999.25    -9999.25    67.278      1.724       1.5         2.192       28.342      69.047      25.084      
164.9       -9999.25    -9999.25    -9999.25    -9999.25    86.474      63.705      48.792      46.124      44.077      161.468     -9999.25    -9999.25    -9999.25    -9999.25    -9999.25    -9999.25    -9999.25    
164.99      123.926     144.846     2.367       4.159       -9999.25    -9999.25    -9999.25    -9999.25    -9999.25    -9999.25    69.012      1.713       1.5         2.262       25.313      70.843      23.005      
165.0       -9999.25    -9999.25    -9999.25    -9999.25    104.76      66.842      49.828      47.494      45.272      168.783     -9999.25    -9999.25    -9999.25    -9999.25    -9999.25    -9999.25    -9999.25    
165.09      108.501     144.891     2.385       3.903       -9999.25    -9999.25    -9999.25    -9999.25    -9999.25    -9999.25    70.843      1.697       1.5         2.284       21.769      72.344      21.316      
165.1       -9999.25    -9999.25    -9999.25    -9999.25    125.778     70.665      51.301      48.89       46.386      174.464     -9999.25    -9999.25    -9999.25    -9999.25    -9999.25    -9999.25    -9999.25    
165.19      134.209     145.198     2.396       3.509       -9999.25    -9999.25    -9999.25    -9999.25    -9999.25    -9999.25    72.643      1.759       1.5         2.348       17.864      73.433      20.753      
165.2       -9999.25    -9999.25    -9999.25    -9999.25    146.828     75.695      52.994      50.355      47.281      178.321     -9999.25    -9999.25    -9999.25    -9999.25    -9999.25    -9999.25    -9999.25    
165.29      259.757     144.93      2.401       3.326       -9999.25    -9999.25    -9999.25    -9999.25    -9999.25    -9999.25    74.507      1.807       1.5         2.359       13.79       75.114      19.899      
165.3       -9999.25    -9999.25    -9999.25    -9999.25    165.87      82.1        54.734      51.73       48.003      181.364     -9999.25    -9999.25    -9999.25    -9999.25    -9999.25    -9999.25    -9999.25    
165.39      337.26      145.334     2.398       3.328       -9999.25    -9999.25    -9999.25    -9999.25    -9999.25    -9999.25    76.588      1.927       1.5         2.354       9.909       85.301      19.746      
165.4       -9999.25    -9999.25    -9999.25    -9999.25    176.073     88.736      56.79       52.885      48.75       184.88      -9999.25    -9999.25    -9999.25    -9999.25    -9999.25    -9999.25    -9999.25    
165.49      365.52      144.728     2.392       3.457       -9999.25    -9999.25    -9999.25    -9999.25    -9999.25    -9999.25    78.736      2.023       1.5         2.356       6.5         104.745     20.075      
